[
  {
    "service_request": "2022-911035",
    "request_type": "Abandoned Vehicles",
    "request_reason": "Abandoned/Junk Vehicles",
    "date_created": "2022-08-17T23:43:42.000",
    "date_modified": "2022-08-17T23:43:42.000",
    "request_status": "Pending",
    "responsible_agency": "Department of Public Works",
    "final_address": "2600 BLK Saint Philip St",
    "address_councildis": "D",
    "status": "Pending",
    "rowid": "911035",
    "final_x": "3677622.50528",
    "final_y": "537677.125877",
    "longitude": "-90.08010141773156",
    "latitude": "29.972542850988503",
    "geocoded_column": {
      "latitude": "29.972542850988503",
      "longitude": "-90.08010141773156"
    }
  },
  {
    "service_request": "2022-911034",
    "request_type": "Traffic Signals/Signs/Striping/Streetlights",
    "request_reason": "Street Light Outage/Malfunction",
    "date_created": "2022-08-17T23:02:34.000",
    "date_modified": "2022-08-17T23:02:35.000",
    "request_status": "Pending",
    "responsible_agency": "Department of Public Works",
    "final_address": "832 Roosevelt Pl",
    "address_councildis": "A",
    "status": "Pending",
    "contractor": "Legacy Professional Services",
    "rowid": "911034",
    "final_x": "3673602.96648",
    "final_y": "539888.123594",
    "longitude": "-90.09272026087697",
    "latitude": "29.978742611859023",
    "geocoded_column": {
      "latitude": "29.978742611859023",
      "longitude": "-90.09272026087697"
    }
  },
  {
    "service_request": "2022-911033",
    "request_type": "Trash/Recycling",
    "request_reason": "Request a Large Item Pick Up",
    "date_created": "2022-08-17T22:45:23.000",
    "date_modified": "2022-08-17T22:45:23.000",
    "request_status": "Pending",
    "responsible_agency": "Department of Sanitation",
    "final_address": "5718 Tchoupitoulas St",
    "address_councildis": "A",
    "status": "Assigned to Contractor",
    "contractor": "Richards Disposal",
    "rowid": "911033",
    "final_x": "3665280.28237",
    "final_y": "517194.385589",
    "longitude": "-90.1197656542545",
    "latitude": "29.91658731037719",
    "geocoded_column": {
      "latitude": "29.91658731037719",
      "longitude": "-90.1197656542545"
    }
  },
  {
    "service_request": "2022-911032",
    "request_type": "Roads/Drainage",
    "request_reason": "Catch Basin - Clogged",
    "date_created": "2022-08-17T22:42:20.000",
    "date_modified": "2022-08-17T22:42:20.000",
    "request_status": "Pending",
    "responsible_agency": "Department of Public Works",
    "final_address": "3502 S Tonti St",
    "address_councildis": "B",
    "status": "Pending",
    "rowid": "911032",
    "final_x": "3671184.07508",
    "final_y": "528260.998272",
    "longitude": "-90.10075507424078",
    "latitude": "29.946843684635024",
    "geocoded_column": {
      "latitude": "29.946843684635024",
      "longitude": "-90.10075507424078"
    }
  },
  {
    "service_request": "2022-911031",
    "request_type": "Property Maintenance",
    "request_reason": "Property Maintenance",
    "date_created": "2022-08-17T22:21:15.000",
    "date_modified": "2022-08-17T22:21:15.000",
    "request_status": "Pending",
    "responsible_agency": "Department of Code Enforcement",
    "final_address": "4445 Francis Dr",
    "address_councildis": "D",
    "status": "Pending",
    "rowid": "911031",
    "final_x": "3698447.9473",
    "final_y": "552845.17551",
    "longitude": "-90.01377967197922",
    "latitude": "30.013606668075052",
    "geocoded_column": {
      "latitude": "30.013606668075052",
      "longitude": "-90.01377967197922"
    }
  },
  {
    "service_request": "2022-911030",
    "request_type": "Trash/Recycling",
    "request_reason": "MIssed Recycling Pick-Up",
    "date_created": "2022-08-17T21:55:44.000",
    "date_modified": "2022-08-17T21:55:44.000",
    "request_status": "Pending",
    "responsible_agency": "Department of Sanitation",
    "final_address": "1701 Jena St Unit 1",
    "address_councildis": "B",
    "status": "Assigned to Contractor",
    "contractor": "Richards Disposal",
    "rowid": "911030",
    "final_x": "3670448.18318",
    "final_y": "521317.038841",
    "longitude": "-90.10331391387989",
    "latitude": "29.92777178592791",
    "geocoded_column": {
      "latitude": "29.92777178592791",
      "longitude": "-90.10331391387989"
    }
  },
  {
    "service_request": "2022-911028",
    "request_type": "Traffic Signals/Signs/Striping/Streetlights",
    "request_reason": "Street Light Outage/Malfunction",
    "date_created": "2022-08-17T21:25:31.000",
    "date_modified": "2022-08-17T21:25:32.000",
    "request_status": "Pending",
    "responsible_agency": "Department of Public Works",
    "final_address": "2228 Napoleon Ave",
    "address_councildis": "B",
    "status": "Pending",
    "contractor": "Legacy Professional Services",
    "rowid": "911028",
    "final_x": "3670529.01172",
    "final_y": "523214.011131",
    "longitude": "-90.1029944577261",
    "latitude": "29.932985465373612",
    "geocoded_column": {
      "latitude": "29.932985465373612",
      "longitude": "-90.1029944577261"
    }
  },
  {
    "service_request": "2022-911027",
    "request_type": "Abandoned Vehicles",
    "request_reason": "Abandoned/Junk Vehicles",
    "date_created": "2022-08-17T20:55:56.000",
    "date_modified": "2022-08-17T20:55:56.000",
    "request_status": "Pending",
    "responsible_agency": "Department of Public Works",
    "final_address": "5710 Patton St",
    "address_councildis": "A",
    "status": "Pending",
    "rowid": "911027",
    "final_x": "3665554.55757",
    "final_y": "518272.35135",
    "longitude": "-90.11886386300525",
    "latitude": "29.91954338930887",
    "geocoded_column": {
      "latitude": "29.91954338930887",
      "longitude": "-90.11886386300525"
    }
  },
  {
    "service_request": "2022-911026",
    "request_type": "Abandoned Vehicles",
    "request_reason": "Abandoned/Junk Vehicles",
    "date_created": "2022-08-17T20:46:28.000",
    "date_modified": "2022-08-17T20:46:28.000",
    "request_status": "Pending",
    "responsible_agency": "Department of Public Works",
    "final_address": "2218 Louisiana Ave",
    "address_councildis": "B",
    "status": "Pending",
    "rowid": "911026",
    "final_x": "3673225.65236",
    "final_y": "523639.195707",
    "longitude": "-90.09446683008913",
    "latitude": "29.934074692943746",
    "geocoded_column": {
      "latitude": "29.934074692943746",
      "longitude": "-90.09446683008913"
    }
  },
  {
    "service_request": "2022-911025",
    "request_type": "Property Maintenance",
    "request_reason": "Property Maintenance",
    "date_created": "2022-08-17T20:43:58.000",
    "date_modified": "2022-08-17T20:43:58.000",
    "request_status": "Pending",
    "responsible_agency": "Department of Code Enforcement",
    "final_address": "2234 Louisiana Ave",
    "address_councildis": "B",
    "status": "Pending",
    "rowid": "911025",
    "final_x": "3673173.85972",
    "final_y": "523741.448891",
    "longitude": "-90.09462684807384",
    "latitude": "29.93435739569208",
    "geocoded_column": {
      "latitude": "29.93435739569208",
      "longitude": "-90.09462684807384"
    }
  },
  {
    "service_request": "2022-911024",
    "request_type": "Property Maintenance",
    "request_reason": "Property Maintenance",
    "date_created": "2022-08-17T20:42:59.000",
    "date_modified": "2022-08-17T20:42:59.000",
    "request_status": "Pending",
    "responsible_agency": "Department of Code Enforcement",
    "final_address": "2234 Louisiana Ave",
    "address_councildis": "B",
    "status": "Pending",
    "rowid": "911024",
    "final_x": "3673173.85972",
    "final_y": "523741.448891",
    "longitude": "-90.09462684807384",
    "latitude": "29.93435739569208",
    "geocoded_column": {
      "latitude": "29.93435739569208",
      "longitude": "-90.09462684807384"
    }
  },
  {
    "service_request": "2022-911023",
    "request_type": "Traffic Signals/Signs/Striping/Streetlights",
    "request_reason": "Street Light Outage/Malfunction",
    "date_created": "2022-08-17T20:38:51.000",
    "date_modified": "2022-08-17T20:38:52.000",
    "request_status": "Pending",
    "responsible_agency": "Department of Public Works",
    "final_address": "6240 Argonne Blvd",
    "address_councildis": "A",
    "status": "Pending",
    "contractor": "Legacy Professional Services",
    "rowid": "911023",
    "final_x": "3670229.76026",
    "final_y": "548824.975187",
    "longitude": "-90.10307108597524",
    "latitude": "30.003415871420682",
    "geocoded_column": {
      "latitude": "30.003415871420682",
      "longitude": "-90.10307108597524"
    }
  },
  {
    "service_request": "2022-911022",
    "request_type": "Traffic Signals/Signs/Striping/Streetlights",
    "request_reason": "Street Light Outage/Malfunction",
    "date_created": "2022-08-17T20:36:37.000",
    "date_modified": "2022-08-17T20:36:37.000",
    "request_status": "Pending",
    "responsible_agency": "Department of Public Works",
    "final_address": "6050 Argonne Blvd",
    "address_councildis": "A",
    "status": "Pending",
    "contractor": "Legacy Professional Services",
    "rowid": "911022",
    "final_x": "3670131.75054",
    "final_y": "547505.855826",
    "longitude": "-90.10342544543794",
    "latitude": "29.999791645685274",
    "geocoded_column": {
      "latitude": "29.999791645685274",
      "longitude": "-90.10342544543794"
    }
  },
  {
    "service_request": "2022-911021",
    "request_type": "Trash/Recycling",
    "request_reason": "Request a Large Item Pick Up",
    "date_created": "2022-08-17T20:24:43.000",
    "date_modified": "2022-08-17T20:24:44.000",
    "request_status": "Pending",
    "responsible_agency": "Department of Sanitation",
    "final_address": "3107 Cleveland Ave",
    "address_councildis": "B",
    "status": "Assigned to Contractor",
    "contractor": "Richards Disposal",
    "rowid": "911021",
    "final_x": "3673808.29595",
    "final_y": "535849.375751",
    "longitude": "-90.09220991834597",
    "latitude": "29.967631312508686",
    "geocoded_column": {
      "latitude": "29.967631312508686",
      "longitude": "-90.09220991834597"
    }
  },
  {
    "service_request": "2022-911020",
    "request_type": "Traffic Signals/Signs/Striping/Streetlights",
    "request_reason": "Traffic Sign Missing/Damaged",
    "date_created": "2022-08-17T20:21:12.000",
    "date_modified": "2022-08-17T20:21:13.000",
    "request_status": "Pending",
    "responsible_agency": "Department of Public Works",
    "final_address": "N CLAIBORNE AVE & PAINTERS ST",
    "address_councildis": "D",
    "status": "Pending",
    "rowid": "911020",
    "final_x": "3687424.4",
    "final_y": "538353.18",
    "longitude": "-90.04912142405344",
    "latitude": "29.974103343531617",
    "geocoded_column": {
      "latitude": "29.974103343531617",
      "longitude": "-90.04912142405344"
    }
  },
  {
    "service_request": "2022-911019",
    "request_type": "Trash/Recycling",
    "request_reason": "MIssed Recycling Pick-Up",
    "date_created": "2022-08-17T20:00:06.000",
    "date_modified": "2022-08-17T20:00:07.000",
    "request_status": "Pending",
    "responsible_agency": "Department of Sanitation",
    "final_address": "1604 Robert C. Blakes, Sr. Dr",
    "address_councildis": "B",
    "status": "Assigned to Contractor",
    "contractor": "Richards Disposal",
    "rowid": "911019",
    "final_x": "3678647.1204",
    "final_y": "525437.572413",
    "longitude": "-90.07728922277693",
    "latitude": "29.938857347755224",
    "geocoded_column": {
      "latitude": "29.938857347755224",
      "longitude": "-90.07728922277693"
    }
  },
  {
    "service_request": "2022-911018",
    "request_type": "Abandoned Vehicles",
    "request_reason": "Abandoned/Junk Vehicles",
    "date_created": "2022-08-17T19:52:56.000",
    "date_modified": "2022-08-17T19:52:56.000",
    "request_status": "Pending",
    "responsible_agency": "Department of Public Works",
    "final_address": "215 N Tonti St",
    "address_councildis": "B",
    "status": "Pending",
    "rowid": "911018",
    "final_x": "3676697.55323",
    "final_y": "534807.376966",
    "longitude": "-90.08312147170945",
    "latitude": "29.96467980199145",
    "geocoded_column": {
      "latitude": "29.96467980199145",
      "longitude": "-90.08312147170945"
    }
  },
  {
    "service_request": "2022-911017",
    "request_type": "Trash/Recycling",
    "request_reason": "Repair Trash Cart",
    "date_created": "2022-08-17T19:45:03.000",
    "date_modified": "2022-08-17T19:45:04.000",
    "request_status": "Pending",
    "responsible_agency": "Department of Sanitation",
    "final_address": "9008 Colapissa St",
    "address_councildis": "A",
    "status": "Assigned to Contractor",
    "contractor": "Richards Disposal",
    "rowid": "911017",
    "final_x": "3664096.94362",
    "final_y": "535573.398214",
    "longitude": "-90.12288794622961",
    "latitude": "29.967158125866344",
    "geocoded_column": {
      "latitude": "29.967158125866344",
      "longitude": "-90.12288794622961"
    }
  },
  {
    "service_request": "2022-911016",
    "request_type": "Trash/Recycling",
    "request_reason": "Order Trash Cart",
    "date_created": "2022-08-17T19:41:06.000",
    "date_modified": "2022-08-17T19:41:07.000",
    "request_status": "Pending",
    "responsible_agency": "Department of Sanitation",
    "final_address": "11308 King Richard Dr",
    "address_councildis": "E",
    "status": "Assigned to Contractor",
    "contractor": "Metro Disposal",
    "rowid": "911016",
    "final_x": "3717314.2334",
    "final_y": "556428.16009",
    "longitude": "-89.95403647609145",
    "latitude": "30.02284756597243",
    "geocoded_column": {
      "latitude": "30.02284756597243",
      "longitude": "-89.95403647609145"
    }
  },
  {
    "service_request": "2022-911015",
    "request_type": "Trash/Recycling",
    "request_reason": "Missed Trash Pick-Up",
    "date_created": "2022-08-17T19:30:29.000",
    "date_modified": "2022-08-17T19:30:30.000",
    "request_status": "Pending",
    "responsible_agency": "Department of Sanitation",
    "final_address": "8060 Morrison Rd",
    "address_councildis": "E",
    "status": "Assigned to Contractor",
    "contractor": "Metro Disposal",
    "rowid": "911015",
    "final_x": "3702228.30231",
    "final_y": "560060.135645",
    "longitude": "-90.00157086098568",
    "latitude": "30.033324785365796",
    "geocoded_column": {
      "latitude": "30.033324785365796",
      "longitude": "-90.00157086098568"
    }
  },
  {
    "service_request": "2022-911013",
    "request_type": "Trash/Recycling",
    "request_reason": "MIssed Recycling Pick-Up",
    "date_created": "2022-08-17T19:27:32.000",
    "date_modified": "2022-08-17T19:27:32.000",
    "request_status": "Pending",
    "responsible_agency": "Department of Sanitation",
    "final_address": "DESOTO ST & N LOPEZ ST",
    "address_councildis": "A",
    "status": "Assigned to Contractor",
    "contractor": "Richards Disposal",
    "rowid": "911013",
    "final_x": "3676414.6",
    "final_y": "539829.98",
    "longitude": "-90.08384206110324",
    "latitude": "29.978498732840315",
    "geocoded_column": {
      "latitude": "29.978498732840315",
      "longitude": "-90.08384206110324"
    }
  },
  {
    "service_request": "2022-911012",
    "request_type": "Traffic Signals/Signs/Striping/Streetlights",
    "request_reason": "Street Light Knocked Down/Leaning",
    "date_created": "2022-08-17T19:26:31.000",
    "date_modified": "2022-08-17T19:26:31.000",
    "request_status": "Pending",
    "responsible_agency": "Department of Public Works",
    "final_address": "5000 Woodland Dr",
    "address_councildis": "C",
    "status": "Pending",
    "contractor": "Legacy Professional Services",
    "rowid": "911012",
    "final_x": "3706126.56151",
    "final_y": "512999.697457",
    "longitude": "-89.99099424165844",
    "latitude": "29.903800647355098",
    "geocoded_column": {
      "latitude": "29.903800647355098",
      "longitude": "-89.99099424165844"
    }
  },
  {
    "service_request": "2022-911011",
    "request_type": "Trash/Recycling",
    "request_reason": "Request a Large Item Pick Up",
    "date_created": "2022-08-17T19:23:52.000",
    "date_modified": "2022-08-17T19:23:53.000",
    "request_status": "Pending",
    "responsible_agency": "Department of Sanitation",
    "final_address": "3611 Rue Nichole",
    "address_councildis": "C",
    "status": "Assigned to Contractor",
    "contractor": "Richards Disposal",
    "rowid": "911011",
    "final_x": "3703936.42058",
    "final_y": "517311.340725",
    "longitude": "-89.99774767545854",
    "latitude": "29.915726560347572",
    "geocoded_column": {
      "latitude": "29.915726560347572",
      "longitude": "-89.99774767545854"
    }
  },
  {
    "service_request": "2022-911010",
    "request_type": "Trash/Recycling",
    "request_reason": "Repair Recycling Cart",
    "date_created": "2022-08-17T19:01:49.000",
    "date_modified": "2022-08-17T19:01:49.000",
    "request_status": "Pending",
    "responsible_agency": "Department of Sanitation",
    "final_address": "2541 Orleans Ave",
    "address_councildis": "D",
    "status": "Pending",
    "rowid": "911010",
    "final_x": "3677363.11221",
    "final_y": "536654.564551",
    "longitude": "-90.08095592499721",
    "latitude": "29.96973895512917",
    "geocoded_column": {
      "latitude": "29.96973895512917",
      "longitude": "-90.08095592499721"
    }
  },
  {
    "service_request": "2022-911009",
    "request_type": "Trash/Recycling",
    "request_reason": "Replace Trash Cart",
    "date_created": "2022-08-17T19:01:47.000",
    "date_modified": "2022-08-17T19:01:47.000",
    "request_status": "Pending",
    "responsible_agency": "Department of Sanitation",
    "final_address": "1308 Reynes St",
    "address_councildis": "E",
    "status": "Assigned to Contractor",
    "contractor": "Metro Disposal",
    "rowid": "911009",
    "final_x": "3696118.19146",
    "final_y": "535107.68967",
    "longitude": "-90.02178190793619",
    "latitude": "29.964908622977063",
    "geocoded_column": {
      "latitude": "29.964908622977063",
      "longitude": "-90.02178190793619"
    }
  },
  {
    "service_request": "2022-911008",
    "request_type": "Parks & Parkways",
    "request_reason": "Request Tree Service (Right of Way/Public Property)",
    "date_created": "2022-08-17T18:57:13.000",
    "date_modified": "2022-08-17T18:57:13.000",
    "request_status": "Pending",
    "responsible_agency": "Department of Parks & Parkway",
    "final_address": "LAKE FOREST BLVD & MAYO RD",
    "address_councildis": "E",
    "status": "Pending",
    "rowid": "911008",
    "final_x": "3702502.5",
    "final_y": "556568.19",
    "longitude": "-90.00083269889926",
    "latitude": "30.023714521944257",
    "geocoded_column": {
      "latitude": "30.023714521944257",
      "longitude": "-90.00083269889926"
    }
  },
  {
    "service_request": "2022-911007",
    "request_type": "Trash/Recycling",
    "request_reason": "Missed Trash Pick-Up",
    "date_created": "2022-08-17T18:53:12.000",
    "date_modified": "2022-08-17T18:53:13.000",
    "request_status": "Pending",
    "responsible_agency": "Department of Sanitation",
    "final_address": "7937 Olive St",
    "address_councildis": "B",
    "status": "Assigned to Contractor",
    "contractor": "Richards Disposal",
    "rowid": "911007",
    "final_x": "3667652.89652",
    "final_y": "533851.895365",
    "longitude": "-90.11171613690854",
    "latitude": "29.96232079461137",
    "geocoded_column": {
      "latitude": "29.96232079461137",
      "longitude": "-90.11171613690854"
    }
  },
  {
    "service_request": "2022-911006",
    "request_type": "Parks & Parkways",
    "request_reason": "Request Tree Service (Right of Way/Public Property)",
    "date_created": "2022-08-17T18:46:17.000",
    "date_modified": "2022-08-17T18:58:23.000",
    "case_close_date": "2022-08-17T13:58:23.000",
    "request_status": "Closed",
    "responsible_agency": "Department of Parks & Parkway",
    "final_address": "LAKE FOREST BLVD & MAYO RD",
    "address_councildis": "E",
    "status": "Duplicate Request",
    "rowid": "911006",
    "final_x": "3702502.5",
    "final_y": "556568.19",
    "longitude": "-90.00083269889926",
    "latitude": "30.023714521944257",
    "geocoded_column": {
      "latitude": "30.023714521944257",
      "longitude": "-90.00083269889926"
    }
  },
  {
    "service_request": "2022-911005",
    "request_type": "Trash/Recycling",
    "request_reason": "Missed Trash Pick-Up",
    "date_created": "2022-08-17T18:41:12.000",
    "date_modified": "2022-08-17T18:41:12.000",
    "request_status": "Pending",
    "responsible_agency": "Department of Sanitation",
    "final_address": "508 Millaudon St, New Orleans, Louisiana, 70118",
    "address_councildis": "A",
    "status": "Assigned to Contractor",
    "contractor": "Richards Disposal",
    "rowid": "911005",
    "final_x": "3662156.72192",
    "final_y": "525044.984253",
    "longitude": "-90.12936457079851",
    "latitude": "29.93826459526661",
    "geocoded_column": {
      "latitude": "29.93826459526661",
      "longitude": "-90.12936457079851"
    }
  },
  {
    "service_request": "2022-911004",
    "request_type": "Trash/Recycling",
    "request_reason": "Request a Large Item Pick Up",
    "date_created": "2022-08-17T18:27:04.000",
    "date_modified": "2022-08-17T18:27:05.000",
    "request_status": "Pending",
    "responsible_agency": "Department of Sanitation",
    "final_address": "116 S Norman C Francis Prkwy",
    "address_councildis": "B",
    "status": "Assigned to Contractor",
    "contractor": "Richards Disposal",
    "rowid": "911004",
    "final_x": "3673190.94484",
    "final_y": "536466.169991",
    "longitude": "-90.09413846596073",
    "latitude": "29.969345660835803",
    "geocoded_column": {
      "latitude": "29.969345660835803",
      "longitude": "-90.09413846596073"
    }
  },
  {
    "service_request": "2022-911003",
    "request_type": "Traffic Signals/Signs/Striping/Streetlights",
    "request_reason": "Street Light Outage/Malfunction",
    "date_created": "2022-08-17T18:17:05.000",
    "date_modified": "2022-08-17T18:17:06.000",
    "request_status": "Pending",
    "responsible_agency": "Department of Public Works",
    "final_address": "1507 N Tonti St",
    "address_councildis": "D",
    "status": "Pending",
    "contractor": "Legacy Professional Services",
    "rowid": "911003",
    "final_x": "3679803.14127",
    "final_y": "538808.607049",
    "longitude": "-90.07317528005534",
    "latitude": "29.97558827414173",
    "geocoded_column": {
      "latitude": "29.97558827414173",
      "longitude": "-90.07317528005534"
    }
  },
  {
    "service_request": "2022-911002",
    "request_type": "Trash/Recycling",
    "request_reason": "Request a Large Item Pick Up",
    "date_created": "2022-08-17T18:17:03.000",
    "date_modified": "2022-08-17T18:17:04.000",
    "request_status": "Pending",
    "responsible_agency": "Department of Sanitation",
    "final_address": "2316 Camp St",
    "address_councildis": "B",
    "status": "Assigned to Contractor",
    "contractor": "Richards Disposal",
    "rowid": "911002",
    "final_x": "3678203.65384",
    "final_y": "522012.930362",
    "longitude": "-90.0788076727196",
    "latitude": "29.929454065795714",
    "geocoded_column": {
      "latitude": "29.929454065795714",
      "longitude": "-90.0788076727196"
    }
  },
  {
    "service_request": "2022-911001",
    "request_type": "Trash/Recycling",
    "request_reason": "Request a Large Item Pick Up",
    "date_created": "2022-08-17T18:13:47.000",
    "date_modified": "2022-08-17T18:13:48.000",
    "request_status": "Pending",
    "responsible_agency": "Department of Sanitation",
    "final_address": "1114 Crete St",
    "address_councildis": "A",
    "status": "Assigned to Contractor",
    "contractor": "Richards Disposal",
    "rowid": "911001",
    "final_x": "3677700.60859",
    "final_y": "538821.533961",
    "longitude": "-90.0798152144879",
    "latitude": "29.975687231380913",
    "geocoded_column": {
      "latitude": "29.975687231380913",
      "longitude": "-90.0798152144879"
    }
  },
  {
    "service_request": "2022-911000",
    "request_type": "Trash/Recycling",
    "request_reason": "MIssed Recycling Pick-Up",
    "date_created": "2022-08-17T18:12:26.000",
    "date_modified": "2022-08-17T18:12:27.000",
    "request_status": "Pending",
    "responsible_agency": "Department of Sanitation",
    "final_address": "917 Thalia St",
    "address_councildis": "B",
    "status": "Assigned to Contractor",
    "contractor": "Richards Disposal",
    "rowid": "911000",
    "final_x": "3681183.92591",
    "final_y": "525116.528957",
    "longitude": "-90.06929142583014",
    "latitude": "29.937897878712683",
    "geocoded_column": {
      "latitude": "29.937897878712683",
      "longitude": "-90.06929142583014"
    }
  },
  {
    "service_request": "2022-910999",
    "request_type": "Trash/Recycling",
    "request_reason": "MIssed Recycling Pick-Up",
    "date_created": "2022-08-17T17:38:55.000",
    "date_modified": "2022-08-17T17:38:55.000",
    "request_status": "Pending",
    "responsible_agency": "Department of Sanitation",
    "final_address": "2118 Freret St",
    "address_councildis": "B",
    "status": "Assigned to Contractor",
    "contractor": "Richards Disposal",
    "rowid": "910999",
    "final_x": "3675801.34357",
    "final_y": "526418.156094",
    "longitude": "-90.08623997872645",
    "latitude": "29.941639099133855",
    "geocoded_column": {
      "latitude": "29.941639099133855",
      "longitude": "-90.08623997872645"
    }
  },
  {
    "service_request": "2022-910998",
    "request_type": "Traffic Signals/Signs/Striping/Streetlights",
    "request_reason": "Street Light Outage/Malfunction",
    "date_created": "2022-08-17T17:35:21.000",
    "date_modified": "2022-08-17T17:35:22.000",
    "request_status": "Pending",
    "responsible_agency": "Department of Public Works",
    "final_address": "2910 Behrman Hwy, New Orleans, Louisiana, 70114",
    "address_councildis": "C",
    "status": "Pending",
    "contractor": "Legacy Professional Services",
    "rowid": "910998",
    "final_x": "3693606.26902",
    "final_y": "520067.011512",
    "longitude": "-90.03025452101782",
    "latitude": "29.923630768776373",
    "geocoded_column": {
      "latitude": "29.923630768776373",
      "longitude": "-90.03025452101782"
    }
  },
  {
    "service_request": "2022-910996",
    "request_type": "Traffic Signals/Signs/Striping/Streetlights",
    "request_reason": "Street Light Outage/Malfunction",
    "date_created": "2022-08-17T17:23:31.000",
    "date_modified": "2022-08-17T17:23:32.000",
    "request_status": "Pending",
    "responsible_agency": "Department of Public Works",
    "final_address": "FELICIANA DR & MITHRA ST",
    "address_councildis": "D",
    "status": "Pending",
    "contractor": "Legacy Professional Services",
    "rowid": "910996",
    "final_x": "3690056.9",
    "final_y": "553248.48",
    "longitude": "-90.04027654781409",
    "latitude": "30.014978638499105",
    "geocoded_column": {
      "latitude": "30.014978638499105",
      "longitude": "-90.04027654781409"
    }
  },
  {
    "service_request": "2022-910995",
    "request_type": "Trash/Recycling",
    "request_reason": "Missed Trash Pick-Up",
    "date_created": "2022-08-17T17:21:31.000",
    "date_modified": "2022-08-17T17:32:31.000",
    "request_status": "Pending",
    "responsible_agency": "Department of Sanitation",
    "final_address": "New Orleans,LA",
    "address_councildis": "A",
    "status": "Assigned to Contractor",
    "contractor": "Richards Disposal",
    "rowid": "910995",
    "final_x": "3670766.97499",
    "final_y": "538791.751753",
    "longitude": "-90.10171462978032",
    "latitude": "29.97581208567343",
    "geocoded_column": {
      "latitude": "29.97581208567343",
      "longitude": "-90.10171462978032"
    }
  },
  {
    "service_request": "2022-910994",
    "request_type": "Abandoned Vehicles",
    "request_reason": "Abandoned/Junk Vehicles",
    "date_created": "2022-08-17T17:17:25.000",
    "date_modified": "2022-08-17T17:17:25.000",
    "request_status": "Pending",
    "responsible_agency": "Department of Public Works",
    "final_address": "3613 Napoleon Ave",
    "address_councildis": "B",
    "status": "Pending",
    "rowid": "910994",
    "final_x": "3670239.4809",
    "final_y": "527976.792255",
    "longitude": "-90.10374714121824",
    "latitude": "29.946090116369987",
    "geocoded_column": {
      "latitude": "29.946090116369987",
      "longitude": "-90.10374714121824"
    }
  },
  {
    "service_request": "2022-910993",
    "request_type": "Trash/Recycling",
    "request_reason": "Repair Trash Cart",
    "date_created": "2022-08-17T17:15:35.000",
    "date_modified": "2022-08-17T17:15:36.000",
    "request_status": "Pending",
    "responsible_agency": "Department of Sanitation",
    "final_address": "213 N Pierce St",
    "address_councildis": "A",
    "status": "Assigned to Contractor",
    "contractor": "Richards Disposal",
    "rowid": "910993",
    "final_x": "3671788.97159",
    "final_y": "538517.497609",
    "longitude": "-90.09849620272557",
    "latitude": "29.975027735039646",
    "geocoded_column": {
      "latitude": "29.975027735039646",
      "longitude": "-90.09849620272557"
    }
  },
  {
    "service_request": "2022-910992",
    "request_type": "Roads/Drainage",
    "request_reason": "Pothole",
    "date_created": "2022-08-17T17:11:21.000",
    "date_modified": "2022-08-17T17:11:21.000",
    "request_status": "Pending",
    "responsible_agency": "Department of Public Works",
    "final_address": "2326 Jackson Ave Apt A",
    "address_councildis": "B",
    "status": "Pending",
    "rowid": "910992",
    "final_x": "3675633.49857",
    "final_y": "526204.218046",
    "longitude": "-90.08677724793903",
    "latitude": "29.941055861798294",
    "geocoded_column": {
      "latitude": "29.941055861798294",
      "longitude": "-90.08677724793903"
    }
  },
  {
    "service_request": "2022-910991",
    "request_type": "Property Maintenance",
    "request_reason": "Property Maintenance",
    "date_created": "2022-08-17T17:10:12.000",
    "date_modified": "2022-08-17T17:10:12.000",
    "request_status": "Pending",
    "responsible_agency": "Department of Code Enforcement",
    "final_address": "4023 & 4025 Iroquois Street, New Orleans, LA 70126",
    "status": "Pending",
    "rowid": "910991",
    "longitude": "0.0",
    "latitude": "0.0",
    "geocoded_column": {
      "latitude": "0.0",
      "longitude": "0.0"
    }
  },
  {
    "service_request": "2022-910990",
    "request_type": "Trash/Recycling",
    "request_reason": "Missed Trash Pick-Up",
    "date_created": "2022-08-17T17:09:27.000",
    "date_modified": "2022-08-17T17:09:28.000",
    "request_status": "Pending",
    "responsible_agency": "Department of Sanitation",
    "final_address": "2723 Madrid St, New Orleans, Louisiana, 70122",
    "address_councildis": "D",
    "status": "Assigned to Contractor",
    "contractor": "Metro Disposal",
    "rowid": "910990",
    "final_x": "3687307.64918",
    "final_y": "555678.745689",
    "longitude": "-90.04887677414094",
    "latitude": "30.02174599067549",
    "geocoded_column": {
      "latitude": "30.02174599067549",
      "longitude": "-90.04887677414094"
    }
  },
  {
    "service_request": "2022-910989",
    "request_type": "Property Maintenance",
    "request_reason": "Property Maintenance",
    "date_created": "2022-08-17T17:03:00.000",
    "date_modified": "2022-08-17T17:03:00.000",
    "request_status": "Pending",
    "responsible_agency": "Department of Code Enforcement",
    "final_address": "2343 N Prieur St",
    "address_councildis": "D",
    "status": "Pending",
    "rowid": "910989",
    "final_x": "3685932.66396",
    "final_y": "539380.562506",
    "longitude": "-90.05379642506975",
    "latitude": "29.97697417166969",
    "geocoded_column": {
      "latitude": "29.97697417166969",
      "longitude": "-90.05379642506975"
    }
  },
  {
    "service_request": "2022-910988",
    "request_type": "Property Maintenance",
    "request_reason": "Property Maintenance",
    "date_created": "2022-08-17T17:01:42.000",
    "date_modified": "2022-08-17T17:01:42.000",
    "request_status": "Pending",
    "responsible_agency": "Department of Code Enforcement",
    "final_address": "1904 St Roch Ave",
    "address_councildis": "D",
    "status": "Pending",
    "rowid": "910988",
    "final_x": "3686046.55522",
    "final_y": "539411.387594",
    "longitude": "-90.05343563336167",
    "latitude": "29.977055432329706",
    "geocoded_column": {
      "latitude": "29.977055432329706",
      "longitude": "-90.05343563336167"
    }
  },
  {
    "service_request": "2022-910987",
    "request_type": "Roads/Drainage",
    "request_reason": "Street Subsidence (Sinking)",
    "date_created": "2022-08-17T17:01:38.000",
    "date_modified": "2022-08-17T17:01:38.000",
    "request_status": "Pending",
    "responsible_agency": "Department of Public Works",
    "final_address": "2922 Laurel St",
    "address_councildis": "B",
    "status": "Pending",
    "rowid": "910987",
    "final_x": "3676878.75189",
    "final_y": "519796.409272",
    "longitude": "-90.08306649590966",
    "latitude": "29.92339917145873",
    "geocoded_column": {
      "latitude": "29.92339917145873",
      "longitude": "-90.08306649590966"
    }
  },
  {
    "service_request": "2022-910985",
    "request_type": "Trash/Recycling",
    "request_reason": "Request a Large Item Pick Up",
    "date_created": "2022-08-17T16:59:18.000",
    "date_modified": "2022-08-17T16:59:18.000",
    "request_status": "Pending",
    "responsible_agency": "Department of Sanitation",
    "final_address": "PRITCHARD PL & EAGLE ST",
    "address_councildis": "A",
    "status": "Assigned to Contractor",
    "contractor": "Richards Disposal",
    "rowid": "910985",
    "final_x": "3664234.2",
    "final_y": "534547.38",
    "longitude": "-90.1224887273901",
    "latitude": "29.964332925657605",
    "geocoded_column": {
      "latitude": "29.964332925657605",
      "longitude": "-90.1224887273901"
    }
  },
  {
    "service_request": "2022-910986",
    "request_type": "Trash/Recycling",
    "request_reason": "Request a Large Item Pick Up",
    "date_created": "2022-08-17T16:59:18.000",
    "date_modified": "2022-08-17T16:59:19.000",
    "request_status": "Pending",
    "responsible_agency": "Department of Sanitation",
    "final_address": "PRITCHARD PL & EAGLE ST",
    "address_councildis": "A",
    "status": "Assigned to Contractor",
    "contractor": "Richards Disposal",
    "rowid": "910986",
    "final_x": "3664234.2",
    "final_y": "534547.38",
    "longitude": "-90.1224887273901",
    "latitude": "29.964332925657605",
    "geocoded_column": {
      "latitude": "29.964332925657605",
      "longitude": "-90.1224887273901"
    }
  },
  {
    "service_request": "2022-910984",
    "request_type": "Trash/Recycling",
    "request_reason": "MIssed Recycling Pick-Up",
    "date_created": "2022-08-17T16:53:27.000",
    "date_modified": "2022-08-17T16:53:27.000",
    "case_close_date": "2022-05-09T19:00:00.000",
    "request_status": "Pending",
    "responsible_agency": "Department of Sanitation",
    "final_address": "1302 N Gayoso St",
    "address_councildis": "A",
    "status": "Assigned to Contractor",
    "contractor": "Richards Disposal",
    "rowid": "910984",
    "final_x": "3676826.99598",
    "final_y": "539729.997066",
    "longitude": "-90.08254300899915",
    "latitude": "29.978211442524255",
    "geocoded_column": {
      "latitude": "29.978211442524255",
      "longitude": "-90.08254300899915"
    }
  },
  {
    "service_request": "2022-910982",
    "request_type": "Traffic Signals/Signs/Striping/Streetlights",
    "request_reason": "Street Light Outage/Malfunction",
    "date_created": "2022-08-17T16:41:05.000",
    "date_modified": "2022-08-17T16:41:06.000",
    "request_status": "Pending",
    "responsible_agency": "Department of Public Works",
    "final_address": "619 N Gayoso St",
    "address_councildis": "A",
    "status": "Pending",
    "contractor": "Legacy Professional Services",
    "rowid": "910982",
    "final_x": "3675535.98293",
    "final_y": "537510.879688",
    "longitude": "-90.08669674910892",
    "latitude": "29.97214831493401",
    "geocoded_column": {
      "latitude": "29.97214831493401",
      "longitude": "-90.08669674910892"
    }
  },
  {
    "service_request": "2022-910983",
    "request_type": "Traffic Signals/Signs/Striping/Streetlights",
    "request_reason": "Street Light Outage/Malfunction",
    "date_created": "2022-08-17T16:41:05.000",
    "date_modified": "2022-08-17T16:43:30.000",
    "request_status": "Pending",
    "responsible_agency": "Department of Public Works",
    "final_address": "619 N Gayoso St",
    "address_councildis": "A",
    "status": "Pending",
    "contractor": "Legacy Professional Services",
    "rowid": "910983",
    "final_x": "3675535.98293",
    "final_y": "537510.879688",
    "longitude": "-90.08669674910892",
    "latitude": "29.97214831493401",
    "geocoded_column": {
      "latitude": "29.97214831493401",
      "longitude": "-90.08669674910892"
    }
  },
  {
    "service_request": "2022-910981",
    "request_type": "Roads/Drainage",
    "request_reason": "Pothole",
    "date_created": "2022-08-17T16:40:18.000",
    "date_modified": "2022-08-17T16:40:18.000",
    "request_status": "Pending",
    "responsible_agency": "Department of Public Works",
    "final_address": "2301 Loyola Ave",
    "address_councildis": "B",
    "status": "Pending",
    "rowid": "910981",
    "final_x": "3675921.99419",
    "final_y": "525134.912701",
    "longitude": "-90.08590316662502",
    "latitude": "29.938106990233003",
    "geocoded_column": {
      "latitude": "29.938106990233003",
      "longitude": "-90.08590316662502"
    }
  },
  {
    "service_request": "2022-910979",
    "request_type": "Trash/Recycling",
    "request_reason": "Order Recycling Cart",
    "date_created": "2022-08-17T16:31:01.000",
    "date_modified": "2022-08-17T16:31:02.000",
    "request_status": "Pending",
    "responsible_agency": "Department of Sanitation",
    "final_address": "3617 Dumaine St",
    "address_councildis": "A",
    "status": "Pending",
    "rowid": "910979",
    "final_x": "3674204.03502",
    "final_y": "539848.249802",
    "longitude": "-90.09082322340224",
    "latitude": "29.978615064593846",
    "geocoded_column": {
      "latitude": "29.978615064593846",
      "longitude": "-90.09082322340224"
    }
  },
  {
    "service_request": "2022-910977",
    "request_type": "Trash/Recycling",
    "request_reason": "Request a Large Item Pick Up",
    "date_created": "2022-08-17T16:22:08.000",
    "date_modified": "2022-08-17T16:22:09.000",
    "request_status": "Pending",
    "responsible_agency": "Department of Sanitation",
    "final_address": "7410 Maple St",
    "address_councildis": "A",
    "status": "Assigned to Contractor",
    "contractor": "Richards Disposal",
    "rowid": "910977",
    "final_x": "3662786.42131",
    "final_y": "525674.200509",
    "longitude": "-90.12735563291128",
    "latitude": "29.939976532044156",
    "geocoded_column": {
      "latitude": "29.939976532044156",
      "longitude": "-90.12735563291128"
    }
  },
  {
    "service_request": "2022-910976",
    "request_type": "Trash/Recycling",
    "request_reason": "Return Recycling Cart",
    "date_created": "2022-08-17T16:21:48.000",
    "date_modified": "2022-08-17T16:21:48.000",
    "request_status": "Pending",
    "responsible_agency": "Department of Sanitation",
    "final_address": "4317 Chestnut St",
    "address_councildis": "B",
    "status": "Pending",
    "rowid": "910976",
    "final_x": "3671210.7138",
    "final_y": "519584.750712",
    "longitude": "-90.10096559342306",
    "latitude": "29.922986017421486",
    "geocoded_column": {
      "latitude": "29.922986017421486",
      "longitude": "-90.10096559342306"
    }
  },
  {
    "service_request": "2022-910975",
    "request_type": "Trash/Recycling",
    "request_reason": "Order Recycling Cart",
    "date_created": "2022-08-17T16:19:03.000",
    "date_modified": "2022-08-17T16:19:03.000",
    "request_status": "Pending",
    "responsible_agency": "Department of Sanitation",
    "final_address": "3652 Constance St",
    "address_councildis": "B",
    "status": "Pending",
    "rowid": "910975",
    "final_x": "3673832.78875",
    "final_y": "518750.062391",
    "longitude": "-90.0927172350317",
    "latitude": "29.92061308842343",
    "geocoded_column": {
      "latitude": "29.92061308842343",
      "longitude": "-90.0927172350317"
    }
  },
  {
    "service_request": "2022-910974",
    "request_type": "Trash/Recycling",
    "request_reason": "Request a Large Item Pick Up",
    "date_created": "2022-08-17T16:18:38.000",
    "date_modified": "2022-08-17T16:18:39.000",
    "request_status": "Pending",
    "responsible_agency": "Department of Sanitation",
    "final_address": "1921 Orleans Ave",
    "address_councildis": "D",
    "status": "Assigned to Contractor",
    "contractor": "Richards Disposal",
    "rowid": "910974",
    "final_x": "3679161.78191",
    "final_y": "535308.540486",
    "longitude": "-90.07532223294535",
    "latitude": "29.965983670947093",
    "geocoded_column": {
      "latitude": "29.965983670947093",
      "longitude": "-90.07532223294535"
    }
  },
  {
    "service_request": "2022-910973",
    "request_type": "Traffic Signals/Signs/Striping/Streetlights",
    "request_reason": "Street Light Outage/Malfunction",
    "date_created": "2022-08-17T16:16:06.000",
    "date_modified": "2022-08-17T16:16:07.000",
    "request_status": "Pending",
    "responsible_agency": "Department of Public Works",
    "final_address": "3418 St Ferdinand St",
    "address_councildis": "D",
    "status": "Pending",
    "contractor": "Legacy Professional Services",
    "rowid": "910973",
    "final_x": "3689977.30563",
    "final_y": "545573.426576",
    "longitude": "-90.04080156643609",
    "latitude": "29.993877520409015",
    "geocoded_column": {
      "latitude": "29.993877520409015",
      "longitude": "-90.04080156643609"
    }
  },
  {
    "service_request": "2022-910972",
    "request_type": "Trash/Recycling",
    "request_reason": "Request a Large Item Pick Up",
    "date_created": "2022-08-17T16:14:37.000",
    "date_modified": "2022-08-17T16:14:37.000",
    "request_status": "Pending",
    "responsible_agency": "Department of Sanitation",
    "final_address": "5025 St Bernard Ave",
    "address_councildis": "D",
    "status": "Assigned to Contractor",
    "contractor": "Metro Disposal",
    "rowid": "910972",
    "final_x": "3676795.66369",
    "final_y": "550715.236757",
    "longitude": "-90.08226315140675",
    "latitude": "30.008417944025044",
    "geocoded_column": {
      "latitude": "30.008417944025044",
      "longitude": "-90.08226315140675"
    }
  },
  {
    "service_request": "2022-910971",
    "request_type": "Traffic Signals/Signs/Striping/Streetlights",
    "request_reason": "Street Light Outage/Malfunction",
    "date_created": "2022-08-17T16:11:47.000",
    "date_modified": "2022-08-17T16:11:48.000",
    "request_status": "Pending",
    "responsible_agency": "Department of Public Works",
    "final_address": "5150 Kendall Dr",
    "address_councildis": "D",
    "status": "Pending",
    "contractor": "Legacy Professional Services",
    "rowid": "910971",
    "final_x": "3690241.48572",
    "final_y": "552477.758294",
    "longitude": "-90.0397208384529",
    "latitude": "30.01285371040008",
    "geocoded_column": {
      "latitude": "30.01285371040008",
      "longitude": "-90.0397208384529"
    }
  },
  {
    "service_request": "2022-910970",
    "request_type": "Trash/Recycling",
    "request_reason": "Request a Large Item Pick Up",
    "date_created": "2022-08-17T16:11:47.000",
    "date_modified": "2022-08-17T16:11:48.000",
    "request_status": "Pending",
    "responsible_agency": "Department of Sanitation",
    "final_address": "2305 Sere St",
    "address_councildis": "D",
    "status": "Assigned to Contractor",
    "contractor": "Metro Disposal",
    "rowid": "910970",
    "final_x": "3685097.62242",
    "final_y": "545997.018448",
    "longitude": "-90.05620083574134",
    "latitude": "29.995192695069186",
    "geocoded_column": {
      "latitude": "29.995192695069186",
      "longitude": "-90.05620083574134"
    }
  },
  {
    "service_request": "2022-910969",
    "request_type": "Trash/Recycling",
    "request_reason": "Request a Large Item Pick Up",
    "date_created": "2022-08-17T16:11:47.000",
    "date_modified": "2022-08-17T16:11:48.000",
    "request_status": "Pending",
    "responsible_agency": "Department of Sanitation",
    "final_address": "2305 Sere St",
    "address_councildis": "D",
    "status": "Assigned to Contractor",
    "contractor": "Metro Disposal",
    "rowid": "910969",
    "final_x": "3685097.62242",
    "final_y": "545997.018448",
    "longitude": "-90.05620083574134",
    "latitude": "29.995192695069186",
    "geocoded_column": {
      "latitude": "29.995192695069186",
      "longitude": "-90.05620083574134"
    }
  },
  {
    "service_request": "2022-910968",
    "request_type": "Trash/Recycling",
    "request_reason": "Order Trash Cart",
    "date_created": "2022-08-17T16:07:33.000",
    "date_modified": "2022-08-17T16:07:34.000",
    "request_status": "Pending",
    "responsible_agency": "Department of Sanitation",
    "final_address": "8324 Hammond St",
    "address_councildis": "E",
    "status": "Assigned to Contractor",
    "contractor": "Metro Disposal",
    "rowid": "910968",
    "final_x": "3705911.60587",
    "final_y": "555687.620377",
    "longitude": "-89.99009331408364",
    "latitude": "30.021183848427782",
    "geocoded_column": {
      "latitude": "30.021183848427782",
      "longitude": "-89.99009331408364"
    }
  },
  {
    "service_request": "2022-910967",
    "request_type": "Trash/Recycling",
    "request_reason": "Repair Trash Cart",
    "date_created": "2022-08-17T16:05:12.000",
    "date_modified": "2022-08-17T16:05:28.000",
    "case_close_date": "2022-07-24T19:00:00.000",
    "request_status": "Pending",
    "responsible_agency": "Department of Sanitation",
    "final_address": "1326 Terry St",
    "address_councildis": "C",
    "status": "Assigned to Contractor",
    "contractor": "Richards Disposal",
    "rowid": "910967",
    "final_x": "3697013.20407",
    "final_y": "526302.639614",
    "longitude": "-90.01927440783426",
    "latitude": "29.940669629328323",
    "geocoded_column": {
      "latitude": "29.940669629328323",
      "longitude": "-90.01927440783426"
    }
  },
  {
    "service_request": "2022-910966",
    "request_type": "Trash/Recycling",
    "request_reason": "Order Trash Cart",
    "date_created": "2022-08-17T16:04:42.000",
    "date_modified": "2022-08-17T16:04:43.000",
    "request_status": "Pending",
    "responsible_agency": "Department of Sanitation",
    "final_address": "1925 Burdette St",
    "address_councildis": "A",
    "status": "Assigned to Contractor",
    "contractor": "Richards Disposal",
    "rowid": "910966",
    "final_x": "3664608.24135",
    "final_y": "529546.036609",
    "longitude": "-90.12147456812008",
    "latitude": "29.950569988123323",
    "geocoded_column": {
      "latitude": "29.950569988123323",
      "longitude": "-90.12147456812008"
    }
  },
  {
    "service_request": "2022-910965",
    "request_type": "Property Maintenance",
    "request_reason": "Property Maintenance",
    "date_created": "2022-08-17T15:59:25.000",
    "date_modified": "2022-08-17T15:59:25.000",
    "request_status": "Pending",
    "responsible_agency": "Department of Code Enforcement",
    "final_address": "FRANKFORT ST & DEBORE DR",
    "address_councildis": "D",
    "status": "Pending",
    "rowid": "910965",
    "final_x": "3690891.9",
    "final_y": "557528.28",
    "longitude": "-90.0374854319546",
    "latitude": "30.026720552650023",
    "geocoded_column": {
      "latitude": "30.026720552650023",
      "longitude": "-90.0374854319546"
    }
  },
  {
    "service_request": "2022-910964",
    "request_type": "Roads/Drainage",
    "request_reason": "Street Flooding / Drainage",
    "date_created": "2022-08-17T15:52:53.000",
    "date_modified": "2022-08-17T15:52:53.000",
    "request_status": "Pending",
    "responsible_agency": "Department of Public Works",
    "final_address": "3727 Gentilly Blvd",
    "address_councildis": "D",
    "status": "Pending",
    "rowid": "910964",
    "final_x": "3687190.07983",
    "final_y": "548984.651731",
    "longitude": "-90.04948525259114",
    "latitude": "30.003343313154225",
    "geocoded_column": {
      "latitude": "30.003343313154225",
      "longitude": "-90.04948525259114"
    }
  },
  {
    "service_request": "2022-910963",
    "request_type": "Trash/Recycling",
    "request_reason": "Missed Trash Pick-Up",
    "date_created": "2022-08-17T15:47:31.000",
    "date_modified": "2022-08-17T15:47:32.000",
    "request_status": "Pending",
    "responsible_agency": "Department of Sanitation",
    "final_address": "8033 Wales St",
    "address_councildis": "E",
    "status": "Assigned to Contractor",
    "contractor": "Metro Disposal",
    "rowid": "910963",
    "final_x": "3702000.56445",
    "final_y": "562299.600095",
    "longitude": "-90.00220831851539",
    "latitude": "30.03948971417866",
    "geocoded_column": {
      "latitude": "30.03948971417866",
      "longitude": "-90.00220831851539"
    }
  },
  {
    "service_request": "2022-910962",
    "request_type": "Property Maintenance",
    "request_reason": "Property Maintenance",
    "date_created": "2022-08-17T15:43:59.000",
    "date_modified": "2022-08-17T15:55:32.000",
    "request_status": "Pending",
    "responsible_agency": "Department of Code Enforcement",
    "final_address": "4416 Perlita St",
    "address_councildis": "D",
    "status": "Pending",
    "rowid": "910962",
    "final_x": "3678703.01262",
    "final_y": "548727.532819",
    "longitude": "-90.07630612519654",
    "latitude": "30.00289506829539",
    "geocoded_column": {
      "latitude": "30.00289506829539",
      "longitude": "-90.07630612519654"
    }
  },
  {
    "service_request": "2022-910961",
    "request_type": "Trash/Recycling",
    "request_reason": "Order Trash Cart",
    "date_created": "2022-08-17T15:42:19.000",
    "date_modified": "2022-08-17T15:42:21.000",
    "request_status": "Pending",
    "responsible_agency": "Department of Sanitation",
    "final_address": "New Orleans,LA",
    "status": "Assigned to Contractor",
    "rowid": "910961",
    "longitude": "0.0",
    "latitude": "0.0",
    "geocoded_column": {
      "latitude": "0.0",
      "longitude": "0.0"
    }
  },
  {
    "service_request": "2022-910960",
    "request_type": "Trash/Recycling",
    "request_reason": "Request a Large Item Pick Up",
    "date_created": "2022-08-17T15:41:07.000",
    "date_modified": "2022-08-17T15:41:07.000",
    "request_status": "Pending",
    "responsible_agency": "Department of Sanitation",
    "final_address": "1308 Eagle St, New Orleans, Louisiana, 70118",
    "address_councildis": "A",
    "status": "Assigned to Contractor",
    "contractor": "Richards Disposal",
    "rowid": "910960",
    "final_x": "3660392.53952",
    "final_y": "530395.233154",
    "longitude": "-90.1347576060654",
    "latitude": "29.95302692968794",
    "geocoded_column": {
      "latitude": "29.95302692968794",
      "longitude": "-90.1347576060654"
    }
  },
  {
    "service_request": "2022-910959",
    "request_type": "Property Maintenance",
    "request_reason": "Property Maintenance",
    "date_created": "2022-08-17T15:40:18.000",
    "date_modified": "2022-08-17T15:40:18.000",
    "request_status": "Pending",
    "responsible_agency": "Department of Code Enforcement",
    "final_address": "N RAMPART ST & LAMANCHE ST",
    "address_councildis": "E",
    "status": "Pending",
    "rowid": "910959",
    "final_x": "3698244.3",
    "final_y": "533243.38",
    "longitude": "-90.015135558438",
    "latitude": "29.959715348633726",
    "geocoded_column": {
      "latitude": "29.959715348633726",
      "longitude": "-90.015135558438"
    }
  },
  {
    "service_request": "2022-910958",
    "request_type": "Trash/Recycling",
    "request_reason": "Return Trash Cart",
    "date_created": "2022-08-17T15:35:12.000",
    "date_modified": "2022-08-17T15:35:13.000",
    "request_status": "Pending",
    "responsible_agency": "Department of Sanitation",
    "final_address": "3337 Delachaise St",
    "address_councildis": "B",
    "status": "Assigned to Contractor",
    "contractor": "Richards Disposal",
    "rowid": "910958",
    "final_x": "3671527.91278",
    "final_y": "527378.439615",
    "longitude": "-90.09969945089252",
    "latitude": "29.944406762458854",
    "geocoded_column": {
      "latitude": "29.944406762458854",
      "longitude": "-90.09969945089252"
    }
  },
  {
    "service_request": "2022-910957",
    "request_type": "Roads/Drainage",
    "request_reason": "Street Flooding / Drainage",
    "date_created": "2022-08-17T15:34:16.000",
    "date_modified": "2022-08-17T15:34:16.000",
    "request_status": "Pending",
    "responsible_agency": "Department of Public Works",
    "final_address": "1534 Adams St",
    "address_councildis": "A",
    "status": "Pending",
    "rowid": "910957",
    "final_x": "3663917.26586",
    "final_y": "528391.012672",
    "longitude": "-90.12369482242971",
    "latitude": "29.947414120590413",
    "geocoded_column": {
      "latitude": "29.947414120590413",
      "longitude": "-90.12369482242971"
    }
  },
  {
    "service_request": "2022-910956",
    "request_type": "Trash/Recycling",
    "request_reason": "Repair Trash Cart",
    "date_created": "2022-08-17T15:33:54.000",
    "date_modified": "2022-08-17T15:33:54.000",
    "request_status": "Pending",
    "responsible_agency": "Department of Sanitation",
    "final_address": "3335 Delachaise St",
    "address_councildis": "B",
    "status": "Assigned to Contractor",
    "contractor": "Richards Disposal",
    "rowid": "910956",
    "final_x": "3671531.26119",
    "final_y": "527362.192511",
    "longitude": "-90.09968943124605",
    "latitude": "29.94436198910485",
    "geocoded_column": {
      "latitude": "29.94436198910485",
      "longitude": "-90.09968943124605"
    }
  },
  {
    "service_request": "2022-910955",
    "request_type": "Trash/Recycling",
    "request_reason": "Repair Trash Cart",
    "date_created": "2022-08-17T15:33:42.000",
    "date_modified": "2022-08-17T15:33:43.000",
    "request_status": "Pending",
    "responsible_agency": "Department of Sanitation",
    "final_address": "3333 Delachaise St",
    "address_councildis": "B",
    "status": "Assigned to Contractor",
    "contractor": "Richards Disposal",
    "rowid": "910955",
    "final_x": "3671537.21575",
    "final_y": "527352.516351",
    "longitude": "-90.09967095986362",
    "latitude": "29.944335206546988",
    "geocoded_column": {
      "latitude": "29.944335206546988",
      "longitude": "-90.09967095986362"
    }
  },
  {
    "service_request": "2022-910954",
    "request_type": "Trash/Recycling",
    "request_reason": "Order Recycling Cart",
    "date_created": "2022-08-17T15:30:06.000",
    "date_modified": "2022-08-17T15:30:06.000",
    "request_status": "Pending",
    "responsible_agency": "Department of Sanitation",
    "final_address": "2833 Napoleon Ave",
    "address_councildis": "B",
    "status": "Pending",
    "rowid": "910954",
    "final_x": "3670495.89857",
    "final_y": "525341.129469",
    "longitude": "-90.10302689207099",
    "latitude": "29.938835332072447",
    "geocoded_column": {
      "latitude": "29.938835332072447",
      "longitude": "-90.10302689207099"
    }
  },
  {
    "service_request": "2022-910953",
    "request_type": "Property Maintenance",
    "request_reason": "Property Maintenance",
    "date_created": "2022-08-17T15:18:20.000",
    "date_modified": "2022-08-17T15:22:03.000",
    "request_status": "Pending",
    "responsible_agency": "Department of Code Enforcement",
    "final_address": "8011 Brevard Ave",
    "address_councildis": "E",
    "status": "Pending",
    "rowid": "910953",
    "final_x": "3705799.5603",
    "final_y": "564534.448801",
    "longitude": "-89.99011965920148",
    "latitude": "30.045512765568063",
    "geocoded_column": {
      "latitude": "30.045512765568063",
      "longitude": "-89.99011965920148"
    }
  },
  {
    "service_request": "2022-910952",
    "request_type": "Parks & Parkways",
    "request_reason": "Request Tree Service (Right of Way/Public Property)",
    "date_created": "2022-08-17T15:16:44.000",
    "date_modified": "2022-08-17T15:16:45.000",
    "request_status": "Pending",
    "responsible_agency": "Department of Parks & Parkway",
    "final_address": "4534 Canal St",
    "address_councildis": "A",
    "status": "Pending",
    "rowid": "910952",
    "final_x": "3669406.84154",
    "final_y": "539475.951114",
    "longitude": "-90.10598718247019",
    "latitude": "29.977733531640578",
    "geocoded_column": {
      "latitude": "29.977733531640578",
      "longitude": "-90.10598718247019"
    }
  },
  {
    "service_request": "2022-910951",
    "request_type": "Trash/Recycling",
    "request_reason": "Replace Trash Cart",
    "date_created": "2022-08-17T15:16:28.000",
    "date_modified": "2022-08-17T15:16:29.000",
    "request_status": "Pending",
    "responsible_agency": "Department of Sanitation",
    "final_address": "4 Virginia Ct",
    "address_councildis": "A",
    "status": "Assigned to Contractor",
    "contractor": "Metro Disposal",
    "rowid": "910951",
    "final_x": "3668784.8361",
    "final_y": "542357.785869",
    "longitude": "-90.10785435120131",
    "latitude": "29.985675905357756",
    "geocoded_column": {
      "latitude": "29.985675905357756",
      "longitude": "-90.10785435120131"
    }
  },
  {
    "service_request": "2022-910950",
    "request_type": "Trash/Recycling",
    "request_reason": "Request a Large Item Pick Up",
    "date_created": "2022-08-17T15:14:18.000",
    "date_modified": "2022-08-17T15:14:19.000",
    "case_close_date": "2022-07-26T19:00:00.000",
    "request_status": "Pending",
    "responsible_agency": "Department of Sanitation",
    "final_address": "2219 Joseph St",
    "address_councildis": "A",
    "status": "Assigned to Contractor",
    "contractor": "Richards Disposal",
    "rowid": "910950",
    "final_x": "3667394.71463",
    "final_y": "524290.6567",
    "longitude": "-90.11285303918929",
    "latitude": "29.9360380628182",
    "geocoded_column": {
      "latitude": "29.9360380628182",
      "longitude": "-90.11285303918929"
    }
  },
  {
    "service_request": "2022-910949",
    "request_type": "Traffic Signals/Signs/Striping/Streetlights",
    "request_reason": "Street Light Outage/Malfunction",
    "date_created": "2022-08-17T15:12:23.000",
    "date_modified": "2022-08-17T15:12:23.000",
    "request_status": "Pending",
    "responsible_agency": "Department of Public Works",
    "final_address": "9852 E Rockton Cir",
    "address_councildis": "E",
    "status": "Pending",
    "contractor": "Legacy Professional Services",
    "rowid": "910949",
    "final_x": "3708563.73419",
    "final_y": "563168.092832",
    "longitude": "-89.98143454296225",
    "latitude": "30.041666446768875",
    "geocoded_column": {
      "latitude": "30.041666446768875",
      "longitude": "-89.98143454296225"
    }
  },
  {
    "service_request": "2022-910948",
    "request_type": "Trash/Recycling",
    "request_reason": "Repair Trash Cart",
    "date_created": "2022-08-17T15:12:12.000",
    "date_modified": "2022-08-17T15:12:13.000",
    "request_status": "Pending",
    "responsible_agency": "Department of Sanitation",
    "final_address": "8305 Freret St",
    "address_councildis": "A",
    "status": "Assigned to Contractor",
    "contractor": "Richards Disposal",
    "rowid": "910948",
    "final_x": "3660938.61536",
    "final_y": "528413.874688",
    "longitude": "-90.13309886117285",
    "latitude": "29.94756311098032",
    "geocoded_column": {
      "latitude": "29.94756311098032",
      "longitude": "-90.13309886117285"
    }
  },
  {
    "service_request": "2022-910947",
    "request_type": "Trash/Recycling",
    "request_reason": "Replace Trash Cart",
    "date_created": "2022-08-17T15:08:57.000",
    "date_modified": "2022-08-17T15:08:57.000",
    "request_status": "Pending",
    "responsible_agency": "Department of Sanitation",
    "final_address": "1742 Flood St, New Orleans, Louisiana, 70117",
    "address_councildis": "E",
    "status": "Assigned to Contractor",
    "contractor": "Metro Disposal",
    "rowid": "910947",
    "final_x": "3698357.26448",
    "final_y": "536422.650759",
    "longitude": "-90.01466330772249",
    "latitude": "29.968453634979888",
    "geocoded_column": {
      "latitude": "29.968453634979888",
      "longitude": "-90.01466330772249"
    }
  },
  {
    "service_request": "2022-910946",
    "request_type": "Trash/Recycling",
    "request_reason": "Request a Large Item Pick Up",
    "date_created": "2022-08-17T15:07:44.000",
    "date_modified": "2022-08-17T15:07:44.000",
    "request_status": "Pending",
    "responsible_agency": "Department of Sanitation",
    "final_address": "7 Cypress Grove Ct Unit 63",
    "address_councildis": "C",
    "status": "Assigned to Contractor",
    "contractor": "Richards Disposal",
    "rowid": "910946",
    "final_x": "3704753.0954",
    "final_y": "512229.686769",
    "longitude": "-89.99535724953614",
    "latitude": "29.901727550624745",
    "geocoded_column": {
      "latitude": "29.901727550624745",
      "longitude": "-89.99535724953614"
    }
  },
  {
    "service_request": "2022-910945",
    "request_type": "Trash/Recycling",
    "request_reason": "Request a Large Item Pick Up",
    "date_created": "2022-08-17T15:07:36.000",
    "date_modified": "2022-08-17T15:07:37.000",
    "request_status": "Pending",
    "responsible_agency": "Department of Sanitation",
    "final_address": "STATE ST & CAMP ST",
    "address_councildis": "A",
    "status": "Assigned to Contractor",
    "contractor": "Richards Disposal",
    "rowid": "910945",
    "final_x": "3664809.1",
    "final_y": "519545.08",
    "longitude": "-90.12117441298723",
    "latitude": "29.923064699316484",
    "geocoded_column": {
      "latitude": "29.923064699316484",
      "longitude": "-90.12117441298723"
    }
  },
  {
    "service_request": "2022-910944",
    "request_type": "Roads/Drainage",
    "request_reason": "Damaged Sidewalk",
    "date_created": "2022-08-17T15:04:04.000",
    "date_modified": "2022-08-17T15:04:04.000",
    "request_status": "Pending",
    "responsible_agency": "Department of Public Works",
    "final_address": "2116 Philip St",
    "address_councildis": "B",
    "status": "Pending",
    "rowid": "910944",
    "final_x": "3676044.26792",
    "final_y": "524942.370364",
    "longitude": "-90.08552375679847",
    "latitude": "29.937573901168292",
    "geocoded_column": {
      "latitude": "29.937573901168292",
      "longitude": "-90.08552375679847"
    }
  },
  {
    "service_request": "2022-910943",
    "request_type": "Trash/Recycling",
    "request_reason": "Request a Large Item Pick Up",
    "date_created": "2022-08-17T15:02:07.000",
    "date_modified": "2022-08-17T15:02:08.000",
    "request_status": "Pending",
    "responsible_agency": "Department of Sanitation",
    "final_address": "430 Harrison Ave",
    "address_councildis": "A",
    "status": "Assigned to Contractor",
    "contractor": "Metro Disposal",
    "rowid": "910943",
    "final_x": "3667826.21191",
    "final_y": "549225.369747",
    "longitude": "-90.11065080070107",
    "latitude": "30.00458755668541",
    "geocoded_column": {
      "latitude": "30.00458755668541",
      "longitude": "-90.11065080070107"
    }
  },
  {
    "service_request": "2022-910942",
    "request_type": "Trash/Recycling",
    "request_reason": "Missed Trash Pick-Up",
    "date_created": "2022-08-17T15:01:48.000",
    "date_modified": "2022-08-17T15:01:49.000",
    "request_status": "Pending",
    "responsible_agency": "Department of Sanitation",
    "final_address": "430 Harrison Ave",
    "address_councildis": "A",
    "status": "Assigned to Contractor",
    "contractor": "Metro Disposal",
    "rowid": "910942",
    "final_x": "3667826.21191",
    "final_y": "549225.369747",
    "longitude": "-90.11065080070107",
    "latitude": "30.00458755668541",
    "geocoded_column": {
      "latitude": "30.00458755668541",
      "longitude": "-90.11065080070107"
    }
  },
  {
    "service_request": "2022-910941",
    "request_type": "Trash/Recycling",
    "request_reason": "Illegal Dumping",
    "date_created": "2022-08-17T14:59:10.000",
    "date_modified": "2022-08-17T14:59:53.000",
    "request_status": "Pending",
    "responsible_agency": "Department of Sanitation",
    "final_address": "MARTIN LUTHER KING JR BLVD & S LOPEZ ST",
    "address_councildis": "B",
    "status": "Pending",
    "rowid": "910941",
    "final_x": "3670285.6",
    "final_y": "531104.38",
    "longitude": "-90.10349553940176",
    "latitude": "29.954688596290527",
    "geocoded_column": {
      "latitude": "29.954688596290527",
      "longitude": "-90.10349553940176"
    }
  },
  {
    "service_request": "2022-910940",
    "request_type": "Trash/Recycling",
    "request_reason": "Missed Trash Pick-Up",
    "date_created": "2022-08-17T14:58:35.000",
    "date_modified": "2022-08-17T14:58:36.000",
    "request_status": "Pending",
    "responsible_agency": "Department of Sanitation",
    "final_address": "430 Harrison Ave",
    "address_councildis": "A",
    "status": "Assigned to Contractor",
    "contractor": "Metro Disposal",
    "rowid": "910940",
    "final_x": "3667826.21191",
    "final_y": "549225.369747",
    "longitude": "-90.11065080070107",
    "latitude": "30.00458755668541",
    "geocoded_column": {
      "latitude": "30.00458755668541",
      "longitude": "-90.11065080070107"
    }
  },
  {
    "service_request": "2022-910939",
    "request_type": "Property Maintenance",
    "request_reason": "Property Maintenance",
    "date_created": "2022-08-17T14:52:35.000",
    "date_modified": "2022-08-17T14:52:35.000",
    "request_status": "Pending",
    "responsible_agency": "Department of Code Enforcement",
    "final_address": "2119 First St",
    "address_councildis": "B",
    "status": "Pending",
    "rowid": "910939",
    "final_x": "3675898.58254",
    "final_y": "524861.556092",
    "longitude": "-90.08598647401125",
    "latitude": "29.937356049948256",
    "geocoded_column": {
      "latitude": "29.937356049948256",
      "longitude": "-90.08598647401125"
    }
  },
  {
    "service_request": "2022-910938",
    "request_type": "Roads/Drainage",
    "request_reason": "Catch Basin - Clogged",
    "date_created": "2022-08-17T14:52:14.000",
    "date_modified": "2022-08-17T14:54:18.000",
    "request_status": "Pending",
    "responsible_agency": "Department of Public Works",
    "final_address": "New Orleans,LA",
    "address_councildis": "C",
    "rowid": "910938",
    "final_x": "3680751.97384",
    "final_y": "531921.584643",
    "longitude": "-90.07041834146803",
    "latitude": "29.95662259522551",
    "geocoded_column": {
      "latitude": "29.95662259522551",
      "longitude": "-90.07041834146803"
    }
  },
  {
    "service_request": "2022-910937",
    "request_type": "Trash/Recycling",
    "request_reason": "Order Trash Cart",
    "date_created": "2022-08-17T14:51:01.000",
    "date_modified": "2022-08-17T14:51:02.000",
    "request_status": "Pending",
    "responsible_agency": "Department of Sanitation",
    "final_address": "224 Walnut St, New Orleans, Louisiana, 70118",
    "address_councildis": "A",
    "status": "Assigned to Contractor",
    "contractor": "Richards Disposal",
    "rowid": "910937",
    "final_x": "3661321.19392",
    "final_y": "521267.202745",
    "longitude": "-90.13212745710103",
    "latitude": "29.92790099665406",
    "geocoded_column": {
      "latitude": "29.92790099665406",
      "longitude": "-90.13212745710103"
    }
  },
  {
    "service_request": "2022-910936",
    "request_type": "Abandoned Vehicles",
    "request_reason": "Abandoned/Junk Vehicles",
    "date_created": "2022-08-17T14:50:54.000",
    "date_modified": "2022-08-17T14:52:12.000",
    "request_status": "Pending",
    "responsible_agency": "Department of Public Works",
    "final_address": "2130 Annette St",
    "address_councildis": "D",
    "status": "Pending",
    "rowid": "910936",
    "final_x": "3682797.15752",
    "final_y": "540090.266059",
    "longitude": "-90.06367450904084",
    "latitude": "29.979021511336924",
    "geocoded_column": {
      "latitude": "29.979021511336924",
      "longitude": "-90.06367450904084"
    }
  },
  {
    "service_request": "2022-910935",
    "request_type": "Property Maintenance",
    "request_reason": "Property Maintenance",
    "date_created": "2022-08-17T14:49:22.000",
    "date_modified": "2022-08-17T14:49:23.000",
    "request_status": "Pending",
    "responsible_agency": "Department of Code Enforcement",
    "final_address": "2117 First St",
    "address_councildis": "B",
    "status": "Pending",
    "rowid": "910935",
    "final_x": "3675906.52136",
    "final_y": "524849.206652",
    "longitude": "-90.08596183503398",
    "latitude": "29.937321855402573",
    "geocoded_column": {
      "latitude": "29.937321855402573",
      "longitude": "-90.08596183503398"
    }
  },
  {
    "service_request": "2022-910934",
    "request_type": "Parks & Parkways",
    "request_reason": "Request Tree Service (Right of Way/Public Property)",
    "date_created": "2022-08-17T14:47:30.000",
    "date_modified": "2022-08-17T14:47:31.000",
    "request_status": "Pending",
    "responsible_agency": "Department of Parks & Parkway",
    "final_address": "2100 BLK Annette St",
    "address_councildis": "D",
    "status": "Pending",
    "rowid": "910934",
    "final_x": "3682835.54997",
    "final_y": "540022.847563",
    "longitude": "-90.06355561070637",
    "latitude": "29.97883496424146",
    "geocoded_column": {
      "latitude": "29.97883496424146",
      "longitude": "-90.06355561070637"
    }
  },
  {
    "service_request": "2022-910933",
    "request_type": "Trash/Recycling",
    "request_reason": "Replace Recycling Cart",
    "date_created": "2022-08-17T14:41:52.000",
    "date_modified": "2022-08-17T14:41:53.000",
    "request_status": "Pending",
    "responsible_agency": "Department of Sanitation",
    "final_address": "2134 Broadway St",
    "address_councildis": "A",
    "status": "Pending",
    "rowid": "910933",
    "final_x": "3666050.27309",
    "final_y": "529387.221633",
    "longitude": "-90.11692668145301",
    "latitude": "29.950091284068694",
    "geocoded_column": {
      "latitude": "29.950091284068694",
      "longitude": "-90.11692668145301"
    }
  },
  {
    "service_request": "2022-910932",
    "request_type": "Traffic Signals/Signs/Striping/Streetlights",
    "request_reason": "Street Name Sign Damaged or Missing",
    "date_created": "2022-08-17T14:39:27.000",
    "date_modified": "2022-08-17T14:39:27.000",
    "request_status": "Pending",
    "responsible_agency": "Department of Public Works",
    "final_address": "3RD ST & S ROCHEBLAVE ST",
    "address_councildis": "B",
    "status": "Pending",
    "rowid": "910932",
    "final_x": "3672195.4",
    "final_y": "529292.48",
    "longitude": "-90.09752681971375",
    "latitude": "29.949649968574768",
    "geocoded_column": {
      "latitude": "29.949649968574768",
      "longitude": "-90.09752681971375"
    }
  },
  {
    "service_request": "2022-910931",
    "request_type": "Trash/Recycling",
    "request_reason": "Repair Trash Cart",
    "date_created": "2022-08-17T14:36:50.000",
    "date_modified": "2022-08-17T14:36:52.000",
    "request_status": "Pending",
    "responsible_agency": "Department of Sanitation",
    "final_address": "2342 Annunciation St",
    "address_councildis": "B",
    "status": "Assigned to Contractor",
    "contractor": "Richards Disposal",
    "rowid": "910931",
    "final_x": "3678911.9323",
    "final_y": "520695.897721",
    "longitude": "-90.07661736700915",
    "latitude": "29.925811314520725",
    "geocoded_column": {
      "latitude": "29.925811314520725",
      "longitude": "-90.07661736700915"
    }
  },
  {
    "service_request": "2022-910930",
    "request_type": "Trash/Recycling",
    "request_reason": "Missed Trash Pick-Up",
    "date_created": "2022-08-17T14:36:25.000",
    "date_modified": "2022-08-17T14:36:26.000",
    "request_status": "Pending",
    "responsible_agency": "Department of Sanitation",
    "final_address": "2028 Burdette St, New Orleans, Louisiana, 70118",
    "address_councildis": "A",
    "status": "Assigned to Contractor",
    "contractor": "Richards Disposal",
    "rowid": "910930",
    "final_x": "3664830.43213",
    "final_y": "529901.077697",
    "longitude": "-90.12076113802536",
    "latitude": "29.951539772794472",
    "geocoded_column": {
      "latitude": "29.951539772794472",
      "longitude": "-90.12076113802536"
    }
  },
  {
    "service_request": "2022-910929",
    "request_type": "Property Maintenance",
    "request_reason": "Property Maintenance",
    "date_created": "2022-08-17T14:36:13.000",
    "date_modified": "2022-08-17T14:36:13.000",
    "request_status": "Pending",
    "responsible_agency": "Department of Code Enforcement",
    "final_address": "4825 Rosalia Dr",
    "address_councildis": "E",
    "status": "Pending",
    "rowid": "910929",
    "final_x": "3711196.16574",
    "final_y": "556467.320922",
    "longitude": "-89.97336651422455",
    "latitude": "30.02315632210817",
    "geocoded_column": {
      "latitude": "30.02315632210817",
      "longitude": "-89.97336651422455"
    }
  },
  {
    "service_request": "2022-910928",
    "request_type": "Traffic Signals/Signs/Striping/Streetlights",
    "request_reason": "Street Name Sign Damaged or Missing",
    "date_created": "2022-08-17T14:35:47.000",
    "date_modified": "2022-08-17T14:35:47.000",
    "request_status": "Pending",
    "responsible_agency": "Department of Public Works",
    "final_address": "3RD ST & S ROCHEBLAVE ST",
    "address_councildis": "B",
    "status": "Pending",
    "rowid": "910928",
    "final_x": "3672195.4",
    "final_y": "529292.48",
    "longitude": "-90.09752681971375",
    "latitude": "29.949649968574768",
    "geocoded_column": {
      "latitude": "29.949649968574768",
      "longitude": "-90.09752681971375"
    }
  },
  {
    "service_request": "2022-910927",
    "request_type": "Traffic Signals/Signs/Striping/Streetlights",
    "request_reason": "Street Name Sign Damaged or Missing",
    "date_created": "2022-08-17T14:35:21.000",
    "date_modified": "2022-08-17T14:35:22.000",
    "request_status": "Pending",
    "responsible_agency": "Department of Public Works",
    "final_address": "2ND ST & S ROCHEBLAVE ST",
    "address_councildis": "B",
    "status": "Pending",
    "rowid": "910927",
    "final_x": "3672462.9",
    "final_y": "529459.28",
    "longitude": "-90.096676514749",
    "latitude": "29.950100678041913",
    "geocoded_column": {
      "latitude": "29.950100678041913",
      "longitude": "-90.096676514749"
    }
  },
  {
    "service_request": "2022-910926",
    "request_type": "Roads/Drainage",
    "request_reason": "Pothole",
    "date_created": "2022-08-17T14:33:01.000",
    "date_modified": "2022-08-17T14:33:02.000",
    "request_status": "Pending",
    "responsible_agency": "Department of Public Works",
    "final_address": "CONSTANTINOPLE ST & COLISEUM ST",
    "address_councildis": "B",
    "status": "Pending",
    "rowid": "910926",
    "final_x": "3672421.9",
    "final_y": "519976.68",
    "longitude": "-90.09712899389108",
    "latitude": "29.924027823476578",
    "geocoded_column": {
      "latitude": "29.924027823476578",
      "longitude": "-90.09712899389108"
    }
  },
  {
    "service_request": "2022-910925",
    "request_type": "Traffic Signals/Signs/Striping/Streetlights",
    "request_reason": "Additional signage",
    "date_created": "2022-08-17T14:30:17.000",
    "date_modified": "2022-08-17T14:30:17.000",
    "request_status": "Pending",
    "responsible_agency": "Department of Public Works",
    "final_address": "2523 S Rocheblave St",
    "address_councildis": "B",
    "status": "Pending",
    "rowid": "910925",
    "final_x": "3672289.51905",
    "final_y": "529383.215809",
    "longitude": "-90.09722655180033",
    "latitude": "29.94989667068109",
    "geocoded_column": {
      "latitude": "29.94989667068109",
      "longitude": "-90.09722655180033"
    }
  },
  {
    "service_request": "2022-910924",
    "request_type": "Trash/Recycling",
    "request_reason": "Replace Trash Cart",
    "date_created": "2022-08-17T14:28:24.000",
    "date_modified": "2022-08-17T14:52:17.000",
    "request_status": "Pending",
    "responsible_agency": "Department of Sanitation",
    "final_address": "2134 Broadway St, New Orleans, Louisiana, 70118",
    "address_councildis": "A",
    "status": "Assigned to Contractor",
    "contractor": "Richards Disposal",
    "rowid": "910924",
    "final_x": "3666050.27309",
    "final_y": "529387.221633",
    "longitude": "-90.11692668145301",
    "latitude": "29.950091284068694",
    "geocoded_column": {
      "latitude": "29.950091284068694",
      "longitude": "-90.11692668145301"
    }
  },
  {
    "service_request": "2022-910923",
    "request_type": "Trash/Recycling",
    "request_reason": "Replace Trash Cart",
    "date_created": "2022-08-17T14:26:33.000",
    "date_modified": "2022-08-17T14:26:34.000",
    "request_status": "Pending",
    "responsible_agency": "Department of Sanitation",
    "final_address": "New Orleans,LA",
    "status": "Assigned to Contractor",
    "rowid": "910923",
    "longitude": "0.0",
    "latitude": "0.0",
    "geocoded_column": {
      "latitude": "0.0",
      "longitude": "0.0"
    }
  },
  {
    "service_request": "2022-910922",
    "request_type": "Trash/Recycling",
    "request_reason": "Replace Trash Cart",
    "date_created": "2022-08-17T14:25:09.000",
    "date_modified": "2022-08-17T14:25:10.000",
    "request_status": "Pending",
    "responsible_agency": "Department of Sanitation",
    "final_address": "6927 Milne Blvd",
    "address_councildis": "A",
    "status": "Assigned to Contractor",
    "contractor": "Metro Disposal",
    "rowid": "910922",
    "final_x": "3667746.96461",
    "final_y": "553702.844375",
    "longitude": "-90.11075023311062",
    "latitude": "30.016901368712773",
    "geocoded_column": {
      "latitude": "30.016901368712773",
      "longitude": "-90.11075023311062"
    }
  },
  {
    "service_request": "2022-910921",
    "request_type": "Trash/Recycling",
    "request_reason": "Missed Trash Pick-Up",
    "date_created": "2022-08-17T14:25:03.000",
    "date_modified": "2022-08-17T14:25:05.000",
    "request_status": "Pending",
    "responsible_agency": "Department of Sanitation",
    "final_address": "3204 Pine St",
    "address_councildis": "B",
    "status": "Assigned to Contractor",
    "contractor": "Richards Disposal",
    "rowid": "910921",
    "final_x": "3667936.30356",
    "final_y": "532726.116356",
    "longitude": "-90.1108591034473",
    "latitude": "29.95921696265949",
    "geocoded_column": {
      "latitude": "29.95921696265949",
      "longitude": "-90.1108591034473"
    }
  },
  {
    "service_request": "2022-910920",
    "request_type": "Trash/Recycling",
    "request_reason": "Request a Large Item Pick Up",
    "date_created": "2022-08-17T14:23:57.000",
    "date_modified": "2022-08-17T14:23:58.000",
    "request_status": "Pending",
    "responsible_agency": "Department of Sanitation",
    "final_address": "1531 Adams St",
    "address_councildis": "A",
    "status": "Assigned to Contractor",
    "contractor": "Richards Disposal",
    "rowid": "910920",
    "final_x": "3663964.57408",
    "final_y": "528324.852672",
    "longitude": "-90.12354765703127",
    "latitude": "29.947230828537542",
    "geocoded_column": {
      "latitude": "29.947230828537542",
      "longitude": "-90.12354765703127"
    }
  },
  {
    "service_request": "2022-910919",
    "request_type": "Trash/Recycling",
    "request_reason": "Missed Trash Pick-Up",
    "date_created": "2022-08-17T14:23:29.000",
    "date_modified": "2022-08-17T14:23:30.000",
    "request_status": "Pending",
    "responsible_agency": "Department of Sanitation",
    "final_address": "7744 St Charles Ave",
    "address_councildis": "A",
    "status": "Assigned to Contractor",
    "contractor": "Richards Disposal",
    "rowid": "910919",
    "final_x": "3661392.67366",
    "final_y": "525997.454014",
    "longitude": "-90.13174522285735",
    "latitude": "29.940905637962846",
    "geocoded_column": {
      "latitude": "29.940905637962846",
      "longitude": "-90.13174522285735"
    }
  },
  {
    "service_request": "2022-910918",
    "request_type": "Roads/Drainage",
    "request_reason": "Alley Way",
    "date_created": "2022-08-17T14:22:13.000",
    "date_modified": "2022-08-17T14:22:13.000",
    "request_status": "Pending",
    "responsible_agency": "Department of Public Works",
    "final_address": "6927 Milne Blvd",
    "address_councildis": "A",
    "status": "Pending",
    "rowid": "910918",
    "final_x": "3667746.96461",
    "final_y": "553702.844375",
    "longitude": "-90.11075023311062",
    "latitude": "30.016901368712773",
    "geocoded_column": {
      "latitude": "30.016901368712773",
      "longitude": "-90.11075023311062"
    }
  },
  {
    "service_request": "2022-910917",
    "request_type": "Property Maintenance",
    "request_reason": "Property Maintenance",
    "date_created": "2022-08-17T14:19:42.000",
    "date_modified": "2022-08-17T14:19:42.000",
    "request_status": "Pending",
    "responsible_agency": "Department of Code Enforcement",
    "final_address": "5770 Read Blvd",
    "address_councildis": "E",
    "status": "Pending",
    "rowid": "910917",
    "final_x": "3709890.23992",
    "final_y": "560445.443294",
    "longitude": "-89.97734416242591",
    "latitude": "30.03413714485106",
    "geocoded_column": {
      "latitude": "30.03413714485106",
      "longitude": "-89.97734416242591"
    }
  },
  {
    "service_request": "2022-910916",
    "request_type": "Trash/Recycling",
    "request_reason": "Request a Large Item Pick Up",
    "date_created": "2022-08-17T14:19:10.000",
    "date_modified": "2022-08-17T14:19:11.000",
    "request_status": "Pending",
    "responsible_agency": "Department of Sanitation",
    "final_address": "2459 Royal St",
    "address_councildis": "C",
    "status": "Assigned to Contractor",
    "contractor": "Metro Disposal",
    "rowid": "910916",
    "final_x": "3686396.84649",
    "final_y": "534994.811654",
    "longitude": "-90.05248522791058",
    "latitude": "29.964900627640272",
    "geocoded_column": {
      "latitude": "29.964900627640272",
      "longitude": "-90.05248522791058"
    }
  },
  {
    "service_request": "2022-910915",
    "request_type": "Trash/Recycling",
    "request_reason": "Replace Trash Cart",
    "date_created": "2022-08-17T14:16:39.000",
    "date_modified": "2022-08-17T14:16:40.000",
    "request_status": "Pending",
    "responsible_agency": "Department of Sanitation",
    "final_address": "4844 Nottingham Dr",
    "address_councildis": "E",
    "status": "Assigned to Contractor",
    "contractor": "Metro Disposal",
    "rowid": "910915",
    "final_x": "3716264.91628",
    "final_y": "557425.021979",
    "longitude": "-89.95731421451936",
    "latitude": "30.02562322857043",
    "geocoded_column": {
      "latitude": "30.02562322857043",
      "longitude": "-89.95731421451936"
    }
  },
  {
    "service_request": "2022-910914",
    "request_type": "Trash/Recycling",
    "request_reason": "MIssed Recycling Pick-Up",
    "date_created": "2022-08-17T14:13:14.000",
    "date_modified": "2022-08-17T14:13:14.000",
    "request_status": "Pending",
    "responsible_agency": "Department of Sanitation",
    "final_address": "3112 Esplanade Ave",
    "address_councildis": "A",
    "status": "Assigned to Contractor",
    "contractor": "Richards Disposal",
    "rowid": "910914",
    "final_x": "3676427.73217",
    "final_y": "540230.439819",
    "longitude": "-90.0837867921193",
    "latitude": "29.97959946577619",
    "geocoded_column": {
      "latitude": "29.97959946577619",
      "longitude": "-90.0837867921193"
    }
  },
  {
    "service_request": "2022-910913",
    "request_type": "Trash/Recycling",
    "request_reason": "Request a Large Item Pick Up",
    "date_created": "2022-08-17T14:12:44.000",
    "date_modified": "2022-08-17T14:12:45.000",
    "request_status": "Pending",
    "responsible_agency": "Department of Sanitation",
    "final_address": "8608 Marks St",
    "address_councildis": "A",
    "status": "Assigned to Contractor",
    "contractor": "Richards Disposal",
    "rowid": "910913",
    "final_x": "3667466.20359",
    "final_y": "537236.656456",
    "longitude": "-90.11219177811225",
    "latitude": "29.97163323545828",
    "geocoded_column": {
      "latitude": "29.97163323545828",
      "longitude": "-90.11219177811225"
    }
  },
  {
    "service_request": "2022-910912",
    "request_type": "Trash/Recycling",
    "request_reason": "Return Recycling Cart",
    "date_created": "2022-08-17T14:08:09.000",
    "date_modified": "2022-08-17T14:08:09.000",
    "request_status": "Pending",
    "responsible_agency": "Department of Sanitation",
    "final_address": "2030 Chestnut St",
    "address_councildis": "B",
    "status": "Pending",
    "rowid": "910912",
    "final_x": "3678856.36123",
    "final_y": "522972.016763",
    "longitude": "-90.0767139915808",
    "latitude": "29.932071573359895",
    "geocoded_column": {
      "latitude": "29.932071573359895",
      "longitude": "-90.0767139915808"
    }
  },
  {
    "service_request": "2022-910911",
    "request_type": "Property Maintenance",
    "request_reason": "Property Maintenance",
    "date_created": "2022-08-17T14:07:07.000",
    "date_modified": "2022-08-17T14:07:07.000",
    "request_status": "Closed",
    "responsible_agency": "Department of Code Enforcement",
    "final_address": "3518 Roger Williams St",
    "address_councildis": "D",
    "status": "Resolved",
    "rowid": "910911",
    "final_x": "3676138.30651",
    "final_y": "543899.779214",
    "longitude": "-90.08457461384856",
    "latitude": "29.989697554242277",
    "geocoded_column": {
      "latitude": "29.989697554242277",
      "longitude": "-90.08457461384856"
    }
  },
  {
    "service_request": "2022-910910",
    "request_type": "Abandoned Vehicles",
    "request_reason": "Abandoned/Junk Vehicles",
    "date_created": "2022-08-17T14:06:53.000",
    "date_modified": "2022-08-17T14:10:00.000",
    "request_status": "Pending",
    "responsible_agency": "Department of Public Works",
    "final_address": "4650 Coronado Dr",
    "address_councildis": "E",
    "status": "Pending",
    "rowid": "910910",
    "final_x": "3714098.81253",
    "final_y": "556058.627097",
    "longitude": "-89.96421031390231",
    "latitude": "30.021937529548644",
    "geocoded_column": {
      "latitude": "30.021937529548644",
      "longitude": "-89.96421031390231"
    }
  },
  {
    "service_request": "2022-910909",
    "request_type": "Property Maintenance",
    "request_reason": "Property Maintenance",
    "date_created": "2022-08-17T14:06:12.000",
    "date_modified": "2022-08-17T14:06:12.000",
    "request_status": "Pending",
    "responsible_agency": "Department of Code Enforcement",
    "final_address": "323 Belleville St",
    "address_councildis": "C",
    "status": "Pending",
    "rowid": "910909",
    "final_x": "3687835.56412",
    "final_y": "530575.377538",
    "longitude": "-90.0480984004897",
    "latitude": "29.952704412263675",
    "geocoded_column": {
      "latitude": "29.952704412263675",
      "longitude": "-90.0480984004897"
    }
  },
  {
    "service_request": "2022-910908",
    "request_type": "Trash/Recycling",
    "request_reason": "Replace Trash Cart",
    "date_created": "2022-08-17T14:02:31.000",
    "date_modified": "2022-08-17T14:02:32.000",
    "request_status": "Pending",
    "responsible_agency": "Department of Sanitation",
    "final_address": "3501 Huntlee Dr",
    "address_councildis": "C",
    "status": "Assigned to Contractor",
    "contractor": "Richards Disposal",
    "rowid": "910908",
    "final_x": "3701650.83997",
    "final_y": "518197.785846",
    "longitude": "-90.00492935332447",
    "latitude": "29.918237036121074",
    "geocoded_column": {
      "latitude": "29.918237036121074",
      "longitude": "-90.00492935332447"
    }
  },
  {
    "service_request": "2022-910907",
    "request_type": "Trash/Recycling",
    "request_reason": "Replace Trash Cart",
    "date_created": "2022-08-17T14:02:07.000",
    "date_modified": "2022-08-17T14:02:07.000",
    "request_status": "Pending",
    "responsible_agency": "Department of Sanitation",
    "final_address": "1429 Cambronne St",
    "address_councildis": "A",
    "status": "Assigned to Contractor",
    "contractor": "Richards Disposal",
    "rowid": "910907",
    "final_x": "3661829.73888",
    "final_y": "529773.019777",
    "longitude": "-90.13024016540754",
    "latitude": "29.951274627861807",
    "geocoded_column": {
      "latitude": "29.951274627861807",
      "longitude": "-90.13024016540754"
    }
  },
  {
    "service_request": "2022-910906",
    "request_type": "Traffic Signals/Signs/Striping/Streetlights",
    "request_reason": "Street Light Outage/Malfunction",
    "date_created": "2022-08-17T14:00:33.000",
    "date_modified": "2022-08-17T14:00:33.000",
    "request_status": "Pending",
    "responsible_agency": "Department of Public Works",
    "final_address": "1429 Cambronne St",
    "address_councildis": "A",
    "status": "Pending",
    "contractor": "Legacy Professional Services",
    "rowid": "910906",
    "final_x": "3661829.73888",
    "final_y": "529773.019777",
    "longitude": "-90.13024016540754",
    "latitude": "29.951274627861807",
    "geocoded_column": {
      "latitude": "29.951274627861807",
      "longitude": "-90.13024016540754"
    }
  },
  {
    "service_request": "2022-910905",
    "request_type": "Roads/Drainage",
    "request_reason": "Street Flooding / Drainage",
    "date_created": "2022-08-17T13:59:52.000",
    "date_modified": "2022-08-17T13:59:52.000",
    "request_status": "Pending",
    "responsible_agency": "Department of Public Works",
    "final_address": "9241 Palmetto St",
    "address_councildis": "A",
    "status": "Pending",
    "rowid": "910905",
    "final_x": "3665306.16647",
    "final_y": "537943.702281",
    "longitude": "-90.11898986425598",
    "latitude": "29.973640496426963",
    "geocoded_column": {
      "latitude": "29.973640496426963",
      "longitude": "-90.11898986425598"
    }
  },
  {
    "service_request": "2022-910904",
    "request_type": "Trash/Recycling",
    "request_reason": "Replace Trash Cart",
    "date_created": "2022-08-17T13:59:15.000",
    "date_modified": "2022-08-17T13:59:16.000",
    "request_status": "Pending",
    "responsible_agency": "Department of Sanitation",
    "final_address": "918 Audubon St, New Orleans, Louisiana, 70118",
    "address_councildis": "B",
    "status": "Assigned to Contractor",
    "contractor": "Richards Disposal",
    "rowid": "910904",
    "final_x": "3667787.36474",
    "final_y": "531537.670723",
    "longitude": "-90.11136943919976",
    "latitude": "29.955953496071963",
    "geocoded_column": {
      "latitude": "29.955953496071963",
      "longitude": "-90.11136943919976"
    }
  },
  {
    "service_request": "2022-910903",
    "request_type": "Abandoned Vehicles",
    "request_reason": "Abandoned/Junk Vehicles",
    "date_created": "2022-08-17T13:59:13.000",
    "date_modified": "2022-08-17T13:59:14.000",
    "request_status": "Pending",
    "responsible_agency": "Department of Public Works",
    "final_address": "4447 Arthur Dr",
    "address_councildis": "E",
    "status": "Pending",
    "rowid": "910903",
    "final_x": "3707920.37713",
    "final_y": "553917.889495",
    "longitude": "-89.98381207530458",
    "latitude": "30.016252872783113",
    "geocoded_column": {
      "latitude": "30.016252872783113",
      "longitude": "-89.98381207530458"
    }
  },
  {
    "service_request": "2022-910902",
    "request_type": "Trash/Recycling",
    "request_reason": "Request a Large Item Pick Up",
    "date_created": "2022-08-17T13:58:40.000",
    "date_modified": "2022-08-17T13:58:41.000",
    "request_status": "Pending",
    "responsible_agency": "Department of Sanitation",
    "final_address": "1531 Adams St",
    "address_councildis": "A",
    "status": "Assigned to Contractor",
    "contractor": "Richards Disposal",
    "rowid": "910902",
    "final_x": "3663964.57408",
    "final_y": "528324.852672",
    "longitude": "-90.12354765703127",
    "latitude": "29.947230828537542",
    "geocoded_column": {
      "latitude": "29.947230828537542",
      "longitude": "-90.12354765703127"
    }
  },
  {
    "service_request": "2022-910901",
    "request_type": "Trash/Recycling",
    "request_reason": "Order Trash Cart",
    "date_created": "2022-08-17T13:53:40.000",
    "date_modified": "2022-08-17T13:53:41.000",
    "request_status": "Pending",
    "responsible_agency": "Department of Sanitation",
    "final_address": "625 Forstall St",
    "address_councildis": "E",
    "status": "Assigned to Contractor",
    "contractor": "Metro Disposal",
    "rowid": "910901",
    "final_x": "3695820.52144",
    "final_y": "532530.48474",
    "longitude": "-90.02281500959249",
    "latitude": "29.95783158582478",
    "geocoded_column": {
      "latitude": "29.95783158582478",
      "longitude": "-90.02281500959249"
    }
  },
  {
    "service_request": "2022-910900",
    "request_type": "Abandoned Vehicles",
    "request_reason": "Abandoned/Junk Vehicles",
    "date_created": "2022-08-17T13:53:01.000",
    "date_modified": "2022-08-17T13:53:01.000",
    "request_status": "Pending",
    "responsible_agency": "Department of Public Works",
    "final_address": "2001 Simon Bolivar Ave",
    "address_councildis": "B",
    "status": "Pending",
    "rowid": "910900",
    "final_x": "3676717.90139",
    "final_y": "525952.084605",
    "longitude": "-90.08336227086328",
    "latitude": "29.940330095023615",
    "geocoded_column": {
      "latitude": "29.940330095023615",
      "longitude": "-90.08336227086328"
    }
  },
  {
    "service_request": "2022-910899",
    "request_type": "Traffic Signals/Signs/Striping/Streetlights",
    "request_reason": "Traffic Signal Malfunctioning/Damaged",
    "date_created": "2022-08-17T13:52:02.000",
    "date_modified": "2022-08-17T13:52:02.000",
    "request_status": "Pending",
    "responsible_agency": "Department of Public Works",
    "final_address": "4821 Press Dr",
    "address_councildis": "D",
    "status": "Pending",
    "rowid": "910899",
    "final_x": "3689650.14217",
    "final_y": "551228.347221",
    "longitude": "-90.0416336557399",
    "latitude": "30.009436633967574",
    "geocoded_column": {
      "latitude": "30.009436633967574",
      "longitude": "-90.0416336557399"
    }
  },
  {
    "service_request": "2022-910898",
    "request_type": "Abandoned Vehicles",
    "request_reason": "Abandoned/Junk Vehicles",
    "date_created": "2022-08-17T13:51:44.000",
    "date_modified": "2022-08-17T13:51:44.000",
    "request_status": "Pending",
    "responsible_agency": "Department of Public Works",
    "final_address": "9124 Peach St",
    "address_councildis": "A",
    "status": "Pending",
    "rowid": "910898",
    "final_x": "3665840.29888",
    "final_y": "538199.178313",
    "longitude": "-90.11729439022685",
    "latitude": "29.97432739465365",
    "geocoded_column": {
      "latitude": "29.97432739465365",
      "longitude": "-90.11729439022685"
    }
  },
  {
    "service_request": "2022-910897",
    "request_type": "Trash/Recycling",
    "request_reason": "MIssed Recycling Pick-Up",
    "date_created": "2022-08-17T13:51:33.000",
    "date_modified": "2022-08-17T13:51:33.000",
    "request_status": "Pending",
    "responsible_agency": "Department of Sanitation",
    "final_address": "464 Pine St",
    "address_councildis": "A",
    "status": "Assigned to Contractor",
    "contractor": "Richards Disposal",
    "rowid": "910897",
    "final_x": "3662259.04045",
    "final_y": "524263.752636",
    "longitude": "-90.12906746175246",
    "latitude": "29.93611349903106",
    "geocoded_column": {
      "latitude": "29.93611349903106",
      "longitude": "-90.12906746175246"
    }
  },
  {
    "service_request": "2022-910895",
    "request_type": "Trash/Recycling",
    "request_reason": "Replace Trash Cart",
    "date_created": "2022-08-17T13:48:03.000",
    "date_modified": "2022-08-17T13:48:04.000",
    "request_status": "Pending",
    "responsible_agency": "Department of Sanitation",
    "final_address": "364 Walnut St",
    "address_councildis": "A",
    "status": "Assigned to Contractor",
    "contractor": "Richards Disposal",
    "rowid": "910895",
    "final_x": "3662062.81216",
    "final_y": "522422.988794",
    "longitude": "-90.1297480050048",
    "latitude": "29.931057647652636",
    "geocoded_column": {
      "latitude": "29.931057647652636",
      "longitude": "-90.1297480050048"
    }
  },
  {
    "service_request": "2022-910894",
    "request_type": "Traffic Signals/Signs/Striping/Streetlights",
    "request_reason": "Traffic Sign Missing/Damaged",
    "date_created": "2022-08-17T13:47:44.000",
    "date_modified": "2022-08-17T13:47:44.000",
    "request_status": "Pending",
    "responsible_agency": "Department of Public Works",
    "final_address": "4200 Chef Menteur Hwy",
    "address_councildis": "D",
    "status": "Pending",
    "rowid": "910894",
    "final_x": "3690386.55062",
    "final_y": "549170.992787",
    "longitude": "-90.03938049417991",
    "latitude": "30.003756818258015",
    "geocoded_column": {
      "latitude": "30.003756818258015",
      "longitude": "-90.03938049417991"
    }
  },
  {
    "service_request": "2022-910893",
    "request_type": "Parks & Parkways",
    "request_reason": "Request Tree Service (Right of Way/Public Property)",
    "date_created": "2022-08-17T13:47:10.000",
    "date_modified": "2022-08-17T15:04:24.000",
    "case_close_date": "2022-08-17T10:04:24.000",
    "request_status": "Closed",
    "responsible_agency": "Department of Parks & Parkway",
    "final_address": "BIRCH ST & BROADWAY ST",
    "address_councildis": "A",
    "status": "Resolved",
    "rowid": "910893",
    "final_x": "3664947.0",
    "final_y": "527677.98",
    "longitude": "-90.1204673724462",
    "latitude": "29.94542357944676",
    "geocoded_column": {
      "latitude": "29.94542357944676",
      "longitude": "-90.1204673724462"
    }
  },