[
  {
    "service_request": "2024-1158486",
    "request_type": "Trash/Recycling",
    "request_reason": "Request a Large Item Pick Up",
    "date_created": "2024-12-31T23:47:23.000",
    "date_modified": "2024-12-31T23:47:24.000",
    "request_status": "Pending",
    "responsible_agency": "Department of Sanitation",
    "final_address": "4218 Banks St",
    "address_councildis": "A",
    "status": "Assigned to Contractor",
    "contractor": "IV Waste",
    "rowid": "1158486",
    "final_x": "3669667.96756",
    "final_y": "537771.04596",
    "longitude": "-90.1052201674772",
    "latitude": "29.97303792382534",
    "geocoded_column": {
      "latitude": "29.97303792382534",
      "longitude": "-90.1052201674772"
    }
  },
  {
    "service_request": "2024-1158485",
    "request_type": "Property Maintenance",
    "request_reason": "Property Maintenance",
    "date_created": "2024-12-31T21:07:49.000",
    "date_modified": "2024-12-31T21:07:52.000",
    "request_status": "Pending",
    "responsible_agency": "Department of Code Enforcement",
    "final_address": "7928 Forshey St",
    "address_councildis": "B",
    "status": "Pending",
    "rowid": "1158485",
    "final_x": "3667392.80314",
    "final_y": "533521.207045",
    "longitude": "-90.11254860288972",
    "latitude": "29.961419132925258",
    "geocoded_column": {
      "latitude": "29.961419132925258",
      "longitude": "-90.11254860288972"
    }
  },
  {
    "service_request": "2024-1158484",
    "request_type": "Trash/Recycling",
    "request_reason": "Request a Large Item Pick Up",
    "date_created": "2024-12-31T20:42:12.000",
    "date_modified": "2024-12-31T20:42:13.000",
    "request_status": "Pending",
    "responsible_agency": "Department of Sanitation",
    "final_address": "5000 BLK New York Cir",
    "address_councildis": "D",
    "status": "Assigned to Contractor",
    "contractor": "IV Waste",
    "rowid": "1158484",
    "final_x": "3690842.80069",
    "final_y": "556938.008943",
    "longitude": "-90.03766167094062",
    "latitude": "30.02509905592841",
    "geocoded_column": {
      "latitude": "30.02509905592841",
      "longitude": "-90.03766167094062"
    }
  },
  {
    "service_request": "2024-1158483",
    "request_type": "Roads and Streets",
    "request_reason": "Street Subsidence (Sinking)",
    "date_created": "2024-12-31T19:53:06.000",
    "date_modified": "2024-12-31T19:53:09.000",
    "request_status": "Pending",
    "responsible_agency": "Department of Public Works",
    "final_address": "3018 N Dorgenois St",
    "address_councildis": "D",
    "status": "Pending",
    "rowid": "1158483",
    "final_x": "3689915.548",
    "final_y": "541337.8507",
    "longitude": "-90.04114753293797",
    "latitude": "29.982233123242466",
    "geocoded_column": {
      "latitude": "29.982233123242466",
      "longitude": "-90.04114753293797"
    }
  },
  {
    "service_request": "2024-1158482",
    "request_type": "Property Maintenance",
    "request_reason": "Property Maintenance",
    "date_created": "2024-12-31T19:44:20.000",
    "date_modified": "2024-12-31T19:44:24.000",
    "request_status": "Pending",
    "responsible_agency": "Department of Code Enforcement",
    "final_address": "1240 Alvar St",
    "address_councildis": "D",
    "status": "Pending",
    "rowid": "1158482",
    "final_x": "3691626.26198",
    "final_y": "536089.071431",
    "longitude": "-90.03593199687987",
    "latitude": "29.967747687853336",
    "geocoded_column": {
      "latitude": "29.967747687853336",
      "longitude": "-90.03593199687987"
    }
  },
  {
    "service_request": "2024-1158481",
    "request_type": "Roads and Streets",
    "request_reason": "Debris in Driving Lanes",
    "date_created": "2024-12-31T19:31:00.000",
    "date_modified": "2024-12-31T19:31:04.000",
    "request_status": "Pending",
    "responsible_agency": "Department of Public Works",
    "final_address": "2443 Montegut St",
    "address_councildis": "D",
    "status": "Pending",
    "rowid": "1158481",
    "final_x": "3689779.04604",
    "final_y": "541371.2827",
    "longitude": "-90.04157748067554",
    "latitude": "29.98232928130808",
    "geocoded_column": {
      "latitude": "29.98232928130808",
      "longitude": "-90.04157748067554"
    }
  },
  {
    "service_request": "2024-1158480",
    "request_type": "Traffic Signals",
    "request_reason": "Traffic Signal Malfunctioning or Damaged",
    "date_created": "2024-12-31T19:05:39.000",
    "date_modified": "2024-12-31T19:05:42.000",
    "request_status": "Pending",
    "responsible_agency": "Department of Public Works",
    "final_address": "FILMORE AVE & CANAL BLVD",
    "address_councildis": "A",
    "status": "Pending",
    "rowid": "1158480",
    "final_x": "3668851.3",
    "final_y": "552025.58",
    "longitude": "-90.10731768450728",
    "latitude": "30.012257038147645",
    "geocoded_column": {
      "latitude": "30.012257038147645",
      "longitude": "-90.10731768450728"
    }
  },
  {
    "service_request": "2024-1158479",
    "request_type": "Roads and Streets",
    "request_reason": "Debris in Driving Lanes",
    "date_created": "2024-12-31T18:59:05.000",
    "date_modified": "2024-12-31T18:59:08.000",
    "request_status": "Pending",
    "responsible_agency": "Department of Public Works",
    "final_address": "3029 N Dorgenois St",
    "address_councildis": "D",
    "status": "Pending",
    "rowid": "1158479",
    "final_x": "3690004.06819",
    "final_y": "541393.220044",
    "longitude": "-90.04086597145249",
    "latitude": "29.982382624021124",
    "geocoded_column": {
      "latitude": "29.982382624021124",
      "longitude": "-90.04086597145249"
    }
  },
  {
    "service_request": "2024-1158478",
    "request_type": "Streetlights",
    "request_reason": "Streetlight Outage/Malfunction",
    "date_created": "2024-12-31T18:25:33.000",
    "date_modified": "2024-12-31T18:25:34.000",
    "request_status": "Pending",
    "responsible_agency": "Department of Public Works",
    "final_address": "6828 Colbert St",
    "address_councildis": "A",
    "status": "Pending",
    "contractor": "Legacy Professional Services",
    "rowid": "1158478",
    "final_x": "3667828.14637",
    "final_y": "552989.700311",
    "longitude": "-90.110517777736",
    "latitude": "30.014938091972557",
    "geocoded_column": {
      "latitude": "30.014938091972557",
      "longitude": "-90.110517777736"
    }
  },
  {
    "service_request": "2024-1158477",
    "request_type": "Streetlights",
    "request_reason": "Streetlight Outage/Malfunction",
    "date_created": "2024-12-31T18:22:27.000",
    "date_modified": "2024-12-31T18:22:28.000",
    "request_status": "Pending",
    "responsible_agency": "Department of Public Works",
    "final_address": "0 BLK Claiborne Dr",
    "address_councildis": "A",
    "status": "Pending",
    "contractor": "Legacy Professional Services",
    "rowid": "1158477",
    "final_x": "3674085.17443",
    "final_y": "541752.972384",
    "longitude": "-90.09113341263269",
    "latitude": "29.983855941679376",
    "geocoded_column": {
      "latitude": "29.983855941679376",
      "longitude": "-90.09113341263269"
    }
  },
  {
    "service_request": "2024-1158476",
    "request_type": "Trash/Recycling",
    "request_reason": "Request a Large Item Pick Up",
    "date_created": "2024-12-31T18:12:23.000",
    "date_modified": "2024-12-31T18:12:24.000",
    "request_status": "Pending",
    "responsible_agency": "Department of Sanitation",
    "final_address": "2855 Magazine St, New Orleans, Louisiana, 70115",
    "address_councildis": "B",
    "status": "Assigned to Contractor",
    "contractor": "IV Waste",
    "rowid": "1158476",
    "final_x": "3676632.6411",
    "final_y": "520626.727416",
    "longitude": "-90.08381479432627",
    "latitude": "29.925689659369493",
    "geocoded_column": {
      "latitude": "29.925689659369493",
      "longitude": "-90.08381479432627"
    }
  },
  {
    "service_request": "2024-1158475",
    "request_type": "Trash/Recycling",
    "request_reason": "Request a Large Item Pick Up",
    "date_created": "2024-12-31T17:54:45.000",
    "date_modified": "2024-12-31T17:54:46.000",
    "request_status": "Pending",
    "responsible_agency": "Department of Sanitation",
    "final_address": "1801 Mazant St",
    "address_councildis": "D",
    "status": "Assigned to Contractor",
    "contractor": "IV Waste",
    "rowid": "1158475",
    "final_x": "3692807.00381",
    "final_y": "537884.287113",
    "longitude": "-90.03213881734901",
    "latitude": "29.972647081276328",
    "geocoded_column": {
      "latitude": "29.972647081276328",
      "longitude": "-90.03213881734901"
    }
  },
  {
    "service_request": "2024-1158474",
    "request_type": "Trash/Recycling",
    "request_reason": "Illegal Dumping",
    "date_created": "2024-12-31T17:52:17.000",
    "date_modified": "2024-12-31T17:52:19.000",
    "request_status": "Pending",
    "responsible_agency": "Department of Sanitation",
    "final_address": "1801 Mazant St",
    "address_councildis": "D",
    "status": "Pending",
    "rowid": "1158474",
    "final_x": "3692807.00381",
    "final_y": "537884.287113",
    "longitude": "-90.03213881734901",
    "latitude": "29.972647081276328",
    "geocoded_column": {
      "latitude": "29.972647081276328",
      "longitude": "-90.03213881734901"
    }
  },
  {
    "service_request": "2024-1158473",
    "request_type": "Trash/Recycling",
    "request_reason": "Request a Large Item Pick Up",
    "date_created": "2024-12-31T17:21:39.000",
    "date_modified": "2024-12-31T17:21:39.000",
    "request_status": "Pending",
    "responsible_agency": "Department of Sanitation",
    "final_address": "5816 Marigny St",
    "address_councildis": "D",
    "status": "Assigned to Contractor",
    "contractor": "IV Waste",
    "rowid": "1158473",
    "final_x": "3683893.15113",
    "final_y": "554409.546968",
    "longitude": "-90.05971025205048",
    "latitude": "30.018360962680436",
    "geocoded_column": {
      "latitude": "30.018360962680436",
      "longitude": "-90.05971025205048"
    }
  },
  {
    "service_request": "2024-1158472",
    "request_type": "Trash/Recycling",
    "request_reason": "Order Trash Cart",
    "date_created": "2024-12-31T17:12:43.000",
    "date_modified": "2024-12-31T17:12:44.000",
    "request_status": "Pending",
    "responsible_agency": "Department of Sanitation",
    "final_address": "1327 Sixth St",
    "address_councildis": "B",
    "status": "Assigned to Contractor",
    "contractor": "IV Waste",
    "rowid": "1158472",
    "final_x": "3676116.57493",
    "final_y": "521370.019577",
    "longitude": "-90.08541830673501",
    "latitude": "29.92774893604285",
    "geocoded_column": {
      "latitude": "29.92774893604285",
      "longitude": "-90.08541830673501"
    }
  },
  {
    "service_request": "2024-1158471",
    "request_type": "Trash/Recycling",
    "request_reason": "Request a Large Item Pick Up",
    "date_created": "2024-12-31T17:07:06.000",
    "date_modified": "2024-12-31T17:07:07.000",
    "request_status": "Pending",
    "responsible_agency": "Department of Sanitation",
    "final_address": "5043 E St Andrews Cir",
    "address_councildis": "E",
    "status": "Assigned to Contractor",
    "contractor": "Waste Pro",
    "rowid": "1158471",
    "final_x": "3719574.2677",
    "final_y": "559926.201501",
    "longitude": "-89.94676162284782",
    "latitude": "30.03239077538315",
    "geocoded_column": {
      "latitude": "30.03239077538315",
      "longitude": "-89.94676162284782"
    }
  },
  {
    "service_request": "2024-1158470",
    "request_type": "Trash/Recycling",
    "request_reason": "Illegal Dumping",
    "date_created": "2024-12-31T17:06:14.000",
    "date_modified": "2024-12-31T17:06:16.000",
    "request_status": "Pending",
    "responsible_agency": "Department of Sanitation",
    "final_address": "725 S Solomon St",
    "address_councildis": "A",
    "status": "Pending",
    "rowid": "1158470",
    "final_x": "3668998.79335",
    "final_y": "536711.104647",
    "longitude": "-90.10736937241983",
    "latitude": "29.970143144541236",
    "geocoded_column": {
      "latitude": "29.970143144541236",
      "longitude": "-90.10736937241983"
    }
  },
  {
    "service_request": "2024-1158469",
    "request_type": "Property Maintenance",
    "request_reason": "Property Maintenance",
    "date_created": "2024-12-31T16:56:34.000",
    "date_modified": "2024-12-31T16:56:37.000",
    "request_status": "Pending",
    "responsible_agency": "Department of Code Enforcement",
    "final_address": "1729 Third St",
    "address_councildis": "B",
    "status": "Pending",
    "rowid": "1158469",
    "final_x": "3676118.81627",
    "final_y": "523423.659131",
    "longitude": "-90.08534062331951",
    "latitude": "29.933395709602955",
    "geocoded_column": {
      "latitude": "29.933395709602955",
      "longitude": "-90.08534062331951"
    }
  },
  {
    "service_request": "2024-1158468",
    "request_type": "Drainage",
    "request_reason": "Drainage Manhole Cover Missing or Damaged",
    "date_created": "2024-12-31T16:37:31.000",
    "date_modified": "2024-12-31T16:37:32.000",
    "request_status": "Pending",
    "responsible_agency": "Department of Public Works",
    "final_address": "719 Toulouse St",
    "address_councildis": "C",
    "status": "Pending",
    "rowid": "1158468",
    "final_x": "3682211.62479",
    "final_y": "532276.137283",
    "longitude": "-90.06579685688294",
    "latitude": "29.95755317737184",
    "geocoded_column": {
      "latitude": "29.95755317737184",
      "longitude": "-90.06579685688294"
    }
  },
  {
    "service_request": "2024-1158467",
    "request_type": "Trash/Recycling",
    "request_reason": "Order Recycling Cart",
    "date_created": "2024-12-31T16:28:05.000",
    "date_modified": "2024-12-31T16:28:07.000",
    "request_status": "Pending",
    "responsible_agency": "Department of Sanitation",
    "final_address": "3424 Gentilly Blvd",
    "address_councildis": "D",
    "status": "Pending",
    "rowid": "1158467",
    "final_x": "3685343.82697",
    "final_y": "548462.202386",
    "longitude": "-90.05533624845395",
    "latitude": "30.001963516661547",
    "geocoded_column": {
      "latitude": "30.001963516661547",
      "longitude": "-90.05533624845395"
    }
  },
  {
    "service_request": "2024-1158466",
    "request_type": "Trash/Recycling",
    "request_reason": "Request a Large Item Pick Up",
    "date_created": "2024-12-31T16:25:49.000",
    "date_modified": "2024-12-31T16:25:50.000",
    "request_status": "Pending",
    "responsible_agency": "Department of Sanitation",
    "final_address": "212 Filmore Ave",
    "address_councildis": "A",
    "status": "Assigned to Contractor",
    "contractor": "IV Waste",
    "rowid": "1158466",
    "final_x": "3667209.27847",
    "final_y": "552132.55919",
    "longitude": "-90.11250196537705",
    "latitude": "30.012599400096043",
    "geocoded_column": {
      "latitude": "30.012599400096043",
      "longitude": "-90.11250196537705"
    }
  },
  {
    "service_request": "2024-1158465",
    "request_type": "Roads and Streets",
    "request_reason": "Sidewalk Damaged or Missing",
    "date_created": "2024-12-31T16:22:12.000",
    "date_modified": "2024-12-31T16:22:15.000",
    "request_status": "Pending",
    "responsible_agency": "Department of Public Works",
    "final_address": "BOURBON ST & TOULOUSE ST",
    "address_councildis": "C",
    "status": "Pending",
    "rowid": "1158465",
    "final_x": "3682032.9",
    "final_y": "532376.48",
    "longitude": "-90.0663577130678",
    "latitude": "29.957834520740352",
    "geocoded_column": {
      "latitude": "29.957834520740352",
      "longitude": "-90.0663577130678"
    }
  },
  {
    "service_request": "2024-1158464",
    "request_type": "Christmas Tree Recycle Pick Up",
    "request_reason": "Christmas Tree Recycle Pick Up",
    "date_created": "2024-12-31T16:08:31.000",
    "date_modified": "2024-12-31T16:08:36.000",
    "request_status": "Pending",
    "responsible_agency": "Office of Resilience and Sustainability",
    "final_address": "1000 Lyons St",
    "address_councildis": "B",
    "status": "Pending",
    "contractor": "R&R Recycling",
    "rowid": "1158464",
    "final_x": "3669145.02074",
    "final_y": "519019.693623",
    "longitude": "-90.10750528548877",
    "latitude": "29.921493216823944",
    "geocoded_column": {
      "latitude": "29.921493216823944",
      "longitude": "-90.10750528548877"
    }
  },
  {
    "service_request": "2024-1158463",
    "request_type": "Trash/Recycling",
    "request_reason": "Request a Large Item Pick Up",
    "date_created": "2024-12-31T16:08:14.000",
    "date_modified": "2024-12-31T16:08:15.000",
    "request_status": "Pending",
    "responsible_agency": "Department of Sanitation",
    "final_address": "5211 Kim Dr",
    "address_councildis": "E",
    "status": "Assigned to Contractor",
    "contractor": "Waste Pro",
    "rowid": "1158463",
    "final_x": "3727720.14515",
    "final_y": "564274.958241",
    "longitude": "-89.92085104000682",
    "latitude": "30.0440745007233",
    "geocoded_column": {
      "latitude": "30.0440745007233",
      "longitude": "-89.92085104000682"
    }
  },
  {
    "service_request": "2024-1158462",
    "request_type": "Abandoned Vehicles",
    "request_reason": "Abandoned/Junk Vehicles",
    "date_created": "2024-12-31T16:03:00.000",
    "date_modified": "2024-12-31T16:03:03.000",
    "request_status": "Pending",
    "responsible_agency": "Department of Public Works",
    "final_address": "4436 General Pershing St",
    "address_councildis": "B",
    "status": "Pending",
    "rowid": "1158462",
    "final_x": "3669126.98439",
    "final_y": "529871.405825",
    "longitude": "-90.10719567261788",
    "latitude": "29.951332464251376",
    "geocoded_column": {
      "latitude": "29.951332464251376",
      "longitude": "-90.10719567261788"
    }
  },
  {
    "service_request": "2024-1158461",
    "request_type": "Drainage",
    "request_reason": "Catch Basin Clogged",
    "date_created": "2024-12-31T16:01:17.000",
    "date_modified": "2024-12-31T16:01:20.000",
    "request_status": "Pending",
    "responsible_agency": "Department of Public Works",
    "final_address": "6641 Dwyer Rd",
    "address_councildis": "E",
    "status": "Pending",
    "rowid": "1158461",
    "final_x": "3699267.67376",
    "final_y": "555590.649817",
    "longitude": "-90.01108968243375",
    "latitude": "30.02112969818506",
    "geocoded_column": {
      "latitude": "30.02112969818506",
      "longitude": "-90.01108968243375"
    }
  },
  {
    "service_request": "2024-1158460",
    "request_type": "Drainage",
    "request_reason": "Alley Way Drainage Issue",
    "date_created": "2024-12-31T15:53:57.000",
    "date_modified": "2024-12-31T15:53:58.000",
    "request_status": "Pending",
    "responsible_agency": "Department of Public Works",
    "final_address": "6641 Dwyer Rd",
    "address_councildis": "E",
    "status": "Pending",
    "rowid": "1158460",
    "final_x": "3699267.67376",
    "final_y": "555590.649817",
    "longitude": "-90.01108968243375",
    "latitude": "30.02112969818506",
    "geocoded_column": {
      "latitude": "30.02112969818506",
      "longitude": "-90.01108968243375"
    }
  },
  {
    "service_request": "2024-1158459",
    "request_type": "Abandoned Vehicles",
    "request_reason": "Abandoned/Junk Vehicles",
    "date_created": "2024-12-31T15:53:56.000",
    "date_modified": "2024-12-31T15:53:58.000",
    "request_status": "Pending",
    "responsible_agency": "Department of Public Works",
    "final_address": "4436 General Pershing St",
    "address_councildis": "B",
    "status": "Pending",
    "rowid": "1158459",
    "final_x": "3669126.98439",
    "final_y": "529871.405825",
    "longitude": "-90.10719567261788",
    "latitude": "29.951332464251376",
    "geocoded_column": {
      "latitude": "29.951332464251376",
      "longitude": "-90.10719567261788"
    }
  },
  {
    "service_request": "2024-1158458",
    "request_type": "Roads and Streets",
    "request_reason": "Abandoned Service Cut",
    "date_created": "2024-12-31T15:51:08.000",
    "date_modified": "2024-12-31T15:51:09.000",
    "request_status": "Pending",
    "responsible_agency": "Department of Public Works",
    "final_address": "924 Upperline St",
    "address_councildis": "B",
    "status": "Pending",
    "rowid": "1158458",
    "final_x": "3668948.6793",
    "final_y": "518800.058615",
    "longitude": "-90.10813246488392",
    "latitude": "29.920895064146723",
    "geocoded_column": {
      "latitude": "29.920895064146723",
      "longitude": "-90.10813246488392"
    }
  },
  {
    "service_request": "2024-1158457",
    "request_type": "Trash/Recycling",
    "request_reason": "Request a Large Item Pick Up",
    "date_created": "2024-12-31T15:41:46.000",
    "date_modified": "2024-12-31T15:41:47.000",
    "request_status": "Pending",
    "responsible_agency": "Department of Sanitation",
    "final_address": "3105 Prytania St",
    "address_councildis": "B",
    "status": "Assigned to Contractor",
    "contractor": "IV Waste",
    "rowid": "1158457",
    "final_x": "3675197.07189",
    "final_y": "521480.795961",
    "longitude": "-90.08831716306341",
    "latitude": "29.928081038871138",
    "geocoded_column": {
      "latitude": "29.928081038871138",
      "longitude": "-90.08831716306341"
    }
  },
  {
    "service_request": "2024-1158456",
    "request_type": "Trash/Recycling",
    "request_reason": "Repair Recycling Cart",
    "date_created": "2024-12-31T15:35:07.000",
    "date_modified": "2024-12-31T15:35:10.000",
    "request_status": "Pending",
    "responsible_agency": "Department of Sanitation",
    "final_address": "6522 General Diaz St",
    "address_councildis": "A",
    "status": "Pending",
    "rowid": "1158456",
    "final_x": "3669769.81818",
    "final_y": "550810.270037",
    "longitude": "-90.10445685556408",
    "latitude": "30.00888830814347",
    "geocoded_column": {
      "latitude": "30.00888830814347",
      "longitude": "-90.10445685556408"
    }
  },
  {
    "service_request": "2024-1158455",
    "request_type": "Roads and Streets",
    "request_reason": "Debris in Driving Lanes",
    "date_created": "2024-12-31T15:30:16.000",
    "date_modified": "2024-12-31T15:30:20.000",
    "request_status": "Pending",
    "responsible_agency": "Department of Public Works",
    "final_address": "935 Royal St",
    "address_councildis": "C",
    "status": "Pending",
    "rowid": "1158455",
    "final_x": "3683151.89551",
    "final_y": "533294.610564",
    "longitude": "-90.06279210254618",
    "latitude": "29.960324997142965",
    "geocoded_column": {
      "latitude": "29.960324997142965",
      "longitude": "-90.06279210254618"
    }
  },
  {
    "service_request": "2024-1158454",
    "request_type": "Trash/Recycling",
    "request_reason": "Replace Trash Cart",
    "date_created": "2024-12-31T15:15:58.000",
    "date_modified": "2024-12-31T15:15:59.000",
    "request_status": "Pending",
    "responsible_agency": "Department of Sanitation",
    "final_address": "7824 Devine Ave",
    "address_councildis": "E",
    "status": "Assigned to Contractor",
    "contractor": "Waste Pro",
    "rowid": "1158454",
    "final_x": "3705291.3363",
    "final_y": "563572.182816",
    "longitude": "-89.9917614905701",
    "latitude": "30.042883287565605",
    "geocoded_column": {
      "latitude": "30.042883287565605",
      "longitude": "-89.9917614905701"
    }
  },
  {
    "service_request": "2024-1158453",
    "request_type": "Trash/Recycling",
    "request_reason": "Repair Recycling Cart",
    "date_created": "2024-12-31T15:12:57.000",
    "date_modified": "2024-12-31T15:12:59.000",
    "request_status": "Pending",
    "responsible_agency": "Department of Sanitation",
    "final_address": "800 Louque Pl",
    "address_councildis": "A",
    "status": "Pending",
    "rowid": "1158453",
    "final_x": "3668680.76794",
    "final_y": "543473.992846",
    "longitude": "-90.1081453634676",
    "latitude": "29.988748153793182",
    "geocoded_column": {
      "latitude": "29.988748153793182",
      "longitude": "-90.1081453634676"
    }
  },
  {
    "service_request": "2024-1158452",
    "request_type": "Trash/Recycling",
    "request_reason": "Request a Large Item Pick Up",
    "date_created": "2024-12-31T15:05:25.000",
    "date_modified": "2024-12-31T15:05:31.000",
    "request_status": "Pending",
    "responsible_agency": "Department of Sanitation",
    "final_address": "1615 Lisbon St",
    "address_councildis": "D",
    "status": "Assigned to Contractor",
    "contractor": "IV Waste",
    "rowid": "1158452",
    "final_x": "3679069.3661",
    "final_y": "556270.297434",
    "longitude": "-90.07488705930703",
    "latitude": "30.02362389504491",
    "geocoded_column": {
      "latitude": "30.02362389504491",
      "longitude": "-90.07488705930703"
    }
  },
  {
    "service_request": "2024-1158451",
    "request_type": "Roads and Streets",
    "request_reason": "Street Subsidence (Sinking)",
    "date_created": "2024-12-31T14:48:58.000",
    "date_modified": "2024-12-31T14:49:00.000",
    "request_status": "Pending",
    "responsible_agency": "Department of Public Works",
    "final_address": "7000 Bellaire Dr",
    "address_councildis": "A",
    "status": "Pending",
    "rowid": "1158451",
    "final_x": "3664610.02938",
    "final_y": "554339.424472",
    "longitude": "-90.12064039984776",
    "latitude": "30.018743398998186",
    "geocoded_column": {
      "latitude": "30.018743398998186",
      "longitude": "-90.12064039984776"
    }
  },
  {
    "service_request": "2024-1158450",
    "request_type": "Streetlights",
    "request_reason": "Streetlight Outage/Malfunction",
    "date_created": "2024-12-31T14:39:49.000",
    "date_modified": "2024-12-31T14:39:50.000",
    "request_status": "Pending",
    "responsible_agency": "Department of Public Works",
    "final_address": "DWYER RD & REYNES ST",
    "address_councildis": "E",
    "status": "Pending",
    "contractor": "Legacy Professional Services",
    "rowid": "1158450",
    "final_x": "3699088.3",
    "final_y": "555496.78",
    "longitude": "-90.01165987059512",
    "latitude": "30.02087728215694",
    "geocoded_column": {
      "latitude": "30.02087728215694",
      "longitude": "-90.01165987059512"
    }
  },
  {
    "service_request": "2024-1158449",
    "request_type": "General Services",
    "request_reason": "General Service Request",
    "date_created": "2024-12-31T14:39:39.000",
    "date_modified": "2024-12-31T18:22:40.000",
    "case_close_date": "2024-12-31T12:22:40.000",
    "request_status": "Closed",
    "responsible_agency": "Orleans Parish Communication District",
    "final_address": "4850 Feliciana Dr",
    "address_councildis": "D",
    "status": "Question Answered.",
    "rowid": "1158449",
    "final_x": "3690042.91536",
    "final_y": "551028.258645",
    "longitude": "-90.04039988582365",
    "latitude": "30.008874283584085",
    "geocoded_column": {
      "latitude": "30.008874283584085",
      "longitude": "-90.04039988582365"
    }
  },
  {
    "service_request": "2024-1158448",
    "request_type": "Abandoned Vehicles",
    "request_reason": "Abandoned/Junk Vehicles",
    "date_created": "2024-12-31T14:36:31.000",
    "date_modified": "2024-12-31T14:36:35.000",
    "request_status": "Pending",
    "responsible_agency": "Department of Public Works",
    "final_address": "6949 Bellaire Dr",
    "address_councildis": "A",
    "status": "Pending",
    "rowid": "1158448",
    "final_x": "3664731.91565",
    "final_y": "554150.264792",
    "longitude": "-90.12026160862284",
    "latitude": "30.018219728765732",
    "geocoded_column": {
      "latitude": "30.018219728765732",
      "longitude": "-90.12026160862284"
    }
  },
  {
    "service_request": "2024-1158447",
    "request_type": "Traffic Signals",
    "request_reason": "Traffic Signal Malfunctioning or Damaged",
    "date_created": "2024-12-31T14:10:07.000",
    "date_modified": "2024-12-31T14:10:09.000",
    "request_status": "Pending",
    "responsible_agency": "Department of Public Works",
    "final_address": "GENTILLY BLVD & PARIS AVE",
    "address_councildis": "D",
    "status": "Pending",
    "rowid": "1158447",
    "final_x": "3679776.8",
    "final_y": "543766.48",
    "longitude": "-90.07308625565985",
    "latitude": "29.989221494628048",
    "geocoded_column": {
      "latitude": "29.989221494628048",
      "longitude": "-90.07308625565985"
    }
  },
  {
    "service_request": "2024-1158446",
    "request_type": "Christmas Tree Recycle Pick Up",
    "request_reason": "Christmas Tree Recycle Pick Up",
    "date_created": "2024-12-31T14:07:01.000",
    "date_modified": "2024-12-31T14:07:05.000",
    "request_status": "Pending",
    "responsible_agency": "Office of Resilience and Sustainability",
    "final_address": "2860 Maurepas St",
    "address_councildis": "A",
    "status": "Pending",
    "contractor": "R&R Recycling",
    "rowid": "1158446",
    "final_x": "3677854.09538",
    "final_y": "540646.539339",
    "longitude": "-90.07926737740706",
    "latitude": "29.98070074877033",
    "geocoded_column": {
      "latitude": "29.98070074877033",
      "longitude": "-90.07926737740706"
    }
  },
  {
    "service_request": "2024-1158445",
    "request_type": "Trash/Recycling",
    "request_reason": "Request a Large Item Pick Up",
    "date_created": "2024-12-31T14:06:34.000",
    "date_modified": "2024-12-31T16:42:02.000",
    "case_close_date": "2024-12-31T10:42:02.000",
    "request_status": "Closed",
    "responsible_agency": "Department of Sanitation",
    "final_address": "7637 Jonlee Dr",
    "address_councildis": "E",
    "status": "Duplicate Request",
    "contractor": "Waste Pro",
    "contractor_action": "Duplicate",
    "rowid": "1158445",
    "final_x": "3717114.08824",
    "final_y": "570632.495591",
    "longitude": "-89.9541286505246",
    "latitude": "30.061910333380087",
    "geocoded_column": {
      "latitude": "30.061910333380087",
      "longitude": "-89.9541286505246"
    }
  },
  {
    "service_request": "2024-1158444",
    "request_type": "Trash/Recycling",
    "request_reason": "Replace Trash Cart",
    "date_created": "2024-12-31T14:05:18.000",
    "date_modified": "2024-12-31T14:05:19.000",
    "request_status": "Pending",
    "responsible_agency": "Department of Sanitation",
    "final_address": "3242 Hyman Pl",
    "address_councildis": "C",
    "status": "Assigned to Contractor",
    "contractor": "Richards Disposal",
    "rowid": "1158444",
    "final_x": "3701016.61962",
    "final_y": "519204.881079",
    "longitude": "-90.00689443307728",
    "latitude": "29.921026405217457",
    "geocoded_column": {
      "latitude": "29.921026405217457",
      "longitude": "-90.00689443307728"
    }
  },
  {
    "service_request": "2024-1158443",
    "request_type": "Trash/Recycling",
    "request_reason": "Request a Large Item Pick Up",
    "date_created": "2024-12-31T14:04:53.000",
    "date_modified": "2024-12-31T14:04:54.000",
    "request_status": "Pending",
    "responsible_agency": "Department of Sanitation",
    "final_address": "7637 Jonlee Dr",
    "address_councildis": "E",
    "status": "Assigned to Contractor",
    "contractor": "Waste Pro",
    "rowid": "1158443",
    "final_x": "3717114.08824",
    "final_y": "570632.495591",
    "longitude": "-89.9541286505246",
    "latitude": "30.061910333380087",
    "geocoded_column": {
      "latitude": "30.061910333380087",
      "longitude": "-89.9541286505246"
    }
  },
  {
    "service_request": "2024-1158442",
    "request_type": "Trash/Recycling",
    "request_reason": "Request a Large Item Pick Up",
    "date_created": "2024-12-31T14:04:25.000",
    "date_modified": "2024-12-31T14:04:26.000",
    "request_status": "Pending",
    "responsible_agency": "Department of Sanitation",
    "final_address": "3242 Hyman Pl",
    "address_councildis": "C",
    "status": "Assigned to Contractor",
    "contractor": "Richards Disposal",
    "rowid": "1158442",
    "final_x": "3701016.61962",
    "final_y": "519204.881079",
    "longitude": "-90.00689443307728",
    "latitude": "29.921026405217457",
    "geocoded_column": {
      "latitude": "29.921026405217457",
      "longitude": "-90.00689443307728"
    }
  },
  {
    "service_request": "2024-1158441",
    "request_type": "Abandoned Vehicles",
    "request_reason": "Abandoned/Junk Vehicles",
    "date_created": "2024-12-31T13:57:19.000",
    "date_modified": "2024-12-31T13:57:22.000",
    "request_status": "Pending",
    "responsible_agency": "Department of Public Works",
    "final_address": "JOSEPHINE ST & TCHOUPITOULAS ST",
    "address_councildis": "B",
    "status": "Pending",
    "rowid": "1158441",
    "final_x": "3680903.7",
    "final_y": "520047.48",
    "longitude": "-90.07035251639431",
    "latitude": "29.923968161150423",
    "geocoded_column": {
      "latitude": "29.923968161150423",
      "longitude": "-90.07035251639431"
    }
  },
  {
    "service_request": "2024-1158440",
    "request_type": "Trash/Recycling",
    "request_reason": "Order Trash Cart",
    "date_created": "2024-12-31T13:42:13.000",
    "date_modified": "2024-12-31T13:42:14.000",
    "request_status": "Pending",
    "responsible_agency": "Department of Sanitation",
    "final_address": "1201 Saint Roch New Orleans LA, 70117",
    "status": "Assigned to Contractor",
    "rowid": "1158440",
    "longitude": "0.0",
    "latitude": "0.0",
    "geocoded_column": {
      "latitude": "0.0",
      "longitude": "0.0"
    }
  },
  {
    "service_request": "2024-1158439",
    "request_type": "Trash/Recycling",
    "request_reason": "Order Recycling Cart",
    "date_created": "2024-12-31T13:34:16.000",
    "date_modified": "2024-12-31T13:34:20.000",
    "request_status": "Pending",
    "responsible_agency": "Department of Sanitation",
    "final_address": "1434 Frankfort St",
    "address_councildis": "D",
    "status": "Pending",
    "rowid": "1158439",
    "final_x": "3678150.2923",
    "final_y": "555850.028825",
    "longitude": "-90.07780569775737",
    "latitude": "30.02249603203214",
    "geocoded_column": {
      "latitude": "30.02249603203214",
      "longitude": "-90.07780569775737"
    }
  },
  {
    "service_request": "2024-1158437",
    "request_type": "Roads and Streets",
    "request_reason": "Pothole",
    "date_created": "2024-12-31T13:22:54.000",
    "date_modified": "2024-12-31T13:22:57.000",
    "request_status": "Pending",
    "responsible_agency": "Department of Public Works",
    "final_address": "1438 Sixth St",
    "address_councildis": "B",
    "status": "Pending",
    "rowid": "1158437",
    "final_x": "3675842.01198",
    "final_y": "521646.733945",
    "longitude": "-90.08627553071749",
    "latitude": "29.92851803010857",
    "geocoded_column": {
      "latitude": "29.92851803010857",
      "longitude": "-90.08627553071749"
    }
  },
  {
    "service_request": "2024-1158436",
    "request_type": "General Services",
    "request_reason": "General Service Request",
    "date_created": "2024-12-31T13:15:33.000",
    "date_modified": "2024-12-31T18:20:18.000",
    "case_close_date": "2024-12-31T12:20:18.000",
    "request_status": "Closed",
    "responsible_agency": "Orleans Parish Communication District",
    "final_address": "2838 Coliseum St",
    "address_councildis": "B",
    "status": "Question Answered.",
    "rowid": "1158436",
    "final_x": "3676225.42248",
    "final_y": "521485.445753",
    "longitude": "-90.08507073116475",
    "latitude": "29.928063060555644",
    "geocoded_column": {
      "latitude": "29.928063060555644",
      "longitude": "-90.08507073116475"
    }
  },
  {
    "service_request": "2024-1158435",
    "request_type": "Roads and Streets",
    "request_reason": "Pothole",
    "date_created": "2024-12-31T13:11:28.000",
    "date_modified": "2024-12-31T13:11:30.000",
    "request_status": "Pending",
    "responsible_agency": "Department of Public Works",
    "final_address": "924 N Lopez St",
    "address_councildis": "A",
    "status": "Pending",
    "rowid": "1158435",
    "final_x": "3675858.10894",
    "final_y": "538787.355849",
    "longitude": "-90.08563552355177",
    "latitude": "29.97564854790228",
    "geocoded_column": {
      "latitude": "29.97564854790228",
      "longitude": "-90.08563552355177"
    }
  },
  {
    "service_request": "2024-1158434",
    "request_type": "Parks & Parkways",
    "request_reason": "Request Tree Service (Right of Way/Public Property)",
    "date_created": "2024-12-31T13:09:28.000",
    "date_modified": "2024-12-31T13:09:31.000",
    "request_status": "Pending",
    "responsible_agency": "Department of Parks & Parkway",
    "final_address": "2804 Coliseum St",
    "address_councildis": "B",
    "status": "Pending",
    "rowid": "1158434",
    "final_x": "3676435.85345",
    "final_y": "521621.184505",
    "longitude": "-90.08440177750484",
    "latitude": "29.92842999299896",
    "geocoded_column": {
      "latitude": "29.92842999299896",
      "longitude": "-90.08440177750484"
    }
  },
  {
    "service_request": "2024-1158433",
    "request_type": "Trash/Recycling",
    "request_reason": "Request a Large Item Pick Up",
    "date_created": "2024-12-31T13:08:29.000",
    "date_modified": "2024-12-31T13:08:30.000",
    "request_status": "Pending",
    "responsible_agency": "Department of Sanitation",
    "final_address": "11421 Tanner S Davis Dr",
    "address_councildis": "E",
    "status": "Assigned to Contractor",
    "contractor": "Waste Pro",
    "rowid": "1158433",
    "final_x": "3718245.6837",
    "final_y": "561223.653278",
    "longitude": "-89.95091052995795",
    "latitude": "30.036002382440053",
    "geocoded_column": {
      "latitude": "30.036002382440053",
      "longitude": "-89.95091052995795"
    }
  },
  {
    "service_request": "2024-1158432",
    "request_type": "Utility Poles",
    "request_reason": "Wires Sagging/Hanging Low",
    "date_created": "2024-12-31T13:07:51.000",
    "date_modified": "2024-12-31T13:07:54.000",
    "request_status": "Pending",
    "responsible_agency": "Utility Company Collective",
    "final_address": "4600 BLK Reynes St",
    "address_councildis": "E",
    "status": "Pending",
    "rowid": "1158432",
    "final_x": "3699200.12551",
    "final_y": "554395.019606",
    "longitude": "-90.01134670055376",
    "latitude": "30.01784431311812",
    "geocoded_column": {
      "latitude": "30.01784431311812",
      "longitude": "-90.01134670055376"
    }
  },
  {
    "service_request": "2024-1158431",
    "request_type": "Traffic Signals",
    "request_reason": "Traffic Signal Malfunctioning or Damaged",
    "date_created": "2024-12-31T13:05:12.000",
    "date_modified": "2024-12-31T13:05:16.000",
    "request_status": "Pending",
    "responsible_agency": "Department of Public Works",
    "final_address": "FILMORE AVE & CANAL BLVD",
    "address_councildis": "A",
    "status": "Pending",
    "rowid": "1158431",
    "final_x": "3668975.2",
    "final_y": "552011.08",
    "longitude": "-90.10692671940498",
    "latitude": "30.012213522483854",
    "geocoded_column": {
      "latitude": "30.012213522483854",
      "longitude": "-90.10692671940498"
    }
  },
  {
    "service_request": "2024-1158429",
    "request_type": "Property Maintenance",
    "request_reason": "Property Maintenance",
    "date_created": "2024-12-31T12:58:08.000",
    "date_modified": "2024-12-31T12:58:11.000",
    "request_status": "Pending",
    "responsible_agency": "Department of Code Enforcement",
    "final_address": "1240 Alvar St",
    "address_councildis": "D",
    "status": "Pending",
    "rowid": "1158429",
    "final_x": "3691626.26198",
    "final_y": "536089.071431",
    "longitude": "-90.03593199687987",
    "latitude": "29.967747687853336",
    "geocoded_column": {
      "latitude": "29.967747687853336",
      "longitude": "-90.03593199687987"
    }
  },
  {
    "service_request": "2024-1158428",
    "request_type": "Trash/Recycling",
    "request_reason": "Order Recycling Cart",
    "date_created": "2024-12-31T12:56:08.000",
    "date_modified": "2024-12-31T12:56:10.000",
    "request_status": "Pending",
    "responsible_agency": "Department of Sanitation",
    "final_address": "822 Barracks St HM",
    "address_councildis": "C",
    "status": "Pending",
    "rowid": "1158428",
    "final_x": "3683387.38306",
    "final_y": "534460.595653",
    "longitude": "-90.06200763102271",
    "latitude": "29.963523874148553",
    "geocoded_column": {
      "latitude": "29.963523874148553",
      "longitude": "-90.06200763102271"
    }
  },
  {
    "service_request": "2024-1158427",
    "request_type": "Trash/Recycling",
    "request_reason": "Order Recycling Cart",
    "date_created": "2024-12-31T12:54:02.000",
    "date_modified": "2024-12-31T12:54:07.000",
    "request_status": "Pending",
    "responsible_agency": "Department of Sanitation",
    "final_address": "1220 Dauphine St HM",
    "address_councildis": "C",
    "status": "Pending",
    "rowid": "1158427",
    "final_x": "3683285.1357",
    "final_y": "534434.291205",
    "longitude": "-90.06233143834167",
    "latitude": "29.963454664906457",
    "geocoded_column": {
      "latitude": "29.963454664906457",
      "longitude": "-90.06233143834167"
    }
  },
  {
    "service_request": "2024-1158426",
    "request_type": "Trash/Recycling",
    "request_reason": "Dead Animal Pick Up",
    "date_created": "2024-12-31T12:50:31.000",
    "date_modified": "2024-12-31T18:18:07.000",
    "request_status": "Pending",
    "responsible_agency": "Department of Sanitation",
    "final_address": "3043 Behrman Hwy",
    "address_councildis": "C",
    "status": "Assigned to Contractor",
    "contractor": "Richards Disposal",
    "rowid": "1158426",
    "final_x": "3694209.80701",
    "final_y": "519341.903863",
    "longitude": "-90.02837544991966",
    "latitude": "29.921618081235724",
    "geocoded_column": {
      "latitude": "29.921618081235724",
      "longitude": "-90.02837544991966"
    }
  },
  {
    "service_request": "2024-1158425",
    "request_type": "Trash/Recycling",
    "request_reason": "Order Recycling Cart",
    "date_created": "2024-12-31T12:49:24.000",
    "date_modified": "2024-12-31T12:49:27.000",
    "request_status": "Pending",
    "responsible_agency": "Department of Sanitation",
    "final_address": "1023 Cambronne St",
    "address_councildis": "A",
    "status": "Pending",
    "rowid": "1158425",
    "final_x": "3660858.48262",
    "final_y": "528699.647168",
    "longitude": "-90.13334242339589",
    "latitude": "29.948351201766794",
    "geocoded_column": {
      "latitude": "29.948351201766794",
      "longitude": "-90.13334242339589"
    }
  },
  {
    "service_request": "2024-1158424",
    "request_type": "Trash/Recycling",
    "request_reason": "Missed Trash Pick-Up",
    "date_created": "2024-12-31T12:46:28.000",
    "date_modified": "2024-12-31T14:43:56.000",
    "case_close_date": "2024-12-31T08:43:56.000",
    "request_status": "Closed",
    "responsible_agency": "Department of Sanitation",
    "final_address": "11251 S Parkwood Ct",
    "address_councildis": "E",
    "status": "Invalid Request",
    "contractor": "Waste Pro",
    "contractor_action": "Invalid Request",
    "rowid": "1158424",
    "final_x": "3716809.82904",
    "final_y": "559174.723612",
    "longitude": "-89.95552590628999",
    "latitude": "30.03041620408868",
    "geocoded_column": {
      "latitude": "30.03041620408868",
      "longitude": "-89.95552590628999"
    }
  },
  {
    "service_request": "2024-1158423",
    "request_type": "Trash/Recycling",
    "request_reason": "Request a Large Item Pick Up",
    "date_created": "2024-12-31T12:45:04.000",
    "date_modified": "2024-12-31T12:45:05.000",
    "request_status": "Pending",
    "responsible_agency": "Department of Sanitation",
    "final_address": "6319 Pandora St",
    "address_councildis": "D",
    "status": "Assigned to Contractor",
    "contractor": "Waste Pro",
    "rowid": "1158423",
    "final_x": "3696834.41258",
    "final_y": "557437.906651",
    "longitude": "-90.01871109400624",
    "latitude": "30.02628593340314",
    "geocoded_column": {
      "latitude": "30.02628593340314",
      "longitude": "-90.01871109400624"
    }
  },
  {
    "service_request": "2024-1158422",
    "request_type": "Trash/Recycling",
    "request_reason": "Illegal Dumping",
    "date_created": "2024-12-31T12:18:14.000",
    "date_modified": "2024-12-31T12:18:17.000",
    "request_status": "Pending",
    "responsible_agency": "Department of Sanitation",
    "final_address": "3330 Danneel St",
    "address_councildis": "B",
    "status": "Pending",
    "rowid": "1158422",
    "final_x": "3673738.38344",
    "final_y": "522884.580091",
    "longitude": "-90.09287394490224",
    "latitude": "29.9319844917099",
    "geocoded_column": {
      "latitude": "29.9319844917099",
      "longitude": "-90.09287394490224"
    }
  },
  {
    "service_request": "2024-1158421",
    "request_type": "Trash/Recycling",
    "request_reason": "MIssed Recycling Pick-Up",
    "date_created": "2024-12-31T12:17:00.000",
    "date_modified": "2024-12-31T13:26:47.000",
    "case_close_date": "2024-12-31T07:26:47.000",
    "request_status": "Closed",
    "responsible_agency": "Department of Sanitation",
    "final_address": "6046 Craigie Rd",
    "address_councildis": "E",
    "status": "Assigned to Contractor",
    "contractor": "Waste Pro",
    "contractor_action": "Completed",
    "rowid": "1158421",
    "final_x": "3695633.64605",
    "final_y": "558650.411164",
    "longitude": "-90.02246152269966",
    "latitude": "30.029657683985377",
    "geocoded_column": {
      "latitude": "30.029657683985377",
      "longitude": "-90.02246152269966"
    }
  },
  {
    "service_request": "2024-1158420",
    "request_type": "Trash/Recycling",
    "request_reason": "Request a Large Item Pick Up",
    "date_created": "2024-12-31T12:14:41.000",
    "date_modified": "2024-12-31T12:14:41.000",
    "request_status": "Pending",
    "responsible_agency": "Department of Sanitation",
    "final_address": "0 BLK Agriculture Pl",
    "address_councildis": "D",
    "status": "Assigned to Contractor",
    "contractor": "IV Waste",
    "rowid": "1158420",
    "final_x": "3689891.40135",
    "final_y": "543419.290574",
    "longitude": "-90.04114966127275",
    "latitude": "29.987957086684915",
    "geocoded_column": {
      "latitude": "29.987957086684915",
      "longitude": "-90.04114966127275"
    }
  },
  {
    "service_request": "2024-1158419",
    "request_type": "Christmas Tree Recycle Pick Up",
    "request_reason": "Christmas Tree Recycle Pick Up",
    "date_created": "2024-12-31T12:14:12.000",
    "date_modified": "2024-12-31T12:14:14.000",
    "request_status": "Pending",
    "responsible_agency": "Office of Resilience and Sustainability",
    "final_address": "522 Montegut St",
    "address_councildis": "C",
    "status": "Pending",
    "contractor": "R&R Recycling",
    "rowid": "1158419",
    "final_x": "3687837.23107",
    "final_y": "534109.455429",
    "longitude": "-90.04796795884512",
    "latitude": "29.962421855004674",
    "geocoded_column": {
      "latitude": "29.962421855004674",
      "longitude": "-90.04796795884512"
    }
  },
  {
    "service_request": "2024-1158418",
    "request_type": "Christmas Tree Recycle Pick Up",
    "request_reason": "Christmas Tree Recycle Pick Up",
    "date_created": "2024-12-31T12:13:10.000",
    "date_modified": "2024-12-31T12:13:12.000",
    "request_status": "Pending",
    "responsible_agency": "Office of Resilience and Sustainability",
    "final_address": "6813 Colbert St",
    "address_councildis": "A",
    "status": "Pending",
    "contractor": "R&R Recycling",
    "rowid": "1158418",
    "final_x": "3668011.37351",
    "final_y": "552923.628823",
    "longitude": "-90.10994109448016",
    "latitude": "30.014751040840064",
    "geocoded_column": {
      "latitude": "30.014751040840064",
      "longitude": "-90.10994109448016"
    }
  },
  {
    "service_request": "2024-1158417",
    "request_type": "Streetlights",
    "request_reason": "Streetlight Outage/Malfunction",
    "date_created": "2024-12-31T12:11:53.000",
    "date_modified": "2024-12-31T12:11:54.000",
    "request_status": "Pending",
    "responsible_agency": "Department of Public Works",
    "final_address": "6800 BLK Colbert St",
    "address_councildis": "A",
    "status": "Pending",
    "contractor": "Legacy Professional Services",
    "rowid": "1158417",
    "final_x": "3667937.04335",
    "final_y": "553100.191487",
    "longitude": "-90.11016998761592",
    "latitude": "30.015238707911337",
    "geocoded_column": {
      "latitude": "30.015238707911337",
      "longitude": "-90.11016998761592"
    }
  },
  {
    "service_request": "2024-1158416",
    "request_type": "Drainage",
    "request_reason": "Street Flooding",
    "date_created": "2024-12-31T12:02:21.000",
    "date_modified": "2024-12-31T12:02:24.000",
    "request_status": "Pending",
    "responsible_agency": "Department of Public Works",
    "final_address": "6321 Magnolia St",
    "address_councildis": "A",
    "status": "Pending",
    "rowid": "1158416",
    "final_x": "3665763.13223",
    "final_y": "525502.069373",
    "longitude": "-90.11796343982179",
    "latitude": "29.939416745342534",
    "geocoded_column": {
      "latitude": "29.939416745342534",
      "longitude": "-90.11796343982179"
    }
  },
  {
    "service_request": "2024-1158415",
    "request_type": "Trash/Recycling",
    "request_reason": "Replace Recycling Cart",
    "date_created": "2024-12-31T12:02:11.000",
    "date_modified": "2024-12-31T12:02:14.000",
    "request_status": "Pending",
    "responsible_agency": "Department of Sanitation",
    "final_address": "5700 MacArthur Blvd  New Orleans LA 70131",
    "address_councildis": "C",
    "status": "Pending",
    "rowid": "1158415",
    "final_x": "3704413.89137",
    "final_y": "519523.858487",
    "longitude": "-89.99615911057043",
    "latitude": "29.9217949086831",
    "geocoded_column": {
      "latitude": "29.9217949086831",
      "longitude": "-89.99615911057043"
    }
  },
  {
    "service_request": "2024-1158414",
    "request_type": "Christmas Tree Recycle Pick Up",
    "request_reason": "Christmas Tree Recycle Pick Up",
    "date_created": "2024-12-31T11:58:29.000",
    "date_modified": "2024-12-31T11:58:33.000",
    "request_status": "Pending",
    "responsible_agency": "Office of Resilience and Sustainability",
    "final_address": "1020 Jena St",
    "address_councildis": "B",
    "status": "Pending",
    "contractor": "R&R Recycling",
    "rowid": "1158414",
    "final_x": "3670561.91438",
    "final_y": "519277.931767",
    "longitude": "-90.10302400554674",
    "latitude": "29.922161533972375",
    "geocoded_column": {
      "latitude": "29.922161533972375",
      "longitude": "-90.10302400554674"
    }
  },
  {
    "service_request": "2024-1158413",
    "request_type": "Roads and Streets",
    "request_reason": "Pothole",
    "date_created": "2024-12-31T11:56:41.000",
    "date_modified": "2024-12-31T11:56:43.000",
    "request_status": "Pending",
    "responsible_agency": "Department of Public Works",
    "final_address": "N VILLERE ST & BASIN ST",
    "address_councildis": "C",
    "status": "Pending",
    "rowid": "1158413",
    "final_x": "3680385.0",
    "final_y": "534263.88",
    "longitude": "-90.0714956758671",
    "latitude": "29.963074227900595",
    "geocoded_column": {
      "latitude": "29.963074227900595",
      "longitude": "-90.0714956758671"
    }
  },
  {
    "service_request": "2024-1158412",
    "request_type": "Roads and Streets",
    "request_reason": "Pothole",
    "date_created": "2024-12-31T11:52:53.000",
    "date_modified": "2024-12-31T11:52:56.000",
    "request_status": "Pending",
    "responsible_agency": "Department of Public Works",
    "final_address": "2224 Bartholomew St",
    "address_councildis": "D",
    "status": "Pending",
    "rowid": "1158412",
    "final_x": "3692833.76073",
    "final_y": "539663.097994",
    "longitude": "-90.03199051250766",
    "latitude": "29.97753734177518",
    "geocoded_column": {
      "latitude": "29.97753734177518",
      "longitude": "-90.03199051250766"
    }
  },
  {
    "service_request": "2024-1158411",
    "request_type": "Traffic Signals",
    "request_reason": "Traffic Signal Malfunctioning or Damaged",
    "date_created": "2024-12-31T11:52:04.000",
    "date_modified": "2024-12-31T11:52:07.000",
    "request_status": "Pending",
    "responsible_agency": "Department of Public Works",
    "final_address": "N CARROLLTON AVE & ORLEANS AVE",
    "address_councildis": "A",
    "status": "Pending",
    "rowid": "1158411",
    "final_x": "3672801.3",
    "final_y": "540117.48",
    "longitude": "-90.09524440248875",
    "latitude": "29.979397105626184",
    "geocoded_column": {
      "latitude": "29.979397105626184",
      "longitude": "-90.09524440248875"
    }
  },
  {
    "service_request": "2024-1158410",
    "request_type": "Trash/Recycling",
    "request_reason": "Request a Large Item Pick Up",
    "date_created": "2024-12-31T11:21:32.000",
    "date_modified": "2024-12-31T11:21:33.000",
    "request_status": "Pending",
    "responsible_agency": "Department of Sanitation",
    "final_address": "1627 Lamanche St",
    "address_councildis": "E",
    "status": "Assigned to Contractor",
    "contractor": "Waste Pro",
    "rowid": "1158410",
    "final_x": "3698998.28906",
    "final_y": "535725.641991",
    "longitude": "-90.01266430283124",
    "latitude": "29.966516810807594",
    "geocoded_column": {
      "latitude": "29.966516810807594",
      "longitude": "-90.01266430283124"
    }
  },
  {
    "service_request": "2024-1158409",
    "request_type": "Christmas Tree Recycle Pick Up",
    "request_reason": "Christmas Tree Recycle Pick Up",
    "date_created": "2024-12-31T11:13:46.000",
    "date_modified": "2024-12-31T11:13:49.000",
    "request_status": "Pending",
    "responsible_agency": "Office of Resilience and Sustainability",
    "final_address": "1803 Ap Tureaud Ave",
    "address_councildis": "D",
    "status": "Pending",
    "contractor": "R&R Recycling",
    "rowid": "1158409",
    "final_x": "3681867.15701",
    "final_y": "538686.421833",
    "longitude": "-90.06666082027449",
    "latitude": "29.975189730345175",
    "geocoded_column": {
      "latitude": "29.975189730345175",
      "longitude": "-90.06666082027449"
    }
  },
  {
    "service_request": "2024-1158408",
    "request_type": "Trash/Recycling",
    "request_reason": "Request a Large Item Pick Up",
    "date_created": "2024-12-31T10:59:07.000",
    "date_modified": "2024-12-31T10:59:08.000",
    "request_status": "Pending",
    "responsible_agency": "Department of Sanitation",
    "final_address": "3000 Tulane Ave Apt 549",
    "address_councildis": "B",
    "status": "Assigned to Contractor",
    "contractor": "IV Waste",
    "rowid": "1158408",
    "final_x": "3672917.7812",
    "final_y": "534119.563077",
    "longitude": "-90.09508122422162",
    "latitude": "29.962901400700986",
    "geocoded_column": {
      "latitude": "29.962901400700986",
      "longitude": "-90.09508122422162"
    }
  },
  {
    "service_request": "2024-1158407",
    "request_type": "Trash/Recycling",
    "request_reason": "Missed Trash Pick-Up",
    "date_created": "2024-12-31T10:56:41.000",
    "date_modified": "2024-12-31T11:23:15.000",
    "case_close_date": "2024-12-31T05:23:15.000",
    "request_status": "Closed",
    "responsible_agency": "Department of Sanitation",
    "final_address": "5314 St Anthony Ave",
    "address_councildis": "D",
    "status": "Invalid Request",
    "contractor": "IV Waste",
    "contractor_action": "Invalid Request",
    "rowid": "1158407",
    "final_x": "3682090.1876",
    "final_y": "552537.304982",
    "longitude": "-90.06547240069479",
    "latitude": "30.01326795939257",
    "geocoded_column": {
      "latitude": "30.01326795939257",
      "longitude": "-90.06547240069479"
    }
  },
  {
    "service_request": "2024-1158405",
    "request_type": "Abandoned Vehicles",
    "request_reason": "Abandoned/Junk Vehicles",
    "date_created": "2024-12-31T10:55:43.000",
    "date_modified": "2024-12-31T10:55:46.000",
    "request_status": "Pending",
    "responsible_agency": "Department of Public Works",
    "final_address": "7626 Stonewood St",
    "address_councildis": "E",
    "status": "Pending",
    "rowid": "1158405",
    "final_x": "3719473.17042",
    "final_y": "572328.055209",
    "longitude": "-89.94660679842528",
    "latitude": "30.066494124632406",
    "geocoded_column": {
      "latitude": "30.066494124632406",
      "longitude": "-89.94660679842528"
    }
  },
  {
    "service_request": "2024-1158406",
    "request_type": "Abandoned Vehicles",
    "request_reason": "Abandoned/Junk Vehicles",
    "date_created": "2024-12-31T10:55:43.000",
    "date_modified": "2024-12-31T10:55:45.000",
    "request_status": "Pending",
    "responsible_agency": "Department of Public Works",
    "final_address": "7626 Stonewood St",
    "address_councildis": "E",
    "status": "Pending",
    "rowid": "1158406",
    "final_x": "3719473.17042",
    "final_y": "572328.055209",
    "longitude": "-89.94660679842528",
    "latitude": "30.066494124632406",
    "geocoded_column": {
      "latitude": "30.066494124632406",
      "longitude": "-89.94660679842528"
    }
  },
  {
    "service_request": "2024-1158404",
    "request_type": "Safety & Permits",
    "request_reason": "Zoning Enforcement",
    "date_created": "2024-12-31T10:54:16.000",
    "date_modified": "2024-12-31T10:54:17.000",
    "request_status": "Pending",
    "responsible_agency": "Safety and Permits",
    "final_address": "2723 Treasure St",
    "address_councildis": "D",
    "status": "Pending",
    "rowid": "1158404",
    "final_x": "3688162.57622",
    "final_y": "544394.959887",
    "longitude": "-90.04657582160084",
    "latitude": "29.990693322391746",
    "geocoded_column": {
      "latitude": "29.990693322391746",
      "longitude": "-90.04657582160084"
    }
  },
  {
    "service_request": "2024-1158403",
    "request_type": "Trash/Recycling",
    "request_reason": "Missed Trash Pick-Up",
    "date_created": "2024-12-31T10:53:47.000",
    "date_modified": "2024-12-31T14:45:50.000",
    "case_close_date": "2024-12-31T08:45:50.000",
    "request_status": "Closed",
    "responsible_agency": "Department of Sanitation",
    "final_address": "5580 Red Maple Dr",
    "address_councildis": "E",
    "status": "Assigned to Contractor",
    "contractor": "Waste Pro",
    "contractor_action": "Completed",
    "rowid": "1158403",
    "final_x": "3723345.58003",
    "final_y": "563978.670305",
    "longitude": "-89.93468784783998",
    "latitude": "30.043407379707798",
    "geocoded_column": {
      "latitude": "30.043407379707798",
      "longitude": "-89.93468784783998"
    }
  },
  {
    "service_request": "2024-1158402",
    "request_type": "Roads and Streets",
    "request_reason": "Pothole",
    "date_created": "2024-12-31T10:52:55.000",
    "date_modified": "2024-12-31T10:52:58.000",
    "request_status": "Pending",
    "responsible_agency": "Department of Public Works",
    "final_address": "1138 Third St",
    "address_councildis": "B",
    "status": "Pending",
    "rowid": "1158402",
    "final_x": "3677359.45973",
    "final_y": "521396.250937",
    "longitude": "-90.08149390811901",
    "latitude": "29.927783785535897",
    "geocoded_column": {
      "latitude": "29.927783785535897",
      "longitude": "-90.08149390811901"
    }
  },
  {
    "service_request": "2024-1158401",
    "request_type": "Parks & Parkways",
    "request_reason": "Request Tree Service (Right of Way/Public Property)",
    "date_created": "2024-12-31T10:50:58.000",
    "date_modified": "2024-12-31T10:51:01.000",
    "request_status": "Pending",
    "responsible_agency": "Department of Parks & Parkway",
    "final_address": "4655 St Roch Ave",
    "address_councildis": "D",
    "status": "Pending",
    "rowid": "1158401",
    "final_x": "3685458.99529",
    "final_y": "550057.694228",
    "longitude": "-90.05491618453696",
    "latitude": "30.006347009109668",
    "geocoded_column": {
      "latitude": "30.006347009109668",
      "longitude": "-90.05491618453696"
    }
  },
  {
    "service_request": "2024-1158400",
    "request_type": "Trash/Recycling",
    "request_reason": "Missed Trash Pick-Up",
    "date_created": "2024-12-31T10:43:03.000",
    "date_modified": "2024-12-31T10:43:04.000",
    "request_status": "Pending",
    "responsible_agency": "Department of Sanitation",
    "final_address": "5314 Saint Anthony Ave, New Orleans, Louisiana, 70122",
    "status": "Assigned to Contractor",
    "rowid": "1158400",
    "longitude": "0.0",
    "latitude": "0.0",
    "geocoded_column": {
      "latitude": "0.0",
      "longitude": "0.0"
    }
  },
  {
    "service_request": "2024-1158399",
    "request_type": "Abandoned Vehicles",
    "request_reason": "Abandoned/Junk Vehicles",
    "date_created": "2024-12-31T10:40:37.000",
    "date_modified": "2024-12-31T10:40:39.000",
    "request_status": "Pending",
    "responsible_agency": "Department of Public Works",
    "final_address": "10400 BLK Prentiss Ave",
    "address_councildis": "E",
    "status": "Pending",
    "rowid": "1158399",
    "final_x": "3714261.88082",
    "final_y": "556251.135973",
    "longitude": "-89.96368779478186",
    "latitude": "30.022461494401096",
    "geocoded_column": {
      "latitude": "30.022461494401096",
      "longitude": "-89.96368779478186"
    }
  },
  {
    "service_request": "2024-1158398",
    "request_type": "Trash/Recycling",
    "request_reason": "Illegal Dumping",
    "date_created": "2024-12-31T10:37:44.000",
    "date_modified": "2024-12-31T10:37:44.000",
    "request_status": "Pending",
    "responsible_agency": "Department of Sanitation",
    "final_address": "2619 Erato St",
    "address_councildis": "B",
    "status": "Pending",
    "rowid": "1158398",
    "final_x": "3676341.06081",
    "final_y": "528093.724095",
    "longitude": "-90.08447832413147",
    "latitude": "29.946230194645313",
    "geocoded_column": {
      "latitude": "29.946230194645313",
      "longitude": "-90.08447832413147"
    }
  },
  {
    "service_request": "2024-1158397",
    "request_type": "Christmas Tree Recycle Pick Up",
    "request_reason": "Christmas Tree Recycle Pick Up",
    "date_created": "2024-12-31T10:32:14.000",
    "date_modified": "2024-12-31T10:32:20.000",
    "request_status": "Pending",
    "responsible_agency": "Office of Resilience and Sustainability",
    "final_address": "2430 Danbury Dr",
    "address_councildis": "C",
    "status": "Pending",
    "contractor": "R&R Recycling",
    "rowid": "1158397",
    "final_x": "3703872.34385",
    "final_y": "522019.478458",
    "longitude": "-89.99777671343173",
    "latitude": "29.92867436348685",
    "geocoded_column": {
      "latitude": "29.92867436348685",
      "longitude": "-89.99777671343173"
    }
  },
  {
    "service_request": "2024-1158396",
    "request_type": "Abandoned Vehicles",
    "request_reason": "Abandoned/Junk Vehicles",
    "date_created": "2024-12-31T10:17:05.000",
    "date_modified": "2024-12-31T10:17:05.000",
    "request_status": "Pending",
    "responsible_agency": "Department of Public Works",
    "final_address": "5340 Bancroft Dr",
    "address_councildis": "D",
    "status": "Pending",
    "rowid": "1158396",
    "final_x": "3676332.13787",
    "final_y": "551813.489494",
    "longitude": "-90.0836897363452",
    "latitude": "30.01145165473007",
    "geocoded_column": {
      "latitude": "30.01145165473007",
      "longitude": "-90.0836897363452"
    }
  },
  {
    "service_request": "2024-1158395",
    "request_type": "Trash/Recycling",
    "request_reason": "Request a Large Item Pick Up",
    "date_created": "2024-12-31T10:16:20.000",
    "date_modified": "2024-12-31T10:16:21.000",
    "request_status": "Pending",
    "responsible_agency": "Department of Sanitation",
    "final_address": "627 Delacroix Rd",
    "address_councildis": "C",
    "status": "Assigned to Contractor",
    "contractor": "Richards Disposal",
    "rowid": "1158395",
    "final_x": "3723779.91398",
    "final_y": "514423.845299",
    "longitude": "-89.93522612136945",
    "latitude": "29.907136091834605",
    "geocoded_column": {
      "latitude": "29.907136091834605",
      "longitude": "-89.93522612136945"
    }
  },
  {
    "service_request": "2024-1158394",
    "request_type": "Trash/Recycling",
    "request_reason": "Replace Recycling Cart",
    "date_created": "2024-12-31T10:14:50.000",
    "date_modified": "2024-12-31T10:14:53.000",
    "request_status": "Pending",
    "responsible_agency": "Department of Sanitation",
    "final_address": "4238 Iberville St",
    "address_councildis": "A",
    "status": "Pending",
    "rowid": "1158394",
    "final_x": "3670563.48372",
    "final_y": "539229.686026",
    "longitude": "-90.10234245538484",
    "latitude": "29.97702226940237",
    "geocoded_column": {
      "latitude": "29.97702226940237",
      "longitude": "-90.10234245538484"
    }
  },
  {
    "service_request": "2024-1158393",
    "request_type": "Trash/Recycling",
    "request_reason": "Order Trash Cart",
    "date_created": "2024-12-31T10:10:45.000",
    "date_modified": "2024-12-31T10:10:46.000",
    "request_status": "Pending",
    "responsible_agency": "Department of Sanitation",
    "final_address": "2011 General Pershing St Apt 2A",
    "address_councildis": "B",
    "status": "Assigned to Contractor",
    "contractor": "IV Waste",
    "rowid": "1158393",
    "final_x": "3671177.24148",
    "final_y": "522432.96121",
    "longitude": "-90.10097455722108",
    "latitude": "29.930818674852457",
    "geocoded_column": {
      "latitude": "29.930818674852457",
      "longitude": "-90.10097455722108"
    }
  },
  {
    "service_request": "2024-1158392",
    "request_type": "Christmas Tree Recycle Pick Up",
    "request_reason": "Christmas Tree Recycle Pick Up",
    "date_created": "2024-12-31T10:09:08.000",
    "date_modified": "2024-12-31T10:09:10.000",
    "request_status": "Pending",
    "responsible_agency": "Office of Resilience and Sustainability",
    "final_address": "5007 N Roman St",
    "address_councildis": "E",
    "status": "Pending",
    "contractor": "R&R Recycling",
    "rowid": "1158392",
    "final_x": "3696778.49443",
    "final_y": "536945.874952",
    "longitude": "-90.01963017097883",
    "latitude": "29.969942178456286",
    "geocoded_column": {
      "latitude": "29.969942178456286",
      "longitude": "-90.01963017097883"
    }
  },
  {
    "service_request": "2024-1158391",
    "request_type": "Trash/Recycling",
    "request_reason": "Order Trash Cart",
    "date_created": "2024-12-31T10:02:15.000",
    "date_modified": "2024-12-31T10:02:16.000",
    "request_status": "Pending",
    "responsible_agency": "Department of Sanitation",
    "final_address": "2011 General Pershing St Apt 2B",
    "address_councildis": "B",
    "status": "Assigned to Contractor",
    "contractor": "IV Waste",
    "rowid": "1158391",
    "final_x": "3671172.6395",
    "final_y": "522458.600762",
    "longitude": "-90.10098821454848",
    "latitude": "29.930889311473933",
    "geocoded_column": {
      "latitude": "29.930889311473933",
      "longitude": "-90.10098821454848"
    }
  },
  {
    "service_request": "2024-1158390",
    "request_type": "Trash/Recycling",
    "request_reason": "Request a Large Item Pick Up",
    "date_created": "2024-12-31T10:01:53.000",
    "date_modified": "2024-12-31T10:01:54.000",
    "request_status": "Pending",
    "responsible_agency": "Department of Sanitation",
    "final_address": "2525 Acacia St",
    "address_councildis": "D",
    "status": "Assigned to Contractor",
    "contractor": "IV Waste",
    "rowid": "1158390",
    "final_x": "3686583.6543",
    "final_y": "546355.77128",
    "longitude": "-90.05149394779977",
    "latitude": "29.996133510243176",
    "geocoded_column": {
      "latitude": "29.996133510243176",
      "longitude": "-90.05149394779977"
    }
  },
  {
    "service_request": "2024-1158389",
    "request_type": "Trash/Recycling",
    "request_reason": "Order Trash Cart",
    "date_created": "2024-12-31T09:54:50.000",
    "date_modified": "2024-12-31T09:54:51.000",
    "request_status": "Pending",
    "responsible_agency": "Department of Sanitation",
    "final_address": "1837 Piety St",
    "address_councildis": "D",
    "status": "Assigned to Contractor",
    "contractor": "IV Waste",
    "rowid": "1158389",
    "final_x": "3690601.343",
    "final_y": "538706.413833",
    "longitude": "-90.03907534543058",
    "latitude": "29.974976325128882",
    "geocoded_column": {
      "latitude": "29.974976325128882",
      "longitude": "-90.03907534543058"
    }
  },
  {
    "service_request": "2024-1158388",
    "request_type": "Christmas Tree Recycle Pick Up",
    "request_reason": "Christmas Tree Recycle Pick Up",
    "date_created": "2024-12-31T09:53:33.000",
    "date_modified": "2024-12-31T09:53:35.000",
    "request_status": "Pending",
    "responsible_agency": "Office of Resilience and Sustainability",
    "final_address": "1130 Third St",
    "address_councildis": "B",
    "status": "Pending",
    "contractor": "R&R Recycling",
    "rowid": "1158388",
    "final_x": "3677401.18536",
    "final_y": "521353.852345",
    "longitude": "-90.08136365249929",
    "latitude": "29.927665949682126",
    "geocoded_column": {
      "latitude": "29.927665949682126",
      "longitude": "-90.08136365249929"
    }
  },
  {
    "service_request": "2024-1158387",
    "request_type": "Trash/Recycling",
    "request_reason": "Order Second Trash Cart",
    "date_created": "2024-12-31T09:51:17.000",
    "date_modified": "2024-12-31T09:51:18.000",
    "request_status": "Pending",
    "responsible_agency": "Department of Sanitation",
    "final_address": "45 Spanish Fort Blvd",
    "address_councildis": "D",
    "status": "Assigned to Contractor",
    "contractor": "IV Waste",
    "rowid": "1158387",
    "final_x": "3674078.1556",
    "final_y": "555193.664473",
    "longitude": "-90.09069518921231",
    "latitude": "30.020813325112048",
    "geocoded_column": {
      "latitude": "30.020813325112048",
      "longitude": "-90.09069518921231"
    }
  },
  {
    "service_request": "2024-1158386",
    "request_type": "Health Related Request",
    "request_reason": "Homeless Encampment Complaint",
    "date_created": "2024-12-31T09:49:22.000",
    "date_modified": "2024-12-31T18:17:00.000",
    "request_status": "Pending",
    "responsible_agency": "Health Department",
    "final_address": "N RAMPART ST & POLAND AVE",
    "address_councildis": "C",
    "rowid": "1158386",
    "final_x": "3692902.3",
    "final_y": "534573.58",
    "longitude": "-90.03195660656681",
    "latitude": "29.963540831651105",
    "geocoded_column": {
      "latitude": "29.963540831651105",
      "longitude": "-90.03195660656681"
    }
  },
  {
    "service_request": "2024-1158385",
    "request_type": "Trash/Recycling",
    "request_reason": "Order Second Trash Cart",
    "date_created": "2024-12-31T09:48:44.000",
    "date_modified": "2024-12-31T09:48:45.000",
    "request_status": "Pending",
    "responsible_agency": "Department of Sanitation",
    "final_address": "45 Spanish Fort Blvd",
    "address_councildis": "D",
    "status": "Assigned to Contractor",
    "contractor": "IV Waste",
    "rowid": "1158385",
    "final_x": "3674078.1556",
    "final_y": "555193.664473",
    "longitude": "-90.09069518921231",
    "latitude": "30.020813325112048",
    "geocoded_column": {
      "latitude": "30.020813325112048",
      "longitude": "-90.09069518921231"
    }
  },
  {
    "service_request": "2024-1158384",
    "request_type": "Trash/Recycling",
    "request_reason": "Request a Large Item Pick Up",
    "date_created": "2024-12-31T09:45:23.000",
    "date_modified": "2024-12-31T09:45:24.000",
    "request_status": "Pending",
    "responsible_agency": "Department of Sanitation",
    "final_address": "4783 Lancelot Dr",
    "address_councildis": "E",
    "status": "Assigned to Contractor",
    "contractor": "Waste Pro",
    "rowid": "1158384",
    "final_x": "3707491.54142",
    "final_y": "555797.698329",
    "longitude": "-89.98509711235381",
    "latitude": "30.02143549900781",
    "geocoded_column": {
      "latitude": "30.02143549900781",
      "longitude": "-89.98509711235381"
    }
  },
  {
    "service_request": "2024-1158383",
    "request_type": "Trash/Recycling",
    "request_reason": "Request a Large Item Pick Up",
    "date_created": "2024-12-31T09:44:43.000",
    "date_modified": "2024-12-31T09:44:44.000",
    "request_status": "Pending",
    "responsible_agency": "Department of Sanitation",
    "final_address": "2408 Dauphine St",
    "address_councildis": "C",
    "status": "Assigned to Contractor",
    "contractor": "IV Waste",
    "rowid": "1158383",
    "final_x": "3685969.62825",
    "final_y": "535250.742214",
    "longitude": "-90.05382532869208",
    "latitude": "29.965617472173726",
    "geocoded_column": {
      "latitude": "29.965617472173726",
      "longitude": "-90.05382532869208"
    }
  },
  {
    "service_request": "2024-1158382",
    "request_type": "Trash/Recycling",
    "request_reason": "Order Recycling Cart",
    "date_created": "2024-12-31T09:42:15.000",
    "date_modified": "2024-12-31T09:42:16.000",
    "request_status": "Pending",
    "responsible_agency": "Department of Sanitation",
    "final_address": "3702 Bienville Ave",
    "address_councildis": "B",
    "status": "Pending",
    "rowid": "1158382",
    "final_x": "3672723.72776",
    "final_y": "538012.999305",
    "longitude": "-90.09556120750223",
    "latitude": "29.973612803812465",
    "geocoded_column": {
      "latitude": "29.973612803812465",
      "longitude": "-90.09556120750223"
    }
  },
  {
    "service_request": "2024-1158381",
    "request_type": "Trash/Recycling",
    "request_reason": "Request a Large Item Pick Up",
    "date_created": "2024-12-31T09:40:13.000",
    "date_modified": "2024-12-31T09:40:14.000",
    "request_status": "Pending",
    "responsible_agency": "Department of Sanitation",
    "final_address": "3032 Octavia St",
    "address_councildis": "A",
    "status": "Assigned to Contractor",
    "contractor": "IV Waste",
    "rowid": "1158381",
    "final_x": "3668145.04909",
    "final_y": "526835.802494",
    "longitude": "-90.1103984500933",
    "latitude": "29.943014396989334",
    "geocoded_column": {
      "latitude": "29.943014396989334",
      "longitude": "-90.1103984500933"
    }
  },
  {
    "service_request": "2024-1158380",
    "request_type": "Abandoned Vehicles",
    "request_reason": "Abandoned/Junk Vehicles",
    "date_created": "2024-12-31T09:39:17.000",
    "date_modified": "2024-12-31T09:39:19.000",
    "request_status": "Pending",
    "responsible_agency": "Department of Public Works",
    "final_address": "1414 Louisa St Apt A",
    "address_councildis": "C",
    "status": "Pending",
    "rowid": "1158380",
    "final_x": "3689837.8431",
    "final_y": "537111.450504",
    "longitude": "-90.04154345518127",
    "latitude": "29.97061442957106",
    "geocoded_column": {
      "latitude": "29.97061442957106",
      "longitude": "-90.04154345518127"
    }
  },
  {
    "service_request": "2024-1158379",
    "request_type": "Trash/Recycling",
    "request_reason": "Illegal Dumping",
    "date_created": "2024-12-31T09:38:51.000",
    "date_modified": "2024-12-31T09:38:53.000",
    "request_status": "Pending",
    "responsible_agency": "Department of Sanitation",
    "final_address": "10114 Dreux Ave",
    "address_councildis": "E",
    "status": "Pending",
    "rowid": "1158379",
    "final_x": "3712984.67064",
    "final_y": "555835.345497",
    "longitude": "-89.96773908721813",
    "latitude": "30.021360150319857",
    "geocoded_column": {
      "latitude": "30.021360150319857",
      "longitude": "-89.96773908721813"
    }
  },
  {
    "service_request": "2024-1158378",
    "request_type": "Christmas Tree Recycle Pick Up",
    "request_reason": "Christmas Tree Recycle Pick Up",
    "date_created": "2024-12-31T09:27:43.000",
    "date_modified": "2024-12-31T09:27:46.000",
    "request_status": "Pending",
    "responsible_agency": "Office of Resilience and Sustainability",
    "final_address": "3718 Gentilly Blvd",
    "address_councildis": "D",
    "status": "Pending",
    "contractor": "R&R Recycling",
    "rowid": "1158378",
    "final_x": "3687162.05449",
    "final_y": "548762.998803",
    "longitude": "-90.04958163390052",
    "latitude": "30.002734711447655",
    "geocoded_column": {
      "latitude": "30.002734711447655",
      "longitude": "-90.04958163390052"
    }
  },
  {
    "service_request": "2024-1158377",
    "request_type": "Trash/Recycling",
    "request_reason": "Return Trash Cart",
    "date_created": "2024-12-31T09:26:45.000",
    "date_modified": "2024-12-31T09:26:46.000",
    "request_status": "Pending",
    "responsible_agency": "Department of Sanitation",
    "final_address": "5602 Camp St",
    "address_councildis": "A",
    "status": "Assigned to Contractor",
    "contractor": "IV Waste",
    "rowid": "1158377",
    "final_x": "3666133.74605",
    "final_y": "519181.407927",
    "longitude": "-90.11700518627478",
    "latitude": "29.922026117348135",
    "geocoded_column": {
      "latitude": "29.922026117348135",
      "longitude": "-90.11700518627478"
    }
  },
  {
    "service_request": "2024-1158376",
    "request_type": "Abandoned Vehicles",
    "request_reason": "Abandoned/Junk Vehicles",
    "date_created": "2024-12-31T09:23:51.000",
    "date_modified": "2024-12-31T09:23:54.000",
    "request_status": "Pending",
    "responsible_agency": "Department of Public Works",
    "final_address": "2603 Jefferson Ave",
    "address_councildis": "B",
    "status": "Pending",
    "rowid": "1158376",
    "final_x": "3668219.59975",
    "final_y": "524986.294333",
    "longitude": "-90.11022540584088",
    "latitude": "29.937926657971296",
    "geocoded_column": {
      "latitude": "29.937926657971296",
      "longitude": "-90.11022540584088"
    }
  },
  {
    "service_request": "2024-1158375",
    "request_type": "Trash/Recycling",
    "request_reason": "Repair Trash Cart",
    "date_created": "2024-12-31T09:21:11.000",
    "date_modified": "2024-12-31T09:21:12.000",
    "request_status": "Pending",
    "responsible_agency": "Department of Sanitation",
    "final_address": "6510 Fleur-De-Lis Dr",
    "address_councildis": "A",
    "status": "Assigned to Contractor",
    "contractor": "IV Waste",
    "rowid": "1158375",
    "final_x": "3665273.50701",
    "final_y": "551312.147093",
    "longitude": "-90.11864543752895",
    "latitude": "30.01040012104154",
    "geocoded_column": {
      "latitude": "30.01040012104154",
      "longitude": "-90.11864543752895"
    }
  },
  {
    "service_request": "2024-1158374",
    "request_type": "Trash/Recycling",
    "request_reason": "MIssed Recycling Pick-Up",
    "date_created": "2024-12-31T09:17:50.000",
    "date_modified": "2024-12-31T13:24:42.000",
    "case_close_date": "2024-12-31T07:24:42.000",
    "request_status": "Closed",
    "responsible_agency": "Department of Sanitation",
    "final_address": "5680 Red Maple Dr",
    "address_councildis": "E",
    "status": "Assigned to Contractor",
    "contractor": "Waste Pro",
    "contractor_action": "Completed",
    "rowid": "1158374",
    "final_x": "3723295.75071",
    "final_y": "564476.810721",
    "longitude": "-89.93482611260576",
    "latitude": "30.044778732324268",
    "geocoded_column": {
      "latitude": "30.044778732324268",
      "longitude": "-89.93482611260576"
    }
  },
  {
    "service_request": "2024-1158373",
    "request_type": "Christmas Tree Recycle Pick Up",
    "request_reason": "Christmas Tree Recycle Pick Up",
    "date_created": "2024-12-31T09:09:19.000",
    "date_modified": "2024-12-31T09:09:21.000",
    "request_status": "Pending",
    "responsible_agency": "Office of Resilience and Sustainability",
    "final_address": "7605 Sycamore St",
    "address_councildis": "A",
    "status": "Pending",
    "contractor": "R&R Recycling",
    "rowid": "1158373",
    "final_x": "3665629.3122",
    "final_y": "529845.803009",
    "longitude": "-90.11824050303812",
    "latitude": "29.95136451531728",
    "geocoded_column": {
      "latitude": "29.95136451531728",
      "longitude": "-90.11824050303812"
    }
  },
  {
    "service_request": "2024-1158372",
    "request_type": "Trash/Recycling",
    "request_reason": "Request a Large Item Pick Up",
    "date_created": "2024-12-31T09:07:33.000",
    "date_modified": "2024-12-31T09:07:34.000",
    "request_status": "Pending",
    "responsible_agency": "Department of Sanitation",
    "final_address": "34TH ST & FLEUR DE LIS DR",
    "address_councildis": "A",
    "status": "Assigned to Contractor",
    "contractor": "IV Waste",
    "rowid": "1158372",
    "final_x": "3665398.1",
    "final_y": "551429.98",
    "longitude": "-90.11824785178028",
    "latitude": "30.010720488206875",
    "geocoded_column": {
      "latitude": "30.010720488206875",
      "longitude": "-90.11824785178028"
    }
  },
  {
    "service_request": "2024-1158371",
    "request_type": "Mosquito, Termite & Rodent Control",
    "request_reason": "Rodent Complaint (Rats)",
    "date_created": "2024-12-31T09:06:53.000",
    "date_modified": "2024-12-31T09:06:56.000",
    "request_status": "Pending",
    "responsible_agency": "Mosquito, Termite & Rodent Control Board",
    "final_address": "501 S Cortez St",
    "address_councildis": "B",
    "status": "Pending",
    "rowid": "1158371",
    "final_x": "3671042.87502",
    "final_y": "536310.541127",
    "longitude": "-90.10092754119889",
    "latitude": "29.96898143561401",
    "geocoded_column": {
      "latitude": "29.96898143561401",
      "longitude": "-90.10092754119889"
    }
  },
  {
    "service_request": "2024-1158370",
    "request_type": "Trash/Recycling",
    "request_reason": "Replace Trash Cart",
    "date_created": "2024-12-31T08:59:19.000",
    "date_modified": "2024-12-31T08:59:20.000",
    "request_status": "Pending",
    "responsible_agency": "Department of Sanitation",
    "final_address": "826 Elmira Ave",
    "address_councildis": "C",
    "status": "Assigned to Contractor",
    "contractor": "Richards Disposal",
    "rowid": "1158370",
    "final_x": "3688190.71676",
    "final_y": "528476.538048",
    "longitude": "-90.04705138536406",
    "latitude": "29.946922364375258",
    "geocoded_column": {
      "latitude": "29.946922364375258",
      "longitude": "-90.04705138536406"
    }
  },
  {
    "service_request": "2024-1158369",
    "request_type": "Trash/Recycling",
    "request_reason": "Request a Large Item Pick Up",
    "date_created": "2024-12-31T08:58:26.000",
    "date_modified": "2024-12-31T08:58:27.000",
    "request_status": "Pending",
    "responsible_agency": "Department of Sanitation",
    "final_address": "1700 BLK Marigny St",
    "address_councildis": "D",
    "status": "Assigned to Contractor",
    "contractor": "IV Waste",
    "rowid": "1158369",
    "final_x": "3685225.85851",
    "final_y": "538730.256645",
    "longitude": "-90.05605163327486",
    "latitude": "29.975207741748044",
    "geocoded_column": {
      "latitude": "29.975207741748044",
      "longitude": "-90.05605163327486"
    }
  },
  {
    "service_request": "2024-1158368",
    "request_type": "Christmas Tree Recycle Pick Up",
    "request_reason": "Christmas Tree Recycle Pick Up",
    "date_created": "2024-12-31T08:58:15.000",
    "date_modified": "2024-12-31T08:58:17.000",
    "request_status": "Pending",
    "responsible_agency": "Office of Resilience and Sustainability",
    "final_address": "1128 Robert St",
    "address_councildis": "B",
    "status": "Pending",
    "contractor": "R&R Recycling",
    "rowid": "1158368",
    "final_x": "3668629.96404",
    "final_y": "519599.577592",
    "longitude": "-90.10911154371004",
    "latitude": "29.923102855346073",
    "geocoded_column": {
      "latitude": "29.923102855346073",
      "longitude": "-90.10911154371004"
    }
  },
  {
    "service_request": "2024-1158367",
    "request_type": "Trash/Recycling",
    "request_reason": "Replace Trash Cart",
    "date_created": "2024-12-31T08:58:05.000",
    "date_modified": "2024-12-31T08:58:06.000",
    "request_status": "Pending",
    "responsible_agency": "Department of Sanitation",
    "final_address": "1536 General Ogden St",
    "address_councildis": "A",
    "status": "Assigned to Contractor",
    "contractor": "IV Waste",
    "rowid": "1158367",
    "final_x": "3660753.51155",
    "final_y": "531307.987586",
    "longitude": "-90.13358763167102",
    "latitude": "29.955526323463417",
    "geocoded_column": {
      "latitude": "29.955526323463417",
      "longitude": "-90.13358763167102"
    }
  },
  {
    "service_request": "2024-1158366",
    "request_type": "Trash/Recycling",
    "request_reason": "Missed Trash Pick-Up",
    "date_created": "2024-12-31T08:56:21.000",
    "date_modified": "2024-12-31T10:02:38.000",
    "case_close_date": "2024-12-31T04:02:38.000",
    "request_status": "Closed",
    "responsible_agency": "Department of Sanitation",
    "final_address": "1536 General Ogden St",
    "address_councildis": "A",
    "status": "Invalid Request",
    "contractor": "IV Waste",
    "contractor_action": "Invalid Request",
    "rowid": "1158366",
    "final_x": "3660753.51155",
    "final_y": "531307.987586",
    "longitude": "-90.13358763167102",
    "latitude": "29.955526323463417",
    "geocoded_column": {
      "latitude": "29.955526323463417",
      "longitude": "-90.13358763167102"
    }
  },
  {
    "service_request": "2024-1158365",
    "request_type": "Trash/Recycling",
    "request_reason": "Missed Trash Pick-Up",
    "date_created": "2024-12-31T08:54:12.000",
    "date_modified": "2024-12-31T09:29:02.000",
    "case_close_date": "2024-12-31T03:29:02.000",
    "request_status": "Closed",
    "responsible_agency": "Department of Sanitation",
    "final_address": "1536 General Ogden St",
    "address_councildis": "A",
    "status": "Invalid Request",
    "contractor": "IV Waste",
    "contractor_action": "Invalid Request",
    "rowid": "1158365",
    "final_x": "3660753.51155",
    "final_y": "531307.987586",
    "longitude": "-90.13358763167102",
    "latitude": "29.955526323463417",
    "geocoded_column": {
      "latitude": "29.955526323463417",
      "longitude": "-90.13358763167102"
    }
  },
  {
    "service_request": "2024-1158364",
    "request_type": "Trash/Recycling",
    "request_reason": "Request a Large Item Pick Up",
    "date_created": "2024-12-31T08:46:10.000",
    "date_modified": "2024-12-31T08:46:10.000",
    "request_status": "Pending",
    "responsible_agency": "Department of Sanitation",
    "final_address": "1128 Robert St",
    "address_councildis": "B",
    "status": "Assigned to Contractor",
    "contractor": "IV Waste",
    "rowid": "1158364",
    "final_x": "3668629.96404",
    "final_y": "519599.577592",
    "longitude": "-90.10911154371004",
    "latitude": "29.923102855346073",
    "geocoded_column": {
      "latitude": "29.923102855346073",
      "longitude": "-90.10911154371004"
    }
  },
  {
    "service_request": "2024-1158363",
    "request_type": "Trash/Recycling",
    "request_reason": "Replace Trash Cart",
    "date_created": "2024-12-31T08:45:17.000",
    "date_modified": "2024-12-31T08:45:18.000",
    "request_status": "Pending",
    "responsible_agency": "Department of Sanitation",
    "final_address": "3620 Mimosa Ct",
    "address_councildis": "C",
    "status": "Assigned to Contractor",
    "contractor": "Richards Disposal",
    "rowid": "1158363",
    "final_x": "3703041.76234",
    "final_y": "513333.92581",
    "longitude": "-90.00071754358822",
    "latitude": "29.904818669576123",
    "geocoded_column": {
      "latitude": "29.904818669576123",
      "longitude": "-90.00071754358822"
    }
  },
  {
    "service_request": "2024-1158362",
    "request_type": "Trash/Recycling",
    "request_reason": "Replace Trash Cart",
    "date_created": "2024-12-31T08:43:24.000",
    "date_modified": "2024-12-31T08:43:25.000",
    "request_status": "Pending",
    "responsible_agency": "Department of Sanitation",
    "final_address": "3620 Mimosa Ct",
    "address_councildis": "C",
    "status": "Assigned to Contractor",
    "contractor": "Richards Disposal",
    "rowid": "1158362",
    "final_x": "3703041.76234",
    "final_y": "513333.92581",
    "longitude": "-90.00071754358822",
    "latitude": "29.904818669576123",
    "geocoded_column": {
      "latitude": "29.904818669576123",
      "longitude": "-90.00071754358822"
    }
  },
  {
    "service_request": "2024-1158361",
    "request_type": "Trash/Recycling",
    "request_reason": "Order Second Trash Cart",
    "date_created": "2024-12-31T08:31:04.000",
    "date_modified": "2024-12-31T08:31:05.000",
    "request_status": "Pending",
    "responsible_agency": "Department of Sanitation",
    "final_address": "11421 Prentiss Ave",
    "address_councildis": "E",
    "status": "Assigned to Contractor",
    "contractor": "Waste Pro",
    "rowid": "1158361",
    "final_x": "3717807.1253",
    "final_y": "556608.13673",
    "longitude": "-89.95247221570763",
    "latitude": "30.023326106834553",
    "geocoded_column": {
      "latitude": "30.023326106834553",
      "longitude": "-89.95247221570763"
    }
  },
  {
    "service_request": "2024-1158360",
    "request_type": "Abandoned Vehicles",
    "request_reason": "Vehicle Blocking Your Driveway",
    "date_created": "2024-12-31T08:25:52.000",
    "date_modified": "2024-12-31T08:25:54.000",
    "request_status": "Pending",
    "responsible_agency": "Department of Public Works",
    "final_address": "3800 Napoleon Ave",
    "address_councildis": "B",
    "status": "Pending",
    "rowid": "1158360",
    "final_x": "3669990.05146",
    "final_y": "528514.456832",
    "longitude": "-90.10451647227175",
    "latitude": "29.947575875905905",
    "geocoded_column": {
      "latitude": "29.947575875905905",
      "longitude": "-90.10451647227175"
    }
  },
  {
    "service_request": "2024-1158359",
    "request_type": "Trash/Recycling",
    "request_reason": "Request a Large Item Pick Up",
    "date_created": "2024-12-31T08:19:30.000",
    "date_modified": "2024-12-31T18:16:26.000",
    "request_status": "Pending",
    "responsible_agency": "Department of Sanitation",
    "final_address": "4855 Camelia St",
    "address_councildis": "E",
    "status": "Assigned to Contractor",
    "contractor": "Waste Pro",
    "rowid": "1158359",
    "final_x": "3701555.5473",
    "final_y": "554915.447384",
    "longitude": "-90.00388545054105",
    "latitude": "30.019200358735112",
    "geocoded_column": {
      "latitude": "30.019200358735112",
      "longitude": "-90.00388545054105"
    }
  },
  {
    "service_request": "2024-1158358",
    "request_type": "General Services",
    "request_reason": "General Service Request",
    "date_created": "2024-12-31T08:18:18.000",
    "date_modified": "2024-12-31T18:15:43.000",
    "case_close_date": "2024-12-31T12:15:43.000",
    "request_status": "Closed",
    "responsible_agency": "Orleans Parish Communication District",
    "final_address": "7430 Horizon Dr",
    "address_councildis": "E",
    "status": "Question Answered.",
    "rowid": "1158358",
    "final_x": "3725705.29804",
    "final_y": "569258.756966",
    "longitude": "-89.92702544483816",
    "latitude": "30.057845999303325",
    "geocoded_column": {
      "latitude": "30.057845999303325",
      "longitude": "-89.92702544483816"
    }
  },
  {
    "service_request": "2024-1158357",
    "request_type": "Christmas Tree Recycle Pick Up",
    "request_reason": "Christmas Tree Recycle Pick Up",
    "date_created": "2024-12-31T08:08:31.000",
    "date_modified": "2024-12-31T08:08:33.000",
    "request_status": "Pending",
    "responsible_agency": "Office of Resilience and Sustainability",
    "final_address": "3718 Constance St",
    "address_councildis": "B",
    "status": "Pending",
    "contractor": "R&R Recycling",
    "rowid": "1158357",
    "final_x": "3673611.79867",
    "final_y": "518684.029623",
    "longitude": "-90.09341705495027",
    "latitude": "29.92043809668896",
    "geocoded_column": {
      "latitude": "29.92043809668896",
      "longitude": "-90.09341705495027"
    }
  },
  {
    "service_request": "2024-1158356",
    "request_type": "Abandoned Vehicles",
    "request_reason": "Abandoned/Junk Vehicles",
    "date_created": "2024-12-31T07:43:52.000",
    "date_modified": "2024-12-31T07:43:55.000",
    "request_status": "Pending",
    "responsible_agency": "Department of Public Works",
    "final_address": "700 BLK Saint Andrew St",
    "address_councildis": "B",
    "status": "Pending",
    "rowid": "1158356",
    "final_x": "3680337.32826",
    "final_y": "521605.165567",
    "longitude": "-90.07208622604858",
    "latitude": "29.928268440064144",
    "geocoded_column": {
      "latitude": "29.928268440064144",
      "longitude": "-90.07208622604858"
    }
  },
  {
    "service_request": "2024-1158355",
    "request_type": "Healthy Homes",
    "request_reason": "Healthy Homes",
    "date_created": "2024-12-31T07:33:34.000",
    "date_modified": "2024-12-31T07:33:37.000",
    "request_status": "Pending",
    "responsible_agency": "Department of Code Enforcement",
    "final_address": "3312 Cleveland Ave",
    "address_councildis": "B",
    "status": "Pending",
    "rowid": "1158355",
    "final_x": "3673192.59227",
    "final_y": "536168.670983",
    "longitude": "-90.09414342390929",
    "latitude": "29.968527589958665",
    "geocoded_column": {
      "latitude": "29.968527589958665",
      "longitude": "-90.09414342390929"
    }
  },
  {
    "service_request": "2024-1158354",
    "request_type": "Trash/Recycling",
    "request_reason": "Missed Trash Pick-Up",
    "date_created": "2024-12-31T07:19:50.000",
    "date_modified": "2024-12-31T08:59:56.000",
    "case_close_date": "2024-12-31T02:59:56.000",
    "request_status": "Closed",
    "responsible_agency": "Department of Sanitation",
    "final_address": "5580 Red Maple Dr",
    "address_councildis": "E",
    "status": "Duplicate Request",
    "contractor": "Waste Pro",
    "contractor_action": "Duplicate",
    "rowid": "1158354",
    "final_x": "3723345.58003",
    "final_y": "563978.670305",
    "longitude": "-89.93468784783998",
    "latitude": "30.043407379707798",
    "geocoded_column": {
      "latitude": "30.043407379707798",
      "longitude": "-89.93468784783998"
    }
  },
  {
    "service_request": "2024-1158353",
    "request_type": "Roads and Streets",
    "request_reason": "Pothole",
    "date_created": "2024-12-31T06:53:35.000",
    "date_modified": "2024-12-31T06:53:36.000",
    "request_status": "Pending",
    "responsible_agency": "Department of Public Works",
    "final_address": "1450 Poydras St",
    "address_councildis": "B",
    "status": "Pending",
    "rowid": "1158353",
    "final_x": "3678264.10274",
    "final_y": "529944.881345",
    "longitude": "-90.07834259719898",
    "latitude": "29.95126248798487",
    "geocoded_column": {
      "latitude": "29.95126248798487",
      "longitude": "-90.07834259719898"
    }
  },
  {
    "service_request": "2024-1158352",
    "request_type": "Abandoned Vehicles",
    "request_reason": "Abandoned/Junk Vehicles",
    "date_created": "2024-12-31T06:15:42.000",
    "date_modified": "2024-12-31T06:15:44.000",
    "request_status": "Pending",
    "responsible_agency": "Department of Public Works",
    "final_address": "941 Verret St",
    "address_councildis": "C",
    "status": "Pending",
    "rowid": "1158352",
    "final_x": "3687155.38665",
    "final_y": "528014.678079",
    "longitude": "-90.05033662440367",
    "latitude": "29.94568432338038",
    "geocoded_column": {
      "latitude": "29.94568432338038",
      "longitude": "-90.05033662440367"
    }
  },
  {
    "service_request": "2024-1158351",
    "request_type": "Abandoned Vehicles",
    "request_reason": "Abandoned/Junk Vehicles",
    "date_created": "2024-12-31T06:10:31.000",
    "date_modified": "2024-12-31T06:10:34.000",
    "request_status": "Pending",
    "responsible_agency": "Department of Public Works",
    "final_address": "941 Verret St",
    "address_councildis": "C",
    "status": "Pending",
    "rowid": "1158351",
    "final_x": "3687155.38665",
    "final_y": "528014.678079",
    "longitude": "-90.05033662440367",
    "latitude": "29.94568432338038",
    "geocoded_column": {
      "latitude": "29.94568432338038",
      "longitude": "-90.05033662440367"
    }
  },
  {
    "service_request": "2024-1158350",
    "request_type": "Trash/Recycling",
    "request_reason": "Replace Trash Cart",
    "date_created": "2024-12-31T03:19:47.000",
    "date_modified": "2024-12-31T03:19:48.000",
    "request_status": "Pending",
    "responsible_agency": "Department of Sanitation",
    "final_address": "7832 Brevard Ave",
    "address_councildis": "E",
    "status": "Assigned to Contractor",
    "contractor": "Waste Pro",
    "rowid": "1158350",
    "final_x": "3705960.51249",
    "final_y": "564080.534881",
    "longitude": "-89.98962779868937",
    "latitude": "30.04425949400478",
    "geocoded_column": {
      "latitude": "30.04425949400478",
      "longitude": "-89.98962779868937"
    }
  },
  {
    "service_request": "2024-1158349",
    "request_type": "Trash/Recycling",
    "request_reason": "Replace Recycling Cart",
    "date_created": "2024-12-31T01:35:02.000",
    "date_modified": "2024-12-31T01:35:06.000",
    "request_status": "Pending",
    "responsible_agency": "Department of Sanitation",
    "final_address": "4720 Pitt St",
    "address_councildis": "B",
    "status": "Pending",
    "rowid": "1158349",
    "final_x": "3669570.69332",
    "final_y": "520372.625208",
    "longitude": "-90.10611587954998",
    "latitude": "29.925200820755936",
    "geocoded_column": {
      "latitude": "29.925200820755936",
      "longitude": "-90.10611587954998"
    }
  },
  {
    "service_request": "2024-1158348",
    "request_type": "Trash/Recycling",
    "request_reason": "Request a Large Item Pick Up",
    "date_created": "2024-12-31T00:51:34.000",
    "date_modified": "2024-12-31T00:51:35.000",
    "request_status": "Pending",
    "responsible_agency": "Department of Sanitation",
    "final_address": "1241 Tennessee St",
    "address_councildis": "E",
    "status": "Assigned to Contractor",
    "contractor": "Waste Pro",
    "rowid": "1158348",
    "final_x": "3695917.30275",
    "final_y": "534830.230022",
    "longitude": "-90.02242632292017",
    "latitude": "29.96415202846309",
    "geocoded_column": {
      "latitude": "29.96415202846309",
      "longitude": "-90.02242632292017"
    }
  },
  {
    "service_request": "2024-1158347",
    "request_type": "Trash/Recycling",
    "request_reason": "Replace Recycling Cart",
    "date_created": "2024-12-30T23:32:49.000",
    "date_modified": "2024-12-30T23:32:51.000",
    "request_status": "Pending",
    "responsible_agency": "Department of Sanitation",
    "final_address": "525 Nashville Ave",
    "address_councildis": "A",
    "status": "Pending",
    "rowid": "1158347",
    "final_x": "3665419.81255",
    "final_y": "518200.76351",
    "longitude": "-90.1192915819454",
    "latitude": "29.91935047140951",
    "geocoded_column": {
      "latitude": "29.91935047140951",
      "longitude": "-90.1192915819454"
    }
  },