[
  {
    "service_request": "2024-1111681",
    "request_type": "Traffic Signals/Signs/Striping/Streetlights",
    "request_reason": "Street Light Outage/Malfunction",
    "date_created": "2024-07-11T23:57:23.000",
    "date_modified": "2024-07-11T23:57:24.000",
    "request_status": "Pending",
    "responsible_agency": "Department of Public Works",
    "final_address": "2482 Royal St",
    "address_councildis": "C",
    "status": "Assigned to Contractor",
    "contractor": "Legacy Professional Services",
    "rowid": "1111681",
    "final_x": "3686582.82998",
    "final_y": "534956.381638",
    "longitude": "-90.05189926220055",
    "latitude": "29.964789240670054",
    "geocoded_column": {
      "latitude": "29.964789240670054",
      "longitude": "-90.05189926220055"
    }
  },
  {
    "service_request": "2024-1111679",
    "request_type": "Trash/Recycling",
    "request_reason": "Illegal Dumping",
    "date_created": "2024-07-11T22:40:46.000",
    "date_modified": "2024-07-11T22:40:46.000",
    "request_status": "Pending",
    "responsible_agency": "Department of Sanitation",
    "final_address": "2535 Allen St",
    "address_councildis": "D",
    "status": "Pending",
    "rowid": "1111679",
    "final_x": "3682377.06396",
    "final_y": "541575.884108",
    "longitude": "-90.0649493851264",
    "latitude": "29.98311923378746",
    "geocoded_column": {
      "latitude": "29.98311923378746",
      "longitude": "-90.0649493851264"
    }
  },
  {
    "service_request": "2024-1111678",
    "request_type": "Traffic Signals/Signs/Striping/Streetlights",
    "request_reason": "Street Light Outage/Malfunction",
    "date_created": "2024-07-11T22:28:18.000",
    "date_modified": "2024-07-11T22:28:19.000",
    "request_status": "Pending",
    "responsible_agency": "Department of Public Works",
    "final_address": "7212 Morrison Rd",
    "address_councildis": "E",
    "status": "Assigned to Contractor",
    "contractor": "Legacy Professional Services",
    "rowid": "1111678",
    "final_x": "3700198.26532",
    "final_y": "559137.479196",
    "longitude": "-90.00801967170916",
    "latitude": "30.030852556287307",
    "geocoded_column": {
      "latitude": "30.030852556287307",
      "longitude": "-90.00801967170916"
    }
  },
  {
    "service_request": "2024-1111677",
    "request_type": "Roads/Drainage",
    "request_reason": "Catch Basin - Broken/Damage",
    "date_created": "2024-07-11T22:19:54.000",
    "date_modified": "2024-07-11T22:19:54.000",
    "request_status": "Pending",
    "responsible_agency": "Department of Public Works",
    "final_address": "1140 Calhoun St",
    "address_councildis": "A",
    "status": "Pending",
    "rowid": "1111677",
    "final_x": "3663895.35079",
    "final_y": "520952.392185",
    "longitude": "-90.12401189510109",
    "latitude": "29.92696091450696",
    "geocoded_column": {
      "latitude": "29.92696091450696",
      "longitude": "-90.12401189510109"
    }
  },
  {
    "service_request": "2024-1111676",
    "request_type": "Trash/Recycling",
    "request_reason": "Order Trash Cart",
    "date_created": "2024-07-11T21:23:01.000",
    "date_modified": "2024-07-11T21:23:02.000",
    "request_status": "Pending",
    "responsible_agency": "Department of Sanitation",
    "final_address": "4555 Dodt Ave",
    "address_councildis": "E",
    "status": "Assigned to Contractor",
    "contractor": "Waste Pro",
    "rowid": "1111676",
    "final_x": "3705625.43172",
    "final_y": "554205.221592",
    "longitude": "-89.99105240630585",
    "latitude": "30.01711704518879",
    "geocoded_column": {
      "latitude": "30.01711704518879",
      "longitude": "-89.99105240630585"
    }
  },
  {
    "service_request": "2024-1111675",
    "request_type": "Traffic Signals/Signs/Striping/Streetlights",
    "request_reason": "Street Light Outage/Malfunction",
    "date_created": "2024-07-11T20:56:49.000",
    "date_modified": "2024-07-11T20:56:50.000",
    "request_status": "Pending",
    "responsible_agency": "Department of Public Works",
    "final_address": "13928 My-Viet Dr",
    "address_councildis": "E",
    "status": "Assigned to Contractor",
    "contractor": "Legacy Professional Services",
    "rowid": "1111675",
    "final_x": "3727755.34809",
    "final_y": "563119.160864",
    "longitude": "-89.92078481530127",
    "latitude": "30.04089534622333",
    "geocoded_column": {
      "latitude": "30.04089534622333",
      "longitude": "-89.92078481530127"
    }
  },
  {
    "service_request": "2024-1111674",
    "request_type": "Property Maintenance",
    "request_reason": "Property Maintenance",
    "date_created": "2024-07-11T20:53:37.000",
    "date_modified": "2024-07-11T20:53:37.000",
    "request_status": "Pending",
    "responsible_agency": "Department of Code Enforcement",
    "final_address": "7537 Avalon Way",
    "address_councildis": "E",
    "status": "Pending",
    "rowid": "1111674",
    "final_x": "3709285.37137",
    "final_y": "564238.550753",
    "longitude": "-89.97911394232345",
    "latitude": "30.044586347597484",
    "geocoded_column": {
      "latitude": "30.044586347597484",
      "longitude": "-89.97911394232345"
    }
  },
  {
    "service_request": "2024-1111673",
    "request_type": "Abandoned Vehicles",
    "request_reason": "Abandoned/Junk Vehicles",
    "date_created": "2024-07-11T20:21:50.000",
    "date_modified": "2024-07-11T20:21:50.000",
    "request_status": "Pending",
    "responsible_agency": "Department of Public Works",
    "final_address": "615 Hendee St",
    "address_councildis": "C",
    "status": "Pending",
    "rowid": "1111673",
    "final_x": "3690821.25532",
    "final_y": "529227.422144",
    "longitude": "-90.03871904862088",
    "latitude": "29.948905578845725",
    "geocoded_column": {
      "latitude": "29.948905578845725",
      "longitude": "-90.03871904862088"
    }
  },
  {
    "service_request": "2024-1111672",
    "request_type": "Roads/Drainage",
    "request_reason": "Pothole",
    "date_created": "2024-07-11T20:16:40.000",
    "date_modified": "2024-07-11T20:16:40.000",
    "request_status": "Pending",
    "responsible_agency": "Department of Public Works",
    "final_address": "315 Atlantic Ave",
    "address_councildis": "C",
    "status": "Pending",
    "rowid": "1111672",
    "final_x": "3688792.29814",
    "final_y": "530584.330498",
    "longitude": "-90.04507715450647",
    "latitude": "29.95269948789058",
    "geocoded_column": {
      "latitude": "29.95269948789058",
      "longitude": "-90.04507715450647"
    }
  },
  {
    "service_request": "2024-1111670",
    "request_type": "Trash/Recycling",
    "request_reason": "MIssed Recycling Pick-Up",
    "date_created": "2024-07-11T20:01:39.000",
    "date_modified": "2024-07-11T20:01:40.000",
    "request_status": "Pending",
    "responsible_agency": "Department of Sanitation",
    "final_address": "4911 Longfellow Dr",
    "address_councildis": "E",
    "status": "Assigned to Contractor",
    "contractor": "Waste Pro",
    "rowid": "1111670",
    "final_x": "3709597.21432",
    "final_y": "556739.428698",
    "longitude": "-89.97840863731196",
    "latitude": "30.02395659611743",
    "geocoded_column": {
      "latitude": "30.02395659611743",
      "longitude": "-89.97840863731196"
    }
  },
  {
    "service_request": "2024-1111669",
    "request_type": "Trash/Recycling",
    "request_reason": "MIssed Recycling Pick-Up",
    "date_created": "2024-07-11T20:00:16.000",
    "date_modified": "2024-07-11T20:00:17.000",
    "request_status": "Pending",
    "responsible_agency": "Department of Sanitation",
    "final_address": "4911 Longfellow Dr",
    "address_councildis": "E",
    "status": "Assigned to Contractor",
    "contractor": "Waste Pro",
    "rowid": "1111669",
    "final_x": "3709597.21432",
    "final_y": "556739.428698",
    "longitude": "-89.97840863731196",
    "latitude": "30.02395659611743",
    "geocoded_column": {
      "latitude": "30.02395659611743",
      "longitude": "-89.97840863731196"
    }
  },
  {
    "service_request": "2024-1111668",
    "request_type": "Trash/Recycling",
    "request_reason": "Order Recycling Cart",
    "date_created": "2024-07-11T19:43:43.000",
    "date_modified": "2024-07-11T19:43:43.000",
    "request_status": "Pending",
    "responsible_agency": "Department of Sanitation",
    "final_address": "1321 Arabella St",
    "address_councildis": "A",
    "status": "Pending",
    "rowid": "1111668",
    "final_x": "3666278.63239",
    "final_y": "520743.160441",
    "longitude": "-90.11649548641184",
    "latitude": "29.926316215027885",
    "geocoded_column": {
      "latitude": "29.926316215027885",
      "longitude": "-90.11649548641184"
    }
  },
  {
    "service_request": "2024-1111667",
    "request_type": "Abandoned Vehicles",
    "request_reason": "Abandoned/Junk Vehicles",
    "date_created": "2024-07-11T19:33:16.000",
    "date_modified": "2024-07-11T19:33:16.000",
    "request_status": "Pending",
    "responsible_agency": "Department of Public Works",
    "final_address": "8701 Pritchard Pl",
    "address_councildis": "A",
    "status": "Pending",
    "rowid": "1111667",
    "final_x": "3664491.29236",
    "final_y": "534366.411589",
    "longitude": "-90.1216828899228",
    "latitude": "29.963827849252564",
    "geocoded_column": {
      "latitude": "29.963827849252564",
      "longitude": "-90.1216828899228"
    }
  },
  {
    "service_request": "2024-1111666",
    "request_type": "Property Maintenance",
    "request_reason": "Property Maintenance",
    "date_created": "2024-07-11T19:28:30.000",
    "date_modified": "2024-07-11T19:28:30.000",
    "request_status": "Pending",
    "responsible_agency": "Department of Code Enforcement",
    "final_address": "700 BLK Lang St",
    "address_councildis": "C",
    "status": "Pending",
    "rowid": "1111666",
    "final_x": "3702024.60346",
    "final_y": "519815.258057",
    "longitude": "-90.00369034728018",
    "latitude": "29.922672608663248",
    "geocoded_column": {
      "latitude": "29.922672608663248",
      "longitude": "-90.00369034728018"
    }
  },
  {
    "service_request": "2024-1111665",
    "request_type": "Trash/Recycling",
    "request_reason": "Request a Large Item Pick Up",
    "date_created": "2024-07-11T19:18:19.000",
    "date_modified": "2024-07-11T19:18:20.000",
    "request_status": "Pending",
    "responsible_agency": "Department of Sanitation",
    "final_address": "4126 Copernicus St",
    "address_councildis": "C",
    "status": "Assigned to Contractor",
    "contractor": "Richards Disposal",
    "rowid": "1111665",
    "final_x": "3699221.4936",
    "final_y": "523315.464251",
    "longitude": "-90.01241122405335",
    "latitude": "29.932386114438852",
    "geocoded_column": {
      "latitude": "29.932386114438852",
      "longitude": "-90.01241122405335"
    }
  },
  {
    "service_request": "2024-1111664",
    "request_type": "Property Maintenance",
    "request_reason": "Property Maintenance",
    "date_created": "2024-07-11T19:10:18.000",
    "date_modified": "2024-07-11T19:10:18.000",
    "request_status": "Pending",
    "responsible_agency": "Department of Code Enforcement",
    "final_address": "1110 Kabel Dr",
    "address_councildis": "C",
    "status": "Pending",
    "rowid": "1111664",
    "final_x": "3700871.61085",
    "final_y": "523480.715323",
    "longitude": "-90.0071959516777",
    "latitude": "29.93278808884642",
    "geocoded_column": {
      "latitude": "29.93278808884642",
      "longitude": "-90.0071959516777"
    }
  },
  {
    "service_request": "2024-1111663",
    "request_type": "Trash/Recycling",
    "request_reason": "Return Trash Cart",
    "date_created": "2024-07-11T18:54:35.000",
    "date_modified": "2024-07-11T18:54:36.000",
    "request_status": "Pending",
    "responsible_agency": "Department of Sanitation",
    "final_address": "2124 Camp St",
    "address_councildis": "B",
    "status": "Assigned to Contractor",
    "contractor": "IV Waste",
    "rowid": "1111663",
    "final_x": "3678793.04117",
    "final_y": "522464.221242",
    "longitude": "-90.07693146400749",
    "latitude": "29.930677211414945",
    "geocoded_column": {
      "latitude": "29.930677211414945",
      "longitude": "-90.07693146400749"
    }
  },
  {
    "service_request": "2024-1111662",
    "request_type": "Traffic Signals/Signs/Striping/Streetlights",
    "request_reason": "Traffic Signal Malfunctioning/Damaged",
    "date_created": "2024-07-11T18:37:10.000",
    "date_modified": "2024-07-11T18:37:10.000",
    "request_status": "Pending",
    "responsible_agency": "Department of Public Works",
    "final_address": "CROWDER BLVD & I 10 E SERVICE RD",
    "address_councildis": "E",
    "status": "Pending",
    "rowid": "1111662",
    "final_x": "3705013.6",
    "final_y": "558418.88",
    "longitude": "-89.99282977687913",
    "latitude": "30.028722667641926",
    "geocoded_column": {
      "latitude": "30.028722667641926",
      "longitude": "-89.99282977687913"
    }
  },
  {
    "service_request": "2024-1111661",
    "request_type": "Trash/Recycling",
    "request_reason": "Request a Large Item Pick Up",
    "date_created": "2024-07-11T18:34:23.000",
    "date_modified": "2024-07-11T18:34:23.000",
    "request_status": "Pending",
    "responsible_agency": "Department of Sanitation",
    "final_address": "7909 Edward St",
    "address_councildis": "E",
    "status": "Assigned to Contractor",
    "contractor": "Waste Pro",
    "rowid": "1111661",
    "final_x": "3700742.02781",
    "final_y": "561743.729759",
    "longitude": "-90.00620599145834",
    "latitude": "30.03800142840962",
    "geocoded_column": {
      "latitude": "30.03800142840962",
      "longitude": "-90.00620599145834"
    }
  },
  {
    "service_request": "2024-1111660",
    "request_type": "Trash/Recycling",
    "request_reason": "Repair Trash Cart",
    "date_created": "2024-07-11T18:29:15.000",
    "date_modified": "2024-07-11T18:29:16.000",
    "request_status": "Pending",
    "responsible_agency": "Department of Sanitation",
    "final_address": "3635 Constance St",
    "address_councildis": "B",
    "status": "Assigned to Contractor",
    "contractor": "IV Waste",
    "rowid": "1111660",
    "final_x": "3673945.62024",
    "final_y": "518872.383287",
    "longitude": "-90.0923568960626",
    "latitude": "29.920946072141337",
    "geocoded_column": {
      "latitude": "29.920946072141337",
      "longitude": "-90.0923568960626"
    }
  },
  {
    "service_request": "2024-1111658",
    "request_type": "Abandoned Vehicles",
    "request_reason": "Vehicle Blocking Your Driveway",
    "date_created": "2024-07-11T18:17:41.000",
    "date_modified": "2024-07-11T18:17:41.000",
    "request_status": "Pending",
    "responsible_agency": "Department of Public Works",
    "final_address": "708 Marengo St",
    "address_councildis": "B",
    "status": "Pending",
    "rowid": "1111658",
    "final_x": "3672178.74427",
    "final_y": "518249.143286",
    "longitude": "-90.09795534517126",
    "latitude": "29.919284859442428",
    "geocoded_column": {
      "latitude": "29.919284859442428",
      "longitude": "-90.09795534517126"
    }
  },
  {
    "service_request": "2024-1111657",
    "request_type": "Abandoned Vehicles",
    "request_reason": "Vehicle Blocking Your Driveway",
    "date_created": "2024-07-11T18:15:28.000",
    "date_modified": "2024-07-11T18:15:28.000",
    "request_status": "Pending",
    "responsible_agency": "Department of Public Works",
    "final_address": "708 Marengo St",
    "address_councildis": "B",
    "status": "Pending",
    "rowid": "1111657",
    "final_x": "3672178.74427",
    "final_y": "518249.143286",
    "longitude": "-90.09795534517126",
    "latitude": "29.919284859442428",
    "geocoded_column": {
      "latitude": "29.919284859442428",
      "longitude": "-90.09795534517126"
    }
  },
  {
    "service_request": "2024-1111656",
    "request_type": "Trash/Recycling",
    "request_reason": "Replace Recycling Cart",
    "date_created": "2024-07-11T18:09:49.000",
    "date_modified": "2024-07-11T18:09:49.000",
    "request_status": "Pending",
    "responsible_agency": "Department of Sanitation",
    "final_address": "4005 Camp St",
    "address_councildis": "B",
    "status": "Pending",
    "rowid": "1111656",
    "final_x": "3672419.60583",
    "final_y": "519326.998903",
    "longitude": "-90.09715836071902",
    "latitude": "29.922241476162995",
    "geocoded_column": {
      "latitude": "29.922241476162995",
      "longitude": "-90.09715836071902"
    }
  },
  {
    "service_request": "2024-1111655",
    "request_type": "Trash/Recycling",
    "request_reason": "Repair Recycling Cart",
    "date_created": "2024-07-11T18:06:24.000",
    "date_modified": "2024-07-11T18:06:24.000",
    "request_status": "Pending",
    "responsible_agency": "Department of Sanitation",
    "final_address": "2724 First St",
    "address_councildis": "B",
    "status": "Pending",
    "rowid": "1111655",
    "final_x": "3674621.85211",
    "final_y": "526671.383934",
    "longitude": "-90.08995520062304",
    "latitude": "29.94237063785649",
    "geocoded_column": {
      "latitude": "29.94237063785649",
      "longitude": "-90.08995520062304"
    }
  },
  {
    "service_request": "2024-1111654",
    "request_type": "Trash/Recycling",
    "request_reason": "Replace Trash Cart",
    "date_created": "2024-07-11T18:05:55.000",
    "date_modified": "2024-07-11T18:05:56.000",
    "request_status": "Pending",
    "responsible_agency": "Department of Sanitation",
    "final_address": "4005 Camp St",
    "address_councildis": "B",
    "status": "Assigned to Contractor",
    "contractor": "IV Waste",
    "rowid": "1111654",
    "final_x": "3672419.60583",
    "final_y": "519326.998903",
    "longitude": "-90.09715836071902",
    "latitude": "29.922241476162995",
    "geocoded_column": {
      "latitude": "29.922241476162995",
      "longitude": "-90.09715836071902"
    }
  },
  {
    "service_request": "2024-1111653",
    "request_type": "Trash/Recycling",
    "request_reason": "Repair Trash Cart",
    "date_created": "2024-07-11T17:57:57.000",
    "date_modified": "2024-07-11T17:57:58.000",
    "request_status": "Pending",
    "responsible_agency": "Department of Sanitation",
    "final_address": "2724 First St",
    "address_councildis": "B",
    "status": "Assigned to Contractor",
    "contractor": "IV Waste",
    "rowid": "1111653",
    "final_x": "3674621.85211",
    "final_y": "526671.383934",
    "longitude": "-90.08995520062304",
    "latitude": "29.94237063785649",
    "geocoded_column": {
      "latitude": "29.94237063785649",
      "longitude": "-90.08995520062304"
    }
  },
  {
    "service_request": "2024-1111652",
    "request_type": "Abandoned Vehicles",
    "request_reason": "Abandoned/Junk Vehicles",
    "date_created": "2024-07-11T17:44:20.000",
    "date_modified": "2024-07-11T17:44:20.000",
    "request_status": "Pending",
    "responsible_agency": "Department of Public Works",
    "final_address": "2738 Banks St",
    "address_councildis": "B",
    "status": "Pending",
    "rowid": "1111652",
    "final_x": "3674291.94504",
    "final_y": "534323.669253",
    "longitude": "-90.09073479152416",
    "latitude": "29.96342172035543",
    "geocoded_column": {
      "latitude": "29.96342172035543",
      "longitude": "-90.09073479152416"
    }
  },
  {
    "service_request": "2024-1111651",
    "request_type": "Trash/Recycling",
    "request_reason": "Missed Trash Pick-Up",
    "date_created": "2024-07-11T17:39:26.000",
    "date_modified": "2024-07-11T17:39:27.000",
    "request_status": "Pending",
    "responsible_agency": "Department of Sanitation",
    "final_address": "3915 Prytania St",
    "address_councildis": "B",
    "status": "Assigned to Contractor",
    "contractor": "IV Waste",
    "rowid": "1111651",
    "final_x": "3672632.27707",
    "final_y": "520543.0494",
    "longitude": "-90.09644560808513",
    "latitude": "29.92557891531325",
    "geocoded_column": {
      "latitude": "29.92557891531325",
      "longitude": "-90.09644560808513"
    }
  },
  {
    "service_request": "2024-1111650",
    "request_type": "Roads/Drainage",
    "request_reason": "Pothole",
    "date_created": "2024-07-11T17:32:42.000",
    "date_modified": "2024-07-11T17:32:42.000",
    "request_status": "Pending",
    "responsible_agency": "Department of Public Works",
    "final_address": "1400 BLK Valence St",
    "address_councildis": "B",
    "status": "Pending",
    "rowid": "1111650",
    "final_x": "3669784.65285",
    "final_y": "520336.257015",
    "longitude": "-90.1054417057675",
    "latitude": "29.925094517046503",
    "geocoded_column": {
      "latitude": "29.925094517046503",
      "longitude": "-90.1054417057675"
    }
  },
  {
    "service_request": "2024-1111649",
    "request_type": "Trash/Recycling",
    "request_reason": "Order Trash Cart",
    "date_created": "2024-07-11T17:30:22.000",
    "date_modified": "2024-07-11T17:30:22.000",
    "request_status": "Pending",
    "responsible_agency": "Department of Sanitation",
    "final_address": "7727 Shelly St",
    "address_councildis": "E",
    "status": "Assigned to Contractor",
    "contractor": "Waste Pro",
    "rowid": "1111649",
    "final_x": "3695946.11293",
    "final_y": "559304.891485",
    "longitude": "-90.02145045776012",
    "latitude": "30.03144742169771",
    "geocoded_column": {
      "latitude": "30.03144742169771",
      "longitude": "-90.02145045776012"
    }
  },
  {
    "service_request": "2024-1111648",
    "request_type": "Property Maintenance",
    "request_reason": "Property Maintenance",
    "date_created": "2024-07-11T17:23:29.000",
    "date_modified": "2024-07-11T17:23:29.000",
    "request_status": "Pending",
    "responsible_agency": "Department of Code Enforcement",
    "final_address": "1930 First St",
    "address_councildis": "B",
    "status": "Pending",
    "rowid": "1111648",
    "final_x": "3676185.4443",
    "final_y": "524313.089788",
    "longitude": "-90.08509969443256",
    "latitude": "29.935839357652846",
    "geocoded_column": {
      "latitude": "29.935839357652846",
      "longitude": "-90.08509969443256"
    }
  },
  {
    "service_request": "2024-1111647",
    "request_type": "Abandoned Vehicles",
    "request_reason": "Vehicle Blocking Your Driveway",
    "date_created": "2024-07-11T17:10:41.000",
    "date_modified": "2024-07-11T17:10:41.000",
    "request_status": "Pending",
    "responsible_agency": "Department of Public Works",
    "final_address": "10321 Castlewood Dr",
    "address_councildis": "E",
    "status": "Pending",
    "rowid": "1111647",
    "final_x": "3709356.96984",
    "final_y": "564783.92733",
    "longitude": "-89.97886728564853",
    "latitude": "30.04608358755259",
    "geocoded_column": {
      "latitude": "30.04608358755259",
      "longitude": "-89.97886728564853"
    }
  },
  {
    "service_request": "2024-1111646",
    "request_type": "Property Maintenance",
    "request_reason": "Property Maintenance",
    "date_created": "2024-07-11T17:01:19.000",
    "date_modified": "2024-07-11T17:01:20.000",
    "request_status": "Pending",
    "responsible_agency": "Department of Code Enforcement",
    "final_address": "8038 Edgelake Ct",
    "address_councildis": "E",
    "status": "Pending",
    "rowid": "1111646",
    "final_x": "3702134.67837",
    "final_y": "562510.527327",
    "longitude": "-90.00177673502907",
    "latitude": "30.040065396756898",
    "geocoded_column": {
      "latitude": "30.040065396756898",
      "longitude": "-90.00177673502907"
    }
  },
  {
    "service_request": "2024-1111645",
    "request_type": "Property Maintenance",
    "request_reason": "Property Maintenance",
    "date_created": "2024-07-11T16:59:50.000",
    "date_modified": "2024-07-11T16:59:50.000",
    "request_status": "Pending",
    "responsible_agency": "Department of Code Enforcement",
    "final_address": "2901 Mansfield Ave",
    "address_councildis": "C",
    "status": "Pending",
    "rowid": "1111645",
    "final_x": "3709114.94616",
    "final_y": "519200.822263",
    "longitude": "-89.98133205421203",
    "latitude": "29.92075498731482",
    "geocoded_column": {
      "latitude": "29.92075498731482",
      "longitude": "-89.98133205421203"
    }
  },
  {
    "service_request": "2024-1111644",
    "request_type": "Property Maintenance",
    "request_reason": "Property Maintenance",
    "date_created": "2024-07-11T16:53:53.000",
    "date_modified": "2024-07-11T16:53:54.000",
    "request_status": "Pending",
    "responsible_agency": "Department of Code Enforcement",
    "final_address": "2140 Bartholomew St",
    "address_councildis": "D",
    "status": "Pending",
    "rowid": "1111644",
    "final_x": "3692777.04233",
    "final_y": "539400.787146",
    "longitude": "-90.03217905520742",
    "latitude": "29.976817851714518",
    "geocoded_column": {
      "latitude": "29.976817851714518",
      "longitude": "-90.03217905520742"
    }
  },
  {
    "service_request": "2024-1111641",
    "request_type": "Property Maintenance",
    "request_reason": "Property Maintenance",
    "date_created": "2024-07-11T16:48:02.000",
    "date_modified": "2024-07-11T16:48:03.000",
    "request_status": "Pending",
    "responsible_agency": "Department of Code Enforcement",
    "final_address": "5101 Desire Dr",
    "address_councildis": "D",
    "status": "Pending",
    "rowid": "1111641",
    "final_x": "3691564.27792",
    "final_y": "552578.323222",
    "longitude": "-90.03553795216554",
    "latitude": "30.013089097663705",
    "geocoded_column": {
      "latitude": "30.013089097663705",
      "longitude": "-90.03553795216554"
    }
  },
  {
    "service_request": "2024-1111640",
    "request_type": "Property Maintenance",
    "request_reason": "Property Maintenance",
    "date_created": "2024-07-11T16:46:05.000",
    "date_modified": "2024-07-11T16:46:05.000",
    "request_status": "Pending",
    "responsible_agency": "Department of Code Enforcement",
    "final_address": "1718 Pauger St",
    "address_councildis": "C",
    "status": "Pending",
    "rowid": "1111640",
    "final_x": "3683840.951",
    "final_y": "535982.824903",
    "longitude": "-90.0605219165457",
    "latitude": "29.967695634300693",
    "geocoded_column": {
      "latitude": "29.967695634300693",
      "longitude": "-90.0605219165457"
    }
  },
  {
    "service_request": "2024-1111639",
    "request_type": "Trash/Recycling",
    "request_reason": "MIssed Recycling Pick-Up",
    "date_created": "2024-07-11T16:42:56.000",
    "date_modified": "2024-07-11T16:42:57.000",
    "request_status": "Pending",
    "responsible_agency": "Department of Sanitation",
    "final_address": "4925 Freret St",
    "address_councildis": "B",
    "status": "Assigned to Contractor",
    "contractor": "IV Waste",
    "rowid": "1111639",
    "final_x": "3668930.41652",
    "final_y": "523954.511484",
    "longitude": "-90.10801612430201",
    "latitude": "29.935068704699543",
    "geocoded_column": {
      "latitude": "29.935068704699543",
      "longitude": "-90.10801612430201"
    }
  },
  {
    "service_request": "2024-1111638",
    "request_type": "Traffic Signals/Signs/Striping/Streetlights",
    "request_reason": "Traffic Signal Malfunctioning/Damaged",
    "date_created": "2024-07-11T16:40:51.000",
    "date_modified": "2024-07-11T16:40:51.000",
    "request_status": "Pending",
    "responsible_agency": "Department of Public Works",
    "final_address": "3400 BLK S Claiborne Ave",
    "address_councildis": "B",
    "status": "Pending",
    "rowid": "1111638",
    "final_x": "3672043.06598",
    "final_y": "526143.524272",
    "longitude": "-90.09811499098736",
    "latitude": "29.940995888001208",
    "geocoded_column": {
      "latitude": "29.940995888001208",
      "longitude": "-90.09811499098736"
    }
  },
  {
    "service_request": "2024-1111637",
    "request_type": "Trash/Recycling",
    "request_reason": "Request a Large Item Pick Up",
    "date_created": "2024-07-11T16:32:35.000",
    "date_modified": "2024-07-11T16:32:36.000",
    "request_status": "Pending",
    "responsible_agency": "Department of Sanitation",
    "final_address": "1545 Magazine St",
    "address_councildis": "B",
    "status": "Assigned to Contractor",
    "contractor": "IV Waste",
    "rowid": "1111637",
    "final_x": "3680064.90831",
    "final_y": "523452.087163",
    "longitude": "-90.07288206039478",
    "latitude": "29.933355109692144",
    "geocoded_column": {
      "latitude": "29.933355109692144",
      "longitude": "-90.07288206039478"
    }
  },
  {
    "service_request": "2024-1111636",
    "request_type": "Trash/Recycling",
    "request_reason": "Request a Large Item Pick Up",
    "date_created": "2024-07-11T16:29:57.000",
    "date_modified": "2024-07-11T16:29:58.000",
    "request_status": "Pending",
    "responsible_agency": "Department of Sanitation",
    "final_address": "7931 Nelson St",
    "address_councildis": "A",
    "status": "Assigned to Contractor",
    "contractor": "IV Waste",
    "rowid": "1111636",
    "final_x": "3665591.19834",
    "final_y": "531528.683139",
    "longitude": "-90.11830450268319",
    "latitude": "29.955992999455503",
    "geocoded_column": {
      "latitude": "29.955992999455503",
      "longitude": "-90.11830450268319"
    }
  },
  {
    "service_request": "2024-1111635",
    "request_type": "Parks & Parkways",
    "request_reason": "Request Tree Service (Right of Way/Public Property)",
    "date_created": "2024-07-11T16:26:21.000",
    "date_modified": "2024-07-11T16:26:21.000",
    "request_status": "Pending",
    "responsible_agency": "Department of Parks & Parkway",
    "final_address": "367 Sharon Dr",
    "address_councildis": "A",
    "status": "Pending",
    "rowid": "1111635",
    "final_x": "3664557.72724",
    "final_y": "547232.448849",
    "longitude": "-90.12104323440909",
    "latitude": "29.999203203377817",
    "geocoded_column": {
      "latitude": "29.999203203377817",
      "longitude": "-90.12104323440909"
    }
  },
  {
    "service_request": "2024-1111634",
    "request_type": "Traffic Signals/Signs/Striping/Streetlights",
    "request_reason": "Traffic Signal Malfunctioning/Damaged",
    "date_created": "2024-07-11T16:26:17.000",
    "date_modified": "2024-07-11T16:26:18.000",
    "request_status": "Pending",
    "responsible_agency": "Department of Public Works",
    "final_address": "NAPOLEON AVE & MAGAZINE ST",
    "address_councildis": "B",
    "status": "Pending",
    "rowid": "1111634",
    "final_x": "3671020.9",
    "final_y": "518790.98",
    "longitude": "-90.10159169802714",
    "latitude": "29.92080901243947",
    "geocoded_column": {
      "latitude": "29.92080901243947",
      "longitude": "-90.10159169802714"
    }
  },
  {
    "service_request": "2024-1111633",
    "request_type": "Traffic Signals/Signs/Striping/Streetlights",
    "request_reason": "Street Light Outage/Malfunction",
    "date_created": "2024-07-11T16:25:02.000",
    "date_modified": "2024-07-11T16:25:03.000",
    "request_status": "Pending",
    "responsible_agency": "Department of Public Works",
    "final_address": "2439 Memorial Park Dr",
    "address_councildis": "C",
    "status": "Assigned to Contractor",
    "contractor": "Legacy Professional Services",
    "rowid": "1111633",
    "final_x": "3692425.24035",
    "final_y": "521369.552377",
    "longitude": "-90.03393595225398",
    "latitude": "29.9272491948043",
    "geocoded_column": {
      "latitude": "29.9272491948043",
      "longitude": "-90.03393595225398"
    }
  },
  {
    "service_request": "2024-1111632",
    "request_type": "Traffic Signals/Signs/Striping/Streetlights",
    "request_reason": "Additional signage",
    "date_created": "2024-07-11T16:22:37.000",
    "date_modified": "2024-07-11T16:22:38.000",
    "request_status": "Pending",
    "responsible_agency": "Department of Public Works",
    "final_address": "101 Magazine St",
    "address_councildis": "B",
    "status": "Pending",
    "rowid": "1111632",
    "final_x": "3681694.06056",
    "final_y": "530136.289473",
    "longitude": "-90.06750581650434",
    "latitude": "29.951685053685758",
    "geocoded_column": {
      "latitude": "29.951685053685758",
      "longitude": "-90.06750581650434"
    }
  },
  {
    "service_request": "2024-1111631",
    "request_type": "Abandoned Vehicles",
    "request_reason": "Abandoned/Junk Vehicles",
    "date_created": "2024-07-11T16:21:10.000",
    "date_modified": "2024-07-11T16:21:11.000",
    "request_status": "Pending",
    "responsible_agency": "Department of Public Works",
    "final_address": "7153 Foch Rd",
    "address_councildis": "D",
    "status": "Pending",
    "rowid": "1111631",
    "final_x": "3696442.16189",
    "final_y": "557323.714395",
    "longitude": "-90.0199546889701",
    "latitude": "30.0259843165022",
    "geocoded_column": {
      "latitude": "30.0259843165022",
      "longitude": "-90.0199546889701"
    }
  },
  {
    "service_request": "2024-1111630",
    "request_type": "Trash/Recycling",
    "request_reason": "Return Recycling Cart",
    "date_created": "2024-07-11T16:18:14.000",
    "date_modified": "2024-07-11T16:18:14.000",
    "request_status": "Pending",
    "responsible_agency": "Department of Sanitation",
    "final_address": "5133 Desire Dr",
    "address_councildis": "D",
    "status": "Pending",
    "rowid": "1111630",
    "final_x": "3691524.3551",
    "final_y": "552806.390294",
    "longitude": "-90.035655925849",
    "latitude": "30.013717440702777",
    "geocoded_column": {
      "latitude": "30.013717440702777",
      "longitude": "-90.035655925849"
    }
  },
  {
    "service_request": "2024-1111629",
    "request_type": "Trash/Recycling",
    "request_reason": "Return Trash Cart",
    "date_created": "2024-07-11T16:17:30.000",
    "date_modified": "2024-07-11T16:17:31.000",
    "request_status": "Pending",
    "responsible_agency": "Department of Sanitation",
    "final_address": "5133 Desire Dr",
    "address_councildis": "D",
    "status": "Assigned to Contractor",
    "contractor": "IV Waste",
    "rowid": "1111629",
    "final_x": "3691524.3551",
    "final_y": "552806.390294",
    "longitude": "-90.035655925849",
    "latitude": "30.013717440702777",
    "geocoded_column": {
      "latitude": "30.013717440702777",
      "longitude": "-90.035655925849"
    }
  },
  {
    "service_request": "2024-1111628",
    "request_type": "Trash/Recycling",
    "request_reason": "Stop Trash Service",
    "date_created": "2024-07-11T16:16:34.000",
    "date_modified": "2024-07-11T16:16:35.000",
    "request_status": "Pending",
    "responsible_agency": "Department of Sanitation",
    "final_address": "5133 Desire Dr",
    "address_councildis": "D",
    "status": "Assigned to Contractor",
    "contractor": "IV Waste",
    "rowid": "1111628",
    "final_x": "3691524.3551",
    "final_y": "552806.390294",
    "longitude": "-90.035655925849",
    "latitude": "30.013717440702777",
    "geocoded_column": {
      "latitude": "30.013717440702777",
      "longitude": "-90.035655925849"
    }
  },
  {
    "service_request": "2024-1111627",
    "request_type": "Parks & Parkways",
    "request_reason": "Request Grass Cutting Service (City Owned Property)",
    "date_created": "2024-07-11T16:14:34.000",
    "date_modified": "2024-07-11T16:14:34.000",
    "request_status": "Pending",
    "responsible_agency": "Department of Parks & Parkway",
    "final_address": "4959 Robin Hood Dr",
    "address_councildis": "E",
    "status": "Pending",
    "rowid": "1111627",
    "final_x": "3717461.7196",
    "final_y": "558082.769179",
    "longitude": "-89.9535075011189",
    "latitude": "30.027392197917134",
    "geocoded_column": {
      "latitude": "30.027392197917134",
      "longitude": "-89.9535075011189"
    }
  },
  {
    "service_request": "2024-1111626",
    "request_type": "Trash/Recycling",
    "request_reason": "Request a Large Item Pick Up",
    "date_created": "2024-07-11T16:11:58.000",
    "date_modified": "2024-07-11T16:11:59.000",
    "request_status": "Pending",
    "responsible_agency": "Department of Sanitation",
    "final_address": "4204 Monroe St",
    "address_councildis": "A",
    "status": "Assigned to Contractor",
    "contractor": "IV Waste",
    "rowid": "1111626",
    "final_x": "3667564.30746",
    "final_y": "537782.989",
    "longitude": "-90.11186355739368",
    "latitude": "29.97313259220395",
    "geocoded_column": {
      "latitude": "29.97313259220395",
      "longitude": "-90.11186355739368"
    }
  },
  {
    "service_request": "2024-1111625",
    "request_type": "Parks & Parkways",
    "request_reason": "Request Grass Cutting Service (City Owned Property)",
    "date_created": "2024-07-11T16:09:15.000",
    "date_modified": "2024-07-11T16:09:15.000",
    "request_status": "Pending",
    "responsible_agency": "Department of Parks & Parkway",
    "final_address": "4959 Robin Hood Dr",
    "address_councildis": "E",
    "status": "Pending",
    "rowid": "1111625",
    "final_x": "3717461.7196",
    "final_y": "558082.769179",
    "longitude": "-89.9535075011189",
    "latitude": "30.027392197917134",
    "geocoded_column": {
      "latitude": "30.027392197917134",
      "longitude": "-89.9535075011189"
    }
  },
  {
    "service_request": "2024-1111624",
    "request_type": "Abandoned Vehicles",
    "request_reason": "Abandoned/Junk Vehicles",
    "date_created": "2024-07-11T16:05:31.000",
    "date_modified": "2024-07-11T16:05:32.000",
    "request_status": "Pending",
    "responsible_agency": "Department of Public Works",
    "final_address": "736 Dante St",
    "address_councildis": "A",
    "status": "Pending",
    "rowid": "1111624",
    "final_x": "3660364.68525",
    "final_y": "527758.265791",
    "longitude": "-90.13493264152125",
    "latitude": "29.94577691319367",
    "geocoded_column": {
      "latitude": "29.94577691319367",
      "longitude": "-90.13493264152125"
    }
  },
  {
    "service_request": "2024-1111623",
    "request_type": "Abandoned Vehicles",
    "request_reason": "Vehicle Blocking Your Driveway",
    "date_created": "2024-07-11T16:03:21.000",
    "date_modified": "2024-07-11T16:03:21.000",
    "request_status": "Pending",
    "responsible_agency": "Department of Public Works",
    "final_address": "5701 Chamberlain Dr",
    "address_councildis": "D",
    "status": "Pending",
    "rowid": "1111623",
    "final_x": "3679459.88328",
    "final_y": "553574.255831",
    "longitude": "-90.0737467504551",
    "latitude": "30.01619896266031",
    "geocoded_column": {
      "latitude": "30.01619896266031",
      "longitude": "-90.0737467504551"
    }
  },
  {
    "service_request": "2024-1111622",
    "request_type": "Property Maintenance",
    "request_reason": "Property Maintenance",
    "date_created": "2024-07-11T16:00:11.000",
    "date_modified": "2024-07-11T16:00:11.000",
    "request_status": "Pending",
    "responsible_agency": "Department of Code Enforcement",
    "final_address": "3141 General Meyer Ave",
    "address_councildis": "C",
    "status": "Pending",
    "rowid": "1111622",
    "final_x": "3695846.05456",
    "final_y": "526198.964478",
    "longitude": "-90.02296302251052",
    "latitude": "29.940421311082908",
    "geocoded_column": {
      "latitude": "29.940421311082908",
      "longitude": "-90.02296302251052"
    }
  },
  {
    "service_request": "2024-1111621",
    "request_type": "Abandoned Vehicles",
    "request_reason": "Abandoned/Junk Vehicles",
    "date_created": "2024-07-11T16:00:04.000",
    "date_modified": "2024-07-11T16:00:04.000",
    "request_status": "Pending",
    "responsible_agency": "Department of Public Works",
    "final_address": "5651 Paris Ave",
    "address_councildis": "D",
    "status": "Pending",
    "rowid": "1111621",
    "final_x": "3679175.83323",
    "final_y": "553366.536407",
    "longitude": "-90.07465143349559",
    "latitude": "30.01563639201733",
    "geocoded_column": {
      "latitude": "30.01563639201733",
      "longitude": "-90.07465143349559"
    }
  },
  {
    "service_request": "2024-1111620",
    "request_type": "Trash/Recycling",
    "request_reason": "MIssed Recycling Pick-Up",
    "date_created": "2024-07-11T15:59:35.000",
    "date_modified": "2024-07-11T15:59:36.000",
    "request_status": "Pending",
    "responsible_agency": "Department of Sanitation",
    "final_address": "7717 Patterson Rd",
    "address_councildis": "C",
    "status": "Assigned to Contractor",
    "contractor": "Richards Disposal",
    "rowid": "1111620",
    "final_x": "3712843.87038",
    "final_y": "518904.731575",
    "longitude": "-89.96957280025387",
    "latitude": "29.919819335098083",
    "geocoded_column": {
      "latitude": "29.919819335098083",
      "longitude": "-89.96957280025387"
    }
  },
  {
    "service_request": "2024-1111618",
    "request_type": "Traffic Signals/Signs/Striping/Streetlights",
    "request_reason": "Street Light Outage/Malfunction",
    "date_created": "2024-07-11T15:56:26.000",
    "date_modified": "2024-07-11T15:56:27.000",
    "request_status": "Pending",
    "responsible_agency": "Department of Public Works",
    "final_address": "914 Independence St",
    "address_councildis": "C",
    "status": "Assigned to Contractor",
    "contractor": "Legacy Professional Services",
    "rowid": "1111618",
    "final_x": "3690762.6696",
    "final_y": "534864.974406",
    "longitude": "-90.03870291280985",
    "latitude": "29.964408709150703",
    "geocoded_column": {
      "latitude": "29.964408709150703",
      "longitude": "-90.03870291280985"
    }
  },
  {
    "service_request": "2024-1111617",
    "request_type": "Property Maintenance",
    "request_reason": "Property Maintenance",
    "date_created": "2024-07-11T15:55:21.000",
    "date_modified": "2024-07-11T15:55:22.000",
    "request_status": "Pending",
    "responsible_agency": "Department of Code Enforcement",
    "final_address": "3925 N Johnson St",
    "address_councildis": "D",
    "status": "Pending",
    "rowid": "1111617",
    "final_x": "3692579.66429",
    "final_y": "538777.229577",
    "longitude": "-90.03282478681618",
    "latitude": "29.975109452067226",
    "geocoded_column": {
      "latitude": "29.975109452067226",
      "longitude": "-90.03282478681618"
    }
  },
  {
    "service_request": "2024-1111616",
    "request_type": "Property Maintenance",
    "request_reason": "Property Maintenance",
    "date_created": "2024-07-11T15:54:50.000",
    "date_modified": "2024-07-11T15:54:50.000",
    "request_status": "Pending",
    "responsible_agency": "Department of Code Enforcement",
    "final_address": "6209 Eads St",
    "address_councildis": "D",
    "status": "Pending",
    "rowid": "1111616",
    "final_x": "3686738.82274",
    "final_y": "556133.326426",
    "longitude": "-90.05065803342693",
    "latitude": "30.02301343952002",
    "geocoded_column": {
      "latitude": "30.02301343952002",
      "longitude": "-90.05065803342693"
    }
  },
  {
    "service_request": "2024-1111615",
    "request_type": "Safety & Permits",
    "request_reason": "Licenses & Permits",
    "date_created": "2024-07-11T15:53:10.000",
    "date_modified": "2024-07-11T15:53:10.000",
    "request_status": "Pending",
    "responsible_agency": "Safety and Permits",
    "final_address": "2508 Gladiolus St",
    "address_councildis": "D",
    "status": "Pending",
    "rowid": "1111615",
    "final_x": "3686409.48809",
    "final_y": "547429.616529",
    "longitude": "-90.05200619183857",
    "latitude": "29.999091554177923",
    "geocoded_column": {
      "latitude": "29.999091554177923",
      "longitude": "-90.05200619183857"
    }
  },
  {
    "service_request": "2024-1111614",
    "request_type": "Traffic Signals/Signs/Striping/Streetlights",
    "request_reason": "Traffic Sign Missing/Damaged",
    "date_created": "2024-07-11T15:50:20.000",
    "date_modified": "2024-07-11T15:50:21.000",
    "request_status": "Pending",
    "responsible_agency": "Department of Public Works",
    "final_address": "LOYOLA AVE & POYDRAS ST",
    "address_councildis": "B",
    "status": "Pending",
    "rowid": "1111614",
    "final_x": "3679146.5",
    "final_y": "529792.38",
    "longitude": "-90.07556170815121",
    "latitude": "29.950816556736658",
    "geocoded_column": {
      "latitude": "29.950816556736658",
      "longitude": "-90.07556170815121"
    }
  },
  {
    "service_request": "2024-1111613",
    "request_type": "Property Maintenance",
    "request_reason": "Property Maintenance",
    "date_created": "2024-07-11T15:49:10.000",
    "date_modified": "2024-07-11T15:49:11.000",
    "request_status": "Pending",
    "responsible_agency": "Department of Code Enforcement",
    "final_address": "9028 Olive St",
    "address_councildis": "A",
    "status": "Pending",
    "rowid": "1111613",
    "final_x": "3664681.50938",
    "final_y": "536463.266823",
    "longitude": "-90.12101214172584",
    "latitude": "29.969587977820368",
    "geocoded_column": {
      "latitude": "29.969587977820368",
      "longitude": "-90.12101214172584"
    }
  },
  {
    "service_request": "2024-1111612",
    "request_type": "Trash/Recycling",
    "request_reason": "Request a Large Item Pick Up",
    "date_created": "2024-07-11T15:41:28.000",
    "date_modified": "2024-07-11T15:41:29.000",
    "request_status": "Pending",
    "responsible_agency": "Department of Sanitation",
    "final_address": "6643 E Hermes St",
    "address_councildis": "D",
    "status": "Assigned to Contractor",
    "contractor": "Waste Pro",
    "rowid": "1111612",
    "final_x": "3697812.07178",
    "final_y": "556126.460378",
    "longitude": "-90.01566947888226",
    "latitude": "30.02264907847129",
    "geocoded_column": {
      "latitude": "30.02264907847129",
      "longitude": "-90.01566947888226"
    }
  },
  {
    "service_request": "2024-1111611",
    "request_type": "Property Maintenance",
    "request_reason": "Property Maintenance",
    "date_created": "2024-07-11T15:32:33.000",
    "date_modified": "2024-07-11T15:32:33.000",
    "request_status": "Pending",
    "responsible_agency": "Department of Code Enforcement",
    "final_address": "4423 Arthur Dr",
    "address_councildis": "E",
    "status": "Pending",
    "rowid": "1111611",
    "final_x": "3707939.03275",
    "final_y": "553739.645527",
    "longitude": "-89.98375976526667",
    "latitude": "30.015762166641117",
    "geocoded_column": {
      "latitude": "30.015762166641117",
      "longitude": "-89.98375976526667"
    }
  },
  {
    "service_request": "2024-1111609",
    "request_type": "Trash/Recycling",
    "request_reason": "Replace Recycling Cart",
    "date_created": "2024-07-11T15:30:33.000",
    "date_modified": "2024-07-11T15:30:33.000",
    "request_status": "Pending",
    "responsible_agency": "Department of Sanitation",
    "final_address": "82 Versailles Blvd",
    "address_councildis": "B",
    "status": "Pending",
    "rowid": "1111609",
    "final_x": "3667942.69498",
    "final_y": "530843.52493",
    "longitude": "-90.11090234218462",
    "latitude": "29.954040266915815",
    "geocoded_column": {
      "latitude": "29.954040266915815",
      "longitude": "-90.11090234218462"
    }
  },
  {
    "service_request": "2024-1111608",
    "request_type": "Trash/Recycling",
    "request_reason": "Replace Trash Cart",
    "date_created": "2024-07-11T15:28:53.000",
    "date_modified": "2024-07-11T15:28:54.000",
    "request_status": "Pending",
    "responsible_agency": "Department of Sanitation",
    "final_address": "82 Versailles Blvd",
    "address_councildis": "B",
    "status": "Assigned to Contractor",
    "contractor": "IV Waste",
    "rowid": "1111608",
    "final_x": "3667942.69498",
    "final_y": "530843.52493",
    "longitude": "-90.11090234218462",
    "latitude": "29.954040266915815",
    "geocoded_column": {
      "latitude": "29.954040266915815",
      "longitude": "-90.11090234218462"
    }
  },
  {
    "service_request": "2024-1111607",
    "request_type": "Traffic Signals/Signs/Striping/Streetlights",
    "request_reason": "Traffic Signal Malfunctioning/Damaged",
    "date_created": "2024-07-11T15:28:37.000",
    "date_modified": "2024-07-11T15:28:37.000",
    "request_status": "Pending",
    "responsible_agency": "Department of Public Works",
    "final_address": "4300 BLK Magazine St",
    "address_councildis": "B",
    "status": "Pending",
    "rowid": "1111607",
    "final_x": "3671272.94154",
    "final_y": "518811.330275",
    "longitude": "-90.10079542527087",
    "latitude": "29.920857516939332",
    "geocoded_column": {
      "latitude": "29.920857516939332",
      "longitude": "-90.10079542527087"
    }
  },
  {
    "service_request": "2024-1111606",
    "request_type": "Traffic Signals/Signs/Striping/Streetlights",
    "request_reason": "Street Light Outage/Malfunction",
    "date_created": "2024-07-11T15:25:18.000",
    "date_modified": "2024-07-11T15:25:19.000",
    "request_status": "Pending",
    "responsible_agency": "Department of Public Works",
    "final_address": "1728 Fourth St",
    "address_councildis": "B",
    "status": "Assigned to Contractor",
    "contractor": "Legacy Professional Services",
    "rowid": "1111606",
    "final_x": "3675810.30888",
    "final_y": "523212.994363",
    "longitude": "-90.08632180164958",
    "latitude": "29.932825685759862",
    "geocoded_column": {
      "latitude": "29.932825685759862",
      "longitude": "-90.08632180164958"
    }
  },
  {
    "service_request": "2024-1111605",
    "request_type": "Roads/Drainage",
    "request_reason": "Catch Basin - Clogged",
    "date_created": "2024-07-11T15:25:03.000",
    "date_modified": "2024-07-11T15:25:04.000",
    "request_status": "Pending",
    "responsible_agency": "Department of Public Works",
    "final_address": "3424 St Claude Ave",
    "address_councildis": "C",
    "status": "Pending",
    "rowid": "1111605",
    "final_x": "3690375.59388",
    "final_y": "535602.835142",
    "longitude": "-90.03989896111732",
    "latitude": "29.966449587221266",
    "geocoded_column": {
      "latitude": "29.966449587221266",
      "longitude": "-90.03989896111732"
    }
  },
  {
    "service_request": "2024-1111604",
    "request_type": "Property Maintenance",
    "request_reason": "Property Maintenance",
    "date_created": "2024-07-11T15:24:39.000",
    "date_modified": "2024-07-11T15:24:39.000",
    "request_status": "Pending",
    "responsible_agency": "Department of Code Enforcement",
    "final_address": "3804 Laurel St",
    "address_councildis": "B",
    "status": "Pending",
    "rowid": "1111604",
    "final_x": "3673510.32449",
    "final_y": "518283.305846",
    "longitude": "-90.0937510456932",
    "latitude": "29.919339253179853",
    "geocoded_column": {
      "latitude": "29.919339253179853",
      "longitude": "-90.0937510456932"
    }
  },
  {
    "service_request": "2024-1111603",
    "request_type": "Trash/Recycling",
    "request_reason": "Repair Trash Cart",
    "date_created": "2024-07-11T15:24:10.000",
    "date_modified": "2024-07-11T15:24:11.000",
    "request_status": "Pending",
    "responsible_agency": "Department of Sanitation",
    "final_address": "6613 Maumus Ave",
    "address_councildis": "C",
    "status": "Assigned to Contractor",
    "contractor": "Richards Disposal",
    "rowid": "1111603",
    "final_x": "3708235.19396",
    "final_y": "516605.372661",
    "longitude": "-89.9842054638912",
    "latitude": "29.91364691774143",
    "geocoded_column": {
      "latitude": "29.91364691774143",
      "longitude": "-89.9842054638912"
    }
  },
  {
    "service_request": "2024-1111602",
    "request_type": "Abandoned Vehicles",
    "request_reason": "Abandoned/Junk Vehicles",
    "date_created": "2024-07-11T15:21:45.000",
    "date_modified": "2024-07-11T15:21:45.000",
    "request_status": "Pending",
    "responsible_agency": "Department of Public Works",
    "final_address": "1625 Lesseps St",
    "address_councildis": "D",
    "status": "Pending",
    "rowid": "1111602",
    "final_x": "3693254.53731",
    "final_y": "537161.260872",
    "longitude": "-90.03075138893249",
    "latitude": "29.970645034438665",
    "geocoded_column": {
      "latitude": "29.970645034438665",
      "longitude": "-90.03075138893249"
    }
  },
  {
    "service_request": "2024-1111601",
    "request_type": "Roads/Drainage",
    "request_reason": "Catch Basin - Clogged",
    "date_created": "2024-07-11T15:21:13.000",
    "date_modified": "2024-07-11T15:21:13.000",
    "request_status": "Pending",
    "responsible_agency": "Department of Public Works",
    "final_address": "DANNEEL ST & JOSEPH ST",
    "address_councildis": "A",
    "status": "Pending",
    "rowid": "1111601",
    "final_x": "3666898.6",
    "final_y": "522437.18",
    "longitude": "-90.11448153417162",
    "latitude": "29.930956113722015",
    "geocoded_column": {
      "latitude": "29.930956113722015",
      "longitude": "-90.11448153417162"
    }
  },
  {
    "service_request": "2024-1111600",
    "request_type": "Trash/Recycling",
    "request_reason": "Request a Large Item Pick Up",
    "date_created": "2024-07-11T15:19:59.000",
    "date_modified": "2024-07-11T15:20:00.000",
    "request_status": "Pending",
    "responsible_agency": "Department of Sanitation",
    "final_address": "1035 Behrman Ave",
    "address_councildis": "C",
    "status": "Assigned to Contractor",
    "contractor": "Richards Disposal",
    "rowid": "1111600",
    "final_x": "3691373.82268",
    "final_y": "527394.968447",
    "longitude": "-90.0370398170144",
    "latitude": "29.94384978348185",
    "geocoded_column": {
      "latitude": "29.94384978348185",
      "longitude": "-90.0370398170144"
    }
  },
  {
    "service_request": "2024-1111599",
    "request_type": "Roads/Drainage",
    "request_reason": "Catch Basin - Clogged",
    "date_created": "2024-07-11T15:18:21.000",
    "date_modified": "2024-07-11T15:18:21.000",
    "request_status": "Pending",
    "responsible_agency": "Department of Public Works",
    "final_address": "DANNEEL ST & JOSEPH ST",
    "address_councildis": "A",
    "status": "Pending",
    "rowid": "1111599",
    "final_x": "3666898.6",
    "final_y": "522437.18",
    "longitude": "-90.11448153417162",
    "latitude": "29.930956113722015",
    "geocoded_column": {
      "latitude": "29.930956113722015",
      "longitude": "-90.11448153417162"
    }
  },
  {
    "service_request": "2024-1111598",
    "request_type": "Property Maintenance",
    "request_reason": "Property Maintenance",
    "date_created": "2024-07-11T15:16:23.000",
    "date_modified": "2024-07-11T15:16:24.000",
    "request_status": "Pending",
    "responsible_agency": "Department of Code Enforcement",
    "final_address": "1511 Maura Pl",
    "address_councildis": "C",
    "status": "Pending",
    "rowid": "1111598",
    "final_x": "3699200.47658",
    "final_y": "525591.457853",
    "longitude": "-90.01239474188907",
    "latitude": "29.93864497388045",
    "geocoded_column": {
      "latitude": "29.93864497388045",
      "longitude": "-90.01239474188907"
    }
  },
  {
    "service_request": "2024-1111597",
    "request_type": "Trash/Recycling",
    "request_reason": "Request a Large Item Pick Up",
    "date_created": "2024-07-11T15:12:46.000",
    "date_modified": "2024-07-11T15:12:47.000",
    "request_status": "Pending",
    "responsible_agency": "Department of Sanitation",
    "final_address": "1724 Burdette St",
    "address_councildis": "A",
    "status": "Assigned to Contractor",
    "contractor": "IV Waste",
    "rowid": "1111597",
    "final_x": "3664092.32007",
    "final_y": "529100.901696",
    "longitude": "-90.12311843335763",
    "latitude": "29.949361004155026",
    "geocoded_column": {
      "latitude": "29.949361004155026",
      "longitude": "-90.12311843335763"
    }
  },
  {
    "service_request": "2024-1111596",
    "request_type": "Trash/Recycling",
    "request_reason": "Order Trash Cart",
    "date_created": "2024-07-11T15:11:46.000",
    "date_modified": "2024-07-11T15:11:47.000",
    "request_status": "Pending",
    "responsible_agency": "Department of Sanitation",
    "final_address": "18 Arbor Ln",
    "address_councildis": "C",
    "status": "Assigned to Contractor",
    "contractor": "Richards Disposal",
    "rowid": "1111596",
    "final_x": "3716466.74412",
    "final_y": "518045.242422",
    "longitude": "-89.95816985193927",
    "latitude": "29.917336986397657",
    "geocoded_column": {
      "latitude": "29.917336986397657",
      "longitude": "-89.95816985193927"
    }
  },
  {
    "service_request": "2024-1111595",
    "request_type": "Trash/Recycling",
    "request_reason": "Order Recycling Cart",
    "date_created": "2024-07-11T15:11:35.000",
    "date_modified": "2024-07-11T15:11:36.000",
    "request_status": "Pending",
    "responsible_agency": "Department of Sanitation",
    "final_address": "18 Arbor Ln",
    "address_councildis": "C",
    "status": "Pending",
    "rowid": "1111595",
    "final_x": "3716466.74412",
    "final_y": "518045.242422",
    "longitude": "-89.95816985193927",
    "latitude": "29.917336986397657",
    "geocoded_column": {
      "latitude": "29.917336986397657",
      "longitude": "-89.95816985193927"
    }
  },
  {
    "service_request": "2024-1111594",
    "request_type": "Parks & Parkways",
    "request_reason": "Request Tree Service (Right of Way/Public Property)",
    "date_created": "2024-07-11T15:10:15.000",
    "date_modified": "2024-07-11T15:10:16.000",
    "request_status": "Pending",
    "responsible_agency": "Department of Parks & Parkway",
    "final_address": "11200 Ivy Ln",
    "address_councildis": "E",
    "status": "Pending",
    "rowid": "1111594",
    "final_x": "3716224.15807",
    "final_y": "559892.310749",
    "longitude": "-89.9573493817991",
    "latitude": "30.032408631795807",
    "geocoded_column": {
      "latitude": "30.032408631795807",
      "longitude": "-89.9573493817991"
    }
  },
  {
    "service_request": "2024-1111593",
    "request_type": "Traffic Signals/Signs/Striping/Streetlights",
    "request_reason": "Street Light Outage/Malfunction",
    "date_created": "2024-07-11T15:06:52.000",
    "date_modified": "2024-07-11T15:06:52.000",
    "request_status": "Pending",
    "responsible_agency": "Department of Public Works",
    "final_address": "2542 Delery St",
    "address_councildis": "E",
    "status": "Assigned to Contractor",
    "contractor": "Legacy Professional Services",
    "rowid": "1111593",
    "final_x": "3702542.79498",
    "final_y": "538262.362889",
    "longitude": "-90.00137775375521",
    "latitude": "29.973379065046537",
    "geocoded_column": {
      "latitude": "29.973379065046537",
      "longitude": "-90.00137775375521"
    }
  },
  {
    "service_request": "2024-1111592",
    "request_type": "Traffic Signals/Signs/Striping/Streetlights",
    "request_reason": "Street Light Outage/Malfunction",
    "date_created": "2024-07-11T15:05:27.000",
    "date_modified": "2024-07-11T15:05:28.000",
    "request_status": "Pending",
    "responsible_agency": "Department of Public Works",
    "final_address": "2549 Delery St",
    "address_councildis": "E",
    "status": "Assigned to Contractor",
    "contractor": "Legacy Professional Services",
    "rowid": "1111592",
    "final_x": "3702663.4634",
    "final_y": "538209.310729",
    "longitude": "-90.00099860902186",
    "latitude": "29.97322933349424",
    "geocoded_column": {
      "latitude": "29.97322933349424",
      "longitude": "-90.00099860902186"
    }
  },
  {
    "service_request": "2024-1111591",
    "request_type": "Property Maintenance",
    "request_reason": "Property Maintenance",
    "date_created": "2024-07-11T15:04:08.000",
    "date_modified": "2024-07-11T15:04:09.000",
    "request_status": "Pending",
    "responsible_agency": "Department of Code Enforcement",
    "final_address": "7816 Lehigh St",
    "address_councildis": "E",
    "status": "Pending",
    "rowid": "1111591",
    "final_x": "3710063.36913",
    "final_y": "566399.615203",
    "longitude": "-89.9765742628873",
    "latitude": "30.050503099351985",
    "geocoded_column": {
      "latitude": "30.050503099351985",
      "longitude": "-89.9765742628873"
    }
  },
  {
    "service_request": "2024-1111590",
    "request_type": "Parks & Parkways",
    "request_reason": "Request Tree Service (Right of Way/Public Property)",
    "date_created": "2024-07-11T15:03:30.000",
    "date_modified": "2024-07-11T15:03:31.000",
    "request_status": "Pending",
    "responsible_agency": "Department of Parks & Parkway",
    "final_address": "5017 Madrid St",
    "address_councildis": "D",
    "status": "Pending",
    "rowid": "1111590",
    "final_x": "3691240.57577",
    "final_y": "556315.253466",
    "longitude": "-90.03642704088311",
    "latitude": "30.023374338795684",
    "geocoded_column": {
      "latitude": "30.023374338795684",
      "longitude": "-90.03642704088311"
    }
  },
  {
    "service_request": "2024-1111589",
    "request_type": "Parks & Parkways",
    "request_reason": "Request Grass Cutting Service (City Owned Property)",
    "date_created": "2024-07-11T15:02:23.000",
    "date_modified": "2024-07-11T15:02:24.000",
    "request_status": "Pending",
    "responsible_agency": "Department of Parks & Parkway",
    "final_address": "5017 Madrid St",
    "address_councildis": "D",
    "status": "Pending",
    "rowid": "1111589",
    "final_x": "3691240.57577",
    "final_y": "556315.253466",
    "longitude": "-90.03642704088311",
    "latitude": "30.023374338795684",
    "geocoded_column": {
      "latitude": "30.023374338795684",
      "longitude": "-90.03642704088311"
    }
  },
  {
    "service_request": "2024-1111588",
    "request_type": "Roads/Drainage",
    "request_reason": "Pothole",
    "date_created": "2024-07-11T14:56:27.000",
    "date_modified": "2024-07-11T14:56:28.000",
    "request_status": "Pending",
    "responsible_agency": "Department of Public Works",
    "final_address": "5000 BLK S Johnson St",
    "address_councildis": "B",
    "status": "Pending",
    "rowid": "1111588",
    "final_x": "3668753.39802",
    "final_y": "526950.745099",
    "longitude": "-90.10847385817888",
    "latitude": "29.943312584844605",
    "geocoded_column": {
      "latitude": "29.943312584844605",
      "longitude": "-90.10847385817888"
    }
  },
  {
    "service_request": "2024-1111587",
    "request_type": "Traffic Signals/Signs/Striping/Streetlights",
    "request_reason": "Request for Stop Sign",
    "date_created": "2024-07-11T14:54:07.000",
    "date_modified": "2024-07-11T14:54:07.000",
    "request_status": "Pending",
    "responsible_agency": "Department of Public Works",
    "final_address": "2701 Joseph St",
    "address_councildis": "A",
    "status": "Pending",
    "rowid": "1111587",
    "final_x": "3667728.61159",
    "final_y": "525792.444157",
    "longitude": "-90.11174836879499",
    "latitude": "29.9401577125713",
    "geocoded_column": {
      "latitude": "29.9401577125713",
      "longitude": "-90.11174836879499"
    }
  },
  {
    "service_request": "2024-1111586",
    "request_type": "Parks & Parkways",
    "request_reason": "Request Tree Service (Right of Way/Public Property)",
    "date_created": "2024-07-11T14:53:57.000",
    "date_modified": "2024-07-11T14:53:58.000",
    "request_status": "Pending",
    "responsible_agency": "Department of Parks & Parkway",
    "final_address": "4813 Virgilian St",
    "address_councildis": "D",
    "status": "Pending",
    "rowid": "1111586",
    "final_x": "3697525.76087",
    "final_y": "554127.387544",
    "longitude": "-90.01664673329421",
    "latitude": "30.017161436141905",
    "geocoded_column": {
      "latitude": "30.017161436141905",
      "longitude": "-90.01664673329421"
    }
  },
  {
    "service_request": "2024-1111585",
    "request_type": "Trash/Recycling",
    "request_reason": "MIssed Recycling Pick-Up",
    "date_created": "2024-07-11T14:52:45.000",
    "date_modified": "2024-07-11T14:52:46.000",
    "request_status": "Pending",
    "responsible_agency": "Department of Sanitation",
    "final_address": "4801 Friar Tuck Dr",
    "address_councildis": "E",
    "status": "Assigned to Contractor",
    "contractor": "Waste Pro",
    "rowid": "1111585",
    "final_x": "3717805.08095",
    "final_y": "557218.365595",
    "longitude": "-89.95245543834297",
    "latitude": "30.02500406036211",
    "geocoded_column": {
      "latitude": "30.02500406036211",
      "longitude": "-89.95245543834297"
    }
  },
  {
    "service_request": "2024-1111584",
    "request_type": "Trash/Recycling",
    "request_reason": "Request a Large Item Pick Up",
    "date_created": "2024-07-11T14:52:27.000",
    "date_modified": "2024-07-11T14:52:28.000",
    "request_status": "Pending",
    "responsible_agency": "Department of Sanitation",
    "final_address": "5037 St Ferdinand Dr",
    "address_councildis": "D",
    "status": "Assigned to Contractor",
    "contractor": "IV Waste",
    "rowid": "1111584",
    "final_x": "3689244.7919",
    "final_y": "551606.873365",
    "longitude": "-90.04290082616272",
    "latitude": "30.010489999877326",
    "geocoded_column": {
      "latitude": "30.010489999877326",
      "longitude": "-90.04290082616272"
    }
  },
  {
    "service_request": "2024-1111583",
    "request_type": "Trash/Recycling",
    "request_reason": "Repair Trash Cart",
    "date_created": "2024-07-11T14:50:48.000",
    "date_modified": "2024-07-11T14:50:49.000",
    "request_status": "Pending",
    "responsible_agency": "Department of Sanitation",
    "final_address": "16 Eagle Trace Dr",
    "address_councildis": "C",
    "status": "Assigned to Contractor",
    "contractor": "Richards Disposal",
    "rowid": "1111583",
    "final_x": "3719813.73669",
    "final_y": "511927.120432",
    "longitude": "-89.94783893377267",
    "latitude": "29.900403453002742",
    "geocoded_column": {
      "latitude": "29.900403453002742",
      "longitude": "-89.94783893377267"
    }
  },
  {
    "service_request": "2024-1111582",
    "request_type": "Trash/Recycling",
    "request_reason": "Replace Trash Cart",
    "date_created": "2024-07-11T14:45:06.000",
    "date_modified": "2024-07-11T14:45:07.000",
    "request_status": "Pending",
    "responsible_agency": "Department of Sanitation",
    "final_address": "5530 S Liberty St",
    "address_councildis": "A",
    "status": "Assigned to Contractor",
    "contractor": "IV Waste",
    "rowid": "1111582",
    "final_x": "3667200.96954",
    "final_y": "523325.183291",
    "longitude": "-90.11349714795887",
    "latitude": "29.933388992421577",
    "geocoded_column": {
      "latitude": "29.933388992421577",
      "longitude": "-90.11349714795887"
    }
  },
  {
    "service_request": "2024-1111581",
    "request_type": "Property Maintenance",
    "request_reason": "Property Maintenance",
    "date_created": "2024-07-11T14:43:52.000",
    "date_modified": "2024-07-11T14:43:53.000",
    "request_status": "Pending",
    "responsible_agency": "Department of Code Enforcement",
    "final_address": "2827 Painters St",
    "address_councildis": "D",
    "status": "Pending",
    "rowid": "1111581",
    "final_x": "3687042.2047",
    "final_y": "543371.697038",
    "longitude": "-90.05015098766829",
    "latitude": "29.98791426234518",
    "geocoded_column": {
      "latitude": "29.98791426234518",
      "longitude": "-90.05015098766829"
    }
  },
  {
    "service_request": "2024-1111580",
    "request_type": "Trash/Recycling",
    "request_reason": "Repair Recycling Cart",
    "date_created": "2024-07-11T14:42:23.000",
    "date_modified": "2024-07-11T14:42:23.000",
    "request_status": "Pending",
    "responsible_agency": "Department of Sanitation",
    "final_address": "4027 S Post Oak Ave",
    "address_councildis": "C",
    "status": "Pending",
    "rowid": "1111580",
    "final_x": "3704496.3834",
    "final_y": "513335.067506",
    "longitude": "-89.99612669950663",
    "latitude": "29.904775211706955",
    "geocoded_column": {
      "latitude": "29.904775211706955",
      "longitude": "-89.99612669950663"
    }
  },
  {
    "service_request": "2024-1111579",
    "request_type": "Trash/Recycling",
    "request_reason": "Repair Trash Cart",
    "date_created": "2024-07-11T14:41:38.000",
    "date_modified": "2024-07-11T14:41:39.000",
    "request_status": "Pending",
    "responsible_agency": "Department of Sanitation",
    "final_address": "4027 S Post Oak Ave",
    "address_councildis": "C",
    "status": "Assigned to Contractor",
    "contractor": "Richards Disposal",
    "rowid": "1111579",
    "final_x": "3704496.3834",
    "final_y": "513335.067506",
    "longitude": "-89.99612669950663",
    "latitude": "29.904775211706955",
    "geocoded_column": {
      "latitude": "29.904775211706955",
      "longitude": "-89.99612669950663"
    }
  },
  {
    "service_request": "2024-1111578",
    "request_type": "Trash/Recycling",
    "request_reason": "MIssed Recycling Pick-Up",
    "date_created": "2024-07-11T14:40:18.000",
    "date_modified": "2024-07-11T14:40:19.000",
    "request_status": "Pending",
    "responsible_agency": "Department of Sanitation",
    "final_address": "4027 S Post Oak Ave",
    "address_councildis": "C",
    "status": "Assigned to Contractor",
    "contractor": "Richards Disposal",
    "rowid": "1111578",
    "final_x": "3704496.3834",
    "final_y": "513335.067506",
    "longitude": "-89.99612669950663",
    "latitude": "29.904775211706955",
    "geocoded_column": {
      "latitude": "29.904775211706955",
      "longitude": "-89.99612669950663"
    }
  },
  {
    "service_request": "2024-1111577",
    "request_type": "Trash/Recycling",
    "request_reason": "Request a Large Item Pick Up",
    "date_created": "2024-07-11T14:39:50.000",
    "date_modified": "2024-07-11T14:39:51.000",
    "request_status": "Pending",
    "responsible_agency": "Department of Sanitation",
    "final_address": "4417 Shalimar Dr",
    "address_councildis": "D",
    "status": "Assigned to Contractor",
    "contractor": "Waste Pro",
    "rowid": "1111577",
    "final_x": "3697402.51754",
    "final_y": "552528.123158",
    "longitude": "-90.01709417428835",
    "latitude": "30.01276795534955",
    "geocoded_column": {
      "latitude": "30.01276795534955",
      "longitude": "-90.01709417428835"
    }
  },
  {
    "service_request": "2024-1111576",
    "request_type": "Trash/Recycling",
    "request_reason": "Repair Trash Cart",
    "date_created": "2024-07-11T14:39:48.000",
    "date_modified": "2024-07-11T14:39:49.000",
    "request_status": "Pending",
    "responsible_agency": "Department of Sanitation",
    "final_address": "3225 Joliet St",
    "address_councildis": "A",
    "status": "Assigned to Contractor",
    "contractor": "IV Waste",
    "rowid": "1111576",
    "final_x": "3665870.62279",
    "final_y": "534728.91911",
    "longitude": "-90.11731493139051",
    "latitude": "29.964784448110745",
    "geocoded_column": {
      "latitude": "29.964784448110745",
      "longitude": "-90.11731493139051"
    }
  },
  {
    "service_request": "2024-1111575",
    "request_type": "Trash/Recycling",
    "request_reason": "Repair Trash Cart",
    "date_created": "2024-07-11T14:39:46.000",
    "date_modified": "2024-07-11T14:39:48.000",
    "request_status": "Pending",
    "responsible_agency": "Department of Sanitation",
    "final_address": "7102 Birch St",
    "address_councildis": "A",
    "status": "Assigned to Contractor",
    "contractor": "IV Waste",
    "rowid": "1111575",
    "final_x": "3665117.95546",
    "final_y": "527519.063167",
    "longitude": "-90.11993292224139",
    "latitude": "29.944981632503026",
    "geocoded_column": {
      "latitude": "29.944981632503026",
      "longitude": "-90.11993292224139"
    }
  },
  {
    "service_request": "2024-1111574",
    "request_type": "Trash/Recycling",
    "request_reason": "Request a Large Item Pick Up",
    "date_created": "2024-07-11T14:39:18.000",
    "date_modified": "2024-07-11T14:39:19.000",
    "request_status": "Pending",
    "responsible_agency": "Department of Sanitation",
    "final_address": "4027 S Post Oak Ave",
    "address_councildis": "C",
    "status": "Assigned to Contractor",
    "contractor": "Richards Disposal",
    "rowid": "1111574",
    "final_x": "3704496.3834",
    "final_y": "513335.067506",
    "longitude": "-89.99612669950663",
    "latitude": "29.904775211706955",
    "geocoded_column": {
      "latitude": "29.904775211706955",
      "longitude": "-89.99612669950663"
    }
  },
  {
    "service_request": "2024-1111573",
    "request_type": "Traffic Signals/Signs/Striping/Streetlights",
    "request_reason": "Traffic Signal Malfunctioning/Damaged",
    "date_created": "2024-07-11T14:36:45.000",
    "date_modified": "2024-07-11T14:36:46.000",
    "request_status": "Pending",
    "responsible_agency": "Department of Public Works",
    "final_address": "LOUISIANA AVE & MAGAZINE ST",
    "address_councildis": "B",
    "status": "Pending",
    "rowid": "1111573",
    "final_x": "3675063.1",
    "final_y": "519638.88",
    "longitude": "-90.0888032354804",
    "latitude": "29.92302036621486",
    "geocoded_column": {
      "latitude": "29.92302036621486",
      "longitude": "-90.0888032354804"
    }
  },
  {
    "service_request": "2024-1111572",
    "request_type": "Trash/Recycling",
    "request_reason": "Replace Trash Cart",
    "date_created": "2024-07-11T14:33:11.000",
    "date_modified": "2024-07-11T14:33:12.000",
    "request_status": "Pending",
    "responsible_agency": "Department of Sanitation",
    "final_address": "7535 Garfield St",
    "address_councildis": "A",
    "status": "Assigned to Contractor",
    "contractor": "IV Waste",
    "rowid": "1111572",
    "final_x": "3660813.56678",
    "final_y": "524378.530492",
    "longitude": "-90.13362709167163",
    "latitude": "29.936470795261613",
    "geocoded_column": {
      "latitude": "29.936470795261613",
      "longitude": "-90.13362709167163"
    }
  },
  {
    "service_request": "2024-1111571",
    "request_type": "Roads/Drainage",
    "request_reason": "Pothole",
    "date_created": "2024-07-11T14:30:09.000",
    "date_modified": "2024-07-11T14:30:29.000",
    "case_close_date": "2024-07-11T09:30:29.000",
    "request_status": "Closed",
    "responsible_agency": "Department of Public Works",
    "final_address": "3301 Jefferson Ave",
    "address_councildis": "B",
    "status": "Resolved",
    "rowid": "1111571",
    "final_x": "3668721.63233",
    "final_y": "527333.798527",
    "longitude": "-90.10856122377669",
    "latitude": "29.944366791252257",
    "geocoded_column": {
      "latitude": "29.944366791252257",
      "longitude": "-90.10856122377669"
    }
  },
  {
    "service_request": "2024-1111570",
    "request_type": "Roads/Drainage",
    "request_reason": "Pothole",
    "date_created": "2024-07-11T14:28:54.000",
    "date_modified": "2024-07-11T14:29:22.000",
    "case_close_date": "2024-07-11T09:29:22.000",
    "request_status": "Closed",
    "responsible_agency": "Department of Public Works",
    "final_address": "3200 BLK Jefferson Ave",
    "address_councildis": "B",
    "status": "Resolved",
    "rowid": "1111570",
    "final_x": "3668629.05378",
    "final_y": "527124.029857",
    "longitude": "-90.10886059933249",
    "latitude": "29.943792716044538",
    "geocoded_column": {
      "latitude": "29.943792716044538",
      "longitude": "-90.10886059933249"
    }
  },
  {
    "service_request": "2024-1111569",
    "request_type": "Roads/Drainage",
    "request_reason": "Pothole",
    "date_created": "2024-07-11T14:27:11.000",
    "date_modified": "2024-07-11T14:27:39.000",
    "case_close_date": "2024-07-11T09:27:39.000",
    "request_status": "Closed",
    "responsible_agency": "Department of Public Works",
    "final_address": "3017 Jefferson Ave",
    "address_councildis": "B",
    "status": "Resolved",
    "rowid": "1111569",
    "final_x": "3668539.96167",
    "final_y": "526488.882238",
    "longitude": "-90.10916331223227",
    "latitude": "29.94204888321543",
    "geocoded_column": {
      "latitude": "29.94204888321543",
      "longitude": "-90.10916331223227"
    }
  },
  {
    "service_request": "2024-1111568",
    "request_type": "Roads/Drainage",
    "request_reason": "Road Shoulder Repair",
    "date_created": "2024-07-11T14:25:20.000",
    "date_modified": "2024-07-11T14:25:47.000",
    "case_close_date": "2024-07-11T09:25:47.000",
    "request_status": "Closed",
    "responsible_agency": "Department of Public Works",
    "final_address": "3169 Elmwood Park Dr",
    "address_councildis": "C",
    "status": "Resolved",
    "rowid": "1111568",
    "final_x": "3694691.43254",
    "final_y": "518494.262007",
    "longitude": "-90.02688567993711",
    "latitude": "29.91927226119367",
    "geocoded_column": {
      "latitude": "29.91927226119367",
      "longitude": "-90.02688567993711"
    }
  },
  {
    "service_request": "2024-1111567",
    "request_type": "Roads/Drainage",
    "request_reason": "Road Shoulder Repair",
    "date_created": "2024-07-11T14:20:21.000",
    "date_modified": "2024-07-11T14:20:55.000",
    "case_close_date": "2024-07-11T09:20:55.000",
    "request_status": "Closed",
    "responsible_agency": "Department of Public Works",
    "final_address": "4401 France Rd",
    "address_councildis": "D",
    "status": "Resolved",
    "rowid": "1111567",
    "final_x": "3693352.16041",
    "final_y": "550864.146389",
    "longitude": "-90.02995083270064",
    "latitude": "30.008319947550874",
    "geocoded_column": {
      "latitude": "30.008319947550874",
      "longitude": "-90.02995083270064"
    }
  },
  {
    "service_request": "2024-1111566",
    "request_type": "Abandoned Vehicles",
    "request_reason": "Abandoned/Junk Vehicles",
    "date_created": "2024-07-11T14:18:16.000",
    "date_modified": "2024-07-11T14:18:16.000",
    "request_status": "Pending",
    "responsible_agency": "Department of Public Works",
    "final_address": "5200 BLK Spain St",
    "address_councildis": "D",
    "status": "Inspected",
    "rowid": "1111566",
    "final_x": "3684840.84616",
    "final_y": "552281.598965",
    "longitude": "-90.05679079580088",
    "latitude": "30.012480887093925",
    "geocoded_column": {
      "latitude": "30.012480887093925",
      "longitude": "-90.05679079580088"
    }
  },
  {
    "service_request": "2024-1111565",
    "request_type": "Trash/Recycling",
    "request_reason": "Request a Large Item Pick Up",
    "date_created": "2024-07-11T14:17:51.000",
    "date_modified": "2024-07-11T14:19:17.000",
    "request_status": "Pending",
    "responsible_agency": "Department of Sanitation",
    "final_address": "948 Florida Blvd",
    "address_councildis": "A",
    "status": "Assigned to Contractor",
    "contractor": "IV Waste",
    "rowid": "1111565",
    "final_x": "3670193.77697",
    "final_y": "545118.428751",
    "longitude": "-90.10331046163651",
    "latitude": "29.993225216909284",
    "geocoded_column": {
      "latitude": "29.993225216909284",
      "longitude": "-90.10331046163651"
    }
  },
  {
    "service_request": "2024-1111564",
    "request_type": "Trash/Recycling",
    "request_reason": "Replace Trash Cart",
    "date_created": "2024-07-11T14:17:02.000",
    "date_modified": "2024-07-11T14:17:03.000",
    "request_status": "Pending",
    "responsible_agency": "Department of Sanitation",
    "final_address": "8406 Nelson St",
    "address_councildis": "A",
    "status": "Assigned to Contractor",
    "contractor": "IV Waste",
    "rowid": "1111564",
    "final_x": "3664245.6777",
    "final_y": "532585.9657",
    "longitude": "-90.1225179338624",
    "latitude": "29.958939344840633",
    "geocoded_column": {
      "latitude": "29.958939344840633",
      "longitude": "-90.1225179338624"
    }
  },
  {
    "service_request": "2024-1111563",
    "request_type": "Trash/Recycling",
    "request_reason": "Order Trash Cart",
    "date_created": "2024-07-11T14:12:46.000",
    "date_modified": "2024-07-11T14:12:47.000",
    "request_status": "Pending",
    "responsible_agency": "Department of Sanitation",
    "final_address": "1522 St Charles Ave",
    "address_councildis": "B",
    "status": "Assigned to Contractor",
    "contractor": "IV Waste",
    "rowid": "1111563",
    "final_x": "3679180.58933",
    "final_y": "525293.168381",
    "longitude": "-90.07561000493631",
    "latitude": "29.93844419423954",
    "geocoded_column": {
      "latitude": "29.93844419423954",
      "longitude": "-90.07561000493631"
    }
  },
  {
    "service_request": "2024-1111562",
    "request_type": "Trash/Recycling",
    "request_reason": "Missed Trash Pick-Up",
    "date_created": "2024-07-11T14:12:25.000",
    "date_modified": "2024-07-11T16:03:38.000",
    "case_close_date": "2024-07-11T11:03:38.000",
    "request_status": "Closed",
    "responsible_agency": "Department of Sanitation",
    "final_address": "616 S Lopez St",
    "address_councildis": "B",
    "status": "Invalid Request",
    "contractor": "IV Waste",
    "contractor_action": "Invalid",
    "rowid": "1111562",
    "final_x": "3672555.97806",
    "final_y": "534438.024453",
    "longitude": "-90.09621289757058",
    "latitude": "29.96378780862578",
    "geocoded_column": {
      "latitude": "29.96378780862578",
      "longitude": "-90.09621289757058"
    }
  },
  {
    "service_request": "2024-1111561",
    "request_type": "Roads/Drainage",
    "request_reason": "Catch Basin - Broken/Damage",
    "date_created": "2024-07-11T14:10:57.000",
    "date_modified": "2024-07-11T14:13:12.000",
    "request_status": "Pending",
    "responsible_agency": "Department of Public Works",
    "final_address": "5269 Marcia Ave",
    "address_councildis": "A",
    "status": "Pending",
    "rowid": "1111561",
    "final_x": "3664520.16743",
    "final_y": "543323.675534",
    "longitude": "-90.12129250045258",
    "latitude": "29.988456500212088",
    "geocoded_column": {
      "latitude": "29.988456500212088",
      "longitude": "-90.12129250045258"
    }
  },
  {
    "service_request": "2024-1111560",
    "request_type": "Roads/Drainage",
    "request_reason": "Street Subsidence (Sinking)",
    "date_created": "2024-07-11T14:03:46.000",
    "date_modified": "2024-07-11T14:03:47.000",
    "request_status": "Pending",
    "responsible_agency": "Department of Public Works",
    "final_address": "1ST ST & MAGAZINE ST",
    "address_councildis": "B",
    "status": "Pending",
    "rowid": "1111560",
    "final_x": "3678080.3",
    "final_y": "521503.78",
    "longitude": "-90.07921467002753",
    "latitude": "29.928057781401485",
    "geocoded_column": {
      "latitude": "29.928057781401485",
      "longitude": "-90.07921467002753"
    }
  },
  {
    "service_request": "2024-1111559",
    "request_type": "Roads/Drainage",
    "request_reason": "Catch Basin - Clogged",
    "date_created": "2024-07-11T14:00:35.000",
    "date_modified": "2024-07-11T14:00:36.000",
    "request_status": "Pending",
    "responsible_agency": "Department of Public Works",
    "final_address": "6219 St Bernard Ave",
    "address_councildis": "D",
    "status": "Pending",
    "rowid": "1111559",
    "final_x": "3677052.04891",
    "final_y": "555609.282521",
    "longitude": "-90.0812841990909",
    "latitude": "30.02186710972455",
    "geocoded_column": {
      "latitude": "30.02186710972455",
      "longitude": "-90.0812841990909"
    }
  },
  {
    "service_request": "2024-1111558",
    "request_type": "Trash/Recycling",
    "request_reason": "Request a Large Item Pick Up",
    "date_created": "2024-07-11T13:59:36.000",
    "date_modified": "2024-07-11T13:59:37.000",
    "request_status": "Pending",
    "responsible_agency": "Department of Sanitation",
    "final_address": "499 N Cortez St",
    "address_councildis": "A",
    "status": "Assigned to Contractor",
    "contractor": "IV Waste",
    "rowid": "1111558",
    "final_x": "3672940.71086",
    "final_y": "538794.984201",
    "longitude": "-90.09484923376054",
    "latitude": "29.975756550035552",
    "geocoded_column": {
      "latitude": "29.975756550035552",
      "longitude": "-90.09484923376054"
    }
  },
  {
    "service_request": "2024-1111557",
    "request_type": "Roads/Drainage",
    "request_reason": "WaterMain Break",
    "date_created": "2024-07-11T13:54:16.000",
    "date_modified": "2024-07-11T13:54:16.000",
    "request_status": "Pending",
    "responsible_agency": "Department of Public Works",
    "final_address": "1233 Eighth St",
    "address_councildis": "B",
    "status": "Pending",
    "rowid": "1111557",
    "final_x": "3675773.50901",
    "final_y": "520776.967033",
    "longitude": "-90.08652165636587",
    "latitude": "29.926128502605007",
    "geocoded_column": {
      "latitude": "29.926128502605007",
      "longitude": "-90.08652165636587"
    }
  },
  {
    "service_request": "2024-1111556",
    "request_type": "Roads/Drainage",
    "request_reason": "Catch Basin - Clogged",
    "date_created": "2024-07-11T13:53:55.000",
    "date_modified": "2024-07-11T13:53:56.000",
    "request_status": "Pending",
    "responsible_agency": "Department of Public Works",
    "final_address": "13066 Deauville Ct",
    "address_councildis": "E",
    "status": "Pending",
    "rowid": "1111556",
    "final_x": "3724325.71545",
    "final_y": "560718.092446",
    "longitude": "-89.93171629912717",
    "latitude": "30.034409200975123",
    "geocoded_column": {
      "latitude": "30.034409200975123",
      "longitude": "-89.93171629912717"
    }
  },
  {
    "service_request": "2024-1111555",
    "request_type": "Trash/Recycling",
    "request_reason": "Request a Large Item Pick Up",
    "date_created": "2024-07-11T13:51:34.000",
    "date_modified": "2024-07-11T13:51:35.000",
    "request_status": "Pending",
    "responsible_agency": "Department of Sanitation",
    "final_address": "13035 Laval St",
    "address_councildis": "E",
    "status": "Assigned to Contractor",
    "contractor": "Waste Pro",
    "rowid": "1111555",
    "final_x": "3723860.80947",
    "final_y": "562545.271328",
    "longitude": "-89.93311488583099",
    "latitude": "30.039448821317812",
    "geocoded_column": {
      "latitude": "30.039448821317812",
      "longitude": "-89.93311488583099"
    }
  },
  {
    "service_request": "2024-1111554",
    "request_type": "Roads/Drainage",
    "request_reason": "Ditch Issue",
    "date_created": "2024-07-11T13:48:52.000",
    "date_modified": "2024-07-11T13:48:52.000",
    "request_status": "Pending",
    "responsible_agency": "Department of Public Works",
    "final_address": "3012 St Roch Ave",
    "address_councildis": "D",
    "status": "Pending",
    "rowid": "1111554",
    "final_x": "3685778.29052",
    "final_y": "543887.295246",
    "longitude": "-90.054125080802",
    "latitude": "29.989370832147866",
    "geocoded_column": {
      "latitude": "29.989370832147866",
      "longitude": "-90.054125080802"
    }
  },
  {
    "service_request": "2024-1111553",
    "request_type": "Trash/Recycling",
    "request_reason": "Missed Trash Pick-Up",
    "date_created": "2024-07-11T13:47:30.000",
    "date_modified": "2024-07-11T15:55:21.000",
    "case_close_date": "2024-07-11T10:55:21.000",
    "request_status": "Closed",
    "responsible_agency": "Department of Sanitation",
    "final_address": "423 S Gayoso St",
    "address_councildis": "B",
    "status": "Invalid Request",
    "contractor": "IV Waste",
    "contractor_action": "Invalid",
    "rowid": "1111553",
    "final_x": "3673450.52929",
    "final_y": "534751.560198",
    "longitude": "-90.0933772728994",
    "latitude": "29.96462333973958",
    "geocoded_column": {
      "latitude": "29.96462333973958",
      "longitude": "-90.0933772728994"
    }
  },
  {
    "service_request": "2024-1111552",
    "request_type": "Traffic Signals/Signs/Striping/Streetlights",
    "request_reason": "Street Light Outage/Malfunction",
    "date_created": "2024-07-11T13:46:02.000",
    "date_modified": "2024-07-11T13:46:03.000",
    "request_status": "Pending",
    "responsible_agency": "Department of Public Works",
    "final_address": "3012 St Roch Ave",
    "address_councildis": "D",
    "status": "Assigned to Contractor",
    "contractor": "Legacy Professional Services",
    "rowid": "1111552",
    "final_x": "3685778.29052",
    "final_y": "543887.295246",
    "longitude": "-90.054125080802",
    "latitude": "29.989370832147866",
    "geocoded_column": {
      "latitude": "29.989370832147866",
      "longitude": "-90.054125080802"
    }
  },
  {
    "service_request": "2024-1111551",
    "request_type": "Trash/Recycling",
    "request_reason": "Request a Large Item Pick Up",
    "date_created": "2024-07-11T13:45:32.000",
    "date_modified": "2024-07-11T13:45:32.000",
    "request_status": "Pending",
    "responsible_agency": "Department of Sanitation",
    "final_address": "3138 Maurepas St",
    "address_councildis": "A",
    "status": "Assigned to Contractor",
    "contractor": "IV Waste",
    "rowid": "1111551",
    "final_x": "3676289.42824",
    "final_y": "540718.469131",
    "longitude": "-90.08420680866847",
    "latitude": "29.980945524597498",
    "geocoded_column": {
      "latitude": "29.980945524597498",
      "longitude": "-90.08420680866847"
    }
  },
  {
    "service_request": "2024-1111550",
    "request_type": "Trash/Recycling",
    "request_reason": "Request a Large Item Pick Up",
    "date_created": "2024-07-11T13:45:24.000",
    "date_modified": "2024-07-11T13:45:25.000",
    "request_status": "Pending",
    "responsible_agency": "Department of Sanitation",
    "final_address": "2220 Alabo St",
    "address_councildis": "E",
    "status": "Assigned to Contractor",
    "contractor": "Waste Pro",
    "rowid": "1111550",
    "final_x": "3700037.96394",
    "final_y": "537889.533449",
    "longitude": "-90.00930208042696",
    "latitude": "29.9724337422843",
    "geocoded_column": {
      "latitude": "29.9724337422843",
      "longitude": "-90.00930208042696"
    }
  },
  {
    "service_request": "2024-1111549",
    "request_type": "Trash/Recycling",
    "request_reason": "Request a Large Item Pick Up",
    "date_created": "2024-07-11T13:42:48.000",
    "date_modified": "2024-07-11T13:42:49.000",
    "request_status": "Pending",
    "responsible_agency": "Department of Sanitation",
    "final_address": "2422 Jackson Ave",
    "address_councildis": "B",
    "status": "Assigned to Contractor",
    "contractor": "IV Waste",
    "rowid": "1111549",
    "final_x": "3675466.32341",
    "final_y": "526436.895486",
    "longitude": "-90.0872970627016",
    "latitude": "29.941700648012176",
    "geocoded_column": {
      "latitude": "29.941700648012176",
      "longitude": "-90.0872970627016"
    }
  },
  {
    "service_request": "2024-1111548",
    "request_type": "Abandoned Vehicles",
    "request_reason": "Abandoned/Junk Vehicles",
    "date_created": "2024-07-11T13:40:33.000",
    "date_modified": "2024-07-11T13:40:33.000",
    "request_status": "Pending",
    "responsible_agency": "Department of Public Works",
    "final_address": "2755 Banks St A",
    "address_councildis": "B",
    "status": "Pending",
    "rowid": "1111548",
    "final_x": "3674286.77454",
    "final_y": "534490.594053",
    "longitude": "-90.09074540304142",
    "latitude": "29.963880861602128",
    "geocoded_column": {
      "latitude": "29.963880861602128",
      "longitude": "-90.09074540304142"
    }
  },
  {
    "service_request": "2024-1111547",
    "request_type": "Roads/Drainage",
    "request_reason": "Street Flooding / Drainage",
    "date_created": "2024-07-11T13:36:21.000",
    "date_modified": "2024-07-11T13:36:21.000",
    "request_status": "Pending",
    "responsible_agency": "Department of Public Works",
    "final_address": "6145 Colbert St",
    "address_councildis": "A",
    "status": "Pending",
    "rowid": "1111547",
    "final_x": "3667598.89524",
    "final_y": "548372.452306",
    "longitude": "-90.11139767543654",
    "latitude": "30.002248997271558",
    "geocoded_column": {
      "latitude": "30.002248997271558",
      "longitude": "-90.11139767543654"
    }
  },
  {
    "service_request": "2024-1111546",
    "request_type": "Trash/Recycling",
    "request_reason": "Repair Trash Cart",
    "date_created": "2024-07-11T13:29:46.000",
    "date_modified": "2024-07-11T13:29:46.000",
    "request_status": "Pending",
    "responsible_agency": "Department of Sanitation",
    "final_address": "4517 S Derbigny St",
    "address_councildis": "B",
    "status": "Assigned to Contractor",
    "contractor": "IV Waste",
    "rowid": "1111546",
    "final_x": "3669745.31598",
    "final_y": "526228.358846",
    "longitude": "-90.10536655420252",
    "latitude": "29.941297064358356",
    "geocoded_column": {
      "latitude": "29.941297064358356",
      "longitude": "-90.10536655420252"
    }
  },
  {
    "service_request": "2024-1111545",
    "request_type": "Property Maintenance",
    "request_reason": "Property Maintenance",
    "date_created": "2024-07-11T13:28:56.000",
    "date_modified": "2024-07-11T13:28:56.000",
    "request_status": "Pending",
    "responsible_agency": "Department of Code Enforcement",
    "final_address": "5100 BLK Marigny St",
    "address_councildis": "D",
    "status": "Pending",
    "rowid": "1111545",
    "final_x": "3684305.53194",
    "final_y": "551710.204438",
    "longitude": "-90.05850217363113",
    "latitude": "30.010926147622204",
    "geocoded_column": {
      "latitude": "30.010926147622204",
      "longitude": "-90.05850217363113"
    }
  },
  {
    "service_request": "2024-1111544",
    "request_type": "Trash/Recycling",
    "request_reason": "Order Recycling Cart",
    "date_created": "2024-07-11T13:28:33.000",
    "date_modified": "2024-07-11T13:33:43.000",
    "request_status": "Pending",
    "responsible_agency": "Department of Sanitation",
    "final_address": "5937 Catina St",
    "address_councildis": "A",
    "status": "Pending",
    "contractor": "Sanitation Dept. ",
    "rowid": "1111544",
    "final_x": "3666821.58157",
    "final_y": "547439.747089",
    "longitude": "-90.11388466976479",
    "latitude": "29.99970714989321",
    "geocoded_column": {
      "latitude": "29.99970714989321",
      "longitude": "-90.11388466976479"
    }
  },
  {
    "service_request": "2024-1111543",
    "request_type": "Trash/Recycling",
    "request_reason": "Replace Trash Cart",
    "date_created": "2024-07-11T13:28:17.000",
    "date_modified": "2024-07-11T13:28:17.000",
    "request_status": "Pending",
    "responsible_agency": "Department of Sanitation",
    "final_address": "5937 Catina St",
    "address_councildis": "A",
    "status": "Assigned to Contractor",
    "contractor": "IV Waste",
    "rowid": "1111543",
    "final_x": "3666821.58157",
    "final_y": "547439.747089",
    "longitude": "-90.11388466976479",
    "latitude": "29.99970714989321",
    "geocoded_column": {
      "latitude": "29.99970714989321",
      "longitude": "-90.11388466976479"
    }
  },
  {
    "service_request": "2024-1111542",
    "request_type": "Trash/Recycling",
    "request_reason": "Repair Trash Cart",
    "date_created": "2024-07-11T13:27:51.000",
    "date_modified": "2024-07-11T13:27:52.000",
    "request_status": "Pending",
    "responsible_agency": "Department of Sanitation",
    "final_address": "6559 General Diaz St",
    "address_councildis": "A",
    "status": "Assigned to Contractor",
    "contractor": "IV Waste",
    "rowid": "1111542",
    "final_x": "3669949.07386",
    "final_y": "551055.164757",
    "longitude": "-90.1038822245061",
    "latitude": "30.009556395285433",
    "geocoded_column": {
      "latitude": "30.009556395285433",
      "longitude": "-90.1038822245061"
    }
  },
  {
    "service_request": "2024-1111541",
    "request_type": "Trash/Recycling",
    "request_reason": "Return Trash Cart",
    "date_created": "2024-07-11T13:23:42.000",
    "date_modified": "2024-07-11T13:23:43.000",
    "request_status": "Pending",
    "responsible_agency": "Department of Sanitation",
    "final_address": "7017 Queensway Dr",
    "address_councildis": "E",
    "status": "Assigned to Contractor",
    "contractor": "Waste Pro",
    "rowid": "1111541",
    "final_x": "3719306.34348",
    "final_y": "569364.309926",
    "longitude": "-89.94724748925499",
    "latitude": "30.05835061452108",
    "geocoded_column": {
      "latitude": "30.05835061452108",
      "longitude": "-89.94724748925499"
    }
  },
  {
    "service_request": "2024-1111540",
    "request_type": "Trash/Recycling",
    "request_reason": "Request a Large Item Pick Up",
    "date_created": "2024-07-11T13:21:59.000",
    "date_modified": "2024-07-11T13:21:59.000",
    "request_status": "Pending",
    "responsible_agency": "Department of Sanitation",
    "final_address": "1729 Lizardi St",
    "address_councildis": "E",
    "status": "Assigned to Contractor",
    "contractor": "Waste Pro",
    "rowid": "1111540",
    "final_x": "3697261.94621",
    "final_y": "536592.806791",
    "longitude": "-90.0181161902846",
    "latitude": "29.968956117873176",
    "geocoded_column": {
      "latitude": "29.968956117873176",
      "longitude": "-90.0181161902846"
    }
  },
  {
    "service_request": "2024-1111539",
    "request_type": "Property Maintenance",
    "request_reason": "Property Maintenance",
    "date_created": "2024-07-11T13:14:36.000",
    "date_modified": "2024-07-11T13:14:36.000",
    "request_status": "Pending",
    "responsible_agency": "Department of Code Enforcement",
    "final_address": "4721 Read Blvd",
    "address_councildis": "E",
    "status": "Pending",
    "rowid": "1111539",
    "final_x": "3712877.30456",
    "final_y": "556092.821978",
    "longitude": "-89.96806863748782",
    "latitude": "30.02207162719991",
    "geocoded_column": {
      "latitude": "30.02207162719991",
      "longitude": "-89.96806863748782"
    }
  },
  {
    "service_request": "2024-1111538",
    "request_type": "Property Maintenance",
    "request_reason": "Property Maintenance",
    "date_created": "2024-07-11T13:12:36.000",
    "date_modified": "2024-07-11T13:12:36.000",
    "request_status": "Pending",
    "responsible_agency": "Department of Code Enforcement",
    "final_address": "4673 Read Blvd",
    "address_councildis": "E",
    "status": "Pending",
    "rowid": "1111538",
    "final_x": "3712901.97637",
    "final_y": "555844.908697",
    "longitude": "-89.96800001556353",
    "latitude": "30.021389154955834",
    "geocoded_column": {
      "latitude": "30.021389154955834",
      "longitude": "-89.96800001556353"
    }
  },
  {
    "service_request": "2024-1111537",
    "request_type": "Property Maintenance",
    "request_reason": "Property Maintenance",
    "date_created": "2024-07-11T13:10:26.000",
    "date_modified": "2024-07-11T13:10:26.000",
    "request_status": "Pending",
    "responsible_agency": "Department of Code Enforcement",
    "final_address": "4523 Read Blvd",
    "address_councildis": "E",
    "status": "Pending",
    "rowid": "1111537",
    "final_x": "3712944.96382",
    "final_y": "555097.242905",
    "longitude": "-89.96789234011118",
    "latitude": "30.01933195944609",
    "geocoded_column": {
      "latitude": "30.01933195944609",
      "longitude": "-89.96789234011118"
    }
  },