[
  {
    "service_request": "2021-826658",
    "request_type": "Trash/Recycling",
    "request_reason": "Missed Trash Pick-Up",
    "date_created": "2021-09-28T00:16:40.000",
    "date_modified": "2021-09-28T00:16:40.000",
    "request_status": "Pending",
    "responsible_agency": "Department of Sanitation",
    "final_address": "3651 Clematis St",
    "address_councildis": "D",
    "status": "Assigned to Contractor",
    "contractor": "Metro Disposal",
    "rowid": "826658",
    "final_x": "3686221.99036",
    "final_y": "546442.876113",
    "longitude": "-90.05263333964422",
    "latitude": "29.996384137047283",
    "geocoded_column": {
      "latitude": "29.996384137047283",
      "longitude": "-90.05263333964422"
    }
  },
  {
    "service_request": "2021-826657",
    "request_type": "Trash/Recycling",
    "request_reason": "Missed Trash Pick-Up",
    "date_created": "2021-09-27T23:24:01.000",
    "date_modified": "2021-09-27T23:24:02.000",
    "request_status": "Pending",
    "responsible_agency": "Department of Sanitation",
    "final_address": "1938 Pauline St",
    "address_councildis": "D",
    "status": "Assigned to Contractor",
    "contractor": "Metro Disposal",
    "rowid": "826657",
    "final_x": "3691959.58557",
    "final_y": "538813.026761",
    "longitude": "-90.03478186809815",
    "latitude": "29.975227218472593",
    "geocoded_column": {
      "latitude": "29.975227218472593",
      "longitude": "-90.03478186809815"
    }
  },
  {
    "service_request": "2021-826656",
    "request_type": "Trash/Recycling",
    "request_reason": "Replace Trash Cart",
    "date_created": "2021-09-27T23:04:06.000",
    "date_modified": "2021-09-27T23:04:07.000",
    "request_status": "Pending",
    "responsible_agency": "Department of Sanitation",
    "final_address": "6354 Louisville St",
    "address_councildis": "A",
    "status": "Assigned to Contractor",
    "contractor": "Metro Disposal",
    "rowid": "826656",
    "final_x": "3667882.75418",
    "final_y": "549885.947092",
    "longitude": "-90.11044989998695",
    "latitude": "30.00640225535326",
    "geocoded_column": {
      "latitude": "30.00640225535326",
      "longitude": "-90.11044989998695"
    }
  },
  {
    "service_request": "2021-826655",
    "request_type": "Trash/Recycling",
    "request_reason": "Missed Trash Pick-Up",
    "date_created": "2021-09-27T22:56:07.000",
    "date_modified": "2021-09-27T22:56:07.000",
    "request_status": "Pending",
    "responsible_agency": "Department of Sanitation",
    "final_address": "2402 Gallier St",
    "address_councildis": "D",
    "status": "Assigned to Contractor",
    "contractor": "Metro Disposal",
    "rowid": "826655",
    "final_x": "3691645.69859",
    "final_y": "540587.450507",
    "longitude": "-90.03570973800879",
    "latitude": "29.980116028713645",
    "geocoded_column": {
      "latitude": "29.980116028713645",
      "longitude": "-90.03570973800879"
    }
  },
  {
    "service_request": "2021-826654",
    "request_type": "Property Maintenance",
    "request_reason": "Property Maintenance",
    "date_created": "2021-09-27T22:43:54.000",
    "date_modified": "2021-09-27T22:43:54.000",
    "request_status": "Pending",
    "responsible_agency": "Department of Code Enforcement",
    "final_address": "1 BLK Lelong Dr",
    "address_councildis": "A",
    "status": "Pending",
    "rowid": "826654",
    "final_x": "3674409.24629",
    "final_y": "541945.370293",
    "longitude": "-90.09010322456182",
    "latitude": "29.984375305456556",
    "geocoded_column": {
      "latitude": "29.984375305456556",
      "longitude": "-90.09010322456182"
    }
  },
  {
    "service_request": "2021-826653",
    "request_type": "Trash/Recycling",
    "request_reason": "Missed Trash Pick-Up",
    "date_created": "2021-09-27T22:25:32.000",
    "date_modified": "2021-09-27T22:25:33.000",
    "request_status": "Pending",
    "responsible_agency": "Department of Sanitation",
    "final_address": "1014 Desire St",
    "address_councildis": "C",
    "status": "Assigned to Contractor",
    "contractor": "Metro Disposal",
    "rowid": "826653",
    "final_x": "3690078.27043",
    "final_y": "535408.076614",
    "longitude": "-90.04084483903002",
    "latitude": "29.96592329460682",
    "geocoded_column": {
      "latitude": "29.96592329460682",
      "longitude": "-90.04084483903002"
    }
  },
  {
    "service_request": "2021-826651",
    "request_type": "Traffic Signals/Signs/Striping/Streetlights",
    "request_reason": "Street Light Outage/Malfunction",
    "date_created": "2021-09-27T22:11:03.000",
    "date_modified": "2021-09-27T22:11:04.000",
    "request_status": "Pending",
    "responsible_agency": "Department of Public Works",
    "final_address": "1815 Octavia St",
    "address_councildis": "A",
    "status": "Pending",
    "contractor": "Royal Engineering",
    "rowid": "826651",
    "final_x": "3667322.58305",
    "final_y": "522474.033018",
    "longitude": "-90.11314183387016",
    "latitude": "29.931045039984223",
    "geocoded_column": {
      "latitude": "29.931045039984223",
      "longitude": "-90.11314183387016"
    }
  },
  {
    "service_request": "2021-826650",
    "request_type": "Trash/Recycling",
    "request_reason": "MIssed Recycling Pick-Up",
    "date_created": "2021-09-27T21:39:03.000",
    "date_modified": "2021-09-27T21:39:04.000",
    "request_status": "Pending",
    "responsible_agency": "Department of Sanitation",
    "final_address": "618 Spain St",
    "address_councildis": "C",
    "status": "Assigned to Contractor",
    "contractor": "Metro Disposal",
    "rowid": "826650",
    "final_x": "3686235.27689",
    "final_y": "534776.223686",
    "longitude": "-90.05300316658703",
    "latitude": "29.964304551557163",
    "geocoded_column": {
      "latitude": "29.964304551557163",
      "longitude": "-90.05300316658703"
    }
  },
  {
    "service_request": "2021-826649",
    "request_type": "Trash/Recycling",
    "request_reason": "Missed Trash Pick-Up",
    "date_created": "2021-09-27T21:37:54.000",
    "date_modified": "2021-09-27T21:37:55.000",
    "request_status": "Pending",
    "responsible_agency": "Department of Sanitation",
    "final_address": "2023 Mandeville St, New Orleans, Louisiana, 70117",
    "address_councildis": "D",
    "status": "Assigned to Contractor",
    "contractor": "Metro Disposal",
    "rowid": "826649",
    "final_x": "3685536.07094",
    "final_y": "539886.250186",
    "longitude": "-90.05503117264495",
    "latitude": "29.978376806554007",
    "geocoded_column": {
      "latitude": "29.978376806554007",
      "longitude": "-90.05503117264495"
    }
  },
  {
    "service_request": "2021-826646",
    "request_type": "Trash/Recycling",
    "request_reason": "Missed Trash Pick-Up",
    "date_created": "2021-09-27T21:36:43.000",
    "date_modified": "2021-09-27T21:36:43.000",
    "request_status": "Pending",
    "responsible_agency": "Department of Sanitation",
    "final_address": "618 Spain St",
    "address_councildis": "C",
    "status": "Assigned to Contractor",
    "contractor": "Metro Disposal",
    "rowid": "826646",
    "final_x": "3686235.27689",
    "final_y": "534776.223686",
    "longitude": "-90.05300316658703",
    "latitude": "29.964304551557163",
    "geocoded_column": {
      "latitude": "29.964304551557163",
      "longitude": "-90.05300316658703"
    }
  },
  {
    "service_request": "2021-826645",
    "request_type": "Trash/Recycling",
    "request_reason": "Missed Trash Pick-Up",
    "date_created": "2021-09-27T21:31:12.000",
    "date_modified": "2021-09-27T21:31:12.000",
    "request_status": "Pending",
    "responsible_agency": "Department of Sanitation",
    "final_address": "883 Navarre St",
    "address_councildis": "A",
    "status": "Assigned to Contractor",
    "contractor": "Metro Disposal",
    "rowid": "826645",
    "final_x": "3669372.46785",
    "final_y": "543816.225614",
    "longitude": "-90.10594891040328",
    "latitude": "29.989668822165346",
    "geocoded_column": {
      "latitude": "29.989668822165346",
      "longitude": "-90.10594891040328"
    }
  },
  {
    "service_request": "2021-826644",
    "request_type": "Trash/Recycling",
    "request_reason": "Missed Trash Pick-Up",
    "date_created": "2021-09-27T21:30:07.000",
    "date_modified": "2021-09-27T21:30:08.000",
    "request_status": "Pending",
    "responsible_agency": "Department of Sanitation",
    "final_address": "1014 Franklin Ave",
    "address_councildis": "C",
    "status": "Assigned to Contractor",
    "contractor": "Metro Disposal",
    "rowid": "826644",
    "final_x": "3687030.14953",
    "final_y": "536230.905351",
    "longitude": "-90.05044159735085",
    "latitude": "29.96827997448634",
    "geocoded_column": {
      "latitude": "29.96827997448634",
      "longitude": "-90.05044159735085"
    }
  },
  {
    "service_request": "2021-826643",
    "request_type": "Safety & Permits",
    "request_reason": "Licenses & Permits",
    "date_created": "2021-09-27T21:26:08.000",
    "date_modified": "2021-09-27T21:26:08.000",
    "request_status": "Pending",
    "responsible_agency": "Safety and Permits",
    "final_address": "410 Lowerline St",
    "address_councildis": "A",
    "status": "Pending",
    "rowid": "826643",
    "final_x": "3661666.96403",
    "final_y": "524041.37734",
    "longitude": "-90.13094403947427",
    "latitude": "29.93551913414109",
    "geocoded_column": {
      "latitude": "29.93551913414109",
      "longitude": "-90.13094403947427"
    }
  },
  {
    "service_request": "2021-826642",
    "request_type": "Trash/Recycling",
    "request_reason": "Missed Trash Pick-Up",
    "date_created": "2021-09-27T21:17:37.000",
    "date_modified": "2021-09-27T21:17:38.000",
    "request_status": "Pending",
    "responsible_agency": "Department of Sanitation",
    "final_address": "349 Lowerline St",
    "address_councildis": "A",
    "status": "Assigned to Contractor",
    "contractor": "Richards Disposal",
    "rowid": "826642",
    "final_x": "3661674.18842",
    "final_y": "523680.636539",
    "longitude": "-90.1309331826875",
    "latitude": "29.934527002205176",
    "geocoded_column": {
      "latitude": "29.934527002205176",
      "longitude": "-90.1309331826875"
    }
  },
  {
    "service_request": "2021-826641",
    "request_type": "Abandoned Vehicles",
    "request_reason": "Abandoned/Junk Vehicles",
    "date_created": "2021-09-27T21:15:58.000",
    "date_modified": "2021-09-27T21:15:58.000",
    "request_status": "Pending",
    "responsible_agency": "Department of Public Works",
    "final_address": "5728 Tullis Dr",
    "address_councildis": "C",
    "status": "Pending",
    "rowid": "826641",
    "final_x": "3705179.04279",
    "final_y": "512818.433457",
    "longitude": "-89.99399127805255",
    "latitude": "29.90333272069811",
    "geocoded_column": {
      "latitude": "29.90333272069811",
      "longitude": "-89.99399127805255"
    }
  },
  {
    "service_request": "2021-826640",
    "request_type": "Trash/Recycling",
    "request_reason": "Missed Trash Pick-Up",
    "date_created": "2021-09-27T21:04:42.000",
    "date_modified": "2021-09-27T21:04:43.000",
    "request_status": "Pending",
    "responsible_agency": "Department of Sanitation",
    "final_address": "12011 E Barrington Dr",
    "address_councildis": "E",
    "status": "Assigned to Contractor",
    "contractor": "Metro Disposal",
    "rowid": "826640",
    "final_x": "3714611.51979",
    "final_y": "566119.146659",
    "longitude": "-89.96220992393337",
    "latitude": "30.049583064711584",
    "geocoded_column": {
      "latitude": "30.049583064711584",
      "longitude": "-89.96220992393337"
    }
  },
  {
    "service_request": "2021-826639",
    "request_type": "Trash/Recycling",
    "request_reason": "Request a Large Item Pick Up",
    "date_created": "2021-09-27T21:00:52.000",
    "date_modified": "2021-09-27T21:00:53.000",
    "request_status": "Pending",
    "responsible_agency": "Department of Sanitation",
    "final_address": "4674 Venus St",
    "address_councildis": "D",
    "status": "Assigned to Contractor",
    "contractor": "Metro Disposal",
    "rowid": "826639",
    "final_x": "3686442.36399",
    "final_y": "550219.611924",
    "longitude": "-90.0518037629815",
    "latitude": "30.006762019598067",
    "geocoded_column": {
      "latitude": "30.006762019598067",
      "longitude": "-90.0518037629815"
    }
  },
  {
    "service_request": "2021-826638",
    "request_type": "Trash/Recycling",
    "request_reason": "MIssed Recycling Pick-Up",
    "date_created": "2021-09-27T20:58:32.000",
    "date_modified": "2021-09-27T20:58:32.000",
    "request_status": "Pending",
    "responsible_agency": "Department of Sanitation",
    "final_address": "4674 Venus St",
    "address_councildis": "D",
    "status": "Assigned to Contractor",
    "contractor": "Metro Disposal",
    "rowid": "826638",
    "final_x": "3686442.36399",
    "final_y": "550219.611924",
    "longitude": "-90.0518037629815",
    "latitude": "30.006762019598067",
    "geocoded_column": {
      "latitude": "30.006762019598067",
      "longitude": "-90.0518037629815"
    }
  },
  {
    "service_request": "2021-826637",
    "request_type": "Trash/Recycling",
    "request_reason": "Missed Trash Pick-Up",
    "date_created": "2021-09-27T20:57:48.000",
    "date_modified": "2021-09-27T20:57:49.000",
    "request_status": "Pending",
    "responsible_agency": "Department of Sanitation",
    "final_address": "4674 Venus St",
    "address_councildis": "D",
    "status": "Assigned to Contractor",
    "contractor": "Metro Disposal",
    "rowid": "826637",
    "final_x": "3686442.36399",
    "final_y": "550219.611924",
    "longitude": "-90.0518037629815",
    "latitude": "30.006762019598067",
    "geocoded_column": {
      "latitude": "30.006762019598067",
      "longitude": "-90.0518037629815"
    }
  },
  {
    "service_request": "2021-826636",
    "request_type": "Trash/Recycling",
    "request_reason": "MIssed Recycling Pick-Up",
    "date_created": "2021-09-27T20:46:53.000",
    "date_modified": "2021-09-27T20:46:54.000",
    "request_status": "Pending",
    "responsible_agency": "Department of Sanitation",
    "final_address": "2300 Audubon St",
    "address_councildis": "A",
    "status": "Assigned to Contractor",
    "contractor": "Richards Disposal",
    "rowid": "826636",
    "final_x": "3666560.40737",
    "final_y": "529582.202049",
    "longitude": "-90.11530939797476",
    "latitude": "29.950612516164938",
    "geocoded_column": {
      "latitude": "29.950612516164938",
      "longitude": "-90.11530939797476"
    }
  },
  {
    "service_request": "2021-826635",
    "request_type": "Trash/Recycling",
    "request_reason": "Missed Trash Pick-Up",
    "date_created": "2021-09-27T20:44:26.000",
    "date_modified": "2021-09-27T20:45:07.000",
    "request_status": "Pending",
    "responsible_agency": "Department of Sanitation",
    "final_address": "1427 Touro St, New Orleans, Louisiana, 70116",
    "address_councildis": "C",
    "status": "Assigned to Contractor",
    "contractor": "Metro Disposal",
    "rowid": "826635",
    "final_x": "3684155.84418",
    "final_y": "537575.097352",
    "longitude": "-90.05947157473933",
    "latitude": "29.97206420947199",
    "geocoded_column": {
      "latitude": "29.97206420947199",
      "longitude": "-90.05947157473933"
    }
  },
  {
    "service_request": "2021-826634",
    "request_type": "Traffic Signals/Signs/Striping/Streetlights",
    "request_reason": "Street Light Outage/Malfunction",
    "date_created": "2021-09-27T20:32:43.000",
    "date_modified": "2021-09-27T20:32:44.000",
    "request_status": "Pending",
    "responsible_agency": "Department of Public Works",
    "final_address": "2525 St Maurice Ave",
    "address_councildis": "E",
    "status": "Pending",
    "contractor": "Royal Engineering",
    "rowid": "826634",
    "final_x": "3701989.95364",
    "final_y": "538371.927561",
    "longitude": "-90.00311971107529",
    "latitude": "29.97369798674025",
    "geocoded_column": {
      "latitude": "29.97369798674025",
      "longitude": "-90.00311971107529"
    }
  },
  {
    "service_request": "2021-826633",
    "request_type": "Trash/Recycling",
    "request_reason": "Missed Trash Pick-Up",
    "date_created": "2021-09-27T20:32:14.000",
    "date_modified": "2021-09-27T20:32:15.000",
    "request_status": "Pending",
    "responsible_agency": "Department of Sanitation",
    "final_address": "4518 St Peter St",
    "address_councildis": "A",
    "status": "Assigned to Contractor",
    "contractor": "Richards Disposal",
    "rowid": "826633",
    "final_x": "3670831.8571",
    "final_y": "541176.308172",
    "longitude": "-90.1014287454914",
    "latitude": "29.98236688840851",
    "geocoded_column": {
      "latitude": "29.98236688840851",
      "longitude": "-90.1014287454914"
    }
  },
  {
    "service_request": "2021-826632",
    "request_type": "Trash/Recycling",
    "request_reason": "MIssed Recycling Pick-Up",
    "date_created": "2021-09-27T20:32:12.000",
    "date_modified": "2021-09-27T20:44:18.000",
    "case_close_date": "2021-09-27T15:44:18.000",
    "request_status": "Closed",
    "responsible_agency": "Department of Sanitation",
    "final_address": "4731 Marigny St",
    "address_councildis": "D",
    "status": "Resolved",
    "contractor": "Metro Disposal",
    "rowid": "826632",
    "final_x": "3684477.83375",
    "final_y": "550349.963156",
    "longitude": "-90.05800563692702",
    "latitude": "30.00718070615788",
    "geocoded_column": {
      "latitude": "30.00718070615788",
      "longitude": "-90.05800563692702"
    }
  },
  {
    "service_request": "2021-826631",
    "request_type": "Trash/Recycling",
    "request_reason": "Missed Trash Pick-Up",
    "date_created": "2021-09-27T20:31:27.000",
    "date_modified": "2021-09-27T20:44:45.000",
    "case_close_date": "2021-09-27T15:44:45.000",
    "request_status": "Closed",
    "responsible_agency": "Department of Sanitation",
    "final_address": "4731 Marigny St",
    "address_councildis": "D",
    "status": "Resolved",
    "contractor": "Metro Disposal",
    "rowid": "826631",
    "final_x": "3684477.83375",
    "final_y": "550349.963156",
    "longitude": "-90.05800563692702",
    "latitude": "30.00718070615788",
    "geocoded_column": {
      "latitude": "30.00718070615788",
      "longitude": "-90.05800563692702"
    }
  },
  {
    "service_request": "2021-826630",
    "request_type": "Traffic Signals/Signs/Striping/Streetlights",
    "request_reason": "Street Light Outage/Malfunction",
    "date_created": "2021-09-27T20:31:15.000",
    "date_modified": "2021-09-27T20:31:16.000",
    "request_status": "Pending",
    "responsible_agency": "Department of Public Works",
    "final_address": "2525 St Maurice Ave",
    "address_councildis": "E",
    "status": "Pending",
    "contractor": "Royal Engineering",
    "rowid": "826630",
    "final_x": "3701989.95364",
    "final_y": "538371.927561",
    "longitude": "-90.00311971107529",
    "latitude": "29.97369798674025",
    "geocoded_column": {
      "latitude": "29.97369798674025",
      "longitude": "-90.00311971107529"
    }
  },
  {
    "service_request": "2021-826629",
    "request_type": "Trash/Recycling",
    "request_reason": "Missed Trash Pick-Up",
    "date_created": "2021-09-27T20:22:12.000",
    "date_modified": "2021-09-27T20:47:51.000",
    "case_close_date": "2021-09-27T15:47:51.000",
    "request_status": "Closed",
    "responsible_agency": "Department of Sanitation",
    "final_address": "828 Marigny St",
    "address_councildis": "C",
    "status": "Resolved",
    "contractor": "Metro Disposal",
    "rowid": "826629",
    "final_x": "3685445.07113",
    "final_y": "535504.997702",
    "longitude": "-90.05547290165538",
    "latitude": "29.966332682341207",
    "geocoded_column": {
      "latitude": "29.966332682341207",
      "longitude": "-90.05547290165538"
    }
  },
  {
    "service_request": "2021-826628",
    "request_type": "Trash/Recycling",
    "request_reason": "MIssed Recycling Pick-Up",
    "date_created": "2021-09-27T20:14:54.000",
    "date_modified": "2021-09-27T20:48:12.000",
    "case_close_date": "2021-09-27T15:48:12.000",
    "request_status": "Closed",
    "responsible_agency": "Department of Sanitation",
    "final_address": "2025 Almonaster Ave",
    "address_councildis": "D",
    "status": "Resolved",
    "contractor": "Metro Disposal",
    "rowid": "826628",
    "final_x": "3688067.44668",
    "final_y": "540027.970187",
    "longitude": "-90.04703116346818",
    "latitude": "29.97868859321199",
    "geocoded_column": {
      "latitude": "29.97868859321199",
      "longitude": "-90.04703116346818"
    }
  },
  {
    "service_request": "2021-826627",
    "request_type": "Trash/Recycling",
    "request_reason": "Missed Trash Pick-Up",
    "date_created": "2021-09-27T20:14:07.000",
    "date_modified": "2021-09-27T20:48:35.000",
    "case_close_date": "2021-09-27T15:48:35.000",
    "request_status": "Closed",
    "responsible_agency": "Department of Sanitation",
    "final_address": "2025 Almonaster Ave",
    "address_councildis": "D",
    "status": "Resolved",
    "contractor": "Metro Disposal",
    "rowid": "826627",
    "final_x": "3688067.44668",
    "final_y": "540027.970187",
    "longitude": "-90.04703116346818",
    "latitude": "29.97868859321199",
    "geocoded_column": {
      "latitude": "29.97868859321199",
      "longitude": "-90.04703116346818"
    }
  },
  {
    "service_request": "2021-826626",
    "request_type": "Trash/Recycling",
    "request_reason": "Replace Trash Cart",
    "date_created": "2021-09-27T20:06:07.000",
    "date_modified": "2021-09-27T20:06:08.000",
    "request_status": "Pending",
    "responsible_agency": "Department of Sanitation",
    "final_address": "922 Bordeaux St",
    "address_councildis": "B",
    "status": "Assigned to Contractor",
    "contractor": "Richards Disposal",
    "rowid": "826626",
    "final_x": "3669522.60327",
    "final_y": "518838.590007",
    "longitude": "-90.10631954010647",
    "latitude": "29.92098412675352",
    "geocoded_column": {
      "latitude": "29.92098412675352",
      "longitude": "-90.10631954010647"
    }
  },
  {
    "service_request": "2021-826625",
    "request_type": "Trash/Recycling",
    "request_reason": "Missed Trash Pick-Up",
    "date_created": "2021-09-27T20:05:48.000",
    "date_modified": "2021-09-27T20:05:49.000",
    "request_status": "Pending",
    "responsible_agency": "Department of Sanitation",
    "final_address": "221 S Genois St",
    "address_councildis": "B",
    "status": "Assigned to Contractor",
    "contractor": "Richards Disposal",
    "rowid": "826625",
    "final_x": "3672170.85627",
    "final_y": "536748.918728",
    "longitude": "-90.09735036031731",
    "latitude": "29.970153419346236",
    "geocoded_column": {
      "latitude": "29.970153419346236",
      "longitude": "-90.09735036031731"
    }
  },
  {
    "service_request": "2021-826624",
    "request_type": "Traffic Signals/Signs/Striping/Streetlights",
    "request_reason": "Street Light Knocked Down/Leaning",
    "date_created": "2021-09-27T19:52:29.000",
    "date_modified": "2021-09-27T19:52:30.000",
    "request_status": "Pending",
    "responsible_agency": "Department of Public Works",
    "final_address": "5449 Sutton Pl",
    "address_councildis": "C",
    "status": "Pending",
    "contractor": "Royal Engineering",
    "rowid": "826624",
    "final_x": "3704234.5729",
    "final_y": "518454.317878",
    "longitude": "-89.99676451848511",
    "latitude": "29.91885979449415",
    "geocoded_column": {
      "latitude": "29.91885979449415",
      "longitude": "-89.99676451848511"
    }
  },
  {
    "service_request": "2021-826623",
    "request_type": "COVID-19",
    "request_reason": "COVID-19 Business Non-Compliance",
    "date_created": "2021-09-27T19:49:37.000",
    "date_modified": "2021-09-27T19:49:38.000",
    "request_status": "Pending",
    "responsible_agency": "Safety and Permits",
    "final_address": "4525 N Claiborne Ave",
    "address_councildis": "D",
    "status": "Pending",
    "rowid": "826623",
    "final_x": "3694030.24169",
    "final_y": "536895.384136",
    "longitude": "-90.02831119631134",
    "latitude": "29.969889698295972",
    "geocoded_column": {
      "latitude": "29.969889698295972",
      "longitude": "-90.02831119631134"
    }
  },
  {
    "service_request": "2021-826622",
    "request_type": "Trash/Recycling",
    "request_reason": "Missed Trash Pick-Up",
    "date_created": "2021-09-27T19:25:32.000",
    "date_modified": "2021-09-27T20:48:50.000",
    "case_close_date": "2021-09-27T15:48:50.000",
    "request_status": "Closed",
    "responsible_agency": "Department of Sanitation",
    "final_address": "718 Piety St",
    "address_councildis": "C",
    "status": "Resolved",
    "contractor": "Metro Disposal",
    "rowid": "826622",
    "final_x": "3689474.26127",
    "final_y": "534455.121605",
    "longitude": "-90.04278617029769",
    "latitude": "29.963321721167194",
    "geocoded_column": {
      "latitude": "29.963321721167194",
      "longitude": "-90.04278617029769"
    }
  },
  {
    "service_request": "2021-826621",
    "request_type": "Trash/Recycling",
    "request_reason": "Missed Trash Pick-Up",
    "date_created": "2021-09-27T19:23:14.000",
    "date_modified": "2021-09-27T20:49:06.000",
    "case_close_date": "2021-09-27T15:49:06.000",
    "request_status": "Closed",
    "responsible_agency": "Department of Sanitation",
    "final_address": "2729 Edna St",
    "address_councildis": "D",
    "status": "Resolved",
    "contractor": "Metro Disposal",
    "rowid": "826621",
    "final_x": "3689619.9638",
    "final_y": "545327.968975",
    "longitude": "-90.04193909236174",
    "latitude": "29.993213679326495",
    "geocoded_column": {
      "latitude": "29.993213679326495",
      "longitude": "-90.04193909236174"
    }
  },
  {
    "service_request": "2021-826620",
    "request_type": "Trash/Recycling",
    "request_reason": "Missed Trash Pick-Up",
    "date_created": "2021-09-27T19:20:42.000",
    "date_modified": "2021-09-27T20:49:20.000",
    "case_close_date": "2021-09-27T15:49:20.000",
    "request_status": "Closed",
    "responsible_agency": "Department of Sanitation",
    "final_address": "883 Navarre St",
    "address_councildis": "A",
    "status": "Resolved",
    "contractor": "Metro Disposal",
    "rowid": "826620",
    "final_x": "3669372.46785",
    "final_y": "543816.225614",
    "longitude": "-90.10594891040328",
    "latitude": "29.989668822165346",
    "geocoded_column": {
      "latitude": "29.989668822165346",
      "longitude": "-90.10594891040328"
    }
  },
  {
    "service_request": "2021-826619",
    "request_type": "Traffic Signals/Signs/Striping/Streetlights",
    "request_reason": "Street Light Outage/Malfunction",
    "date_created": "2021-09-27T19:15:14.000",
    "date_modified": "2021-09-27T19:15:15.000",
    "request_status": "Pending",
    "responsible_agency": "Department of Public Works",
    "final_address": "PIETY ST & AGRICULTURE ST",
    "address_councildis": "D",
    "status": "Pending",
    "contractor": "Royal Engineering",
    "rowid": "826619",
    "final_x": "3691623.8",
    "final_y": "542954.68",
    "longitude": "-90.03569423076192",
    "latitude": "29.98662574262876",
    "geocoded_column": {
      "latitude": "29.98662574262876",
      "longitude": "-90.03569423076192"
    }
  },
  {
    "service_request": "2021-826618",
    "request_type": "COVID-19",
    "request_reason": "COVID-19 Business Non-Compliance",
    "date_created": "2021-09-27T19:11:08.000",
    "date_modified": "2021-09-27T19:11:09.000",
    "request_status": "Pending",
    "responsible_agency": "Safety and Permits",
    "final_address": "2530 Canal St",
    "address_councildis": "B",
    "status": "Pending",
    "rowid": "826618",
    "final_x": "3675840.34817",
    "final_y": "534610.603654",
    "longitude": "-90.0858352337431",
    "latitude": "29.964164431190312",
    "geocoded_column": {
      "latitude": "29.964164431190312",
      "longitude": "-90.0858352337431"
    }
  },
  {
    "service_request": "2021-826617",
    "request_type": "Abandoned Vehicles",
    "request_reason": "Abandoned/Junk Vehicles",
    "date_created": "2021-09-27T19:10:56.000",
    "date_modified": "2021-09-27T19:10:56.000",
    "request_status": "Pending",
    "responsible_agency": "Department of Public Works",
    "final_address": "3601 Camp St",
    "address_councildis": "B",
    "status": "Pending",
    "rowid": "826617",
    "final_x": "3673955.17684",
    "final_y": "519672.449016",
    "longitude": "-90.09229937761704",
    "latitude": "29.92314571189189",
    "geocoded_column": {
      "latitude": "29.92314571189189",
      "longitude": "-90.09229937761704"
    }
  },
  {
    "service_request": "2021-826616",
    "request_type": "Abandoned Vehicles",
    "request_reason": "Abandoned/Junk Vehicles",
    "date_created": "2021-09-27T19:05:32.000",
    "date_modified": "2021-09-27T19:05:32.000",
    "request_status": "Pending",
    "responsible_agency": "Department of Public Works",
    "final_address": "3517 Danneel St",
    "address_councildis": "B",
    "status": "Pending",
    "rowid": "826616",
    "final_x": "3673107.54932",
    "final_y": "522693.757818",
    "longitude": "-90.09487193736092",
    "latitude": "29.931478555301858",
    "geocoded_column": {
      "latitude": "29.931478555301858",
      "longitude": "-90.09487193736092"
    }
  },
  {
    "service_request": "2021-826615",
    "request_type": "Property Maintenance",
    "request_reason": "Property Maintenance",
    "date_created": "2021-09-27T19:05:22.000",
    "date_modified": "2021-09-27T19:05:22.000",
    "request_status": "Pending",
    "responsible_agency": "Department of Code Enforcement",
    "final_address": "8606 Willow St",
    "address_councildis": "A",
    "status": "Pending",
    "rowid": "826615",
    "final_x": "3660985.74982",
    "final_y": "530045.877697",
    "longitude": "-90.13289605454155",
    "latitude": "29.952049239052403",
    "geocoded_column": {
      "latitude": "29.952049239052403",
      "longitude": "-90.13289605454155"
    }
  },
  {
    "service_request": "2021-826614",
    "request_type": "Trash/Recycling",
    "request_reason": "Missed Trash Pick-Up",
    "date_created": "2021-09-27T18:58:09.000",
    "date_modified": "2021-09-27T20:51:26.000",
    "case_close_date": "2021-09-27T15:51:26.000",
    "request_status": "Closed",
    "responsible_agency": "Department of Sanitation",
    "final_address": "1014 Desire St",
    "address_councildis": "C",
    "status": "Resolved",
    "contractor": "Metro Disposal",
    "rowid": "826614",
    "final_x": "3690078.27043",
    "final_y": "535408.076614",
    "longitude": "-90.04084483903002",
    "latitude": "29.96592329460682",
    "geocoded_column": {
      "latitude": "29.96592329460682",
      "longitude": "-90.04084483903002"
    }
  },
  {
    "service_request": "2021-826613",
    "request_type": "Trash/Recycling",
    "request_reason": "Missed Trash Pick-Up",
    "date_created": "2021-09-27T18:54:25.000",
    "date_modified": "2021-09-27T20:51:35.000",
    "request_status": "Pending",
    "responsible_agency": "Department of Sanitation",
    "final_address": "1521 Mandeville St",
    "address_councildis": "C",
    "status": "Assigned to Contractor",
    "contractor": "Metro Disposal",
    "rowid": "826613",
    "final_x": "3685680.73724",
    "final_y": "538024.984905",
    "longitude": "-90.054639866008",
    "latitude": "29.97325454105964",
    "geocoded_column": {
      "latitude": "29.97325454105964",
      "longitude": "-90.054639866008"
    }
  },
  {
    "service_request": "2021-826610",
    "request_type": "Trash/Recycling",
    "request_reason": "Missed Trash Pick-Up",
    "date_created": "2021-09-27T18:41:28.000",
    "date_modified": "2021-09-27T18:41:29.000",
    "request_status": "Pending",
    "responsible_agency": "Department of Sanitation",
    "final_address": "4800 Calliope St",
    "address_councildis": "B",
    "status": "Assigned to Contractor",
    "contractor": "Richards Disposal",
    "rowid": "826610",
    "final_x": "3669600.67649",
    "final_y": "533057.700612",
    "longitude": "-90.10559218296407",
    "latitude": "29.960079779292627",
    "geocoded_column": {
      "latitude": "29.960079779292627",
      "longitude": "-90.10559218296407"
    }
  },
  {
    "service_request": "2021-826609",
    "request_type": "Trash/Recycling",
    "request_reason": "Missed Trash Pick-Up",
    "date_created": "2021-09-27T18:36:51.000",
    "date_modified": "2021-09-27T20:52:00.000",
    "case_close_date": "2021-09-27T15:52:00.000",
    "request_status": "Closed",
    "responsible_agency": "Department of Sanitation",
    "final_address": "4800 Odin St, New Orleans, Louisiana, 70126",
    "address_councildis": "D",
    "status": "Resolved",
    "contractor": "Metro Disposal",
    "rowid": "826609",
    "final_x": "3691361.29852",
    "final_y": "553810.554135",
    "longitude": "-90.03613518126076",
    "latitude": "30.016483594497515",
    "geocoded_column": {
      "latitude": "30.016483594497515",
      "longitude": "-90.03613518126076"
    }
  },
  {
    "service_request": "2021-826608",
    "request_type": "Roads/Drainage",
    "request_reason": "Pothole",
    "date_created": "2021-09-27T18:36:31.000",
    "date_modified": "2021-09-27T18:36:31.000",
    "request_status": "Pending",
    "responsible_agency": "Department of Public Works",
    "final_address": "8224 Maple St",
    "address_councildis": "A",
    "status": "Pending",
    "rowid": "826608",
    "final_x": "3660567.56826",
    "final_y": "527695.003135",
    "longitude": "-90.13429415904064",
    "latitude": "29.945597124957125",
    "geocoded_column": {
      "latitude": "29.945597124957125",
      "longitude": "-90.13429415904064"
    }
  },
  {
    "service_request": "2021-826607",
    "request_type": "Safety & Permits",
    "request_reason": "Licenses & Permits",
    "date_created": "2021-09-27T18:34:18.000",
    "date_modified": "2021-09-27T18:35:27.000",
    "request_status": "Pending",
    "responsible_agency": "Safety and Permits",
    "final_address": "8514 Sycamore St",
    "address_councildis": "A",
    "status": "Pending",
    "rowid": "826607",
    "final_x": "3663145.87309",
    "final_y": "531989.863683",
    "longitude": "-90.1260106906066",
    "latitude": "29.957332168019764",
    "geocoded_column": {
      "latitude": "29.957332168019764",
      "longitude": "-90.1260106906066"
    }
  },
  {
    "service_request": "2021-826604",
    "request_type": "Trash/Recycling",
    "request_reason": "Missed Trash Pick-Up",
    "date_created": "2021-09-27T18:25:18.000",
    "date_modified": "2021-09-27T18:25:18.000",
    "request_status": "Pending",
    "responsible_agency": "Department of Sanitation",
    "final_address": "4009 State Street Dr",
    "address_councildis": "B",
    "status": "Assigned to Contractor",
    "contractor": "Richards Disposal",
    "rowid": "826604",
    "final_x": "3668266.12922",
    "final_y": "530331.459906",
    "longitude": "-90.10989832876923",
    "latitude": "29.952622763952217",
    "geocoded_column": {
      "latitude": "29.952622763952217",
      "longitude": "-90.10989832876923"
    }
  },
  {
    "service_request": "2021-826603",
    "request_type": "Trash/Recycling",
    "request_reason": "Missed Trash Pick-Up",
    "date_created": "2021-09-27T18:24:56.000",
    "date_modified": "2021-09-27T20:52:17.000",
    "case_close_date": "2021-09-27T15:52:17.000",
    "request_status": "Closed",
    "responsible_agency": "Department of Sanitation",
    "final_address": "2303 Odin St",
    "address_councildis": "D",
    "status": "Resolved",
    "contractor": "Metro Disposal",
    "rowid": "826603",
    "final_x": "3684473.80245",
    "final_y": "553139.149527",
    "longitude": "-90.0579202903796",
    "latitude": "30.014850076344324",
    "geocoded_column": {
      "latitude": "30.014850076344324",
      "longitude": "-90.0579202903796"
    }
  },
  {
    "service_request": "2021-826602",
    "request_type": "Abandoned Vehicles",
    "request_reason": "Abandoned/Junk Vehicles",
    "date_created": "2021-09-27T18:21:25.000",
    "date_modified": "2021-09-27T18:22:46.000",
    "request_status": "Pending",
    "responsible_agency": "Department of Public Works",
    "final_address": "1973 Law St",
    "address_councildis": "D",
    "status": "Pending",
    "rowid": "826602",
    "final_x": "3682002.14261",
    "final_y": "541659.078476",
    "longitude": "-90.0661306725023",
    "latitude": "29.983359395358537",
    "geocoded_column": {
      "latitude": "29.983359395358537",
      "longitude": "-90.0661306725023"
    }
  },
  {
    "service_request": "2021-826601",
    "request_type": "Trash/Recycling",
    "request_reason": "Missed Trash Pick-Up",
    "date_created": "2021-09-27T18:18:05.000",
    "date_modified": "2021-09-27T20:52:31.000",
    "case_close_date": "2021-09-27T15:52:31.000",
    "request_status": "Closed",
    "responsible_agency": "Department of Sanitation",
    "final_address": "12011 E Barrington Dr",
    "address_councildis": "E",
    "status": "Resolved",
    "contractor": "Metro Disposal",
    "rowid": "826601",
    "final_x": "3714611.51979",
    "final_y": "566119.146659",
    "longitude": "-89.96220992393337",
    "latitude": "30.049583064711584",
    "geocoded_column": {
      "latitude": "30.049583064711584",
      "longitude": "-89.96220992393337"
    }
  },
  {
    "service_request": "2021-826599",
    "request_type": "COVID-19",
    "request_reason": "COVID-19 Business Non-Compliance",
    "date_created": "2021-09-27T18:11:30.000",
    "date_modified": "2021-09-27T18:11:31.000",
    "request_status": "Pending",
    "responsible_agency": "Safety and Permits",
    "final_address": "4600 Freret St",
    "address_councildis": "B",
    "status": "Pending",
    "rowid": "826599",
    "final_x": "3669720.76724",
    "final_y": "523924.498876",
    "longitude": "-90.10552200026258",
    "latitude": "29.93496291660013",
    "geocoded_column": {
      "latitude": "29.93496291660013",
      "longitude": "-90.10552200026258"
    }
  },
  {
    "service_request": "2021-826598",
    "request_type": "Trash/Recycling",
    "request_reason": "Replace Trash Cart",
    "date_created": "2021-09-27T18:08:57.000",
    "date_modified": "2021-09-27T20:53:00.000",
    "case_close_date": "2021-09-27T15:53:00.000",
    "request_status": "Closed",
    "responsible_agency": "Department of Sanitation",
    "final_address": "7512 Jonlee Dr",
    "address_councildis": "E",
    "status": "Resolved",
    "contractor": "Metro Disposal",
    "rowid": "826598",
    "final_x": "3717426.02578",
    "final_y": "569954.248934",
    "longitude": "-89.95316844834154",
    "latitude": "30.060035109428355",
    "geocoded_column": {
      "latitude": "30.060035109428355",
      "longitude": "-89.95316844834154"
    }
  },
  {
    "service_request": "2021-826596",
    "request_type": "Abandoned Vehicles",
    "request_reason": "Abandoned/Junk Vehicles",
    "date_created": "2021-09-27T17:58:51.000",
    "date_modified": "2021-09-27T17:58:51.000",
    "request_status": "Pending",
    "responsible_agency": "Department of Public Works",
    "final_address": "8315 Nelson St",
    "address_councildis": "A",
    "status": "Pending",
    "rowid": "826596",
    "final_x": "3664507.14458",
    "final_y": "532454.888196",
    "longitude": "-90.12169666029291",
    "latitude": "29.95857132475643",
    "geocoded_column": {
      "latitude": "29.95857132475643",
      "longitude": "-90.12169666029291"
    }
  },
  {
    "service_request": "2021-826595",
    "request_type": "Trash/Recycling",
    "request_reason": "Missed Trash Pick-Up",
    "date_created": "2021-09-27T17:57:24.000",
    "date_modified": "2021-09-27T20:54:29.000",
    "case_close_date": "2021-09-27T15:54:29.000",
    "request_status": "Closed",
    "responsible_agency": "Department of Sanitation",
    "final_address": "2401 Chartres St",
    "address_councildis": "C",
    "status": "Resolved",
    "contractor": "Metro Disposal",
    "rowid": "826595",
    "final_x": "3685957.06665",
    "final_y": "534603.281734",
    "longitude": "-90.05388782823974",
    "latitude": "29.96383756582574",
    "geocoded_column": {
      "latitude": "29.96383756582574",
      "longitude": "-90.05388782823974"
    }
  },
  {
    "service_request": "2021-826594",
    "request_type": "Trash/Recycling",
    "request_reason": "Missed Trash Pick-Up",
    "date_created": "2021-09-27T17:55:28.000",
    "date_modified": "2021-09-27T20:54:54.000",
    "case_close_date": "2021-09-27T15:54:54.000",
    "request_status": "Closed",
    "responsible_agency": "Department of Sanitation",
    "final_address": "2473 Jay St",
    "address_councildis": "D",
    "status": "Resolved",
    "contractor": "Metro Disposal",
    "rowid": "826594",
    "final_x": "3685266.25986",
    "final_y": "557528.277595",
    "longitude": "-90.05526183224387",
    "latitude": "30.026894280973874",
    "geocoded_column": {
      "latitude": "30.026894280973874",
      "longitude": "-90.05526183224387"
    }
  },
  {
    "service_request": "2021-826593",
    "request_type": "Roads/Drainage",
    "request_reason": "Debris in Roadway",
    "date_created": "2021-09-27T17:55:13.000",
    "date_modified": "2021-09-27T17:55:13.000",
    "request_status": "Pending",
    "responsible_agency": "Department of Public Works",
    "final_address": "4611 Baronne St",
    "address_councildis": "B",
    "status": "Pending",
    "rowid": "826593",
    "final_x": "3669922.26164",
    "final_y": "521586.325625",
    "longitude": "-90.10496501509711",
    "latitude": "29.928527751624316",
    "geocoded_column": {
      "latitude": "29.928527751624316",
      "longitude": "-90.10496501509711"
    }
  },
  {
    "service_request": "2021-826592",
    "request_type": "Traffic Signals/Signs/Striping/Streetlights",
    "request_reason": "Traffic Signal Malfunctioning/Damaged",
    "date_created": "2021-09-27T17:43:33.000",
    "date_modified": "2021-09-27T17:43:34.000",
    "request_status": "Pending",
    "responsible_agency": "Department of Public Works",
    "final_address": "JULIA ST & LOYOLA AVE",
    "address_councildis": "B",
    "status": "Pending",
    "rowid": "826592",
    "final_x": "3678731.4",
    "final_y": "528435.68",
    "longitude": "-90.07691935474188",
    "latitude": "29.947098607555517",
    "geocoded_column": {
      "latitude": "29.947098607555517",
      "longitude": "-90.07691935474188"
    }
  },
  {
    "service_request": "2021-826591",
    "request_type": "Trash/Recycling",
    "request_reason": "Request a Large Item Pick Up",
    "date_created": "2021-09-27T17:38:06.000",
    "date_modified": "2021-09-27T17:38:06.000",
    "request_status": "Pending",
    "responsible_agency": "Department of Sanitation",
    "final_address": "2701 Somerset Dr",
    "address_councildis": "C",
    "status": "Assigned to Contractor",
    "contractor": "Richards Disposal",
    "rowid": "826591",
    "final_x": "3702811.48478",
    "final_y": "521105.694201",
    "longitude": "-90.00115913678353",
    "latitude": "29.926195730954518",
    "geocoded_column": {
      "latitude": "29.926195730954518",
      "longitude": "-90.00115913678353"
    }
  },
  {
    "service_request": "2021-826590",
    "request_type": "Trash/Recycling",
    "request_reason": "Replace Recycling Cart",
    "date_created": "2021-09-27T17:35:03.000",
    "date_modified": "2021-09-27T17:35:03.000",
    "request_status": "Pending",
    "responsible_agency": "Department of Sanitation",
    "final_address": "3419 Nashville Ave",
    "address_councildis": "A",
    "status": "Pending",
    "rowid": "826590",
    "final_x": "3668167.95623",
    "final_y": "528260.752512",
    "longitude": "-90.11027810550087",
    "latitude": "29.946931875403475",
    "geocoded_column": {
      "latitude": "29.946931875403475",
      "longitude": "-90.11027810550087"
    }
  },
  {
    "service_request": "2021-826589",
    "request_type": "Safety & Permits",
    "request_reason": "Licenses & Permits",
    "date_created": "2021-09-27T17:35:03.000",
    "date_modified": "2021-09-27T17:35:03.000",
    "request_status": "Pending",
    "responsible_agency": "Safety and Permits",
    "final_address": "1000 Royal St",
    "address_councildis": "C",
    "status": "Pending",
    "rowid": "826589",
    "final_x": "3683256.59765",
    "final_y": "533344.74906",
    "longitude": "-90.06245971926474",
    "latitude": "29.960459668155664",
    "geocoded_column": {
      "latitude": "29.960459668155664",
      "longitude": "-90.06245971926474"
    }
  },
  {
    "service_request": "2021-826588",
    "request_type": "Trash/Recycling",
    "request_reason": "Return Recycling Cart",
    "date_created": "2021-09-27T17:33:31.000",
    "date_modified": "2021-09-27T17:33:31.000",
    "request_status": "Pending",
    "responsible_agency": "Department of Sanitation",
    "final_address": "2233 Brainard St",
    "address_councildis": "B",
    "status": "Pending",
    "rowid": "826588",
    "final_x": "3676948.91349",
    "final_y": "524114.076476",
    "longitude": "-90.08269626426647",
    "latitude": "29.935269245374837",
    "geocoded_column": {
      "latitude": "29.935269245374837",
      "longitude": "-90.08269626426647"
    }
  },
  {
    "service_request": "2021-826587",
    "request_type": "Health Related Questions",
    "request_reason": "Noise Ordinance Complaint",
    "date_created": "2021-09-27T17:28:27.000",
    "date_modified": "2021-09-27T17:28:28.000",
    "request_status": "Pending",
    "responsible_agency": "Health Department",
    "final_address": "1040 St Charles Ave",
    "address_councildis": "B",
    "status": "Pending",
    "rowid": "826587",
    "final_x": "3680111.27343",
    "final_y": "526788.123774",
    "longitude": "-90.07261981368443",
    "latitude": "29.942526702567477",
    "geocoded_column": {
      "latitude": "29.942526702567477",
      "longitude": "-90.07261981368443"
    }
  },
  {
    "service_request": "2021-826585",
    "request_type": "Trash/Recycling",
    "request_reason": "Missed Trash Pick-Up",
    "date_created": "2021-09-27T17:24:26.000",
    "date_modified": "2021-09-27T17:24:27.000",
    "request_status": "Pending",
    "responsible_agency": "Department of Sanitation",
    "final_address": "3501 S Carrollton Ave",
    "address_councildis": "B",
    "status": "Assigned to Contractor",
    "contractor": "Richards Disposal",
    "rowid": "826585",
    "final_x": "3667635.90426",
    "final_y": "534354.767109",
    "longitude": "-90.1117528665523",
    "latitude": "29.96370402378397",
    "geocoded_column": {
      "latitude": "29.96370402378397",
      "longitude": "-90.1117528665523"
    }
  },
  {
    "service_request": "2021-826582",
    "request_type": "Trash/Recycling",
    "request_reason": "Order Trash Cart",
    "date_created": "2021-09-27T17:13:36.000",
    "date_modified": "2021-09-27T20:55:12.000",
    "case_close_date": "2021-09-27T15:55:12.000",
    "request_status": "Closed",
    "responsible_agency": "Department of Sanitation",
    "final_address": "7434 Read Blvd",
    "address_councildis": "E",
    "status": "Resolved",
    "contractor": "Metro Disposal",
    "rowid": "826582",
    "final_x": "3708691.52184",
    "final_y": "563974.313761",
    "longitude": "-89.98100061946067",
    "latitude": "30.043879086237517",
    "geocoded_column": {
      "latitude": "30.043879086237517",
      "longitude": "-89.98100061946067"
    }
  },
  {
    "service_request": "2021-826580",
    "request_type": "Trash/Recycling",
    "request_reason": "Missed Trash Pick-Up",
    "date_created": "2021-09-27T17:03:32.000",
    "date_modified": "2021-09-27T17:03:33.000",
    "request_status": "Pending",
    "responsible_agency": "Department of Sanitation",
    "final_address": "2040 Milan St",
    "address_councildis": "B",
    "status": "Assigned to Contractor",
    "contractor": "Richards Disposal",
    "rowid": "826580",
    "final_x": "3671382.66804",
    "final_y": "522675.74169",
    "longitude": "-90.10031780562223",
    "latitude": "29.931480166421476",
    "geocoded_column": {
      "latitude": "29.931480166421476",
      "longitude": "-90.10031780562223"
    }
  },
  {
    "service_request": "2021-826579",
    "request_type": "Abandoned Vehicles",
    "request_reason": "Abandoned/Junk Vehicles",
    "date_created": "2021-09-27T17:01:58.000",
    "date_modified": "2021-09-27T17:01:58.000",
    "request_status": "Pending",
    "responsible_agency": "Department of Public Works",
    "final_address": "1932 Lamanche St",
    "address_councildis": "E",
    "status": "Pending",
    "rowid": "826579",
    "final_x": "3699204.43242",
    "final_y": "536945.826568",
    "longitude": "-90.01196887261202",
    "latitude": "29.969865345477007",
    "geocoded_column": {
      "latitude": "29.969865345477007",
      "longitude": "-90.01196887261202"
    }
  },
  {
    "service_request": "2021-826578",
    "request_type": "Abandoned Vehicles",
    "request_reason": "Abandoned/Junk Vehicles",
    "date_created": "2021-09-27T17:00:48.000",
    "date_modified": "2021-09-27T17:00:48.000",
    "request_status": "Pending",
    "responsible_agency": "Department of Public Works",
    "final_address": "442 Lowerline St",
    "address_councildis": "A",
    "status": "Pending",
    "rowid": "826578",
    "final_x": "3661854.65888",
    "final_y": "524265.5751",
    "longitude": "-90.13034405133337",
    "latitude": "29.936130190172143",
    "geocoded_column": {
      "latitude": "29.936130190172143",
      "longitude": "-90.13034405133337"
    }
  },
  {
    "service_request": "2021-826577",
    "request_type": "Abandoned Vehicles",
    "request_reason": "Vehicle Blocking Your Driveway",
    "date_created": "2021-09-27T16:59:31.000",
    "date_modified": "2021-09-27T16:59:31.000",
    "request_status": "Pending",
    "responsible_agency": "Department of Public Works",
    "final_address": "411 Wallace Dr",
    "address_councildis": "D",
    "status": "Pending",
    "rowid": "826577",
    "final_x": "3681863.84994",
    "final_y": "548441.110354",
    "longitude": "-90.06633060968235",
    "latitude": "30.002011785188817",
    "geocoded_column": {
      "latitude": "30.002011785188817",
      "longitude": "-90.06633060968235"
    }
  },
  {
    "service_request": "2021-826576",
    "request_type": "Trash/Recycling",
    "request_reason": "Request a Large Item Pick Up",
    "date_created": "2021-09-27T16:58:59.000",
    "date_modified": "2021-09-27T16:58:59.000",
    "request_status": "Pending",
    "responsible_agency": "Department of Sanitation",
    "final_address": "3201 Third St",
    "address_councildis": "B",
    "status": "Assigned to Contractor",
    "contractor": "Richards Disposal",
    "rowid": "826576",
    "final_x": "3673280.65844",
    "final_y": "527701.743167",
    "longitude": "-90.0941544771967",
    "latitude": "29.945243737387635",
    "geocoded_column": {
      "latitude": "29.945243737387635",
      "longitude": "-90.0941544771967"
    }
  },
  {
    "service_request": "2021-826575",
    "request_type": "Trash/Recycling",
    "request_reason": "Missed Trash Pick-Up",
    "date_created": "2021-09-27T16:58:48.000",
    "date_modified": "2021-09-27T20:55:33.000",
    "case_close_date": "2021-09-27T15:55:33.000",
    "request_status": "Closed",
    "responsible_agency": "Department of Sanitation",
    "final_address": "4626 Nighthart St",
    "address_councildis": "E",
    "status": "Resolved",
    "contractor": "Metro Disposal",
    "rowid": "826575",
    "final_x": "3716077.71154",
    "final_y": "556587.179994",
    "longitude": "-89.95793752683821",
    "latitude": "30.02332567648016",
    "geocoded_column": {
      "latitude": "30.02332567648016",
      "longitude": "-89.95793752683821"
    }
  },
  {
    "service_request": "2021-826574",
    "request_type": "Trash/Recycling",
    "request_reason": "Illegal Dumping",
    "date_created": "2021-09-27T16:54:42.000",
    "date_modified": "2021-09-27T16:54:42.000",
    "request_status": "Pending",
    "responsible_agency": "Department of Sanitation",
    "final_address": "3120 N Johnson St",
    "address_councildis": "D",
    "status": "Pending",
    "rowid": "826574",
    "final_x": "3689982.77398",
    "final_y": "539296.37185",
    "longitude": "-90.04100792420098",
    "latitude": "29.97661769776352",
    "geocoded_column": {
      "latitude": "29.97661769776352",
      "longitude": "-90.04100792420098"
    }
  },
  {
    "service_request": "2021-826573",
    "request_type": "Trash/Recycling",
    "request_reason": "MIssed Recycling Pick-Up",
    "date_created": "2021-09-27T16:54:24.000",
    "date_modified": "2021-09-27T20:55:48.000",
    "case_close_date": "2021-09-27T15:55:48.000",
    "request_status": "Closed",
    "responsible_agency": "Department of Sanitation",
    "final_address": "5714 Vicksburg St",
    "address_councildis": "A",
    "status": "Resolved",
    "contractor": "Metro Disposal",
    "rowid": "826573",
    "final_x": "3668620.47988",
    "final_y": "545529.907152",
    "longitude": "-90.10826636529448",
    "latitude": "29.994402985640416",
    "geocoded_column": {
      "latitude": "29.994402985640416",
      "longitude": "-90.10826636529448"
    }
  },
  {
    "service_request": "2021-826571",
    "request_type": "Property Maintenance",
    "request_reason": "Property Maintenance",
    "date_created": "2021-09-27T16:53:51.000",
    "date_modified": "2021-09-27T16:53:51.000",
    "request_status": "Pending",
    "responsible_agency": "Department of Code Enforcement",
    "final_address": "410 Wallace Dr",
    "address_councildis": "D",
    "status": "Pending",
    "rowid": "826571",
    "final_x": "3681734.61212",
    "final_y": "548323.83861",
    "longitude": "-90.06674298132569",
    "latitude": "30.001693258575145",
    "geocoded_column": {
      "latitude": "30.001693258575145",
      "longitude": "-90.06674298132569"
    }
  },
  {
    "service_request": "2021-826570",
    "request_type": "Trash/Recycling",
    "request_reason": "Illegal Dumping",
    "date_created": "2021-09-27T16:53:21.000",
    "date_modified": "2021-09-27T16:53:21.000",
    "request_status": "Pending",
    "responsible_agency": "Department of Sanitation",
    "final_address": "1920 Clouet St",
    "address_councildis": "D",
    "status": "Pending",
    "rowid": "826570",
    "final_x": "3689717.83561",
    "final_y": "539180.071178",
    "longitude": "-90.04184881858393",
    "latitude": "29.976306125641354",
    "geocoded_column": {
      "latitude": "29.976306125641354",
      "longitude": "-90.04184881858393"
    }
  },
  {
    "service_request": "2021-826569",
    "request_type": "Trash/Recycling",
    "request_reason": "Missed Trash Pick-Up",
    "date_created": "2021-09-27T16:53:16.000",
    "date_modified": "2021-09-27T20:56:04.000",
    "case_close_date": "2021-09-27T15:56:04.000",
    "request_status": "Closed",
    "responsible_agency": "Department of Sanitation",
    "final_address": "5714 Vicksburg St",
    "address_councildis": "A",
    "status": "Resolved",
    "contractor": "Metro Disposal",
    "rowid": "826569",
    "final_x": "3668620.47988",
    "final_y": "545529.907152",
    "longitude": "-90.10826636529448",
    "latitude": "29.994402985640416",
    "geocoded_column": {
      "latitude": "29.994402985640416",
      "longitude": "-90.10826636529448"
    }
  },
  {
    "service_request": "2021-826568",
    "request_type": "Trash/Recycling",
    "request_reason": "Missed Trash Pick-Up",
    "date_created": "2021-09-27T16:52:36.000",
    "date_modified": "2021-09-27T16:52:36.000",
    "request_status": "Pending",
    "responsible_agency": "Department of Sanitation",
    "final_address": "2419 Baronne St",
    "address_councildis": "B",
    "status": "Assigned to Contractor",
    "contractor": "Richards Disposal",
    "rowid": "826568",
    "final_x": "3676394.25947",
    "final_y": "523764.702587",
    "longitude": "-90.08445933004441",
    "latitude": "29.934325215809196",
    "geocoded_column": {
      "latitude": "29.934325215809196",
      "longitude": "-90.08445933004441"
    }
  },
  {
    "service_request": "2021-826567",
    "request_type": "Property Maintenance",
    "request_reason": "Property Maintenance",
    "date_created": "2021-09-27T16:51:56.000",
    "date_modified": "2021-09-27T16:51:56.000",
    "request_status": "Pending",
    "responsible_agency": "Department of Code Enforcement",
    "final_address": "1922 Clouet St",
    "address_councildis": "D",
    "status": "Pending",
    "rowid": "826567",
    "final_x": "3689760.34492",
    "final_y": "539201.500362",
    "longitude": "-90.04171379902628",
    "latitude": "29.97636373081016",
    "geocoded_column": {
      "latitude": "29.97636373081016",
      "longitude": "-90.04171379902628"
    }
  },
  {
    "service_request": "2021-826566",
    "request_type": "Trash/Recycling",
    "request_reason": "Illegal Dumping",
    "date_created": "2021-09-27T16:51:50.000",
    "date_modified": "2021-09-27T16:51:50.000",
    "request_status": "Pending",
    "responsible_agency": "Department of Sanitation",
    "final_address": "WILLOW ST & LOWERLINE ST",
    "address_councildis": "A",
    "status": "Pending",
    "rowid": "826566",
    "final_x": "3664067.5",
    "final_y": "527407.28",
    "longitude": "-90.1232532750026",
    "latitude": "29.944704809951006",
    "geocoded_column": {
      "latitude": "29.944704809951006",
      "longitude": "-90.1232532750026"
    }
  },
  {
    "service_request": "2021-826564",
    "request_type": "Property Maintenance",
    "request_reason": "Property Maintenance",
    "date_created": "2021-09-27T16:50:12.000",
    "date_modified": "2021-09-27T16:50:12.000",
    "request_status": "Pending",
    "responsible_agency": "Department of Code Enforcement",
    "final_address": "1930 Clouet St",
    "address_councildis": "D",
    "status": "Pending",
    "rowid": "826564",
    "final_x": "3689740.75715",
    "final_y": "539269.94145",
    "longitude": "-90.04177322642091",
    "latitude": "29.976552526659052",
    "geocoded_column": {
      "latitude": "29.976552526659052",
      "longitude": "-90.04177322642091"
    }
  },
  {
    "service_request": "2021-826563",
    "request_type": "Trash/Recycling",
    "request_reason": "Missed Trash Pick-Up",
    "date_created": "2021-09-27T16:49:49.000",
    "date_modified": "2021-09-27T16:53:18.000",
    "case_close_date": "2021-09-27T11:53:18.000",
    "request_status": "Closed",
    "responsible_agency": "Department of Sanitation",
    "final_address": "5632 Peoples Ave",
    "address_councildis": "D",
    "status": "Resolved",
    "contractor": "Metro Disposal",
    "rowid": "826563",
    "final_x": "3687839.84067",
    "final_y": "554034.902488",
    "longitude": "-90.04725349130553",
    "latitude": "30.017209616912634",
    "geocoded_column": {
      "latitude": "30.017209616912634",
      "longitude": "-90.04725349130553"
    }
  },
  {
    "service_request": "2021-826562",
    "request_type": "Trash/Recycling",
    "request_reason": "Replace Trash Cart",
    "date_created": "2021-09-27T16:49:36.000",
    "date_modified": "2021-09-27T16:49:37.000",
    "request_status": "Pending",
    "responsible_agency": "Department of Sanitation",
    "final_address": "516 S Dorgenois St",
    "address_councildis": "B",
    "status": "Assigned to Contractor",
    "contractor": "Richards Disposal",
    "rowid": "826562",
    "final_x": "3674768.2411",
    "final_y": "533303.738564",
    "longitude": "-90.08926566797673",
    "latitude": "29.960603042633846",
    "geocoded_column": {
      "latitude": "29.960603042633846",
      "longitude": "-90.08926566797673"
    }
  },
  {
    "service_request": "2021-826561",
    "request_type": "Trash/Recycling",
    "request_reason": "Missed Trash Pick-Up",
    "date_created": "2021-09-27T16:49:30.000",
    "date_modified": "2021-09-27T20:56:20.000",
    "case_close_date": "2021-09-27T15:56:20.000",
    "request_status": "Closed",
    "responsible_agency": "Department of Sanitation",
    "final_address": "5632 Peoples Ave",
    "address_councildis": "D",
    "status": "Resolved",
    "contractor": "Metro Disposal",
    "rowid": "826561",
    "final_x": "3687839.84067",
    "final_y": "554034.902488",
    "longitude": "-90.04725349130553",
    "latitude": "30.017209616912634",
    "geocoded_column": {
      "latitude": "30.017209616912634",
      "longitude": "-90.04725349130553"
    }
  },
  {
    "service_request": "2021-826560",
    "request_type": "Abandoned Vehicles",
    "request_reason": "Abandoned/Junk Vehicles",
    "date_created": "2021-09-27T16:48:51.000",
    "date_modified": "2021-09-27T16:48:51.000",
    "request_status": "Pending",
    "responsible_agency": "Department of Public Works",
    "final_address": "4815 Walmsley Ave",
    "address_councildis": "B",
    "status": "Pending",
    "rowid": "826560",
    "final_x": "3668173.76909",
    "final_y": "530634.130626",
    "longitude": "-90.11017975954138",
    "latitude": "29.95345772065518",
    "geocoded_column": {
      "latitude": "29.95345772065518",
      "longitude": "-90.11017975954138"
    }
  },
  {
    "service_request": "2021-826559",
    "request_type": "Trash/Recycling",
    "request_reason": "Missed Trash Pick-Up",
    "date_created": "2021-09-27T16:48:12.000",
    "date_modified": "2021-09-27T16:48:12.000",
    "request_status": "Pending",
    "responsible_agency": "Department of Sanitation",
    "final_address": "512 Governor Nicholls St",
    "address_councildis": "C",
    "status": "Assigned to Contractor",
    "contractor": "Empire Services",
    "rowid": "826559",
    "final_x": "3684143.12399",
    "final_y": "533493.388932",
    "longitude": "-90.05965503587068",
    "latitude": "29.960841310604774",
    "geocoded_column": {
      "latitude": "29.960841310604774",
      "longitude": "-90.05965503587068"
    }
  },
  {
    "service_request": "2021-826558",
    "request_type": "Property Maintenance",
    "request_reason": "Property Maintenance",
    "date_created": "2021-09-27T16:45:38.000",
    "date_modified": "2021-09-27T16:45:38.000",
    "request_status": "Pending",
    "responsible_agency": "Department of Code Enforcement",
    "final_address": "2526 N Johnson St",
    "address_councildis": "D",
    "status": "Pending",
    "rowid": "826558",
    "final_x": "3687180.72169",
    "final_y": "539780.470282",
    "longitude": "-90.04984052176209",
    "latitude": "29.97803539667973",
    "geocoded_column": {
      "latitude": "29.97803539667973",
      "longitude": "-90.04984052176209"
    }
  },
  {
    "service_request": "2021-826556",
    "request_type": "Trash/Recycling",
    "request_reason": "Order Recycling Cart",
    "date_created": "2021-09-27T16:44:24.000",
    "date_modified": "2021-09-27T16:44:24.000",
    "request_status": "Pending",
    "responsible_agency": "Department of Sanitation",
    "final_address": "5155 Westgrove Park",
    "address_councildis": "C",
    "status": "Pending",
    "rowid": "826556",
    "final_x": "3703452.45258",
    "final_y": "510924.432559",
    "longitude": "-89.99950991957029",
    "latitude": "29.89818023890313",
    "geocoded_column": {
      "latitude": "29.89818023890313",
      "longitude": "-89.99950991957029"
    }
  },
  {
    "service_request": "2021-826555",
    "request_type": "Traffic Signals/Signs/Striping/Streetlights",
    "request_reason": "Traffic Sign Missing/Damaged",
    "date_created": "2021-09-27T16:44:00.000",
    "date_modified": "2021-09-27T16:44:00.000",
    "request_status": "Pending",
    "responsible_agency": "Department of Public Works",
    "final_address": "1938 Pelopidas St",
    "address_councildis": "D",
    "status": "Pending",
    "rowid": "826555",
    "final_x": "3682485.95663",
    "final_y": "547666.762322",
    "longitude": "-90.06439239725684",
    "latitude": "29.99986367630396",
    "geocoded_column": {
      "latitude": "29.99986367630396",
      "longitude": "-90.06439239725684"
    }
  },
  {
    "service_request": "2021-826553",
    "request_type": "Trash/Recycling",
    "request_reason": "Repair Trash Cart",
    "date_created": "2021-09-27T16:41:38.000",
    "date_modified": "2021-09-27T16:41:40.000",
    "request_status": "Pending",
    "responsible_agency": "Department of Sanitation",
    "final_address": "5155 Westgrove Park",
    "address_councildis": "C",
    "status": "Assigned to Contractor",
    "contractor": "Richards Disposal",
    "rowid": "826553",
    "final_x": "3703452.45258",
    "final_y": "510924.432559",
    "longitude": "-89.99950991957029",
    "latitude": "29.89818023890313",
    "geocoded_column": {
      "latitude": "29.89818023890313",
      "longitude": "-89.99950991957029"
    }
  },
  {
    "service_request": "2021-826552",
    "request_type": "Trash/Recycling",
    "request_reason": "Missed Trash Pick-Up",
    "date_created": "2021-09-27T16:40:32.000",
    "date_modified": "2021-09-27T20:56:39.000",
    "case_close_date": "2021-09-27T15:56:39.000",
    "request_status": "Closed",
    "responsible_agency": "Department of Sanitation",
    "final_address": "5126 Piety Dr",
    "address_councildis": "D",
    "status": "Resolved",
    "contractor": "Metro Disposal",
    "rowid": "826552",
    "final_x": "3691115.03875",
    "final_y": "552805.570518",
    "longitude": "-90.03694917854254",
    "latitude": "30.013727926357994",
    "geocoded_column": {
      "latitude": "30.013727926357994",
      "longitude": "-90.03694917854254"
    }
  },
  {
    "service_request": "2021-826551",
    "request_type": "Trash/Recycling",
    "request_reason": "Missed Trash Pick-Up",
    "date_created": "2021-09-27T16:37:09.000",
    "date_modified": "2021-09-27T16:37:09.000",
    "request_status": "Pending",
    "responsible_agency": "Department of Sanitation",
    "final_address": "1235 Hagan St",
    "address_councildis": "A",
    "status": "Assigned to Contractor",
    "contractor": "Richards Disposal",
    "rowid": "826551",
    "final_x": "3675610.75214",
    "final_y": "539929.56961",
    "longitude": "-90.0863774881643",
    "latitude": "29.978796648037193",
    "geocoded_column": {
      "latitude": "29.978796648037193",
      "longitude": "-90.0863774881643"
    }
  },
  {
    "service_request": "2021-826548",
    "request_type": "Trash/Recycling",
    "request_reason": "Missed Trash Pick-Up",
    "date_created": "2021-09-27T16:33:27.000",
    "date_modified": "2021-09-27T20:57:55.000",
    "case_close_date": "2021-09-27T15:57:55.000",
    "request_status": "Closed",
    "responsible_agency": "Department of Sanitation",
    "final_address": "1420 Desire St",
    "address_councildis": "C",
    "status": "Resolved",
    "contractor": "Metro Disposal",
    "rowid": "826548",
    "final_x": "3690469.60694",
    "final_y": "537005.514824",
    "longitude": "-90.03955205462482",
    "latitude": "29.970303544709232",
    "geocoded_column": {
      "latitude": "29.970303544709232",
      "longitude": "-90.03955205462482"
    }
  },
  {
    "service_request": "2021-826547",
    "request_type": "Trash/Recycling",
    "request_reason": "Missed Trash Pick-Up",
    "date_created": "2021-09-27T16:32:04.000",
    "date_modified": "2021-09-27T20:58:11.000",
    "case_close_date": "2021-09-27T15:58:11.000",
    "request_status": "Closed",
    "responsible_agency": "Department of Sanitation",
    "final_address": "1016 Pauline St",
    "address_councildis": "C",
    "status": "Resolved",
    "contractor": "Metro Disposal",
    "rowid": "826547",
    "final_x": "3691106.30524",
    "final_y": "535168.248454",
    "longitude": "-90.03760691232867",
    "latitude": "29.96523192616618",
    "geocoded_column": {
      "latitude": "29.96523192616618",
      "longitude": "-90.03760691232867"
    }
  },
  {
    "service_request": "2021-826541",
    "request_type": "Property Maintenance",
    "request_reason": "Property Maintenance",
    "date_created": "2021-09-27T16:24:36.000",
    "date_modified": "2021-09-27T16:24:36.000",
    "request_status": "Pending",
    "responsible_agency": "Department of Code Enforcement",
    "final_address": "9999 Cypress Acres Dr",
    "address_councildis": "C",
    "status": "Pending",
    "rowid": "826541",
    "final_x": "3696313.71152",
    "final_y": "523469.118779",
    "longitude": "-90.02158522548129",
    "latitude": "29.93290046251663",
    "geocoded_column": {
      "latitude": "29.93290046251663",
      "longitude": "-90.02158522548129"
    }
  },
  {
    "service_request": "2021-826540",
    "request_type": "Trash/Recycling",
    "request_reason": "Illegal Dumping",
    "date_created": "2021-09-27T16:23:49.000",
    "date_modified": "2021-09-27T16:23:49.000",
    "request_status": "Pending",
    "responsible_agency": "Department of Sanitation",
    "final_address": "CYPRESS ACRES DR & PINEWOOD CT",
    "address_councildis": "C",
    "status": "Pending",
    "rowid": "826540",
    "final_x": "3696217.1",
    "final_y": "522881.28",
    "longitude": "-90.02191145850503",
    "latitude": "29.93128714821004",
    "geocoded_column": {
      "latitude": "29.93128714821004",
      "longitude": "-90.02191145850503"
    }
  },
  {
    "service_request": "2021-826539",
    "request_type": "Trash/Recycling",
    "request_reason": "Missed Trash Pick-Up",
    "date_created": "2021-09-27T16:23:15.000",
    "date_modified": "2021-09-27T20:58:25.000",
    "case_close_date": "2021-09-27T15:58:25.000",
    "request_status": "Closed",
    "responsible_agency": "Department of Sanitation",
    "final_address": "831 Louisa St",
    "address_councildis": "C",
    "status": "Resolved",
    "contractor": "Metro Disposal",
    "rowid": "826539",
    "final_x": "3689371.38556",
    "final_y": "534974.340742",
    "longitude": "-90.04309257658095",
    "latitude": "29.964752578131034",
    "geocoded_column": {
      "latitude": "29.964752578131034",
      "longitude": "-90.04309257658095"
    }
  },
  {
    "service_request": "2021-826538",
    "request_type": "Abandoned Vehicles",
    "request_reason": "Vehicle Blocking Your Driveway",
    "date_created": "2021-09-27T16:21:25.000",
    "date_modified": "2021-09-27T16:21:25.000",
    "request_status": "Pending",
    "responsible_agency": "Department of Public Works",
    "final_address": "4204 S. Broad Street",
    "address_councildis": "B",
    "status": "Pending",
    "rowid": "826538",
    "final_x": "3670622.80135",
    "final_y": "529231.686785",
    "longitude": "-90.10249430376768",
    "latitude": "29.94952934980224",
    "geocoded_column": {
      "latitude": "29.94952934980224",
      "longitude": "-90.10249430376768"
    }
  },
  {
    "service_request": "2021-826537",
    "request_type": "Trash/Recycling",
    "request_reason": "Missed Trash Pick-Up",
    "date_created": "2021-09-27T16:20:32.000",
    "date_modified": "2021-09-27T20:58:47.000",
    "case_close_date": "2021-09-27T15:58:47.000",
    "request_status": "Closed",
    "responsible_agency": "Department of Sanitation",
    "final_address": "1204 Touro St",
    "address_councildis": "C",
    "status": "Resolved",
    "contractor": "Metro Disposal",
    "rowid": "826537",
    "final_x": "3684170.90249",
    "final_y": "536668.876615",
    "longitude": "-90.05945583613095",
    "latitude": "29.969571956850704",
    "geocoded_column": {
      "latitude": "29.969571956850704",
      "longitude": "-90.05945583613095"
    }
  },
  {
    "service_request": "2021-826536",
    "request_type": "Trash/Recycling",
    "request_reason": "Missed Trash Pick-Up",
    "date_created": "2021-09-27T16:19:43.000",
    "date_modified": "2021-09-27T20:59:02.000",
    "case_close_date": "2021-09-27T15:59:02.000",
    "request_status": "Closed",
    "responsible_agency": "Department of Sanitation",
    "final_address": "4118 N Rocheblave St",
    "address_councildis": "D",
    "status": "Resolved",
    "contractor": "Metro Disposal",
    "rowid": "826536",
    "final_x": "3693454.42461",
    "final_y": "540057.495947",
    "longitude": "-90.03001608679668",
    "latitude": "29.978602398184073",
    "geocoded_column": {
      "latitude": "29.978602398184073",
      "longitude": "-90.03001608679668"
    }
  },
  {
    "service_request": "2021-826534",
    "request_type": "Trash/Recycling",
    "request_reason": "Replace Recycling Cart",
    "date_created": "2021-09-27T16:15:53.000",
    "date_modified": "2021-09-27T16:15:53.000",
    "request_status": "Pending",
    "responsible_agency": "Department of Sanitation",
    "final_address": "834 Broadway St Apt C",
    "address_councildis": "A",
    "status": "Pending",
    "rowid": "826534",
    "final_x": "3663428.47059",
    "final_y": "525530.369853",
    "longitude": "-90.1253333655204",
    "latitude": "29.939562447111708",
    "geocoded_column": {
      "latitude": "29.939562447111708",
      "longitude": "-90.1253333655204"
    }
  },
  {
    "service_request": "2021-826533",
    "request_type": "Trash/Recycling",
    "request_reason": "Replace Trash Cart",
    "date_created": "2021-09-27T16:15:14.000",
    "date_modified": "2021-09-27T16:15:14.000",
    "request_status": "Pending",
    "responsible_agency": "Department of Sanitation",
    "final_address": "834 Broadway St Apt C",
    "address_councildis": "A",
    "status": "Assigned to Contractor",
    "contractor": "Richards Disposal",
    "rowid": "826533",
    "final_x": "3663428.47059",
    "final_y": "525530.369853",
    "longitude": "-90.1253333655204",
    "latitude": "29.939562447111708",
    "geocoded_column": {
      "latitude": "29.939562447111708",
      "longitude": "-90.1253333655204"
    }
  },
  {
    "service_request": "2021-826531",
    "request_type": "Property Maintenance",
    "request_reason": "Property Maintenance",
    "date_created": "2021-09-27T16:14:05.000",
    "date_modified": "2021-09-27T16:14:05.000",
    "request_status": "Pending",
    "responsible_agency": "Department of Code Enforcement",
    "final_address": "4027 Hollygrove St",
    "address_councildis": "A",
    "status": "Pending",
    "rowid": "826531",
    "final_x": "3666464.67937",
    "final_y": "537988.645961",
    "longitude": "-90.11532950975014",
    "latitude": "29.97373026609402",
    "geocoded_column": {
      "latitude": "29.97373026609402",
      "longitude": "-90.11532950975014"
    }
  },
  {
    "service_request": "2021-826530",
    "request_type": "Property Maintenance",
    "request_reason": "Property Maintenance",
    "date_created": "2021-09-27T16:13:27.000",
    "date_modified": "2021-09-27T16:13:27.000",
    "request_status": "Pending",
    "responsible_agency": "Department of Code Enforcement",
    "final_address": "4933 Feliciana Dr",
    "address_councildis": "D",
    "status": "Pending",
    "rowid": "826530",
    "final_x": "3690093.90153",
    "final_y": "551651.393429",
    "longitude": "-90.04021658699979",
    "latitude": "30.010586092687767",
    "geocoded_column": {
      "latitude": "30.010586092687767",
      "longitude": "-90.04021658699979"
    }
  },
  {
    "service_request": "2021-826529",
    "request_type": "Traffic Signals/Signs/Striping/Streetlights",
    "request_reason": "Street Light Outage/Malfunction",
    "date_created": "2021-09-27T16:11:48.000",
    "date_modified": "2021-09-27T16:11:49.000",
    "request_status": "Pending",
    "responsible_agency": "Department of Public Works",
    "final_address": "2634 Robert St",
    "address_councildis": "B",
    "status": "Pending",
    "contractor": "Royal Engineering",
    "rowid": "826529",
    "final_x": "3668813.22062",
    "final_y": "525263.913085",
    "longitude": "-90.1083419189194",
    "latitude": "29.93867258343838",
    "geocoded_column": {
      "latitude": "29.93867258343838",
      "longitude": "-90.1083419189194"
    }
  },
  {
    "service_request": "2021-826528",
    "request_type": "Roads/Drainage",
    "request_reason": "Road Shoulder Repair",
    "date_created": "2021-09-27T16:09:58.000",
    "date_modified": "2021-09-27T16:09:58.000",
    "request_status": "Pending",
    "responsible_agency": "Department of Public Works",
    "final_address": "1209 Patterson St",
    "address_councildis": "C",
    "status": "Pending",
    "rowid": "826528",
    "final_x": "3689388.983",
    "final_y": "531216.204994",
    "longitude": "-90.04317063253121",
    "latitude": "29.954418465264524",
    "geocoded_column": {
      "latitude": "29.954418465264524",
      "longitude": "-90.04317063253121"
    }
  },
  {
    "service_request": "2021-826527",
    "request_type": "Abandoned Vehicles",
    "request_reason": "Abandoned/Junk Vehicles",
    "date_created": "2021-09-27T16:08:37.000",
    "date_modified": "2021-09-27T16:08:37.000",
    "request_status": "Pending",
    "responsible_agency": "Department of Public Works",
    "final_address": "1222 Philip St",
    "address_councildis": "B",
    "status": "Pending",
    "rowid": "826527",
    "final_x": "3678162.37685",
    "final_y": "522236.022138",
    "longitude": "-90.07893026678013",
    "latitude": "29.930068737864485",
    "geocoded_column": {
      "latitude": "29.930068737864485",
      "longitude": "-90.07893026678013"
    }
  },
  {
    "service_request": "2021-826526",
    "request_type": "Abandoned Vehicles",
    "request_reason": "Abandoned/Junk Vehicles",
    "date_created": "2021-09-27T16:08:22.000",
    "date_modified": "2021-09-27T16:08:22.000",
    "request_status": "Pending",
    "responsible_agency": "Department of Public Works",
    "final_address": "6305 General Pershing St",
    "address_councildis": "B",
    "status": "Pending",
    "rowid": "826526",
    "final_x": "3668097.81857",
    "final_y": "530436.889858",
    "longitude": "-90.11042622674755",
    "latitude": "29.952917602151903",
    "geocoded_column": {
      "latitude": "29.952917602151903",
      "longitude": "-90.11042622674755"
    }
  },
  {
    "service_request": "2021-826524",
    "request_type": "Roads/Drainage",
    "request_reason": "Street Subsidence (Sinking)",
    "date_created": "2021-09-27T16:03:22.000",
    "date_modified": "2021-09-27T16:07:41.000",
    "request_status": "Pending",
    "responsible_agency": "Department of Public Works",
    "final_address": "GENERAL DE GAULLE DR & SOMERSET DR & SOMMERSET DR",
    "address_councildis": "C",
    "status": "Pending",
    "rowid": "826524",
    "final_x": "3702390.1",
    "final_y": "516661.38",
    "longitude": "-90.002652243402",
    "latitude": "29.91398885976953",
    "geocoded_column": {
      "latitude": "29.91398885976953",
      "longitude": "-90.002652243402"
    }
  },
  {
    "service_request": "2021-826523",
    "request_type": "Traffic Signals/Signs/Striping/Streetlights",
    "request_reason": "Street Light Outage/Malfunction",
    "date_created": "2021-09-27T16:02:50.000",
    "date_modified": "2021-09-27T16:02:51.000",
    "request_status": "Pending",
    "responsible_agency": "Department of Public Works",
    "final_address": "2132 General Pershing St",
    "address_councildis": "B",
    "status": "Pending",
    "contractor": "Royal Engineering",
    "rowid": "826523",
    "final_x": "3670960.82215",
    "final_y": "522901.226619",
    "longitude": "-90.101641874222",
    "latitude": "29.93211265259653",
    "geocoded_column": {
      "latitude": "29.93211265259653",
      "longitude": "-90.101641874222"
    }
  },
  {
    "service_request": "2021-826520",
    "request_type": "Abandoned Vehicles",
    "request_reason": "Abandoned/Junk Vehicles",
    "date_created": "2021-09-27T16:00:14.000",
    "date_modified": "2021-09-27T16:00:14.000",
    "request_status": "Pending",
    "responsible_agency": "Department of Public Works",
    "final_address": "1414 Spain St",
    "address_councildis": "C",
    "status": "Pending",
    "rowid": "826520",
    "final_x": "3686001.62754",
    "final_y": "537634.873352",
    "longitude": "-90.05364019148598",
    "latitude": "29.97217202037899",
    "geocoded_column": {
      "latitude": "29.97217202037899",
      "longitude": "-90.05364019148598"
    }
  },
  {
    "service_request": "2021-826519",
    "request_type": "Traffic Signals/Signs/Striping/Streetlights",
    "request_reason": "Street Name Sign Damaged or Missing",
    "date_created": "2021-09-27T15:59:22.000",
    "date_modified": "2021-09-27T15:59:22.000",
    "request_status": "Pending",
    "responsible_agency": "Department of Public Works",
    "final_address": "1209 Patterson St",
    "address_councildis": "C",
    "status": "Pending",
    "rowid": "826519",
    "final_x": "3689388.983",
    "final_y": "531216.204994",
    "longitude": "-90.04317063253121",
    "latitude": "29.954418465264524",
    "geocoded_column": {
      "latitude": "29.954418465264524",
      "longitude": "-90.04317063253121"
    }
  },
  {
    "service_request": "2021-826517",
    "request_type": "Trash/Recycling",
    "request_reason": "MIssed Recycling Pick-Up",
    "date_created": "2021-09-27T15:58:47.000",
    "date_modified": "2021-09-27T20:59:21.000",
    "case_close_date": "2021-09-27T15:59:21.000",
    "request_status": "Closed",
    "responsible_agency": "Department of Sanitation",
    "final_address": "1206 Clouet St, New Orleans, Louisiana, 70117",
    "address_councildis": "C",
    "status": "Resolved",
    "contractor": "Metro Disposal",
    "rowid": "826517",
    "final_x": "3689080.38639",
    "final_y": "536431.931719",
    "longitude": "-90.04395973404286",
    "latitude": "29.96876944999195",
    "geocoded_column": {
      "latitude": "29.96876944999195",
      "longitude": "-90.04395973404286"
    }
  },
  {
    "service_request": "2021-826516",
    "request_type": "Trash/Recycling",
    "request_reason": "Request a Large Item Pick Up",
    "date_created": "2021-09-27T15:58:43.000",
    "date_modified": "2021-09-27T20:59:49.000",
    "request_status": "Pending",
    "responsible_agency": "Department of Sanitation",
    "final_address": "5669 Evelyn Ct",
    "address_councildis": "A",
    "contractor": "Metro Disposal",
    "rowid": "826516",
    "final_x": "3664493.48359",
    "final_y": "545380.730128",
    "longitude": "-90.12130805761333",
    "latitude": "29.994113478259457",
    "geocoded_column": {
      "latitude": "29.994113478259457",
      "longitude": "-90.12130805761333"
    }
  },
  {
    "service_request": "2021-826515",
    "request_type": "Trash/Recycling",
    "request_reason": "Order Trash Cart",
    "date_created": "2021-09-27T15:58:17.000",
    "date_modified": "2021-09-27T21:04:15.000",
    "case_close_date": "2021-09-27T16:04:15.000",
    "request_status": "Closed",
    "responsible_agency": "Department of Sanitation",
    "final_address": "1206 Clouet St, New Orleans, Louisiana, 70117",
    "address_councildis": "C",
    "status": "Resolved",
    "contractor": "Metro Disposal",
    "rowid": "826515",
    "final_x": "3689080.38639",
    "final_y": "536431.931719",
    "longitude": "-90.04395973404286",
    "latitude": "29.96876944999195",
    "geocoded_column": {
      "latitude": "29.96876944999195",
      "longitude": "-90.04395973404286"
    }
  },
  {
    "service_request": "2021-826514",
    "request_type": "Mosquito, Termite & Rodent Control",
    "request_reason": "Rodent Complaint (Rats)",
    "date_created": "2021-09-27T15:56:58.000",
    "date_modified": "2021-09-27T15:56:58.000",
    "request_status": "Pending",
    "responsible_agency": "Mosquito, Termite & Rodent Control Board",
    "final_address": "2011 Mandeville St",
    "address_councildis": "D",
    "status": "Pending",
    "rowid": "826514",
    "final_x": "3685539.88566",
    "final_y": "539784.770762",
    "longitude": "-90.05502270002026",
    "latitude": "29.978097656781475",
    "geocoded_column": {
      "latitude": "29.978097656781475",
      "longitude": "-90.05502270002026"
    }
  },
  {
    "service_request": "2021-826513",
    "request_type": "Property Maintenance",
    "request_reason": "Property Maintenance",
    "date_created": "2021-09-27T15:55:47.000",
    "date_modified": "2021-09-27T15:55:47.000",
    "request_status": "Pending",
    "responsible_agency": "Department of Code Enforcement",
    "final_address": "3215 Rabbits St",
    "address_councildis": "D",
    "status": "Pending",
    "rowid": "826513",
    "final_x": "3688363.96937",
    "final_y": "544867.829647",
    "longitude": "-90.04592288973437",
    "latitude": "29.991987324240082",
    "geocoded_column": {
      "latitude": "29.991987324240082",
      "longitude": "-90.04592288973437"
    }
  },
  {
    "service_request": "2021-826512",
    "request_type": "Trash/Recycling",
    "request_reason": "Missed Trash Pick-Up",
    "date_created": "2021-09-27T15:55:11.000",
    "date_modified": "2021-09-27T21:04:26.000",
    "request_status": "Pending",
    "responsible_agency": "Department of Sanitation",
    "final_address": "1222 Gallier St",
    "address_councildis": "C",
    "status": "Assigned to Contractor",
    "contractor": "Metro Disposal",
    "rowid": "826512",
    "final_x": "3690566.63676",
    "final_y": "536188.522503",
    "longitude": "-90.03927476396944",
    "latitude": "29.96805409066419",
    "geocoded_column": {
      "latitude": "29.96805409066419",
      "longitude": "-90.03927476396944"
    }
  },
  {
    "service_request": "2021-826511",
    "request_type": "Traffic Signals/Signs/Striping/Streetlights",
    "request_reason": "Street Light Outage/Malfunction",
    "date_created": "2021-09-27T15:53:22.000",
    "date_modified": "2021-09-27T15:53:23.000",
    "request_status": "Pending",
    "responsible_agency": "Department of Public Works",
    "final_address": "407 18Th St",
    "address_councildis": "A",
    "status": "Pending",
    "contractor": "Royal Engineering",
    "rowid": "826511",
    "final_x": "3664752.81293",
    "final_y": "548844.135699",
    "longitude": "-90.12037305548637",
    "latitude": "30.003629111369136",
    "geocoded_column": {
      "latitude": "30.003629111369136",
      "longitude": "-90.12037305548637"
    }
  },
  {
    "service_request": "2021-826510",
    "request_type": "Trash/Recycling",
    "request_reason": "Replace Trash Cart",
    "date_created": "2021-09-27T15:52:21.000",
    "date_modified": "2021-09-27T21:04:42.000",
    "case_close_date": "2021-09-27T16:04:42.000",
    "request_status": "Closed",
    "responsible_agency": "Department of Sanitation",
    "final_address": "8912 Curran Rd",
    "address_councildis": "E",
    "status": "Resolved",
    "contractor": "Metro Disposal",
    "rowid": "826510",
    "final_x": "3705111.6442",
    "final_y": "563001.017632",
    "longitude": "-89.99235051149796",
    "latitude": "30.041318592994163",
    "geocoded_column": {
      "latitude": "30.041318592994163",
      "longitude": "-89.99235051149796"
    }
  },
  {
    "service_request": "2021-826508",
    "request_type": "Abandoned Vehicles",
    "request_reason": "Abandoned/Junk Vehicles",
    "date_created": "2021-09-27T15:51:31.000",
    "date_modified": "2021-09-27T15:51:31.000",
    "request_status": "Pending",
    "responsible_agency": "Department of Public Works",
    "final_address": "1222 Philip St",
    "address_councildis": "B",
    "status": "Pending",
    "rowid": "826508",
    "final_x": "3678162.37685",
    "final_y": "522236.022138",
    "longitude": "-90.07893026678013",
    "latitude": "29.930068737864485",
    "geocoded_column": {
      "latitude": "29.930068737864485",
      "longitude": "-90.07893026678013"
    }
  },
  {
    "service_request": "2021-826506",
    "request_type": "Trash/Recycling",
    "request_reason": "Replace Trash Cart",
    "date_created": "2021-09-27T15:50:48.000",
    "date_modified": "2021-09-27T21:05:20.000",
    "case_close_date": "2021-09-27T16:05:20.000",
    "request_status": "Closed",
    "responsible_agency": "Department of Sanitation",
    "final_address": "11235 Notaway Ln",
    "address_councildis": "E",
    "status": "Resolved",
    "contractor": "Metro Disposal",
    "rowid": "826506",
    "final_x": "3717695.32146",
    "final_y": "559485.449309",
    "longitude": "-89.95271594282002",
    "latitude": "30.031241268410227",
    "geocoded_column": {
      "latitude": "30.031241268410227",
      "longitude": "-89.95271594282002"
    }
  },
  {
    "service_request": "2021-826505",
    "request_type": "Trash/Recycling",
    "request_reason": "Missed Trash Pick-Up",
    "date_created": "2021-09-27T15:46:25.000",
    "date_modified": "2021-09-27T15:46:26.000",
    "request_status": "Pending",
    "responsible_agency": "Department of Sanitation",
    "final_address": "4921 S Claiborne Ave",
    "address_councildis": "B",
    "status": "Assigned to Contractor",
    "contractor": "Richards Disposal",
    "rowid": "826505",
    "final_x": "3669066.68327",
    "final_y": "526013.638269",
    "longitude": "-90.10751638588606",
    "latitude": "29.940726632366168",
    "geocoded_column": {
      "latitude": "29.940726632366168",
      "longitude": "-90.10751638588606"
    }
  },
  {
    "service_request": "2021-826504",
    "request_type": "Abandoned Vehicles",
    "request_reason": "Abandoned/Junk Vehicles",
    "date_created": "2021-09-27T15:44:37.000",
    "date_modified": "2021-09-27T15:44:37.000",
    "request_status": "Pending",
    "responsible_agency": "Department of Public Works",
    "final_address": "1713 Alvar St",
    "address_councildis": "D",
    "status": "Pending",
    "rowid": "826504",
    "final_x": "3692119.82013",
    "final_y": "537755.197576",
    "longitude": "-90.03431368221496",
    "latitude": "29.972313569932084",
    "geocoded_column": {
      "latitude": "29.972313569932084",
      "longitude": "-90.03431368221496"
    }
  },
  {
    "service_request": "2021-826501",
    "request_type": "Trash/Recycling",
    "request_reason": "Replace Trash Cart",
    "date_created": "2021-09-27T15:42:23.000",
    "date_modified": "2021-09-27T21:05:42.000",
    "case_close_date": "2021-09-27T16:05:42.000",
    "request_status": "Closed",
    "responsible_agency": "Department of Sanitation",
    "final_address": "1956 Wildair Dr",
    "address_councildis": "D",
    "status": "Resolved",
    "contractor": "Metro Disposal",
    "rowid": "826501",
    "final_x": "3681601.12405",
    "final_y": "551152.118293",
    "longitude": "-90.06706594482894",
    "latitude": "30.009474067727837",
    "geocoded_column": {
      "latitude": "30.009474067727837",
      "longitude": "-90.06706594482894"
    }
  },
  {
    "service_request": "2021-826500",
    "request_type": "Parks & Parkways",
    "request_reason": "Request Tree Service (Right of Way/Public Property)",
    "date_created": "2021-09-27T15:41:50.000",
    "date_modified": "2021-09-27T15:41:50.000",
    "request_status": "Pending",
    "responsible_agency": "Department of Parks & Parkway",
    "final_address": "4927 S Johnson St, New Orleans, Louisiana, 70125",
    "address_councildis": "B",
    "status": "Pending",
    "rowid": "826500",
    "final_x": "3669027.26759",
    "final_y": "527098.138367",
    "longitude": "-90.10760420159336",
    "latitude": "29.943709815868093",
    "geocoded_column": {
      "latitude": "29.943709815868093",
      "longitude": "-90.10760420159336"
    }
  },
  {
    "service_request": "2021-826499",
    "request_type": "Trash/Recycling",
    "request_reason": "Repair Trash Cart",
    "date_created": "2021-09-27T15:41:37.000",
    "date_modified": "2021-09-27T15:41:38.000",
    "request_status": "Pending",
    "responsible_agency": "Department of Sanitation",
    "final_address": "908 Josephine St",
    "address_councildis": "B",
    "status": "Assigned to Contractor",
    "contractor": "Richards Disposal",
    "rowid": "826499",
    "final_x": "3679529.87439",
    "final_y": "521781.274874",
    "longitude": "-90.07462907195203",
    "latitude": "29.928777096814667",
    "geocoded_column": {
      "latitude": "29.928777096814667",
      "longitude": "-90.07462907195203"
    }
  },
  {
    "service_request": "2021-826497",
    "request_type": "Traffic Signals/Signs/Striping/Streetlights",
    "request_reason": "Traffic Sign Missing/Damaged",
    "date_created": "2021-09-27T15:39:20.000",
    "date_modified": "2021-09-27T15:39:20.000",
    "request_status": "Pending",
    "responsible_agency": "Department of Public Works",
    "final_address": "1209 Patterson St",
    "address_councildis": "C",
    "status": "Pending",
    "rowid": "826497",
    "final_x": "3689388.983",
    "final_y": "531216.204994",
    "longitude": "-90.04317063253121",
    "latitude": "29.954418465264524",
    "geocoded_column": {
      "latitude": "29.954418465264524",
      "longitude": "-90.04317063253121"
    }
  },
  {
    "service_request": "2021-826496",
    "request_type": "Property Maintenance",
    "request_reason": "Property Maintenance",
    "date_created": "2021-09-27T15:39:19.000",
    "date_modified": "2021-09-27T15:39:34.000",
    "request_status": "Pending",
    "responsible_agency": "Department of Code Enforcement",
    "final_address": "2429 S Derbigny St",
    "address_councildis": "B",
    "status": "Pending",
    "rowid": "826496",
    "final_x": "3673724.3218",
    "final_y": "527622.494655",
    "longitude": "-90.09275639866262",
    "latitude": "29.94501262956826",
    "geocoded_column": {
      "latitude": "29.94501262956826",
      "longitude": "-90.09275639866262"
    }
  },
  {
    "service_request": "2021-826495",
    "request_type": "Trash/Recycling",
    "request_reason": "Repair Trash Cart",
    "date_created": "2021-09-27T15:39:10.000",
    "date_modified": "2021-09-27T21:07:17.000",
    "case_close_date": "2021-09-27T16:07:17.000",
    "request_status": "Closed",
    "responsible_agency": "Department of Sanitation",
    "final_address": "3418 Spain St",
    "address_councildis": "D",
    "status": "Resolved",
    "contractor": "Metro Disposal",
    "rowid": "826495",
    "final_x": "3685371.95023",
    "final_y": "545395.7108",
    "longitude": "-90.05535544934726",
    "latitude": "29.993530904039634",
    "geocoded_column": {
      "latitude": "29.993530904039634",
      "longitude": "-90.05535544934726"
    }
  },
  {
    "service_request": "2021-826494",
    "request_type": "Traffic Signals/Signs/Striping/Streetlights",
    "request_reason": "Traffic Sign Missing/Damaged",
    "date_created": "2021-09-27T15:37:51.000",
    "date_modified": "2021-09-27T15:37:51.000",
    "request_status": "Pending",
    "responsible_agency": "Department of Public Works",
    "final_address": "5007 Cartier Ave",
    "address_councildis": "D",
    "status": "Pending",
    "rowid": "826494",
    "final_x": "3677825.29909",
    "final_y": "550682.016276",
    "longitude": "-90.07901135606419",
    "latitude": "30.00829564809951",
    "geocoded_column": {
      "latitude": "30.00829564809951",
      "longitude": "-90.07901135606419"
    }
  },
  {
    "service_request": "2021-826493",
    "request_type": "Trash/Recycling",
    "request_reason": "Missed Trash Pick-Up",
    "date_created": "2021-09-27T15:37:07.000",
    "date_modified": "2021-09-27T21:07:38.000",
    "case_close_date": "2021-09-27T16:07:38.000",
    "request_status": "Closed",
    "responsible_agency": "Department of Sanitation",
    "final_address": "734 Hidalgo St",
    "address_councildis": "A",
    "status": "Resolved",
    "contractor": "Metro Disposal",
    "rowid": "826493",
    "final_x": "3668610.10702",
    "final_y": "544081.395278",
    "longitude": "-90.10834804908575",
    "latitude": "29.99042038002538",
    "geocoded_column": {
      "latitude": "29.99042038002538",
      "longitude": "-90.10834804908575"
    }
  },
  {
    "service_request": "2021-826492",
    "request_type": "Traffic Signals/Signs/Striping/Streetlights",
    "request_reason": "Street Light Outage/Malfunction",
    "date_created": "2021-09-27T15:37:00.000",
    "date_modified": "2021-09-27T15:37:01.000",
    "request_status": "Pending",
    "responsible_agency": "Department of Public Works",
    "final_address": "114 Egret St",
    "address_councildis": "D",
    "status": "Pending",
    "contractor": "Royal Engineering",
    "rowid": "826492",
    "final_x": "3673677.43009",
    "final_y": "555884.023577",
    "longitude": "-90.09193773448389",
    "latitude": "30.022723507455062",
    "geocoded_column": {
      "latitude": "30.022723507455062",
      "longitude": "-90.09193773448389"
    }
  },
  {
    "service_request": "2021-826491",
    "request_type": "Property Maintenance",
    "request_reason": "Property Maintenance",
    "date_created": "2021-09-27T15:35:41.000",
    "date_modified": "2021-09-27T15:35:41.000",
    "request_status": "Pending",
    "responsible_agency": "Department of Code Enforcement",
    "final_address": "3220 Rabbits St",
    "address_councildis": "D",
    "status": "Pending",
    "rowid": "826491",
    "final_x": "3688277.80732",
    "final_y": "544893.758927",
    "longitude": "-90.04619413717464",
    "latitude": "29.992061282023283",
    "geocoded_column": {
      "latitude": "29.992061282023283",
      "longitude": "-90.04619413717464"
    }
  },
  {
    "service_request": "2021-826490",
    "request_type": "Trash/Recycling",
    "request_reason": "Start Trash Service",
    "date_created": "2021-09-27T15:32:44.000",
    "date_modified": "2021-09-27T21:07:53.000",
    "case_close_date": "2021-09-27T16:07:53.000",
    "request_status": "Closed",
    "responsible_agency": "Department of Sanitation",
    "final_address": "6019 Beechcraft St",
    "address_councildis": "D",
    "status": "Resolved",
    "contractor": "Metro Disposal",
    "rowid": "826490",
    "final_x": "3696559.14941",
    "final_y": "553165.220823",
    "longitude": "-90.0197356663028",
    "latitude": "30.01454634571127",
    "geocoded_column": {
      "latitude": "30.01454634571127",
      "longitude": "-90.0197356663028"
    }
  },
  {
    "service_request": "2021-826489",
    "request_type": "Property Maintenance",
    "request_reason": "Property Maintenance",
    "date_created": "2021-09-27T15:32:26.000",
    "date_modified": "2021-09-27T15:32:26.000",
    "request_status": "Pending",
    "responsible_agency": "Department of Code Enforcement",
    "final_address": "3224 Rabbits St",
    "address_councildis": "D",
    "status": "Pending",
    "rowid": "826489",
    "final_x": "3688285.24617",
    "final_y": "544925.374287",
    "longitude": "-90.04616951758518",
    "latitude": "29.992147983133442",
    "geocoded_column": {
      "latitude": "29.992147983133442",
      "longitude": "-90.04616951758518"
    }
  },
  {
    "service_request": "2021-826488",
    "request_type": "Trash/Recycling",
    "request_reason": "Order Trash Cart",
    "date_created": "2021-09-27T15:31:27.000",
    "date_modified": "2021-09-27T21:08:10.000",
    "case_close_date": "2021-09-27T16:08:10.000",
    "request_status": "Closed",
    "responsible_agency": "Department of Sanitation",
    "final_address": "6019 Beechcraft St",
    "address_councildis": "D",
    "status": "Resolved",
    "contractor": "Metro Disposal",
    "rowid": "826488",
    "final_x": "3696559.14941",
    "final_y": "553165.220823",
    "longitude": "-90.0197356663028",
    "latitude": "30.01454634571127",
    "geocoded_column": {
      "latitude": "30.01454634571127",
      "longitude": "-90.0197356663028"
    }
  },