[
  {
    "service_request": "2026-1260892",
    "request_type": "Trash/Recycling",
    "request_reason": "Illegal Dumping",
    "date_created": "2026-02-25T23:58:26.000",
    "date_modified": "2026-02-25T23:58:29.000",
    "request_status": "Pending",
    "responsible_agency": "Department of Sanitation",
    "final_address": "1732 Benefit St",
    "address_councildis": "D",
    "status": "Pending",
    "rowid": "1260892",
    "final_x": "3680834.594",
    "final_y": "544080.280974",
    "longitude": "-90.0697340648713",
    "latitude": "29.99005230473008",
    "geocoded_column": {
      "latitude": "29.99005230473008",
      "longitude": "-90.0697340648713"
    }
  },
  {
    "service_request": "2026-1260891",
    "request_type": "Trash/Recycling",
    "request_reason": "Illegal Dumping",
    "date_created": "2026-02-25T23:54:43.000",
    "date_modified": "2026-02-25T23:54:45.000",
    "request_status": "Pending",
    "responsible_agency": "Department of Sanitation",
    "final_address": "4550 General Meyer Ave",
    "address_councildis": "C",
    "status": "Pending",
    "rowid": "1260891",
    "final_x": "3700975.98116",
    "final_y": "524028.633724",
    "longitude": "-90.0068464407169",
    "latitude": "29.93429135220511",
    "geocoded_column": {
      "latitude": "29.93429135220511",
      "longitude": "-90.0068464407169"
    }
  },
  {
    "service_request": "2026-1260890",
    "request_type": "Drainage",
    "request_reason": "Catch Basin Not Draining",
    "date_created": "2026-02-25T23:50:55.000",
    "date_modified": "2026-02-25T23:50:59.000",
    "request_status": "Pending",
    "responsible_agency": "Sewerage & Water Board",
    "final_address": "5800 General Meyer Ave",
    "address_councildis": "C",
    "status": "Pending",
    "rowid": "1260890",
    "final_x": "3705493.28523",
    "final_y": "521706.814521",
    "longitude": "-89.99267132980522",
    "latitude": "29.927762597476818",
    "geocoded_column": {
      "latitude": "29.927762597476818",
      "longitude": "-89.99267132980522"
    }
  },
  {
    "service_request": "2026-1260889",
    "request_type": "Trash/Recycling",
    "request_reason": "Illegal Dumping",
    "date_created": "2026-02-25T23:46:54.000",
    "date_modified": "2026-02-25T23:46:55.000",
    "request_status": "Pending",
    "responsible_agency": "Department of Sanitation",
    "final_address": "3500 General De Gaulle Dr",
    "address_councildis": "C",
    "status": "Pending",
    "rowid": "1260889",
    "final_x": "3696226.37693",
    "final_y": "520903.798713",
    "longitude": "-90.02195361777919",
    "latitude": "29.92584945824911",
    "geocoded_column": {
      "latitude": "29.92584945824911",
      "longitude": "-90.02195361777919"
    }
  },
  {
    "service_request": "2026-1260887",
    "request_type": "Health Related Request",
    "request_reason": "Homeless Encampment Complaint",
    "date_created": "2026-02-25T23:44:11.000",
    "date_modified": "2026-02-25T23:44:13.000",
    "request_status": "Pending",
    "responsible_agency": "Office Of Homeless Services And Strategy",
    "final_address": "3500 General De Gaulle Dr",
    "address_councildis": "C",
    "status": "Pending",
    "rowid": "1260887",
    "final_x": "3696226.37693",
    "final_y": "520903.798713",
    "longitude": "-90.02195361777919",
    "latitude": "29.92584945824911",
    "geocoded_column": {
      "latitude": "29.92584945824911",
      "longitude": "-90.02195361777919"
    }
  },
  {
    "service_request": "2026-1260886",
    "request_type": "Health Related Request",
    "request_reason": "Noise Ordinance Complaint",
    "date_created": "2026-02-25T22:33:31.000",
    "date_modified": "2026-02-25T22:33:38.000",
    "request_status": "Pending",
    "responsible_agency": "Health Department",
    "final_address": "801 Bourbon St",
    "address_councildis": "C",
    "status": "Pending",
    "rowid": "1260886",
    "final_x": "3682490.98735",
    "final_y": "533018.672772",
    "longitude": "-90.06488875731978",
    "latitude": "29.959586396383013",
    "geocoded_column": {
      "latitude": "29.959586396383013",
      "longitude": "-90.06488875731978"
    }
  },
  {
    "service_request": "2026-1260885",
    "request_type": "Trash/Recycling",
    "request_reason": "Replace Recycling Cart",
    "date_created": "2026-02-25T22:29:12.000",
    "date_modified": "2026-02-25T22:29:13.000",
    "request_status": "Pending",
    "responsible_agency": "Department of Sanitation",
    "final_address": "1124 Jackson Ave",
    "address_councildis": "B",
    "status": "Pending",
    "rowid": "1260885",
    "final_x": "3678674.23976",
    "final_y": "522220.253882",
    "longitude": "-90.07731494512066",
    "latitude": "29.93000996235017",
    "geocoded_column": {
      "latitude": "29.93000996235017",
      "longitude": "-90.07731494512066"
    }
  },
  {
    "service_request": "2026-1260883",
    "request_type": "Street and Traffic Signs",
    "request_reason": "Street Name Sign Damaged or Missing",
    "date_created": "2026-02-25T22:27:04.000",
    "date_modified": "2026-02-25T22:27:09.000",
    "request_status": "Pending",
    "responsible_agency": "Department of Public Works",
    "final_address": "3092 Sullen Pl",
    "address_councildis": "C",
    "status": "Pending",
    "rowid": "1260883",
    "final_x": "3707839.63249",
    "final_y": "519024.713719",
    "longitude": "-89.98536413758977",
    "latitude": "29.92031206482494",
    "geocoded_column": {
      "latitude": "29.92031206482494",
      "longitude": "-89.98536413758977"
    }
  },
  {
    "service_request": "2026-1260880",
    "request_type": "Street and Traffic Signs",
    "request_reason": "Street Name Sign Damaged or Missing",
    "date_created": "2026-02-25T22:27:04.000",
    "date_modified": "2026-02-25T22:27:09.000",
    "request_status": "Pending",
    "responsible_agency": "Department of Public Works",
    "final_address": "3092 Sullen Pl",
    "address_councildis": "C",
    "status": "Pending",
    "rowid": "1260880",
    "final_x": "3707839.63249",
    "final_y": "519024.713719",
    "longitude": "-89.98536413758977",
    "latitude": "29.92031206482494",
    "geocoded_column": {
      "latitude": "29.92031206482494",
      "longitude": "-89.98536413758977"
    }
  },
  {
    "service_request": "2026-1260884",
    "request_type": "Street and Traffic Signs",
    "request_reason": "Street Name Sign Damaged or Missing",
    "date_created": "2026-02-25T22:27:04.000",
    "date_modified": "2026-02-25T22:27:09.000",
    "request_status": "Pending",
    "responsible_agency": "Department of Public Works",
    "final_address": "3092 Sullen Pl",
    "address_councildis": "C",
    "status": "Pending",
    "rowid": "1260884",
    "final_x": "3707839.63249",
    "final_y": "519024.713719",
    "longitude": "-89.98536413758977",
    "latitude": "29.92031206482494",
    "geocoded_column": {
      "latitude": "29.92031206482494",
      "longitude": "-89.98536413758977"
    }
  },
  {
    "service_request": "2026-1260879",
    "request_type": "Street and Traffic Signs",
    "request_reason": "Street Name Sign Damaged or Missing",
    "date_created": "2026-02-25T22:27:04.000",
    "date_modified": "2026-02-25T22:27:08.000",
    "request_status": "Pending",
    "responsible_agency": "Department of Public Works",
    "final_address": "3092 Sullen Pl",
    "address_councildis": "C",
    "status": "Pending",
    "rowid": "1260879",
    "final_x": "3707839.63249",
    "final_y": "519024.713719",
    "longitude": "-89.98536413758977",
    "latitude": "29.92031206482494",
    "geocoded_column": {
      "latitude": "29.92031206482494",
      "longitude": "-89.98536413758977"
    }
  },
  {
    "service_request": "2026-1260878",
    "request_type": "Trash/Recycling",
    "request_reason": "Replace Trash Cart",
    "date_created": "2026-02-25T22:27:04.000",
    "date_modified": "2026-02-25T22:27:09.000",
    "request_status": "Pending",
    "responsible_agency": "Department of Sanitation",
    "final_address": "1124 Jackson Ave",
    "address_councildis": "B",
    "status": "Assigned to Contractor",
    "contractor": "IV Waste",
    "rowid": "1260878",
    "final_x": "3678674.23976",
    "final_y": "522220.253882",
    "longitude": "-90.07731494512066",
    "latitude": "29.93000996235017",
    "geocoded_column": {
      "latitude": "29.93000996235017",
      "longitude": "-90.07731494512066"
    }
  },
  {
    "service_request": "2026-1260882",
    "request_type": "Street and Traffic Signs",
    "request_reason": "Street Name Sign Damaged or Missing",
    "date_created": "2026-02-25T22:27:04.000",
    "date_modified": "2026-02-25T22:27:09.000",
    "request_status": "Pending",
    "responsible_agency": "Department of Public Works",
    "final_address": "3092 Sullen Pl",
    "address_councildis": "C",
    "status": "Pending",
    "rowid": "1260882",
    "final_x": "3707839.63249",
    "final_y": "519024.713719",
    "longitude": "-89.98536413758977",
    "latitude": "29.92031206482494",
    "geocoded_column": {
      "latitude": "29.92031206482494",
      "longitude": "-89.98536413758977"
    }
  },
  {
    "service_request": "2026-1260881",
    "request_type": "Street and Traffic Signs",
    "request_reason": "Street Name Sign Damaged or Missing",
    "date_created": "2026-02-25T22:27:04.000",
    "date_modified": "2026-02-25T22:27:09.000",
    "request_status": "Pending",
    "responsible_agency": "Department of Public Works",
    "final_address": "3092 Sullen Pl",
    "address_councildis": "C",
    "status": "Pending",
    "rowid": "1260881",
    "final_x": "3707839.63249",
    "final_y": "519024.713719",
    "longitude": "-89.98536413758977",
    "latitude": "29.92031206482494",
    "geocoded_column": {
      "latitude": "29.92031206482494",
      "longitude": "-89.98536413758977"
    }
  },
  {
    "service_request": "2026-1260877",
    "request_type": "Street and Traffic Signs",
    "request_reason": "Street Name Sign Damaged or Missing",
    "date_created": "2026-02-25T22:19:34.000",
    "date_modified": "2026-02-25T22:19:37.000",
    "request_status": "Pending",
    "responsible_agency": "Department of Public Works",
    "final_address": "3301 Sullen Pl",
    "address_councildis": "C",
    "status": "Pending",
    "rowid": "1260877",
    "final_x": "3707678.44516",
    "final_y": "518686.388407",
    "longitude": "-89.98588548351047",
    "latitude": "29.919387001110348",
    "geocoded_column": {
      "latitude": "29.919387001110348",
      "longitude": "-89.98588548351047"
    }
  },
  {
    "service_request": "2026-1260876",
    "request_type": "General Services",
    "request_reason": "General Service Request",
    "date_created": "2026-02-25T22:17:51.000",
    "date_modified": "2026-02-25T22:17:56.000",
    "request_status": "Pending",
    "responsible_agency": "Orleans Parish Communication District",
    "final_address": "3120 Diana St",
    "address_councildis": "C",
    "status": "Pending",
    "rowid": "1260876",
    "final_x": "3696001.78749",
    "final_y": "527443.282815",
    "longitude": "-90.02242640643253",
    "latitude": "29.943837857580135",
    "geocoded_column": {
      "latitude": "29.943837857580135",
      "longitude": "-90.02242640643253"
    }
  },
  {
    "service_request": "2026-1260875",
    "request_type": "Roads and Streets",
    "request_reason": "Pothole",
    "date_created": "2026-02-25T22:12:54.000",
    "date_modified": "2026-02-25T22:12:56.000",
    "request_status": "Pending",
    "responsible_agency": "Department of Public Works",
    "final_address": "6240 Dover Pl",
    "address_councildis": "C",
    "status": "Pending",
    "rowid": "1260875",
    "final_x": "3707277.11108",
    "final_y": "519132.681399",
    "longitude": "-89.98713573210043",
    "latitude": "29.92062712230568",
    "geocoded_column": {
      "latitude": "29.92062712230568",
      "longitude": "-89.98713573210043"
    }
  },
  {
    "service_request": "2026-1260874",
    "request_type": "Trash/Recycling",
    "request_reason": "Repair Trash Cart",
    "date_created": "2026-02-25T21:43:34.000",
    "date_modified": "2026-02-25T21:43:36.000",
    "request_status": "Pending",
    "responsible_agency": "Department of Sanitation",
    "final_address": "1332 Riviera Ave",
    "address_councildis": "D",
    "status": "Assigned to Contractor",
    "contractor": "IV Waste",
    "rowid": "1260874",
    "final_x": "3677501.48949",
    "final_y": "550747.872853",
    "longitude": "-90.08003209622315",
    "latitude": "30.008486472733843",
    "geocoded_column": {
      "latitude": "30.008486472733843",
      "longitude": "-90.08003209622315"
    }
  },
  {
    "service_request": "2026-1260873",
    "request_type": "Streetlights",
    "request_reason": "Streetlight Outage/Malfunction",
    "date_created": "2026-02-25T20:51:18.000",
    "date_modified": "2026-02-25T20:51:20.000",
    "request_status": "Pending",
    "responsible_agency": "Department of Public Works",
    "final_address": "1138 Josephine St",
    "address_councildis": "B",
    "status": "Pending",
    "rowid": "1260873",
    "final_x": "3678939.07432",
    "final_y": "522549.966266",
    "longitude": "-90.0764674893942",
    "latitude": "29.930908578442235",
    "geocoded_column": {
      "latitude": "29.930908578442235",
      "longitude": "-90.0764674893942"
    }
  },
  {
    "service_request": "2026-1260872",
    "request_type": "Trash/Recycling",
    "request_reason": "Repair Trash Cart",
    "date_created": "2026-02-25T20:49:32.000",
    "date_modified": "2026-02-25T20:49:34.000",
    "request_status": "Pending",
    "responsible_agency": "Department of Sanitation",
    "final_address": "941 Second St",
    "address_councildis": "B",
    "status": "Assigned to Contractor",
    "contractor": "IV Waste",
    "rowid": "1260872",
    "final_x": "3678096.42062",
    "final_y": "520978.924857",
    "longitude": "-90.07918191551167",
    "latitude": "29.92661411558879",
    "geocoded_column": {
      "latitude": "29.92661411558879",
      "longitude": "-90.07918191551167"
    }
  },
  {
    "service_request": "2026-1260871",
    "request_type": "Streetlights",
    "request_reason": "Streetlight Outage/Malfunction",
    "date_created": "2026-02-25T20:49:14.000",
    "date_modified": "2026-02-25T20:49:18.000",
    "request_status": "Pending",
    "responsible_agency": "Department of Public Works",
    "final_address": "1138 Josephine St",
    "address_councildis": "B",
    "status": "Pending",
    "rowid": "1260871",
    "final_x": "3678939.07432",
    "final_y": "522549.966266",
    "longitude": "-90.0764674893942",
    "latitude": "29.930908578442235",
    "geocoded_column": {
      "latitude": "29.930908578442235",
      "longitude": "-90.0764674893942"
    }
  },
  {
    "service_request": "2026-1260870",
    "request_type": "Drainage",
    "request_reason": "Ditch and Culvert Maintenance",
    "date_created": "2026-02-25T20:26:18.000",
    "date_modified": "2026-02-25T20:26:20.000",
    "request_status": "Pending",
    "responsible_agency": "Department of Public Works",
    "final_address": "3200 St Claude Ave",
    "address_councildis": "C",
    "status": "Pending",
    "rowid": "1260870",
    "final_x": "3689589.33123",
    "final_y": "535812.657415",
    "longitude": "-90.04237449473014",
    "latitude": "29.96705090583904",
    "geocoded_column": {
      "latitude": "29.96705090583904",
      "longitude": "-90.04237449473014"
    }
  },
  {
    "service_request": "2026-1260869",
    "request_type": "Trash/Recycling",
    "request_reason": "Request a Large Item Pick Up",
    "date_created": "2026-02-25T20:04:13.000",
    "date_modified": "2026-02-25T20:04:17.000",
    "request_status": "Pending",
    "responsible_agency": "Department of Sanitation",
    "final_address": "4921 Camp St",
    "address_councildis": "B",
    "status": "Assigned to Contractor",
    "contractor": "IV Waste",
    "rowid": "1260869",
    "final_x": "3668811.53735",
    "final_y": "519005.842487",
    "longitude": "-90.10855841788846",
    "latitude": "29.921464936195605",
    "geocoded_column": {
      "latitude": "29.921464936195605",
      "longitude": "-90.10855841788846"
    }
  },
  {
    "service_request": "2026-1260868",
    "request_type": "Trash/Recycling",
    "request_reason": "Replace Recycling Cart",
    "date_created": "2026-02-25T20:02:09.000",
    "date_modified": "2026-02-25T20:02:11.000",
    "request_status": "Pending",
    "responsible_agency": "Department of Sanitation",
    "final_address": "7503 St Charles Ave",
    "address_councildis": "A",
    "status": "Pending",
    "rowid": "1260868",
    "final_x": "3662155.47808",
    "final_y": "525476.858749",
    "longitude": "-90.12935417121892",
    "latitude": "29.93945214914966",
    "geocoded_column": {
      "latitude": "29.93945214914966",
      "longitude": "-90.12935417121892"
    }
  },
  {
    "service_request": "2026-1260867",
    "request_type": "Trash/Recycling",
    "request_reason": "Illegal Dumping",
    "date_created": "2026-02-25T19:59:36.000",
    "date_modified": "2026-02-25T19:59:39.000",
    "request_status": "Pending",
    "responsible_agency": "Department of Sanitation",
    "final_address": "1735 Martin Luther King, Jr. Blvd",
    "address_councildis": "B",
    "status": "Pending",
    "rowid": "1260867",
    "final_x": "3678592.82242",
    "final_y": "525995.060029",
    "longitude": "-90.07744135674773",
    "latitude": "29.940391890845035",
    "geocoded_column": {
      "latitude": "29.940391890845035",
      "longitude": "-90.07744135674773"
    }
  },
  {
    "service_request": "2026-1260866",
    "request_type": "Trash/Recycling",
    "request_reason": "Order Second Trash Cart",
    "date_created": "2026-02-25T19:48:59.000",
    "date_modified": "2026-02-25T19:49:01.000",
    "request_status": "Pending",
    "responsible_agency": "Department of Sanitation",
    "final_address": "2411 Republic St",
    "address_councildis": "D",
    "status": "Assigned to Contractor",
    "contractor": "IV Waste",
    "rowid": "1260866",
    "final_x": "3680864.634",
    "final_y": "540905.533963",
    "longitude": "-90.06974976300101",
    "latitude": "29.98132195230236",
    "geocoded_column": {
      "latitude": "29.98132195230236",
      "longitude": "-90.06974976300101"
    }
  },
  {
    "service_request": "2026-1260865",
    "request_type": "Trash/Recycling",
    "request_reason": "Damaged Caused By Contractor",
    "date_created": "2026-02-25T19:37:49.000",
    "date_modified": "2026-02-25T19:37:51.000",
    "request_status": "Pending",
    "responsible_agency": "Department of Sanitation",
    "final_address": "3807 Virgil Blvd",
    "address_councildis": "D",
    "status": "Assigned to Contractor",
    "contractor": "IV Waste",
    "rowid": "1260865",
    "final_x": "3680698.73077",
    "final_y": "546486.992145",
    "longitude": "-90.07007940897088",
    "latitude": "29.996674028596438",
    "geocoded_column": {
      "latitude": "29.996674028596438",
      "longitude": "-90.07007940897088"
    }
  },
  {
    "service_request": "2026-1260864",
    "request_type": "Trash/Recycling",
    "request_reason": "Order Trash Cart",
    "date_created": "2026-02-25T19:31:15.000",
    "date_modified": "2026-02-25T19:31:17.000",
    "request_status": "Pending",
    "responsible_agency": "Department of Sanitation",
    "final_address": "3100 Second St",
    "address_councildis": "B",
    "status": "Assigned to Contractor",
    "contractor": "IV Waste",
    "rowid": "1260864",
    "final_x": "3673659.9707",
    "final_y": "527565.002175",
    "longitude": "-90.09296154022974",
    "latitude": "29.944856459719368",
    "geocoded_column": {
      "latitude": "29.944856459719368",
      "longitude": "-90.09296154022974"
    }
  },
  {
    "service_request": "2026-1260863",
    "request_type": "Trash/Recycling",
    "request_reason": "Request a Large Item Pick Up",
    "date_created": "2026-02-25T19:24:00.000",
    "date_modified": "2026-02-25T19:24:03.000",
    "request_status": "Pending",
    "responsible_agency": "Department of Sanitation",
    "final_address": "8510 S Claiborne Ave",
    "address_councildis": "A",
    "status": "Assigned to Contractor",
    "contractor": "IV Waste",
    "rowid": "1260863",
    "final_x": "3663616.92941",
    "final_y": "532518.902212",
    "longitude": "-90.12450560635534",
    "latitude": "29.958773195935706",
    "geocoded_column": {
      "latitude": "29.958773195935706",
      "longitude": "-90.12450560635534"
    }
  },
  {
    "service_request": "2026-1260862",
    "request_type": "Roads and Streets",
    "request_reason": "Sidewalk Damaged or Missing",
    "date_created": "2026-02-25T19:19:05.000",
    "date_modified": "2026-02-25T19:19:08.000",
    "request_status": "Pending",
    "responsible_agency": "Department of Public Works",
    "final_address": "703 Carondelet St",
    "address_councildis": "B",
    "status": "Pending",
    "rowid": "1260862",
    "final_x": "3680083.98773",
    "final_y": "528607.859072",
    "longitude": "-90.07264274900272",
    "latitude": "29.947531192418026",
    "geocoded_column": {
      "latitude": "29.947531192418026",
      "longitude": "-90.07264274900272"
    }
  },
  {
    "service_request": "2026-1260861",
    "request_type": "Streetlights",
    "request_reason": "Streetlight Outage/Malfunction",
    "date_created": "2026-02-25T19:12:48.000",
    "date_modified": "2026-02-25T19:12:51.000",
    "request_status": "Pending",
    "responsible_agency": "Department of Public Works",
    "final_address": "2419 Broadway St",
    "address_councildis": "A",
    "status": "Pending",
    "rowid": "1260861",
    "final_x": "3666743.89703",
    "final_y": "530228.138689",
    "longitude": "-90.11470833899538",
    "latitude": "29.952383267244098",
    "geocoded_column": {
      "latitude": "29.952383267244098",
      "longitude": "-90.11470833899538"
    }
  },
  {
    "service_request": "2026-1260860",
    "request_type": "Streetlights",
    "request_reason": "Streetlight Outage/Malfunction",
    "date_created": "2026-02-25T19:11:41.000",
    "date_modified": "2026-02-25T19:11:43.000",
    "request_status": "Pending",
    "responsible_agency": "Department of Public Works",
    "final_address": "2419 Broadway St",
    "address_councildis": "A",
    "status": "Pending",
    "rowid": "1260860",
    "final_x": "3666743.89703",
    "final_y": "530228.138689",
    "longitude": "-90.11470833899538",
    "latitude": "29.952383267244098",
    "geocoded_column": {
      "latitude": "29.952383267244098",
      "longitude": "-90.11470833899538"
    }
  },
  {
    "service_request": "2026-1260859",
    "request_type": "Trash/Recycling",
    "request_reason": "Request a Large Item Pick Up",
    "date_created": "2026-02-25T19:07:12.000",
    "date_modified": "2026-02-25T19:07:14.000",
    "request_status": "Pending",
    "responsible_agency": "Department of Sanitation",
    "final_address": "4814 Nottingham Dr",
    "address_councildis": "E",
    "status": "Assigned to Contractor",
    "contractor": "Waste Pro",
    "rowid": "1260859",
    "final_x": "3716286.26751",
    "final_y": "557214.636891",
    "longitude": "-89.95725473203404",
    "latitude": "30.025044048348413",
    "geocoded_column": {
      "latitude": "30.025044048348413",
      "longitude": "-89.95725473203404"
    }
  },
  {
    "service_request": "2026-1260858",
    "request_type": "Streetlights",
    "request_reason": "Streetlight Outage/Malfunction",
    "date_created": "2026-02-25T19:03:26.000",
    "date_modified": "2026-02-25T19:03:27.000",
    "request_status": "Pending",
    "responsible_agency": "Department of Public Works",
    "final_address": "6859 Vicksburg St",
    "address_councildis": "A",
    "status": "Pending",
    "rowid": "1260858",
    "final_x": "3669451.09697",
    "final_y": "553098.856599",
    "longitude": "-90.1053863189304",
    "latitude": "30.015190510173774",
    "geocoded_column": {
      "latitude": "30.015190510173774",
      "longitude": "-90.1053863189304"
    }
  },
  {
    "service_request": "2026-1260857",
    "request_type": "Roads and Streets",
    "request_reason": "Debris in Driving Lanes",
    "date_created": "2026-02-25T18:43:30.000",
    "date_modified": "2026-02-25T18:43:32.000",
    "request_status": "Pending",
    "responsible_agency": "Department of Public Works",
    "final_address": "805 Elysian Fields Ave",
    "address_councildis": "C",
    "status": "Pending",
    "rowid": "1260857",
    "final_x": "3685172.92649",
    "final_y": "535283.388294",
    "longitude": "-90.05634012761033",
    "latitude": "29.965731675612112",
    "geocoded_column": {
      "latitude": "29.965731675612112",
      "longitude": "-90.05634012761033"
    }
  },
  {
    "service_request": "2026-1260856",
    "request_type": "Trash/Recycling",
    "request_reason": "Request a Large Item Pick Up",
    "date_created": "2026-02-25T18:42:18.000",
    "date_modified": "2026-02-25T18:42:19.000",
    "request_status": "Pending",
    "responsible_agency": "Department of Sanitation",
    "final_address": "4786 Viola St",
    "address_councildis": "E",
    "status": "Assigned to Contractor",
    "contractor": "Waste Pro",
    "rowid": "1260856",
    "final_x": "3703887.26257",
    "final_y": "555483.787609",
    "longitude": "-89.99649713631102",
    "latitude": "30.020688482560804",
    "geocoded_column": {
      "latitude": "30.020688482560804",
      "longitude": "-89.99649713631102"
    }
  },
  {
    "service_request": "2026-1260855",
    "request_type": "Trash/Recycling",
    "request_reason": "Illegal Dumping",
    "date_created": "2026-02-25T18:41:47.000",
    "date_modified": "2026-02-25T18:41:49.000",
    "request_status": "Pending",
    "responsible_agency": "Department of Sanitation",
    "final_address": "7519 Briarheath Dr",
    "address_councildis": "E",
    "status": "Pending",
    "rowid": "1260855",
    "final_x": "3714780.32319",
    "final_y": "566947.57386",
    "longitude": "-89.96164506245042",
    "latitude": "30.05185534607194",
    "geocoded_column": {
      "latitude": "30.05185534607194",
      "longitude": "-89.96164506245042"
    }
  },
  {
    "service_request": "2026-1260854",
    "request_type": "Trash/Recycling",
    "request_reason": "MIssed Recycling Pick-Up",
    "date_created": "2026-02-25T18:29:24.000",
    "date_modified": "2026-02-25T18:29:26.000",
    "request_status": "Pending",
    "responsible_agency": "Department of Sanitation",
    "final_address": "2103 Audubon St",
    "address_councildis": "A",
    "status": "Assigned to Contractor",
    "contractor": "IV Waste",
    "rowid": "1260854",
    "final_x": "3666256.89818",
    "final_y": "529002.569024",
    "longitude": "-90.11628716668515",
    "latitude": "29.94902758112448",
    "geocoded_column": {
      "latitude": "29.94902758112448",
      "longitude": "-90.11628716668515"
    }
  },
  {
    "service_request": "2026-1260853",
    "request_type": "Trash/Recycling",
    "request_reason": "Request a Large Item Pick Up",
    "date_created": "2026-02-25T18:24:20.000",
    "date_modified": "2026-02-25T18:24:23.000",
    "request_status": "Pending",
    "responsible_agency": "Department of Sanitation",
    "final_address": "8205 Freret St",
    "address_councildis": "A",
    "status": "Assigned to Contractor",
    "contractor": "IV Waste",
    "rowid": "1260853",
    "final_x": "3661207.8471",
    "final_y": "528163.132544",
    "longitude": "-90.13225708589142",
    "latitude": "29.946865893009914",
    "geocoded_column": {
      "latitude": "29.946865893009914",
      "longitude": "-90.13225708589142"
    }
  },
  {
    "service_request": "2026-1260852",
    "request_type": "Trash/Recycling",
    "request_reason": "Request a Large Item Pick Up",
    "date_created": "2026-02-25T18:19:05.000",
    "date_modified": "2026-02-25T18:19:07.000",
    "request_status": "Pending",
    "responsible_agency": "Department of Sanitation",
    "final_address": "3952 Louisiana Avenue Prkwy",
    "address_councildis": "B",
    "status": "Assigned to Contractor",
    "contractor": "IV Waste",
    "rowid": "1260852",
    "final_x": "3671018.15227",
    "final_y": "529403.338753",
    "longitude": "-90.10124017169149",
    "latitude": "29.949989653214892",
    "geocoded_column": {
      "latitude": "29.949989653214892",
      "longitude": "-90.10124017169149"
    }
  },
  {
    "service_request": "2026-1260851",
    "request_type": "Trash/Recycling",
    "request_reason": "Request a Large Item Pick Up",
    "date_created": "2026-02-25T18:17:37.000",
    "date_modified": "2026-02-25T18:17:40.000",
    "request_status": "Pending",
    "responsible_agency": "Department of Sanitation",
    "final_address": "7042 Salem Dr",
    "address_councildis": "E",
    "status": "Assigned to Contractor",
    "contractor": "Waste Pro",
    "rowid": "1260851",
    "final_x": "3706594.14545",
    "final_y": "560854.39587",
    "longitude": "-89.98774498434871",
    "latitude": "30.035368443282756",
    "geocoded_column": {
      "latitude": "30.035368443282756",
      "longitude": "-89.98774498434871"
    }
  },
  {
    "service_request": "2026-1260850",
    "request_type": "Trash/Recycling",
    "request_reason": "Illegal Dumping",
    "date_created": "2026-02-25T18:02:02.000",
    "date_modified": "2026-02-25T18:02:04.000",
    "request_status": "Pending",
    "responsible_agency": "Department of Sanitation",
    "final_address": "1734 Marigny St",
    "address_councildis": "D",
    "status": "Pending",
    "rowid": "1260850",
    "final_x": "3685186.71637",
    "final_y": "538834.182857",
    "longitude": "-90.05617159581877",
    "latitude": "29.975494702137535",
    "geocoded_column": {
      "latitude": "29.975494702137535",
      "longitude": "-90.05617159581877"
    }
  },
  {
    "service_request": "2026-1260849",
    "request_type": "Trash/Recycling",
    "request_reason": "Replace Recycling Cart",
    "date_created": "2026-02-25T17:50:24.000",
    "date_modified": "2026-02-25T17:50:26.000",
    "request_status": "Pending",
    "responsible_agency": "Department of Sanitation",
    "final_address": "1453 Athis St",
    "address_councildis": "D",
    "status": "Pending",
    "rowid": "1260849",
    "final_x": "3677912.87246",
    "final_y": "553727.845847",
    "longitude": "-90.07862931483014",
    "latitude": "30.01666794884436",
    "geocoded_column": {
      "latitude": "30.01666794884436",
      "longitude": "-90.07862931483014"
    }
  },
  {
    "service_request": "2026-1260848",
    "request_type": "Abandoned Vehicles",
    "request_reason": "Abandoned/Junk Vehicles",
    "date_created": "2026-02-25T17:49:38.000",
    "date_modified": "2026-02-25T17:49:40.000",
    "request_status": "Pending",
    "responsible_agency": "Department of Public Works",
    "final_address": "903 Felicity St",
    "address_councildis": "B",
    "status": "Pending",
    "rowid": "1260848",
    "final_x": "3680617.79432",
    "final_y": "522467.758394",
    "longitude": "-90.07117086270623",
    "latitude": "29.93063179524635",
    "geocoded_column": {
      "latitude": "29.93063179524635",
      "longitude": "-90.07117086270623"
    }
  },
  {
    "service_request": "2026-1260847",
    "request_type": "Roads and Streets",
    "request_reason": "Sidewalk Damaged or Missing",
    "date_created": "2026-02-25T17:48:18.000",
    "date_modified": "2026-02-25T17:48:19.000",
    "request_status": "Pending",
    "responsible_agency": "Department of Public Works",
    "final_address": "8434 Edinburgh St",
    "address_councildis": "A",
    "status": "Pending",
    "rowid": "1260847",
    "final_x": "3666438.80282",
    "final_y": "535330.68423",
    "longitude": "-90.11550045229326",
    "latitude": "29.96642251111864",
    "geocoded_column": {
      "latitude": "29.96642251111864",
      "longitude": "-90.11550045229326"
    }
  },
  {
    "service_request": "2026-1260846",
    "request_type": "Trash/Recycling",
    "request_reason": "Request a Large Item Pick Up",
    "date_created": "2026-02-25T17:47:59.000",
    "date_modified": "2026-02-25T17:48:02.000",
    "request_status": "Pending",
    "responsible_agency": "Department of Sanitation",
    "final_address": "2256 N Villere St",
    "address_councildis": "C",
    "status": "Assigned to Contractor",
    "contractor": "IV Waste",
    "rowid": "1260846",
    "final_x": "3685495.44329",
    "final_y": "537411.267592",
    "longitude": "-90.0552466800184",
    "latitude": "29.971572717033855",
    "geocoded_column": {
      "latitude": "29.971572717033855",
      "longitude": "-90.0552466800184"
    }
  },
  {
    "service_request": "2026-1260845",
    "request_type": "Property Maintenance",
    "request_reason": "Property Maintenance",
    "date_created": "2026-02-25T17:44:17.000",
    "date_modified": "2026-02-25T17:44:20.000",
    "request_status": "Pending",
    "responsible_agency": "Department of Code Enforcement",
    "final_address": "4052 Old Gentilly Rd",
    "address_councildis": "D",
    "status": "Pending",
    "rowid": "1260845",
    "final_x": "3689527.93769",
    "final_y": "548648.078419",
    "longitude": "-90.04211160351879",
    "latitude": "30.002345627153645",
    "geocoded_column": {
      "latitude": "30.002345627153645",
      "longitude": "-90.04211160351879"
    }
  },
  {
    "service_request": "2026-1260844",
    "request_type": "Trash/Recycling",
    "request_reason": "Request a Large Item Pick Up",
    "date_created": "2026-02-25T17:40:06.000",
    "date_modified": "2026-02-25T17:40:08.000",
    "request_status": "Pending",
    "responsible_agency": "Department of Sanitation",
    "final_address": "6700 Coventry St",
    "address_councildis": "E",
    "status": "Assigned to Contractor",
    "contractor": "Waste Pro",
    "rowid": "1260844",
    "final_x": "3697987.38883",
    "final_y": "559369.087965",
    "longitude": "-90.01499763772816",
    "latitude": "30.031559518508384",
    "geocoded_column": {
      "latitude": "30.031559518508384",
      "longitude": "-90.01499763772816"
    }
  },
  {
    "service_request": "2026-1260843",
    "request_type": "Abandoned Vehicles",
    "request_reason": "Abandoned/Junk Vehicles",
    "date_created": "2026-02-25T17:39:17.000",
    "date_modified": "2026-02-25T17:39:18.000",
    "request_status": "Pending",
    "responsible_agency": "Department of Public Works",
    "final_address": "1000 BLK Treme St",
    "address_councildis": "C",
    "status": "Pending",
    "rowid": "1260843",
    "final_x": "3681592.8146",
    "final_y": "534831.058734",
    "longitude": "-90.06766176149759",
    "latitude": "29.96459714713091",
    "geocoded_column": {
      "latitude": "29.96459714713091",
      "longitude": "-90.06766176149759"
    }
  },
  {
    "service_request": "2026-1260842",
    "request_type": "Street and Traffic Signs",
    "request_reason": "Stop Sign Missing or Damaged",
    "date_created": "2026-02-25T17:37:31.000",
    "date_modified": "2026-02-25T17:37:32.000",
    "request_status": "Pending",
    "responsible_agency": "Department of Public Works",
    "final_address": "1020 Lowerline St",
    "address_councildis": "A",
    "status": "Pending",
    "rowid": "1260842",
    "final_x": "3663348.56627",
    "final_y": "526394.255998",
    "longitude": "-90.1255568871527",
    "latitude": "29.94194017475934",
    "geocoded_column": {
      "latitude": "29.94194017475934",
      "longitude": "-90.1255568871527"
    }
  },
  {
    "service_request": "2026-1260841",
    "request_type": "Streetlights",
    "request_reason": "Streetlight Knocked Down/Leaning",
    "date_created": "2026-02-25T17:37:02.000",
    "date_modified": "2026-02-25T17:37:05.000",
    "request_status": "Pending",
    "responsible_agency": "Department of Public Works",
    "final_address": "3101 Adrian St",
    "address_councildis": "C",
    "status": "Pending",
    "rowid": "1260841",
    "final_x": "3710710.50155",
    "final_y": "519229.935991",
    "longitude": "-89.97629457962815",
    "latitude": "29.920783177379498",
    "geocoded_column": {
      "latitude": "29.920783177379498",
      "longitude": "-89.97629457962815"
    }
  },
  {
    "service_request": "2026-1260840",
    "request_type": "Streetlights",
    "request_reason": "Streetlight Outage/Malfunction",
    "date_created": "2026-02-25T17:30:28.000",
    "date_modified": "2026-02-25T17:30:31.000",
    "request_status": "Pending",
    "responsible_agency": "Department of Public Works",
    "final_address": "7219 Patterson Rd",
    "address_councildis": "C",
    "status": "Pending",
    "rowid": "1260840",
    "final_x": "3710702.47819",
    "final_y": "519481.670711",
    "longitude": "-89.97631049487309",
    "latitude": "29.921475620596624",
    "geocoded_column": {
      "latitude": "29.921475620596624",
      "longitude": "-89.97631049487309"
    }
  },
  {
    "service_request": "2026-1260839",
    "request_type": "Streetlights",
    "request_reason": "Streetlight Outage/Malfunction",
    "date_created": "2026-02-25T17:26:37.000",
    "date_modified": "2026-02-25T17:26:39.000",
    "request_status": "Pending",
    "responsible_agency": "Department of Public Works",
    "final_address": "7219 Patterson Rd",
    "address_councildis": "C",
    "status": "Pending",
    "rowid": "1260839",
    "final_x": "3710702.47819",
    "final_y": "519481.670711",
    "longitude": "-89.97631049487309",
    "latitude": "29.921475620596624",
    "geocoded_column": {
      "latitude": "29.921475620596624",
      "longitude": "-89.97631049487309"
    }
  },
  {
    "service_request": "2026-1260838",
    "request_type": "General Services",
    "request_reason": "General Service Request",
    "date_created": "2026-02-25T17:26:21.000",
    "date_modified": "2026-02-25T17:26:23.000",
    "request_status": "Pending",
    "responsible_agency": "Orleans Parish Communication District",
    "final_address": "7661 Rochon Ave",
    "address_councildis": "E",
    "status": "Pending",
    "rowid": "1260838",
    "final_x": "3718552.44165",
    "final_y": "571918.408744",
    "longitude": "-89.94953296799247",
    "latitude": "30.065398374938223",
    "geocoded_column": {
      "latitude": "30.065398374938223",
      "longitude": "-89.94953296799247"
    }
  },
  {
    "service_request": "2026-1260837",
    "request_type": "Streetlights",
    "request_reason": "Streetlight Outage/Malfunction",
    "date_created": "2026-02-25T17:20:36.000",
    "date_modified": "2026-02-25T17:20:37.000",
    "request_status": "Pending",
    "responsible_agency": "Department of Public Works",
    "final_address": "10931 Kinneil Rd",
    "address_councildis": "E",
    "status": "Pending",
    "rowid": "1260837",
    "final_x": "3711385.83154",
    "final_y": "564347.671393",
    "longitude": "-89.9724714906061",
    "latitude": "30.0448179604578",
    "geocoded_column": {
      "latitude": "30.0448179604578",
      "longitude": "-89.9724714906061"
    }
  },
  {
    "service_request": "2026-1260836",
    "request_type": "Trash/Recycling",
    "request_reason": "Repair Recycling Cart",
    "date_created": "2026-02-25T17:09:39.000",
    "date_modified": "2026-02-25T17:09:41.000",
    "request_status": "Pending",
    "responsible_agency": "Department of Sanitation",
    "final_address": "5620 Hurst St Apt C",
    "address_councildis": "A",
    "status": "Pending",
    "rowid": "1260836",
    "final_x": "3666530.73146",
    "final_y": "521492.442873",
    "longitude": "-90.11567454276896",
    "latitude": "29.928369140863136",
    "geocoded_column": {
      "latitude": "29.928369140863136",
      "longitude": "-90.11567454276896"
    }
  },
  {
    "service_request": "2026-1260835",
    "request_type": "Property Maintenance",
    "request_reason": "Property Maintenance",
    "date_created": "2026-02-25T16:58:37.000",
    "date_modified": "2026-02-25T16:58:40.000",
    "request_status": "Pending",
    "responsible_agency": "Department of Code Enforcement",
    "final_address": "7041 Yorktown Dr",
    "address_councildis": "E",
    "status": "Pending",
    "rowid": "1260835",
    "final_x": "3706204.6074",
    "final_y": "560627.893854",
    "longitude": "-89.98898437795343",
    "latitude": "30.034758224114018",
    "geocoded_column": {
      "latitude": "30.034758224114018",
      "longitude": "-89.98898437795343"
    }
  },
  {
    "service_request": "2026-1260834",
    "request_type": "Trash/Recycling",
    "request_reason": "Request a Large Item Pick Up",
    "date_created": "2026-02-25T16:48:31.000",
    "date_modified": "2026-02-25T16:48:32.000",
    "request_status": "Pending",
    "responsible_agency": "Department of Sanitation",
    "final_address": "3518 Third St",
    "address_councildis": "B",
    "status": "Assigned to Contractor",
    "contractor": "IV Waste",
    "rowid": "1260834",
    "final_x": "3672591.00136",
    "final_y": "528627.131136",
    "longitude": "-90.09630040380907",
    "latitude": "29.94780874047148",
    "geocoded_column": {
      "latitude": "29.94780874047148",
      "longitude": "-90.09630040380907"
    }
  },
  {
    "service_request": "2026-1260833",
    "request_type": "Trash/Recycling",
    "request_reason": "Request a Large Item Pick Up",
    "date_created": "2026-02-25T16:40:44.000",
    "date_modified": "2026-02-25T16:40:45.000",
    "request_status": "Pending",
    "responsible_agency": "Department of Sanitation",
    "final_address": "2228 Tricou St",
    "address_councildis": "E",
    "status": "Assigned to Contractor",
    "contractor": "Waste Pro",
    "rowid": "1260833",
    "final_x": "3701787.41732",
    "final_y": "537221.405896",
    "longitude": "-90.00380152094841",
    "latitude": "29.970540933358343",
    "geocoded_column": {
      "latitude": "29.970540933358343",
      "longitude": "-90.00380152094841"
    }
  },
  {
    "service_request": "2026-1260832",
    "request_type": "Abandoned Vehicles",
    "request_reason": "Abandoned/Junk Vehicles",
    "date_created": "2026-02-25T16:31:20.000",
    "date_modified": "2026-02-25T16:31:21.000",
    "request_status": "Pending",
    "responsible_agency": "Department of Public Works",
    "final_address": "913 Felicity St",
    "address_councildis": "B",
    "status": "Pending",
    "rowid": "1260832",
    "final_x": "3680581.36386",
    "final_y": "522507.677626",
    "longitude": "-90.07128448028195",
    "latitude": "29.93074266335725",
    "geocoded_column": {
      "latitude": "29.93074266335725",
      "longitude": "-90.07128448028195"
    }
  },
  {
    "service_request": "2026-1260831",
    "request_type": "Trash/Recycling",
    "request_reason": "Request a Large Item Pick Up",
    "date_created": "2026-02-25T16:27:30.000",
    "date_modified": "2026-02-25T16:27:32.000",
    "request_status": "Pending",
    "responsible_agency": "Department of Sanitation",
    "final_address": "14564 Duane Rd",
    "address_councildis": "E",
    "status": "Assigned to Contractor",
    "contractor": "Waste Pro",
    "rowid": "1260831",
    "final_x": "3720977.70994",
    "final_y": "573412.253802",
    "longitude": "-89.94180915612057",
    "latitude": "30.069425061420304",
    "geocoded_column": {
      "latitude": "30.069425061420304",
      "longitude": "-89.94180915612057"
    }
  },
  {
    "service_request": "2026-1260830",
    "request_type": "Trash/Recycling",
    "request_reason": "Request a Large Item Pick Up",
    "date_created": "2026-02-25T16:25:50.000",
    "date_modified": "2026-02-25T16:25:52.000",
    "request_status": "Pending",
    "responsible_agency": "Department of Sanitation",
    "final_address": "7521 Spring Lake Dr",
    "address_councildis": "E",
    "status": "Assigned to Contractor",
    "contractor": "Waste Pro",
    "rowid": "1260830",
    "final_x": "3701128.29341",
    "final_y": "559398.565469",
    "longitude": "-90.00507121487925",
    "latitude": "30.031540831928858",
    "geocoded_column": {
      "latitude": "30.031540831928858",
      "longitude": "-90.00507121487925"
    }
  },
  {
    "service_request": "2026-1260829",
    "request_type": "Trash/Recycling",
    "request_reason": "Repair Recycling Cart",
    "date_created": "2026-02-25T16:16:35.000",
    "date_modified": "2026-02-25T16:16:36.000",
    "request_status": "Pending",
    "responsible_agency": "Department of Sanitation",
    "final_address": "1400 Allen Toussaint Blvd",
    "address_councildis": "D",
    "status": "Pending",
    "rowid": "1260829",
    "final_x": "3677704.23022",
    "final_y": "555156.085017",
    "longitude": "-90.0792391466304",
    "latitude": "30.02060137014106",
    "geocoded_column": {
      "latitude": "30.02060137014106",
      "longitude": "-90.0792391466304"
    }
  },
  {
    "service_request": "2026-1260828",
    "request_type": "Trash/Recycling",
    "request_reason": "Request a Large Item Pick Up",
    "date_created": "2026-02-25T16:16:08.000",
    "date_modified": "2026-02-25T16:16:09.000",
    "request_status": "Pending",
    "responsible_agency": "Department of Sanitation",
    "final_address": "2973 Elmwood Park Dr",
    "address_councildis": "C",
    "status": "Assigned to Contractor",
    "contractor": "Richards Disposal",
    "rowid": "1260828",
    "final_x": "3693700.88125",
    "final_y": "519378.293239",
    "longitude": "-90.02998059513996",
    "latitude": "29.9217340669831",
    "geocoded_column": {
      "latitude": "29.9217340669831",
      "longitude": "-90.02998059513996"
    }
  },
  {
    "service_request": "2026-1260827",
    "request_type": "Trash/Recycling",
    "request_reason": "Request a Large Item Pick Up",
    "date_created": "2026-02-25T16:05:15.000",
    "date_modified": "2026-02-25T16:06:02.000",
    "request_status": "Pending",
    "responsible_agency": "Department of Sanitation",
    "final_address": "603 Fats Domino Ave",
    "address_councildis": "E",
    "status": "Assigned to Contractor",
    "contractor": "Waste Pro",
    "rowid": "1260827",
    "final_x": "3697601.45994",
    "final_y": "531965.147139",
    "longitude": "-90.01721185211875",
    "latitude": "29.956220979519568",
    "geocoded_column": {
      "latitude": "29.956220979519568",
      "longitude": "-90.01721185211875"
    }
  },
  {
    "service_request": "2026-1260826",
    "request_type": "Trash/Recycling",
    "request_reason": "Replace Trash Cart",
    "date_created": "2026-02-25T15:59:20.000",
    "date_modified": "2026-02-25T15:59:21.000",
    "request_status": "Pending",
    "responsible_agency": "Department of Sanitation",
    "final_address": "6042 Pasteur Blvd",
    "address_councildis": "D",
    "status": "Assigned to Contractor",
    "contractor": "IV Waste",
    "rowid": "1260826",
    "final_x": "3682609.81954",
    "final_y": "555256.082329",
    "longitude": "-90.06373546495385",
    "latitude": "30.020727784508825",
    "geocoded_column": {
      "latitude": "30.020727784508825",
      "longitude": "-90.06373546495385"
    }
  },
  {
    "service_request": "2026-1260825",
    "request_type": "Utility Poles",
    "request_reason": "Utility Pole Leaning",
    "date_created": "2026-02-25T15:59:08.000",
    "date_modified": "2026-02-25T15:59:12.000",
    "request_status": "Pending",
    "responsible_agency": "Utility Company Collective",
    "final_address": "JENA ST & FRERET ST",
    "address_councildis": "B",
    "status": "Pending",
    "rowid": "1260825",
    "final_x": "3670137.2",
    "final_y": "524009.08",
    "longitude": "-90.1042044581787",
    "latitude": "29.935183211197003",
    "geocoded_column": {
      "latitude": "29.935183211197003",
      "longitude": "-90.1042044581787"
    }
  },
  {
    "service_request": "2026-1260824",
    "request_type": "Trash/Recycling",
    "request_reason": "Request a Large Item Pick Up",
    "date_created": "2026-02-25T15:57:18.000",
    "date_modified": "2026-02-25T15:57:19.000",
    "request_status": "Pending",
    "responsible_agency": "Department of Sanitation",
    "final_address": "5360 Chestnut St",
    "address_councildis": "B",
    "status": "Assigned to Contractor",
    "contractor": "IV Waste",
    "rowid": "1260824",
    "final_x": "3667092.52199",
    "final_y": "519384.759735",
    "longitude": "-90.11397189037513",
    "latitude": "29.922557250929447",
    "geocoded_column": {
      "latitude": "29.922557250929447",
      "longitude": "-90.11397189037513"
    }
  },
  {
    "service_request": "2026-1260823",
    "request_type": "Trash/Recycling",
    "request_reason": "Request a Large Item Pick Up",
    "date_created": "2026-02-25T15:56:28.000",
    "date_modified": "2026-02-25T15:56:30.000",
    "request_status": "Pending",
    "responsible_agency": "Department of Sanitation",
    "final_address": "3110 Grand-Route St John St",
    "address_councildis": "A",
    "status": "Assigned to Contractor",
    "contractor": "IV Waste",
    "rowid": "1260823",
    "final_x": "3676285.77301",
    "final_y": "540278.384715",
    "longitude": "-90.0842335059599",
    "latitude": "29.97973555363923",
    "geocoded_column": {
      "latitude": "29.97973555363923",
      "longitude": "-90.0842335059599"
    }
  },
  {
    "service_request": "2026-1260822",
    "request_type": "Abandoned Vehicles",
    "request_reason": "Abandoned/Junk Vehicles",
    "date_created": "2026-02-25T15:46:32.000",
    "date_modified": "2026-02-25T15:49:42.000",
    "request_status": "Pending",
    "responsible_agency": "Department of Public Works",
    "final_address": "4238 Ulloa St",
    "address_councildis": "A",
    "status": "Pending",
    "rowid": "1260822",
    "final_x": "3668872.21658",
    "final_y": "537034.992648",
    "longitude": "-90.107758175678",
    "latitude": "29.97103745137877",
    "geocoded_column": {
      "latitude": "29.97103745137877",
      "longitude": "-90.107758175678"
    }
  },
  {
    "service_request": "2026-1260821",
    "request_type": "Trash/Recycling",
    "request_reason": "Request a Large Item Pick Up",
    "date_created": "2026-02-25T15:46:31.000",
    "date_modified": "2026-02-25T15:46:32.000",
    "request_status": "Pending",
    "responsible_agency": "Department of Sanitation",
    "final_address": "5017 LaSalle St",
    "address_councildis": "B",
    "status": "Assigned to Contractor",
    "contractor": "IV Waste",
    "rowid": "1260821",
    "final_x": "3668643.2891",
    "final_y": "523606.743867",
    "longitude": "-90.10893431834852",
    "latitude": "29.934120894826773",
    "geocoded_column": {
      "latitude": "29.934120894826773",
      "longitude": "-90.10893431834852"
    }
  },
  {
    "service_request": "2026-1260820",
    "request_type": "Trash/Recycling",
    "request_reason": "Repair Trash Cart",
    "date_created": "2026-02-25T15:44:51.000",
    "date_modified": "2026-02-25T15:44:52.000",
    "request_status": "Pending",
    "responsible_agency": "Department of Sanitation",
    "final_address": "3103 Delachaise St",
    "address_councildis": "B",
    "status": "Assigned to Contractor",
    "contractor": "IV Waste",
    "rowid": "1260820",
    "final_x": "3671797.20475",
    "final_y": "526455.580926",
    "longitude": "-90.09888060704797",
    "latitude": "29.94186122755132",
    "geocoded_column": {
      "latitude": "29.94186122755132",
      "longitude": "-90.09888060704797"
    }
  },
  {
    "service_request": "2026-1260819",
    "request_type": "Trash/Recycling",
    "request_reason": "Repair Trash Cart",
    "date_created": "2026-02-25T15:44:48.000",
    "date_modified": "2026-02-25T15:44:50.000",
    "request_status": "Pending",
    "responsible_agency": "Department of Sanitation",
    "final_address": "8526 Apricot St",
    "address_councildis": "A",
    "status": "Assigned to Contractor",
    "contractor": "IV Waste",
    "rowid": "1260819",
    "final_x": "3664581.15277",
    "final_y": "533706.434245",
    "longitude": "-90.12142116142476",
    "latitude": "29.962010515011894",
    "geocoded_column": {
      "latitude": "29.962010515011894",
      "longitude": "-90.12142116142476"
    }
  },
  {
    "service_request": "2026-1260818",
    "request_type": "Trash/Recycling",
    "request_reason": "Request a Large Item Pick Up",
    "date_created": "2026-02-25T15:44:06.000",
    "date_modified": "2026-02-25T15:44:07.000",
    "request_status": "Pending",
    "responsible_agency": "Department of Sanitation",
    "final_address": "7211 Boston Dr",
    "address_councildis": "E",
    "status": "Assigned to Contractor",
    "contractor": "Waste Pro",
    "rowid": "1260818",
    "final_x": "3706126.78993",
    "final_y": "561409.344286",
    "longitude": "-89.98920132226719",
    "latitude": "30.036909415160466",
    "geocoded_column": {
      "latitude": "30.036909415160466",
      "longitude": "-89.98920132226719"
    }
  },
  {
    "service_request": "2026-1260817",
    "request_type": "Streetlights",
    "request_reason": "Streetlight Outage/Malfunction",
    "date_created": "2026-02-25T15:44:00.000",
    "date_modified": "2026-02-25T15:44:02.000",
    "request_status": "Pending",
    "responsible_agency": "Department of Public Works",
    "final_address": "1324 Lark St",
    "address_councildis": "D",
    "status": "Pending",
    "rowid": "1260817",
    "final_x": "3677692.52501",
    "final_y": "556615.90249",
    "longitude": "-90.07922564742984",
    "latitude": "30.02461568976736",
    "geocoded_column": {
      "latitude": "30.02461568976736",
      "longitude": "-90.07922564742984"
    }
  },
  {
    "service_request": "2026-1260816",
    "request_type": "Parks & Parkways",
    "request_reason": "Request Tree Service (Right of Way/Public Property)",
    "date_created": "2026-02-25T15:42:58.000",
    "date_modified": "2026-02-25T15:42:59.000",
    "request_status": "Pending",
    "responsible_agency": "Department of Parks & Parkway",
    "final_address": "5534 St Charles Ave",
    "address_councildis": "A",
    "status": "Pending",
    "rowid": "1260816",
    "final_x": "3666806.8873",
    "final_y": "521707.791097",
    "longitude": "-90.1147955464331",
    "latitude": "29.928953207991675",
    "geocoded_column": {
      "latitude": "29.928953207991675",
      "longitude": "-90.1147955464331"
    }
  },
  {
    "service_request": "2026-1260815",
    "request_type": "Trash/Recycling",
    "request_reason": "Replace Recycling Cart",
    "date_created": "2026-02-25T15:42:25.000",
    "date_modified": "2026-02-25T15:42:26.000",
    "request_status": "Pending",
    "responsible_agency": "Department of Sanitation",
    "final_address": "319 S Murat St",
    "address_councildis": "A",
    "status": "Pending",
    "rowid": "1260815",
    "final_x": "3669082.23354",
    "final_y": "538634.781193",
    "longitude": "-90.1070408416004",
    "latitude": "29.97543015443836",
    "geocoded_column": {
      "latitude": "29.97543015443836",
      "longitude": "-90.1070408416004"
    }
  },
  {
    "service_request": "2026-1260814",
    "request_type": "Trash/Recycling",
    "request_reason": "Repair Recycling Cart",
    "date_created": "2026-02-25T15:40:35.000",
    "date_modified": "2026-02-25T15:40:36.000",
    "request_status": "Pending",
    "responsible_agency": "Department of Sanitation",
    "final_address": "300 34Th St",
    "address_councildis": "A",
    "status": "Pending",
    "rowid": "1260814",
    "final_x": "3665251.09728",
    "final_y": "551398.323925",
    "longitude": "-90.11871335254888",
    "latitude": "30.010637730523072",
    "geocoded_column": {
      "latitude": "30.010637730523072",
      "longitude": "-90.11871335254888"
    }
  },
  {
    "service_request": "2026-1260813",
    "request_type": "Roads and Streets",
    "request_reason": "Debris in Driving Lanes",
    "date_created": "2026-02-25T15:39:08.000",
    "date_modified": "2026-02-25T15:39:09.000",
    "request_status": "Pending",
    "responsible_agency": "Department of Public Works",
    "final_address": "2615 Almonaster Ave",
    "address_councildis": "D",
    "status": "Pending",
    "rowid": "1260813",
    "final_x": "3688638.78019",
    "final_y": "542224.195661",
    "longitude": "-90.04514870190049",
    "latitude": "29.984709784835058",
    "geocoded_column": {
      "latitude": "29.984709784835058",
      "longitude": "-90.04514870190049"
    }
  },
  {
    "service_request": "2026-1260812",
    "request_type": "Trash/Recycling",
    "request_reason": "Request a Large Item Pick Up",
    "date_created": "2026-02-25T15:38:59.000",
    "date_modified": "2026-02-25T15:39:01.000",
    "request_status": "Pending",
    "responsible_agency": "Department of Sanitation",
    "final_address": "10935 S Hardy St",
    "address_councildis": "E",
    "status": "Assigned to Contractor",
    "contractor": "Waste Pro",
    "rowid": "1260812",
    "final_x": "3712980.42072",
    "final_y": "561737.806175",
    "longitude": "-89.96753021289645",
    "latitude": "30.037589712211506",
    "geocoded_column": {
      "latitude": "30.037589712211506",
      "longitude": "-89.96753021289645"
    }
  },
  {
    "service_request": "2026-1260811",
    "request_type": "Abandoned Vehicles",
    "request_reason": "Abandoned/Junk Vehicles",
    "date_created": "2026-02-25T15:37:58.000",
    "date_modified": "2026-02-25T15:38:56.000",
    "request_status": "Pending",
    "responsible_agency": "Department of Public Works",
    "final_address": "2431 S Liberty St",
    "address_councildis": "B",
    "status": "Pending",
    "rowid": "1260811",
    "final_x": "3675336.13621",
    "final_y": "525164.573053",
    "longitude": "-90.08775175711716",
    "latitude": "29.93820607088112",
    "geocoded_column": {
      "latitude": "29.93820607088112",
      "longitude": "-90.08775175711716"
    }
  },
  {
    "service_request": "2026-1260810",
    "request_type": "Trash/Recycling",
    "request_reason": "Return Trash Cart",
    "date_created": "2026-02-25T15:37:52.000",
    "date_modified": "2026-02-25T15:37:54.000",
    "request_status": "Pending",
    "responsible_agency": "Department of Sanitation",
    "final_address": "2327 Ap Tureaud Ave Apt A",
    "address_councildis": "D",
    "status": "Assigned to Contractor",
    "contractor": "IV Waste",
    "rowid": "1260810",
    "final_x": "3681717.86223",
    "final_y": "540730.580747",
    "longitude": "-90.06706098674016",
    "latitude": "29.98081499291703",
    "geocoded_column": {
      "latitude": "29.98081499291703",
      "longitude": "-90.06706098674016"
    }
  },
  {
    "service_request": "2026-1260809",
    "request_type": "Trash/Recycling",
    "request_reason": "Order Trash Cart",
    "date_created": "2026-02-25T15:36:34.000",
    "date_modified": "2026-02-25T15:52:03.000",
    "request_status": "Pending",
    "responsible_agency": "Department of Sanitation",
    "final_address": "2659 Abundance St",
    "address_councildis": "D",
    "status": "Assigned to Contractor",
    "contractor": "IV Waste",
    "rowid": "1260809",
    "final_x": "3687903.42102",
    "final_y": "543988.602638",
    "longitude": "-90.04740883199392",
    "latitude": "29.98958398519573",
    "geocoded_column": {
      "latitude": "29.98958398519573",
      "longitude": "-90.04740883199392"
    }
  },
  {
    "service_request": "2026-1260808",
    "request_type": "Mosquito, Termite & Rodent Control",
    "request_reason": "Non-Rodent Complaint (Possums & Snakes)",
    "date_created": "2026-02-25T15:34:20.000",
    "date_modified": "2026-02-25T15:34:21.000",
    "request_status": "Pending",
    "responsible_agency": "Mosquito, Termite & Rodent Control Board",
    "final_address": "127 Country Club Dr",
    "address_councildis": "A",
    "status": "Pending",
    "rowid": "1260808",
    "final_x": "3665593.68276",
    "final_y": "544415.725071",
    "longitude": "-90.1178650014143",
    "latitude": "29.991427998431163",
    "geocoded_column": {
      "latitude": "29.991427998431163",
      "longitude": "-90.1178650014143"
    }
  },
  {
    "service_request": "2026-1260807",
    "request_type": "Trash/Recycling",
    "request_reason": "Return Trash Cart",
    "date_created": "2026-02-25T15:32:01.000",
    "date_modified": "2026-02-25T15:34:41.000",
    "request_status": "Pending",
    "responsible_agency": "Department of Sanitation",
    "final_address": "2326 General Pershing St",
    "address_councildis": "B",
    "status": "Assigned to Contractor",
    "contractor": "IV Waste",
    "rowid": "1260807",
    "final_x": "3670924.64238",
    "final_y": "523624.436731",
    "longitude": "-90.10173155058162",
    "latitude": "29.934102316854904",
    "geocoded_column": {
      "latitude": "29.934102316854904",
      "longitude": "-90.10173155058162"
    }
  },
  {
    "service_request": "2026-1260806",
    "request_type": "Trash/Recycling",
    "request_reason": "Request a Large Item Pick Up",
    "date_created": "2026-02-25T15:30:26.000",
    "date_modified": "2026-02-25T15:30:27.000",
    "request_status": "Pending",
    "responsible_agency": "Department of Sanitation",
    "final_address": "7567 Horizon Ct",
    "address_councildis": "E",
    "status": "Assigned to Contractor",
    "contractor": "Waste Pro",
    "rowid": "1260806",
    "final_x": "3725688.6007",
    "final_y": "569648.311206",
    "longitude": "-89.9270631104813",
    "latitude": "30.058917672510685",
    "geocoded_column": {
      "latitude": "30.058917672510685",
      "longitude": "-89.9270631104813"
    }
  },
  {
    "service_request": "2026-1260805",
    "request_type": "Trash/Recycling",
    "request_reason": "Replace Trash Cart",
    "date_created": "2026-02-25T15:28:02.000",
    "date_modified": "2026-02-25T15:28:04.000",
    "request_status": "Pending",
    "responsible_agency": "Department of Sanitation",
    "final_address": "2326 General Pershing St",
    "address_councildis": "B",
    "status": "Assigned to Contractor",
    "contractor": "IV Waste",
    "rowid": "1260805",
    "final_x": "3670924.64238",
    "final_y": "523624.436731",
    "longitude": "-90.10173155058162",
    "latitude": "29.934102316854904",
    "geocoded_column": {
      "latitude": "29.934102316854904",
      "longitude": "-90.10173155058162"
    }
  },
  {
    "service_request": "2026-1260804",
    "request_type": "Trash/Recycling",
    "request_reason": "Request a Large Item Pick Up",
    "date_created": "2026-02-25T15:23:11.000",
    "date_modified": "2026-02-25T15:23:12.000",
    "request_status": "Pending",
    "responsible_agency": "Department of Sanitation",
    "final_address": "4706 Majestic Oaks Dr",
    "address_councildis": "D",
    "status": "Assigned to Contractor",
    "contractor": "Waste Pro",
    "rowid": "1260804",
    "final_x": "3697660.62685",
    "final_y": "554075.989592",
    "longitude": "-90.01622248091994",
    "latitude": "30.017015849284224",
    "geocoded_column": {
      "latitude": "30.017015849284224",
      "longitude": "-90.01622248091994"
    }
  },
  {
    "service_request": "2026-1260803",
    "request_type": "Streetlights",
    "request_reason": "Streetlight Outage/Malfunction",
    "date_created": "2026-02-25T15:18:26.000",
    "date_modified": "2026-02-25T15:18:28.000",
    "request_status": "Pending",
    "responsible_agency": "Department of Public Works",
    "final_address": "1328 Kentucky St",
    "address_councildis": "D",
    "status": "Pending",
    "rowid": "1260803",
    "final_x": "3693524.86153",
    "final_y": "535908.497607",
    "longitude": "-90.02994268016462",
    "latitude": "29.96719192706779",
    "geocoded_column": {
      "latitude": "29.96719192706779",
      "longitude": "-90.02994268016462"
    }
  },
  {
    "service_request": "2026-1260802",
    "request_type": "Trash/Recycling",
    "request_reason": "Return Trash Cart",
    "date_created": "2026-02-25T15:17:11.000",
    "date_modified": "2026-02-25T15:17:13.000",
    "request_status": "Pending",
    "responsible_agency": "Department of Sanitation",
    "final_address": "1037 Allen Toussaint Blvd",
    "address_councildis": "D",
    "status": "Assigned to Contractor",
    "contractor": "IV Waste",
    "rowid": "1260802",
    "final_x": "3673226.12635",
    "final_y": "554457.090904",
    "longitude": "-90.09341254217539",
    "latitude": "30.018813391253786",
    "geocoded_column": {
      "latitude": "30.018813391253786",
      "longitude": "-90.09341254217539"
    }
  },
  {
    "service_request": "2026-1260801",
    "request_type": "Trash/Recycling",
    "request_reason": "Repair Recycling Cart",
    "date_created": "2026-02-25T15:14:50.000",
    "date_modified": "2026-02-25T15:14:52.000",
    "request_status": "Pending",
    "responsible_agency": "Department of Sanitation",
    "final_address": "1037 Allen Toussaint Blvd",
    "address_councildis": "D",
    "status": "Pending",
    "rowid": "1260801",
    "final_x": "3673226.12635",
    "final_y": "554457.090904",
    "longitude": "-90.09341254217539",
    "latitude": "30.018813391253786",
    "geocoded_column": {
      "latitude": "30.018813391253786",
      "longitude": "-90.09341254217539"
    }
  },
  {
    "service_request": "2026-1260800",
    "request_type": "Streetlights",
    "request_reason": "Streetlight Outage/Malfunction",
    "date_created": "2026-02-25T15:12:13.000",
    "date_modified": "2026-02-25T15:16:15.000",
    "request_status": "Pending",
    "responsible_agency": "Department of Public Works",
    "final_address": "ODIN ST & EADS ST",
    "address_councildis": "D",
    "status": "Pending",
    "rowid": "1260800",
    "final_x": "3686934.0",
    "final_y": "553301.38",
    "longitude": "-90.05014152757327",
    "latitude": "30.015220624982895",
    "geocoded_column": {
      "latitude": "30.015220624982895",
      "longitude": "-90.05014152757327"
    }
  },
  {
    "service_request": "2026-1260799",
    "request_type": "Streetlights",
    "request_reason": "Streetlight Outage/Malfunction",
    "date_created": "2026-02-25T15:11:55.000",
    "date_modified": "2026-02-25T15:20:05.000",
    "request_status": "Pending",
    "responsible_agency": "Department of Public Works",
    "final_address": "5438 Eads St",
    "address_councildis": "D",
    "status": "Pending",
    "rowid": "1260799",
    "final_x": "3686894.11228",
    "final_y": "553231.216023",
    "longitude": "-90.05027003609203",
    "latitude": "30.015028928040973",
    "geocoded_column": {
      "latitude": "30.015028928040973",
      "longitude": "-90.05027003609203"
    }
  },
  {
    "service_request": "2026-1260798",
    "request_type": "Drainage",
    "request_reason": "Catch Basin Frame and Cover Missing or Damaged",
    "date_created": "2026-02-25T15:11:40.000",
    "date_modified": "2026-02-25T15:20:49.000",
    "request_status": "Pending",
    "responsible_agency": "Sewerage & Water Board",
    "final_address": "5438 Eads St",
    "address_councildis": "D",
    "status": "Pending",
    "rowid": "1260798",
    "final_x": "3686894.11228",
    "final_y": "553231.216023",
    "longitude": "-90.05027003609203",
    "latitude": "30.015028928040973",
    "geocoded_column": {
      "latitude": "30.015028928040973",
      "longitude": "-90.05027003609203"
    }
  },
  {
    "service_request": "2026-1260797",
    "request_type": "Property Maintenance",
    "request_reason": "Property Maintenance",
    "date_created": "2026-02-25T15:11:00.000",
    "date_modified": "2026-02-25T15:11:02.000",
    "request_status": "Pending",
    "responsible_agency": "Department of Code Enforcement",
    "final_address": "416 S Broad St",
    "address_councildis": "B",
    "status": "Pending",
    "rowid": "1260797",
    "final_x": "3674590.79611",
    "final_y": "533911.850117",
    "longitude": "-90.08980516471337",
    "latitude": "29.962280441504564",
    "geocoded_column": {
      "latitude": "29.962280441504564",
      "longitude": "-90.08980516471337"
    }
  },
  {
    "service_request": "2026-1260796",
    "request_type": "Roads and Streets",
    "request_reason": "Pothole",
    "date_created": "2026-02-25T15:04:28.000",
    "date_modified": "2026-02-25T15:04:30.000",
    "request_status": "Pending",
    "responsible_agency": "Department of Public Works",
    "final_address": "7400 Adventure Ave",
    "address_councildis": "E",
    "status": "Pending",
    "rowid": "1260796",
    "final_x": "3726016.75372",
    "final_y": "570013.408102",
    "longitude": "-89.92601168817511",
    "latitude": "30.059910456844264",
    "geocoded_column": {
      "latitude": "30.059910456844264",
      "longitude": "-89.92601168817511"
    }
  },
  {
    "service_request": "2026-1260795",
    "request_type": "Trash/Recycling",
    "request_reason": "Order Recycling Cart",
    "date_created": "2026-02-25T15:03:47.000",
    "date_modified": "2026-02-25T15:03:49.000",
    "request_status": "Pending",
    "responsible_agency": "Department of Sanitation",
    "final_address": "811 N Alexander St",
    "address_councildis": "A",
    "status": "Pending",
    "rowid": "1260795",
    "final_x": "3671628.21953",
    "final_y": "541387.264524",
    "longitude": "-90.09890625854356",
    "latitude": "29.982923380357953",
    "geocoded_column": {
      "latitude": "29.982923380357953",
      "longitude": "-90.09890625854356"
    }
  },
  {
    "service_request": "2026-1260794",
    "request_type": "Safety & Permits",
    "request_reason": "Zoning Enforcement",
    "date_created": "2026-02-25T15:02:25.000",
    "date_modified": "2026-02-25T15:02:27.000",
    "request_status": "Pending",
    "responsible_agency": "Safety and Permits",
    "final_address": "400 Vallette St",
    "address_councildis": "C",
    "status": "Pending",
    "rowid": "1260794",
    "final_x": "3687585.20246",
    "final_y": "530316.042434",
    "longitude": "-90.04889810740735",
    "latitude": "29.951999048874704",
    "geocoded_column": {
      "latitude": "29.951999048874704",
      "longitude": "-90.04889810740735"
    }
  },
  {
    "service_request": "2026-1260793",
    "request_type": "Streetlights",
    "request_reason": "Streetlight Outage/Malfunction",
    "date_created": "2026-02-25T15:01:35.000",
    "date_modified": "2026-02-25T15:01:37.000",
    "request_status": "Pending",
    "responsible_agency": "Department of Public Works",
    "final_address": "1613 Feliciana St",
    "address_councildis": "D",
    "status": "Pending",
    "rowid": "1260793",
    "final_x": "3689278.89961",
    "final_y": "538093.726281",
    "longitude": "-90.04327373356442",
    "latitude": "29.973332656884512",
    "geocoded_column": {
      "latitude": "29.973332656884512",
      "longitude": "-90.04327373356442"
    }
  },
  {
    "service_request": "2026-1260792",
    "request_type": "Trash/Recycling",
    "request_reason": "Order Recycling Cart",
    "date_created": "2026-02-25T14:58:18.000",
    "date_modified": "2026-02-25T14:59:12.000",
    "request_status": "Pending",
    "responsible_agency": "Department of Sanitation",
    "final_address": "1619 Feliciana St",
    "address_councildis": "D",
    "status": "Pending",
    "rowid": "1260792",
    "final_x": "3689289.14972",
    "final_y": "538137.091529",
    "longitude": "-90.04323981974242",
    "latitude": "29.973451578703376",
    "geocoded_column": {
      "latitude": "29.973451578703376",
      "longitude": "-90.04323981974242"
    }
  },
  {
    "service_request": "2026-1260791",
    "request_type": "Trash/Recycling",
    "request_reason": "Request a Large Item Pick Up",
    "date_created": "2026-02-25T14:57:52.000",
    "date_modified": "2026-02-25T14:57:55.000",
    "request_status": "Pending",
    "responsible_agency": "Department of Sanitation",
    "final_address": "1520 Arts St",
    "address_councildis": "C",
    "status": "Assigned to Contractor",
    "contractor": "IV Waste",
    "rowid": "1260791",
    "final_x": "3687037.13244",
    "final_y": "538145.275465",
    "longitude": "-90.05035185264467",
    "latitude": "29.97354360776205",
    "geocoded_column": {
      "latitude": "29.97354360776205",
      "longitude": "-90.05035185264467"
    }
  },
  {
    "service_request": "2026-1260790",
    "request_type": "Streetlights",
    "request_reason": "Streetlight Outage/Malfunction",
    "date_created": "2026-02-25T14:56:48.000",
    "date_modified": "2026-02-25T14:56:50.000",
    "request_status": "Pending",
    "responsible_agency": "Department of Public Works",
    "final_address": "2530 Dubreuil St",
    "address_councildis": "E",
    "status": "Pending",
    "rowid": "1260790",
    "final_x": "3702768.79703",
    "final_y": "538055.199369",
    "longitude": "-90.00067160736394",
    "latitude": "29.972802215260135",
    "geocoded_column": {
      "latitude": "29.972802215260135",
      "longitude": "-90.00067160736394"
    }
  },
  {
    "service_request": "2026-1260789",
    "request_type": "Trash/Recycling",
    "request_reason": "Request a Large Item Pick Up",
    "date_created": "2026-02-25T14:54:24.000",
    "date_modified": "2026-02-25T14:54:25.000",
    "request_status": "Pending",
    "responsible_agency": "Department of Sanitation",
    "final_address": "2013 Flood St",
    "address_councildis": "E",
    "status": "Assigned to Contractor",
    "contractor": "Waste Pro",
    "rowid": "1260789",
    "final_x": "3698683.27562",
    "final_y": "537325.120456",
    "longitude": "-90.01360092889115",
    "latitude": "29.970924782108494",
    "geocoded_column": {
      "latitude": "29.970924782108494",
      "longitude": "-90.01360092889115"
    }
  },
  {
    "service_request": "2026-1260788",
    "request_type": "Utility Poles",
    "request_reason": "Wires Sagging/Hanging Low",
    "date_created": "2026-02-25T14:53:31.000",
    "date_modified": "2026-02-25T14:53:35.000",
    "request_status": "Pending",
    "responsible_agency": "Utility Company Collective",
    "final_address": "3601 Canal St",
    "address_councildis": "B",
    "status": "Pending",
    "rowid": "1260788",
    "final_x": "3672619.87419",
    "final_y": "537298.879816",
    "longitude": "-90.09591355584773",
    "latitude": "29.971652301208948",
    "geocoded_column": {
      "latitude": "29.971652301208948",
      "longitude": "-90.09591355584773"
    }
  },
  {
    "service_request": "2026-1260787",
    "request_type": "Trash/Recycling",
    "request_reason": "Request a Large Item Pick Up",
    "date_created": "2026-02-25T14:51:56.000",
    "date_modified": "2026-02-25T14:51:58.000",
    "request_status": "Pending",
    "responsible_agency": "Department of Sanitation",
    "final_address": "3418 Octavia St",
    "address_councildis": "A",
    "status": "Assigned to Contractor",
    "contractor": "IV Waste",
    "rowid": "1260787",
    "final_x": "3668445.1705",
    "final_y": "528166.988416",
    "longitude": "-90.10940599719243",
    "latitude": "29.946665915574027",
    "geocoded_column": {
      "latitude": "29.946665915574027",
      "longitude": "-90.10940599719243"
    }
  },
  {
    "service_request": "2026-1260786",
    "request_type": "Trash/Recycling",
    "request_reason": "Request a Large Item Pick Up",
    "date_created": "2026-02-25T14:51:37.000",
    "date_modified": "2026-02-25T14:58:33.000",
    "request_status": "Pending",
    "responsible_agency": "Department of Sanitation",
    "final_address": "2233 Felicity St Apt B",
    "address_councildis": "B",
    "status": "Assigned to Contractor",
    "contractor": "IV Waste",
    "rowid": "1260786",
    "final_x": "3676441.15361",
    "final_y": "526664.863742",
    "longitude": "-90.08421147667721",
    "latitude": "29.942298301059715",
    "geocoded_column": {
      "latitude": "29.942298301059715",
      "longitude": "-90.08421147667721"
    }
  },
  {
    "service_request": "2026-1260785",
    "request_type": "Roads and Streets",
    "request_reason": "Pothole",
    "date_created": "2026-02-25T14:49:11.000",
    "date_modified": "2026-02-25T14:49:13.000",
    "request_status": "Pending",
    "responsible_agency": "Department of Public Works",
    "final_address": "8640 Oak St",
    "address_councildis": "A",
    "status": "Pending",
    "rowid": "1260785",
    "final_x": "3660396.07706",
    "final_y": "529738.489025",
    "longitude": "-90.13476812734157",
    "latitude": "29.951220992138218",
    "geocoded_column": {
      "latitude": "29.951220992138218",
      "longitude": "-90.13476812734157"
    }
  },
  {
    "service_request": "2026-1260784",
    "request_type": "Trash/Recycling",
    "request_reason": "Repair Trash Cart",
    "date_created": "2026-02-25T14:48:50.000",
    "date_modified": "2026-02-25T15:08:49.000",
    "request_status": "Pending",
    "responsible_agency": "Department of Sanitation",
    "final_address": "449 Jewel St",
    "address_councildis": "D",
    "status": "Assigned to Contractor",
    "contractor": "IV Waste",
    "rowid": "1260784",
    "final_x": "3668143.02145",
    "final_y": "556024.822617",
    "longitude": "-90.10942049041688",
    "latitude": "30.023274360083303",
    "geocoded_column": {
      "latitude": "30.023274360083303",
      "longitude": "-90.10942049041688"
    }
  },
  {
    "service_request": "2026-1260783",
    "request_type": "Trash/Recycling",
    "request_reason": "Request a Large Item Pick Up",
    "date_created": "2026-02-25T14:46:15.000",
    "date_modified": "2026-02-25T14:46:17.000",
    "request_status": "Pending",
    "responsible_agency": "Department of Sanitation",
    "final_address": "2546 Dumaine St",
    "address_councildis": "D",
    "status": "Assigned to Contractor",
    "contractor": "IV Waste",
    "rowid": "1260783",
    "final_x": "3677631.4349",
    "final_y": "537108.97012",
    "longitude": "-90.08009284159667",
    "latitude": "29.97098034853283",
    "geocoded_column": {
      "latitude": "29.97098034853283",
      "longitude": "-90.08009284159667"
    }
  },
  {
    "service_request": "2026-1260782",
    "request_type": "Trash/Recycling",
    "request_reason": "Illegal Dumping",
    "date_created": "2026-02-25T14:43:19.000",
    "date_modified": "2026-02-25T14:43:20.000",
    "request_status": "Pending",
    "responsible_agency": "Department of Sanitation",
    "final_address": "4900 BLK Clio St",
    "address_councildis": "B",
    "status": "Pending",
    "rowid": "1260782",
    "final_x": "3669207.53294",
    "final_y": "532936.094349",
    "longitude": "-90.10683775982868",
    "latitude": "29.95975697921906",
    "geocoded_column": {
      "latitude": "29.95975697921906",
      "longitude": "-90.10683775982868"
    }
  },
  {
    "service_request": "2026-1260781",
    "request_type": "Abandoned Vehicles",
    "request_reason": "Abandoned/Junk Vehicles",
    "date_created": "2026-02-25T14:43:11.000",
    "date_modified": "2026-02-25T14:43:12.000",
    "request_status": "Pending",
    "responsible_agency": "Department of Public Works",
    "final_address": "1465 N Roman St",
    "address_councildis": "D",
    "status": "Pending",
    "rowid": "1260781",
    "final_x": "3681032.94683",
    "final_y": "537512.844424",
    "longitude": "-90.06933636079012",
    "latitude": "29.971988128647702",
    "geocoded_column": {
      "latitude": "29.971988128647702",
      "longitude": "-90.06933636079012"
    }
  },
  {
    "service_request": "2026-1260780",
    "request_type": "Trash/Recycling",
    "request_reason": "Request a Large Item Pick Up",
    "date_created": "2026-02-25T14:42:52.000",
    "date_modified": "2026-02-25T14:42:58.000",
    "request_status": "Pending",
    "responsible_agency": "Department of Sanitation",
    "final_address": "2428 Hyman Pl",
    "address_councildis": "C",
    "status": "Assigned to Contractor",
    "contractor": "Richards Disposal",
    "rowid": "1260780",
    "final_x": "3701129.46877",
    "final_y": "522136.164986",
    "longitude": "-90.00643107351162",
    "latitude": "29.92908283324228",
    "geocoded_column": {
      "latitude": "29.92908283324228",
      "longitude": "-90.00643107351162"
    }
  },
  {
    "service_request": "2026-1260779",
    "request_type": "Trash/Recycling",
    "request_reason": "Repair Trash Cart",
    "date_created": "2026-02-25T14:41:18.000",
    "date_modified": "2026-02-25T14:41:20.000",
    "request_status": "Pending",
    "responsible_agency": "Department of Sanitation",
    "final_address": "2428 Hyman Pl",
    "address_councildis": "C",
    "status": "Assigned to Contractor",
    "contractor": "Richards Disposal",
    "rowid": "1260779",
    "final_x": "3701129.46877",
    "final_y": "522136.164986",
    "longitude": "-90.00643107351162",
    "latitude": "29.92908283324228",
    "geocoded_column": {
      "latitude": "29.92908283324228",
      "longitude": "-90.00643107351162"
    }
  },
  {
    "service_request": "2026-1260778",
    "request_type": "Trash/Recycling",
    "request_reason": "Request a Large Item Pick Up",
    "date_created": "2026-02-25T14:37:59.000",
    "date_modified": "2026-02-25T14:38:02.000",
    "request_status": "Pending",
    "responsible_agency": "Department of Sanitation",
    "final_address": "4655 Pecan St",
    "address_councildis": "E",
    "status": "Assigned to Contractor",
    "contractor": "Waste Pro",
    "rowid": "1260778",
    "final_x": "3701913.06468",
    "final_y": "553826.854551",
    "longitude": "-90.00279576621531",
    "latitude": "30.01619573391936",
    "geocoded_column": {
      "latitude": "30.01619573391936",
      "longitude": "-90.00279576621531"
    }
  },
  {
    "service_request": "2026-1260777",
    "request_type": "Abandoned Vehicles",
    "request_reason": "Abandoned/Junk Vehicles",
    "date_created": "2026-02-25T14:33:59.000",
    "date_modified": "2026-02-25T14:34:01.000",
    "request_status": "Pending",
    "responsible_agency": "Department of Public Works",
    "final_address": "6971 Marshal Foch St",
    "address_councildis": "A",
    "status": "Pending",
    "rowid": "1260777",
    "final_x": "3670511.46324",
    "final_y": "553708.485399",
    "longitude": "-90.10201535303936",
    "latitude": "30.016835485002957",
    "geocoded_column": {
      "latitude": "30.016835485002957",
      "longitude": "-90.10201535303936"
    }
  },
  {
    "service_request": "2026-1260776",
    "request_type": "Streetlights",
    "request_reason": "Streetlight Outage/Malfunction",
    "date_created": "2026-02-25T14:32:15.000",
    "date_modified": "2026-02-25T14:32:53.000",
    "request_status": "Pending",
    "responsible_agency": "Department of Public Works",
    "final_address": "CHEF MENTEUR HWY & CHANTILLY DR",
    "address_councildis": "E",
    "status": "Pending",
    "rowid": "1260776",
    "final_x": "3700963.5",
    "final_y": "552101.28",
    "longitude": "-90.00585911693433",
    "latitude": "30.011481342826563",
    "geocoded_column": {
      "latitude": "30.011481342826563",
      "longitude": "-90.00585911693433"
    }
  },
  {
    "service_request": "2026-1260775",
    "request_type": "Trash/Recycling",
    "request_reason": "Return Recycling Cart",
    "date_created": "2026-02-25T14:25:51.000",
    "date_modified": "2026-02-25T14:25:52.000",
    "request_status": "Pending",
    "responsible_agency": "Department of Sanitation",
    "final_address": "326 Henry Clay Ave",
    "address_councildis": "A",
    "status": "Pending",
    "rowid": "1260775",
    "final_x": "3663158.42381",
    "final_y": "518161.562742",
    "longitude": "-90.12643098516517",
    "latitude": "29.919308369813596",
    "geocoded_column": {
      "latitude": "29.919308369813596",
      "longitude": "-90.12643098516517"
    }
  },
  {
    "service_request": "2026-1260774",
    "request_type": "Trash/Recycling",
    "request_reason": "Repair Recycling Cart",
    "date_created": "2026-02-25T14:23:41.000",
    "date_modified": "2026-02-25T14:23:43.000",
    "request_status": "Pending",
    "responsible_agency": "Department of Sanitation",
    "final_address": "1521 Melpomene St",
    "address_councildis": "B",
    "status": "Pending",
    "rowid": "1260774",
    "final_x": "3679509.90856",
    "final_y": "525392.596285",
    "longitude": "-90.0745668627377",
    "latitude": "29.93870764458958",
    "geocoded_column": {
      "latitude": "29.93870764458958",
      "longitude": "-90.0745668627377"
    }
  },
  {
    "service_request": "2026-1260773",
    "request_type": "Trash/Recycling",
    "request_reason": "Repair Recycling Cart",
    "date_created": "2026-02-25T14:21:46.000",
    "date_modified": "2026-02-25T14:21:47.000",
    "request_status": "Pending",
    "responsible_agency": "Department of Sanitation",
    "final_address": "4626 Camelot Dr",
    "address_councildis": "E",
    "status": "Pending",
    "rowid": "1260773",
    "final_x": "3708370.26264",
    "final_y": "554907.672216",
    "longitude": "-89.98235377503471",
    "latitude": "30.01895981471352",
    "geocoded_column": {
      "latitude": "30.01895981471352",
      "longitude": "-89.98235377503471"
    }
  },
  {
    "service_request": "2026-1260772",
    "request_type": "Trash/Recycling",
    "request_reason": "Replace Trash Cart",
    "date_created": "2026-02-25T14:19:14.000",
    "date_modified": "2026-02-25T14:19:16.000",
    "request_status": "Pending",
    "responsible_agency": "Department of Sanitation",
    "final_address": "4 Warbler St",
    "address_councildis": "D",
    "status": "Assigned to Contractor",
    "contractor": "IV Waste",
    "rowid": "1260772",
    "final_x": "3672537.4283",
    "final_y": "557184.388059",
    "longitude": "-90.09549549598373",
    "latitude": "30.026332952158143",
    "geocoded_column": {
      "latitude": "30.026332952158143",
      "longitude": "-90.09549549598373"
    }
  },
  {
    "service_request": "2026-1260771",
    "request_type": "Trash/Recycling",
    "request_reason": "Request a Large Item Pick Up",
    "date_created": "2026-02-25T14:17:43.000",
    "date_modified": "2026-02-25T14:17:45.000",
    "request_status": "Pending",
    "responsible_agency": "Department of Sanitation",
    "final_address": "1531 Arts St",
    "address_councildis": "C",
    "status": "Assigned to Contractor",
    "contractor": "IV Waste",
    "rowid": "1260771",
    "final_x": "3687196.03746",
    "final_y": "538232.112585",
    "longitude": "-90.04984692633462",
    "latitude": "29.97377748612092",
    "geocoded_column": {
      "latitude": "29.97377748612092",
      "longitude": "-90.04984692633462"
    }
  },
  {
    "service_request": "2026-1260770",
    "request_type": "Trash/Recycling",
    "request_reason": "Replace Trash Cart",
    "date_created": "2026-02-25T14:16:17.000",
    "date_modified": "2026-02-25T14:16:18.000",
    "request_status": "Pending",
    "responsible_agency": "Department of Sanitation",
    "final_address": "7915 Green St",
    "address_councildis": "A",
    "status": "Assigned to Contractor",
    "contractor": "IV Waste",
    "rowid": "1260770",
    "final_x": "3663635.43085",
    "final_y": "529276.282369",
    "longitude": "-90.1245552012505",
    "latitude": "29.9498565053258",
    "geocoded_column": {
      "latitude": "29.9498565053258",
      "longitude": "-90.1245552012505"
    }
  },
  {
    "service_request": "2026-1260769",
    "request_type": "Trash/Recycling",
    "request_reason": "Order Recycling Cart",
    "date_created": "2026-02-25T14:11:49.000",
    "date_modified": "2026-02-25T14:11:51.000",
    "request_status": "Pending",
    "responsible_agency": "Department of Sanitation",
    "final_address": "14527 Tilbury Rd",
    "address_councildis": "E",
    "status": "Pending",
    "rowid": "1260769",
    "final_x": "3720694.91602",
    "final_y": "573132.638185",
    "longitude": "-89.9427138538526",
    "latitude": "30.068665676503347",
    "geocoded_column": {
      "latitude": "30.068665676503347",
      "longitude": "-89.9427138538526"
    }
  },
  {
    "service_request": "2026-1260768",
    "request_type": "Trash/Recycling",
    "request_reason": "Order Trash Cart",
    "date_created": "2026-02-25T14:10:42.000",
    "date_modified": "2026-02-25T14:10:44.000",
    "request_status": "Pending",
    "responsible_agency": "Department of Sanitation",
    "final_address": "14527 Tilbury Rd",
    "address_councildis": "E",
    "status": "Assigned to Contractor",
    "contractor": "Waste Pro",
    "rowid": "1260768",
    "final_x": "3720694.91602",
    "final_y": "573132.638185",
    "longitude": "-89.9427138538526",
    "latitude": "30.068665676503347",
    "geocoded_column": {
      "latitude": "30.068665676503347",
      "longitude": "-89.9427138538526"
    }
  },
  {
    "service_request": "2026-1260767",
    "request_type": "Trash/Recycling",
    "request_reason": "Request a Large Item Pick Up",
    "date_created": "2026-02-25T14:08:22.000",
    "date_modified": "2026-02-25T14:08:24.000",
    "request_status": "Pending",
    "responsible_agency": "Department of Sanitation",
    "final_address": "1722 Urquhart St",
    "address_councildis": "C",
    "status": "Assigned to Contractor",
    "contractor": "IV Waste",
    "rowid": "1260767",
    "final_x": "3683296.72764",
    "final_y": "536830.069768",
    "longitude": "-90.06221090427925",
    "latitude": "29.970041875957254",
    "geocoded_column": {
      "latitude": "29.970041875957254",
      "longitude": "-90.06221090427925"
    }
  },
  {
    "service_request": "2026-1260766",
    "request_type": "Trash/Recycling",
    "request_reason": "Request a Large Item Pick Up",
    "date_created": "2026-02-25T14:03:34.000",
    "date_modified": "2026-02-25T14:03:37.000",
    "request_status": "Pending",
    "responsible_agency": "Department of Sanitation",
    "final_address": "11030 Yardley Rd",
    "address_councildis": "E",
    "status": "Assigned to Contractor",
    "contractor": "Waste Pro",
    "rowid": "1260766",
    "final_x": "3712111.88312",
    "final_y": "563772.671713",
    "longitude": "-89.97019846997075",
    "latitude": "30.043213213155543",
    "geocoded_column": {
      "latitude": "30.043213213155543",
      "longitude": "-89.97019846997075"
    }
  },
  {
    "service_request": "2026-1260765",
    "request_type": "Streetlights",
    "request_reason": "Streetlight Outage/Malfunction",
    "date_created": "2026-02-25T14:02:54.000",
    "date_modified": "2026-02-25T14:02:57.000",
    "request_status": "Pending",
    "responsible_agency": "Department of Public Works",
    "final_address": "4844 Wright Rd",
    "address_councildis": "E",
    "status": "Pending",
    "rowid": "1260765",
    "final_x": "3716560.4885",
    "final_y": "557452.662171",
    "longitude": "-89.95637920908842",
    "latitude": "30.025689465051563",
    "geocoded_column": {
      "latitude": "30.025689465051563",
      "longitude": "-89.95637920908842"
    }
  },
  {
    "service_request": "2026-1260764",
    "request_type": "Trash/Recycling",
    "request_reason": "Request a Large Item Pick Up",
    "date_created": "2026-02-25T13:59:53.000",
    "date_modified": "2026-02-25T13:59:55.000",
    "request_status": "Pending",
    "responsible_agency": "Department of Sanitation",
    "final_address": "2914 Piety St",
    "address_councildis": "D",
    "status": "Assigned to Contractor",
    "contractor": "IV Waste",
    "rowid": "1260764",
    "final_x": "3691617.8056",
    "final_y": "543086.590989",
    "longitude": "-90.03570844625712",
    "latitude": "29.98698863701016",
    "geocoded_column": {
      "latitude": "29.98698863701016",
      "longitude": "-90.03570844625712"
    }
  },
  {
    "service_request": "2026-1260763",
    "request_type": "Property Maintenance",
    "request_reason": "Property Maintenance",
    "date_created": "2026-02-25T13:55:46.000",
    "date_modified": "2026-02-25T13:55:47.000",
    "request_status": "Pending",
    "responsible_agency": "Department of Code Enforcement",
    "final_address": "335 Sharon Dr",
    "address_councildis": "A",
    "status": "Pending",
    "rowid": "1260763",
    "final_x": "3664797.7218",
    "final_y": "547219.622481",
    "longitude": "-90.12028551166833",
    "latitude": "29.999160951382418",
    "geocoded_column": {
      "latitude": "29.999160951382418",
      "longitude": "-90.12028551166833"
    }
  },
  {
    "service_request": "2026-1260762",
    "request_type": "Roads and Streets",
    "request_reason": "Pothole",
    "date_created": "2026-02-25T13:52:39.000",
    "date_modified": "2026-02-25T13:52:41.000",
    "request_status": "Pending",
    "responsible_agency": "Department of Public Works",
    "final_address": "2436 St Ann St",
    "address_councildis": "D",
    "status": "Pending",
    "rowid": "1260762",
    "final_x": "3677725.41538",
    "final_y": "536527.926727",
    "longitude": "-90.07981611339858",
    "latitude": "29.969379851030105",
    "geocoded_column": {
      "latitude": "29.969379851030105",
      "longitude": "-90.07981611339858"
    }
  },
  {
    "service_request": "2026-1260761",
    "request_type": "Trash/Recycling",
    "request_reason": "Missed Trash Pick-Up",
    "date_created": "2026-02-25T13:50:54.000",
    "date_modified": "2026-02-25T14:39:25.000",
    "case_close_date": "2026-02-25T08:39:24.000",
    "request_status": "Closed",
    "responsible_agency": "Department of Sanitation",
    "final_address": "748 S Gayoso St",
    "address_councildis": "B",
    "status": "Invalid Request",
    "contractor": "IV Waste",
    "contractor_action": "Invalid Request",
    "rowid": "1260761",
    "final_x": "3672635.34484",
    "final_y": "533557.675589",
    "longitude": "-90.09599228511689",
    "latitude": "29.96136478730376",
    "geocoded_column": {
      "latitude": "29.96136478730376",
      "longitude": "-90.09599228511689"
    }
  },
  {
    "service_request": "2026-1260760",
    "request_type": "Trash/Recycling",
    "request_reason": "Request a Large Item Pick Up",
    "date_created": "2026-02-25T13:48:16.000",
    "date_modified": "2026-02-25T13:48:18.000",
    "request_status": "Pending",
    "responsible_agency": "Department of Sanitation",
    "final_address": "11308 King Richard Dr",
    "address_councildis": "E",
    "status": "Assigned to Contractor",
    "contractor": "Waste Pro",
    "rowid": "1260760",
    "final_x": "3717314.2334",
    "final_y": "556428.16009",
    "longitude": "-89.95403647609145",
    "latitude": "30.02284756597243",
    "geocoded_column": {
      "latitude": "30.02284756597243",
      "longitude": "-89.95403647609145"
    }
  },
  {
    "service_request": "2026-1260759",
    "request_type": "Trash/Recycling",
    "request_reason": "Illegal Dumping",
    "date_created": "2026-02-25T13:42:33.000",
    "date_modified": "2026-02-25T13:43:39.000",
    "request_status": "Pending",
    "responsible_agency": "Department of Sanitation",
    "final_address": "750 S Norman C Francis Prkwy",
    "address_councildis": "B",
    "status": "Pending",
    "rowid": "1260759",
    "final_x": "3671561.74759",
    "final_y": "534316.472453",
    "longitude": "-90.09935672119532",
    "latitude": "29.963483059544206",
    "geocoded_column": {
      "latitude": "29.963483059544206",
      "longitude": "-90.09935672119532"
    }
  },
  {
    "service_request": "2026-1260758",
    "request_type": "Traffic Signals",
    "request_reason": "Traffic Signal Malfunctioning or Damaged",
    "date_created": "2026-02-25T13:41:53.000",
    "date_modified": "2026-02-25T13:41:55.000",
    "request_status": "Pending",
    "responsible_agency": "Department of Public Works",
    "final_address": "ELYSIAN FIELDS AVE & I 610 W ONRAMP & HUMANITY ST",
    "address_councildis": "D",
    "status": "Pending",
    "rowid": "1260758",
    "final_x": "3684284.9",
    "final_y": "544769.68",
    "longitude": "-90.05881126212158",
    "latitude": "29.991842834514927",
    "geocoded_column": {
      "latitude": "29.991842834514927",
      "longitude": "-90.05881126212158"
    }
  },
  {
    "service_request": "2026-1260757",
    "request_type": "Trash/Recycling",
    "request_reason": "Request a Large Item Pick Up",
    "date_created": "2026-02-25T13:32:16.000",
    "date_modified": "2026-02-25T13:32:18.000",
    "request_status": "Pending",
    "responsible_agency": "Department of Sanitation",
    "final_address": "4417 Crowder Blvd",
    "address_councildis": "E",
    "status": "Assigned to Contractor",
    "contractor": "Waste Pro",
    "rowid": "1260757",
    "final_x": "3706696.98103",
    "final_y": "554027.917976",
    "longitude": "-89.98767335702053",
    "latitude": "30.016594970320742",
    "geocoded_column": {
      "latitude": "30.016594970320742",
      "longitude": "-89.98767335702053"
    }
  },
  {
    "service_request": "2026-1260756",
    "request_type": "Trash/Recycling",
    "request_reason": "Request a Large Item Pick Up",
    "date_created": "2026-02-25T13:32:12.000",
    "date_modified": "2026-02-25T13:32:13.000",
    "request_status": "Pending",
    "responsible_agency": "Department of Sanitation",
    "final_address": "3181 Potomac St",
    "address_councildis": "C",
    "status": "Assigned to Contractor",
    "contractor": "Richards Disposal",
    "rowid": "1260756",
    "final_x": "3694332.21251",
    "final_y": "517999.183798",
    "longitude": "-90.02803735234588",
    "latitude": "29.91792221962188",
    "geocoded_column": {
      "latitude": "29.91792221962188",
      "longitude": "-90.02803735234588"
    }
  },
  {
    "service_request": "2026-1260755",
    "request_type": "Trash/Recycling",
    "request_reason": "Repair Trash Cart",
    "date_created": "2026-02-25T13:29:24.000",
    "date_modified": "2026-02-25T15:08:26.000",
    "request_status": "Pending",
    "responsible_agency": "Department of Sanitation",
    "final_address": "5200 Chamberlain Dr",
    "address_councildis": "D",
    "status": "Assigned to Contractor",
    "contractor": "IV Waste",
    "rowid": "1260755",
    "final_x": "3679462.88687",
    "final_y": "551355.285909",
    "longitude": "-90.07381432572323",
    "latitude": "30.01009750535676",
    "geocoded_column": {
      "latitude": "30.01009750535676",
      "longitude": "-90.07381432572323"
    }
  },
  {
    "service_request": "2026-1260754",
    "request_type": "Abandoned Vehicles",
    "request_reason": "Abandoned/Junk Vehicles",
    "date_created": "2026-02-25T13:28:41.000",
    "date_modified": "2026-02-25T13:28:43.000",
    "request_status": "Pending",
    "responsible_agency": "Department of Public Works",
    "final_address": "6208 Cambridge St",
    "address_councildis": "C",
    "status": "Pending",
    "rowid": "1260754",
    "final_x": "3707030.04587",
    "final_y": "518465.877878",
    "longitude": "-89.98794030919174",
    "latitude": "29.91880162366806",
    "geocoded_column": {
      "latitude": "29.91880162366806",
      "longitude": "-89.98794030919174"
    }
  },
  {
    "service_request": "2026-1260753",
    "request_type": "Trash/Recycling",
    "request_reason": "Request a Large Item Pick Up",
    "date_created": "2026-02-25T13:23:45.000",
    "date_modified": "2026-02-25T13:23:47.000",
    "request_status": "Pending",
    "responsible_agency": "Department of Sanitation",
    "final_address": "6552 Virgilian St",
    "address_councildis": "D",
    "status": "Assigned to Contractor",
    "contractor": "Waste Pro",
    "rowid": "1260753",
    "final_x": "3697192.93136",
    "final_y": "555436.854617",
    "longitude": "-90.01765082661952",
    "latitude": "30.020772486847964",
    "geocoded_column": {
      "latitude": "30.020772486847964",
      "longitude": "-90.01765082661952"
    }
  },
  {
    "service_request": "2026-1260752",
    "request_type": "Trash/Recycling",
    "request_reason": "Request a Large Item Pick Up",
    "date_created": "2026-02-25T13:17:24.000",
    "date_modified": "2026-02-25T13:17:26.000",
    "request_status": "Pending",
    "responsible_agency": "Department of Sanitation",
    "final_address": "1708 Lark St",
    "address_councildis": "D",
    "status": "Assigned to Contractor",
    "contractor": "IV Waste",
    "rowid": "1260752",
    "final_x": "3678671.74549",
    "final_y": "557638.146971",
    "longitude": "-90.076096036751",
    "latitude": "30.027396982718063",
    "geocoded_column": {
      "latitude": "30.027396982718063",
      "longitude": "-90.076096036751"
    }
  },