[
  {
    "service_request": "2025-1160717",
    "request_type": "Trash/Recycling",
    "request_reason": "Order Recycling Cart",
    "date_created": "2025-01-08T23:33:24.000",
    "date_modified": "2025-01-08T23:33:27.000",
    "request_status": "Pending",
    "responsible_agency": "Department of Sanitation",
    "final_address": "825 Alvar St",
    "address_councildis": "C",
    "status": "Pending",
    "rowid": "1160717",
    "final_x": "3691291.69648",
    "final_y": "534446.598213",
    "longitude": "-90.03704724008973",
    "latitude": "29.9632418753912",
    "geocoded_column": {
      "latitude": "29.9632418753912",
      "longitude": "-90.03704724008973"
    }
  },
  {
    "service_request": "2025-1160716",
    "request_type": "Trash/Recycling",
    "request_reason": "Replace Trash Cart",
    "date_created": "2025-01-08T22:35:51.000",
    "date_modified": "2025-01-08T22:35:52.000",
    "request_status": "Pending",
    "responsible_agency": "Department of Sanitation",
    "final_address": "3017 Baudin St",
    "address_councildis": "B",
    "status": "Assigned to Contractor",
    "contractor": "IV Waste",
    "rowid": "1160716",
    "final_x": "3673268.27969",
    "final_y": "534713.16071",
    "longitude": "-90.09395411679513",
    "latitude": "29.964523175636135",
    "geocoded_column": {
      "latitude": "29.964523175636135",
      "longitude": "-90.09395411679513"
    }
  },
  {
    "service_request": "2025-1160715",
    "request_type": "Abandoned Vehicles",
    "request_reason": "Vehicle Blocking Your Driveway",
    "date_created": "2025-01-08T22:13:30.000",
    "date_modified": "2025-01-08T22:13:35.000",
    "request_status": "Pending",
    "responsible_agency": "Department of Public Works",
    "final_address": "6232 N Rampart St",
    "address_councildis": "E",
    "status": "Pending",
    "rowid": "1160715",
    "final_x": "3699881.2794",
    "final_y": "532634.43962",
    "longitude": "-90.00998858926751",
    "latitude": "29.957989096008358",
    "geocoded_column": {
      "latitude": "29.957989096008358",
      "longitude": "-90.00998858926751"
    }
  },
  {
    "service_request": "2025-1160714",
    "request_type": "Streetlights",
    "request_reason": "Streetlight Outage/Malfunction",
    "date_created": "2025-01-08T21:38:25.000",
    "date_modified": "2025-01-08T21:38:26.000",
    "request_status": "Pending",
    "responsible_agency": "Department of Public Works",
    "final_address": "9890 E Rockton Cir",
    "address_councildis": "E",
    "status": "Pending",
    "contractor": "Legacy Professional Services",
    "rowid": "1160714",
    "final_x": "3708821.27755",
    "final_y": "563118.881184",
    "longitude": "-89.98062245458975",
    "latitude": "30.0415227769215",
    "geocoded_column": {
      "latitude": "30.0415227769215",
      "longitude": "-89.98062245458975"
    }
  },
  {
    "service_request": "2025-1160713",
    "request_type": "Trash/Recycling",
    "request_reason": "Request a Large Item Pick Up",
    "date_created": "2025-01-08T21:16:12.000",
    "date_modified": "2025-01-08T21:16:13.000",
    "request_status": "Pending",
    "responsible_agency": "Department of Sanitation",
    "final_address": "6631 Coveview Ct",
    "address_councildis": "E",
    "status": "Assigned to Contractor",
    "contractor": "Waste Pro",
    "rowid": "1160713",
    "final_x": "3699176.25661",
    "final_y": "555844.405913",
    "longitude": "-90.01136928268052",
    "latitude": "30.02183033097487",
    "geocoded_column": {
      "latitude": "30.02183033097487",
      "longitude": "-90.01136928268052"
    }
  },
  {
    "service_request": "2025-1160712",
    "request_type": "Trash/Recycling",
    "request_reason": "Replace Trash Cart",
    "date_created": "2025-01-08T21:03:08.000",
    "date_modified": "2025-01-08T21:03:09.000",
    "request_status": "Pending",
    "responsible_agency": "Department of Sanitation",
    "final_address": "911 Hagan St",
    "address_councildis": "A",
    "status": "Assigned to Contractor",
    "contractor": "IV Waste",
    "rowid": "1160712",
    "final_x": "3675145.72072",
    "final_y": "539161.112522",
    "longitude": "-90.08787261557006",
    "latitude": "29.976697561213516",
    "geocoded_column": {
      "latitude": "29.976697561213516",
      "longitude": "-90.08787261557006"
    }
  },
  {
    "service_request": "2025-1160711",
    "request_type": "Trash/Recycling",
    "request_reason": "Missed Trash Pick-Up",
    "date_created": "2025-01-08T20:36:39.000",
    "date_modified": "2025-01-08T20:36:40.000",
    "request_status": "Pending",
    "responsible_agency": "Department of Sanitation",
    "final_address": "7201 Onyx St",
    "address_councildis": "D",
    "status": "Assigned to Contractor",
    "contractor": "IV Waste",
    "rowid": "1160711",
    "final_x": "3668805.46151",
    "final_y": "555184.711897",
    "longitude": "-90.10735571736906",
    "latitude": "30.020944882279668",
    "geocoded_column": {
      "latitude": "30.020944882279668",
      "longitude": "-90.10735571736906"
    }
  },
  {
    "service_request": "2025-1160710",
    "request_type": "Property Maintenance",
    "request_reason": "Property Maintenance",
    "date_created": "2025-01-08T20:21:18.000",
    "date_modified": "2025-01-08T20:21:21.000",
    "request_status": "Pending",
    "responsible_agency": "Department of Code Enforcement",
    "final_address": "1019 Valmont St",
    "address_councildis": "B",
    "status": "Pending",
    "rowid": "1160710",
    "final_x": "3667595.90804",
    "final_y": "519136.534775",
    "longitude": "-90.11239124649103",
    "latitude": "29.921859971359826",
    "geocoded_column": {
      "latitude": "29.921859971359826",
      "longitude": "-90.11239124649103"
    }
  },
  {
    "service_request": "2025-1160709",
    "request_type": "Streetlights",
    "request_reason": "Streetlight Outage/Malfunction",
    "date_created": "2025-01-08T20:15:41.000",
    "date_modified": "2025-01-08T20:15:42.000",
    "request_status": "Pending",
    "responsible_agency": "Department of Public Works",
    "final_address": "1000 BLK Dufossat St",
    "address_councildis": "B",
    "status": "Pending",
    "contractor": "Legacy Professional Services",
    "rowid": "1160709",
    "final_x": "3668061.04672",
    "final_y": "519161.825965",
    "longitude": "-90.11092214433779",
    "latitude": "29.921915877857582",
    "geocoded_column": {
      "latitude": "29.921915877857582",
      "longitude": "-90.11092214433779"
    }
  },
  {
    "service_request": "2025-1160708",
    "request_type": "Trash/Recycling",
    "request_reason": "Request a Large Item Pick Up",
    "date_created": "2025-01-08T20:15:12.000",
    "date_modified": "2025-01-08T20:15:13.000",
    "request_status": "Pending",
    "responsible_agency": "Department of Sanitation",
    "final_address": "6126 Burgundy St",
    "address_councildis": "E",
    "status": "Assigned to Contractor",
    "contractor": "Waste Pro",
    "rowid": "1160708",
    "final_x": "3699362.97712",
    "final_y": "532442.904259",
    "longitude": "-90.01163220827345",
    "latitude": "29.95747889088699",
    "geocoded_column": {
      "latitude": "29.95747889088699",
      "longitude": "-90.01163220827345"
    }
  },
  {
    "service_request": "2025-1160707",
    "request_type": "Trash/Recycling",
    "request_reason": "Request a Large Item Pick Up",
    "date_created": "2025-01-08T20:10:08.000",
    "date_modified": "2025-01-08T20:10:09.000",
    "request_status": "Pending",
    "responsible_agency": "Department of Sanitation",
    "final_address": "2616 N Villere St",
    "address_councildis": "C",
    "status": "Assigned to Contractor",
    "contractor": "IV Waste",
    "rowid": "1160707",
    "final_x": "3687539.6838",
    "final_y": "537505.851272",
    "longitude": "-90.04878733232448",
    "latitude": "29.97176993372525",
    "geocoded_column": {
      "latitude": "29.97176993372525",
      "longitude": "-90.04878733232448"
    }
  },
  {
    "service_request": "2025-1160706",
    "request_type": "Streetlights",
    "request_reason": "Streetlight Knocked Down/Leaning",
    "date_created": "2025-01-08T20:00:48.000",
    "date_modified": "2025-01-08T20:00:49.000",
    "request_status": "Pending",
    "responsible_agency": "Department of Public Works",
    "final_address": "5941 Dover Pl",
    "address_councildis": "C",
    "status": "Pending",
    "contractor": "Legacy Professional Services",
    "rowid": "1160706",
    "final_x": "3705883.89745",
    "final_y": "519042.671735",
    "longitude": "-89.99153675288943",
    "latitude": "29.920424560729938",
    "geocoded_column": {
      "latitude": "29.920424560729938",
      "longitude": "-89.99153675288943"
    }
  },
  {
    "service_request": "2025-1160705",
    "request_type": "Street and Traffic Signs",
    "request_reason": "Additional Signage Request",
    "date_created": "2025-01-08T19:58:07.000",
    "date_modified": "2025-01-08T19:58:11.000",
    "request_status": "Pending",
    "responsible_agency": "Department of Public Works",
    "final_address": "1504 Desire St",
    "address_councildis": "D",
    "status": "Pending",
    "rowid": "1160705",
    "final_x": "3690527.44163",
    "final_y": "537264.891656",
    "longitude": "-90.03936015666869",
    "latitude": "29.971014943832994",
    "geocoded_column": {
      "latitude": "29.971014943832994",
      "longitude": "-90.03936015666869"
    }
  },
  {
    "service_request": "2025-1160704",
    "request_type": "Streetlights",
    "request_reason": "Streetlight Knocked Down/Leaning",
    "date_created": "2025-01-08T19:44:52.000",
    "date_modified": "2025-01-08T19:44:53.000",
    "request_status": "Pending",
    "responsible_agency": "Department of Public Works",
    "final_address": "1500 BLK Gallier St",
    "address_councildis": "D",
    "status": "Pending",
    "contractor": "Legacy Professional Services",
    "rowid": "1160704",
    "final_x": "3690881.59228",
    "final_y": "537314.534411",
    "longitude": "-90.03823993452946",
    "latitude": "29.971140442307256",
    "geocoded_column": {
      "latitude": "29.971140442307256",
      "longitude": "-90.03823993452946"
    }
  },
  {
    "service_request": "2025-1160703",
    "request_type": "Parks & Parkways",
    "request_reason": "Request Grass Cutting Service (City Owned Property)",
    "date_created": "2025-01-08T19:37:50.000",
    "date_modified": "2025-01-08T19:37:53.000",
    "request_status": "Pending",
    "responsible_agency": "Department of Parks & Parkway",
    "final_address": "1 St Claude Ave",
    "address_councildis": "C",
    "status": "Pending",
    "rowid": "1160703",
    "final_x": "3685325.21161",
    "final_y": "536122.160839",
    "longitude": "-90.05582968586808",
    "latitude": "29.968033341817712",
    "geocoded_column": {
      "latitude": "29.968033341817712",
      "longitude": "-90.05582968586808"
    }
  },
  {
    "service_request": "2025-1160702",
    "request_type": "Trash/Recycling",
    "request_reason": "Missed Trash Pick-Up",
    "date_created": "2025-01-08T19:25:57.000",
    "date_modified": "2025-01-08T19:25:58.000",
    "request_status": "Pending",
    "responsible_agency": "Department of Sanitation",
    "final_address": "4650 Evangeline Dr",
    "address_councildis": "E",
    "status": "Assigned to Contractor",
    "contractor": "Waste Pro",
    "rowid": "1160702",
    "final_x": "3709096.80069",
    "final_y": "555182.927577",
    "longitude": "-89.98004791957973",
    "latitude": "30.01969308623968",
    "geocoded_column": {
      "latitude": "30.01969308623968",
      "longitude": "-89.98004791957973"
    }
  },
  {
    "service_request": "2025-1160701",
    "request_type": "Trash/Recycling",
    "request_reason": "Request a Large Item Pick Up",
    "date_created": "2025-01-08T19:18:47.000",
    "date_modified": "2025-01-08T19:18:48.000",
    "request_status": "Pending",
    "responsible_agency": "Department of Sanitation",
    "final_address": "2732 Danneel St",
    "address_councildis": "B",
    "status": "Assigned to Contractor",
    "contractor": "IV Waste",
    "rowid": "1160701",
    "final_x": "3675222.71118",
    "final_y": "523756.691195",
    "longitude": "-90.08815815234507",
    "latitude": "29.934338245480106",
    "geocoded_column": {
      "latitude": "29.934338245480106",
      "longitude": "-90.08815815234507"
    }
  },
  {
    "service_request": "2025-1160700",
    "request_type": "Property Maintenance",
    "request_reason": "Property Maintenance",
    "date_created": "2025-01-08T19:18:25.000",
    "date_modified": "2025-01-08T19:18:29.000",
    "request_status": "Pending",
    "responsible_agency": "Department of Code Enforcement",
    "final_address": "637 S Pierce St",
    "address_councildis": "A",
    "status": "Pending",
    "rowid": "1160700",
    "final_x": "3670057.31143",
    "final_y": "536264.767367",
    "longitude": "-90.10404157608411",
    "latitude": "29.968884683253407",
    "geocoded_column": {
      "latitude": "29.968884683253407",
      "longitude": "-90.10404157608411"
    }
  },
  {
    "service_request": "2025-1160699",
    "request_type": "Safety & Permits",
    "request_reason": "Zoning Enforcement",
    "date_created": "2025-01-08T19:10:01.000",
    "date_modified": "2025-01-08T19:10:03.000",
    "request_status": "Pending",
    "responsible_agency": "Safety and Permits",
    "final_address": "631 S Solomon St",
    "address_councildis": "A",
    "status": "Pending",
    "rowid": "1160699",
    "final_x": "3669170.07406",
    "final_y": "536920.245064",
    "longitude": "-90.10682137871427",
    "latitude": "29.97071317060881",
    "geocoded_column": {
      "latitude": "29.97071317060881",
      "longitude": "-90.10682137871427"
    }
  },
  {
    "service_request": "2025-1160698",
    "request_type": "Streetlights",
    "request_reason": "Streetlight Outage/Malfunction",
    "date_created": "2025-01-08T19:09:56.000",
    "date_modified": "2025-01-08T19:09:57.000",
    "request_status": "Pending",
    "responsible_agency": "Department of Public Works",
    "final_address": "820 Esplanade Ave",
    "address_councildis": "C",
    "status": "Pending",
    "contractor": "Legacy Professional Services",
    "rowid": "1160698",
    "final_x": "3683590.77884",
    "final_y": "534693.878022",
    "longitude": "-90.06135715182383",
    "latitude": "29.96415911366659",
    "geocoded_column": {
      "latitude": "29.96415911366659",
      "longitude": "-90.06135715182383"
    }
  },
  {
    "service_request": "2025-1160697",
    "request_type": "Trash/Recycling",
    "request_reason": "Request a Large Item Pick Up",
    "date_created": "2025-01-08T18:52:06.000",
    "date_modified": "2025-01-08T18:52:07.000",
    "request_status": "Pending",
    "responsible_agency": "Department of Sanitation",
    "final_address": "1806 Audubon St",
    "address_councildis": "A",
    "status": "Assigned to Contractor",
    "contractor": "IV Waste",
    "rowid": "1160697",
    "final_x": "3665617.16928",
    "final_y": "528184.363904",
    "longitude": "-90.11833447102542",
    "latitude": "29.946796449510195",
    "geocoded_column": {
      "latitude": "29.946796449510195",
      "longitude": "-90.11833447102542"
    }
  },
  {
    "service_request": "2025-1160696",
    "request_type": "Trash/Recycling",
    "request_reason": "Request a Large Item Pick Up",
    "date_created": "2025-01-08T18:50:18.000",
    "date_modified": "2025-01-08T18:50:19.000",
    "request_status": "Pending",
    "responsible_agency": "Department of Sanitation",
    "final_address": "2363 Magazine St",
    "address_councildis": "B",
    "status": "Assigned to Contractor",
    "contractor": "IV Waste",
    "rowid": "1160696",
    "final_x": "3678106.95451",
    "final_y": "521572.361593",
    "longitude": "-90.07912815807917",
    "latitude": "29.928245556221768",
    "geocoded_column": {
      "latitude": "29.928245556221768",
      "longitude": "-90.07912815807917"
    }
  },
  {
    "service_request": "2025-1160695",
    "request_type": "Streetlights",
    "request_reason": "Streetlight Outage/Malfunction",
    "date_created": "2025-01-08T18:38:15.000",
    "date_modified": "2025-01-08T18:38:16.000",
    "request_status": "Pending",
    "responsible_agency": "Department of Public Works",
    "final_address": "7801 Pyramid St",
    "address_councildis": "E",
    "status": "Pending",
    "contractor": "Legacy Professional Services",
    "rowid": "1160695",
    "final_x": "3714940.40037",
    "final_y": "569631.106534",
    "longitude": "-89.96103753289857",
    "latitude": "30.059228688391027",
    "geocoded_column": {
      "latitude": "30.059228688391027",
      "longitude": "-89.96103753289857"
    }
  },
  {
    "service_request": "2025-1160694",
    "request_type": "Property Maintenance",
    "request_reason": "Property Maintenance",
    "date_created": "2025-01-08T18:20:34.000",
    "date_modified": "2025-01-08T18:20:38.000",
    "request_status": "Pending",
    "responsible_agency": "Department of Code Enforcement",
    "final_address": "1512 Louisa St",
    "address_councildis": "D",
    "status": "Pending",
    "rowid": "1160694",
    "final_x": "3689931.10697",
    "final_y": "537480.02292",
    "longitude": "-90.0412357921289",
    "latitude": "29.971624982462505",
    "geocoded_column": {
      "latitude": "29.971624982462505",
      "longitude": "-90.0412357921289"
    }
  },
  {
    "service_request": "2025-1160693",
    "request_type": "Abandoned Vehicles",
    "request_reason": "Abandoned/Junk Vehicles",
    "date_created": "2025-01-08T18:06:18.000",
    "date_modified": "2025-01-08T18:06:22.000",
    "request_status": "Pending",
    "responsible_agency": "Department of Public Works",
    "final_address": "1728 Marais St",
    "address_councildis": "C",
    "status": "Pending",
    "rowid": "1160693",
    "final_x": "3683391.14057",
    "final_y": "536511.567687",
    "longitude": "-90.06192390006456",
    "latitude": "29.96916322527738",
    "geocoded_column": {
      "latitude": "29.96916322527738",
      "longitude": "-90.06192390006456"
    }
  },
  {
    "service_request": "2025-1160692",
    "request_type": "Abandoned Vehicles",
    "request_reason": "Abandoned/Junk Vehicles",
    "date_created": "2025-01-08T18:00:28.000",
    "date_modified": "2025-01-08T18:00:32.000",
    "request_status": "Pending",
    "responsible_agency": "Department of Public Works",
    "final_address": "1728 Marais St",
    "address_councildis": "C",
    "status": "Pending",
    "rowid": "1160692",
    "final_x": "3683391.14057",
    "final_y": "536511.567687",
    "longitude": "-90.06192390006456",
    "latitude": "29.96916322527738",
    "geocoded_column": {
      "latitude": "29.96916322527738",
      "longitude": "-90.06192390006456"
    }
  },
  {
    "service_request": "2025-1160691",
    "request_type": "Roads and Streets",
    "request_reason": "Pothole",
    "date_created": "2025-01-08T17:55:37.000",
    "date_modified": "2025-01-08T17:55:40.000",
    "request_status": "Pending",
    "responsible_agency": "Department of Public Works",
    "final_address": "726 Louque Pl",
    "address_councildis": "A",
    "status": "Pending",
    "rowid": "1160691",
    "final_x": "3668444.11348",
    "final_y": "543495.275342",
    "longitude": "-90.10889216615112",
    "latitude": "29.98881362905192",
    "geocoded_column": {
      "latitude": "29.98881362905192",
      "longitude": "-90.10889216615112"
    }
  },
  {
    "service_request": "2025-1160690",
    "request_type": "Traffic Signals",
    "request_reason": "Traffic Signal Malfunctioning or Damaged",
    "date_created": "2025-01-08T17:43:02.000",
    "date_modified": "2025-01-08T17:43:06.000",
    "request_status": "Pending",
    "responsible_agency": "Department of Public Works",
    "final_address": "1000 BLK N Claiborne Ave",
    "address_councildis": "D",
    "status": "Pending",
    "rowid": "1160690",
    "final_x": "3680506.62845",
    "final_y": "535674.84248",
    "longitude": "-90.07106250406953",
    "latitude": "29.96695020877149",
    "geocoded_column": {
      "latitude": "29.96695020877149",
      "longitude": "-90.07106250406953"
    }
  },
  {
    "service_request": "2025-1160689",
    "request_type": "Trash/Recycling",
    "request_reason": "Order Second Trash Cart",
    "date_created": "2025-01-08T17:26:34.000",
    "date_modified": "2025-01-08T17:26:35.000",
    "request_status": "Pending",
    "responsible_agency": "Department of Sanitation",
    "final_address": "1956 Pleasure St",
    "address_councildis": "D",
    "status": "Assigned to Contractor",
    "contractor": "IV Waste",
    "rowid": "1160689",
    "final_x": "3682603.4781",
    "final_y": "544938.662031",
    "longitude": "-90.06411660344426",
    "latitude": "29.992358793332244",
    "geocoded_column": {
      "latitude": "29.992358793332244",
      "longitude": "-90.06411660344426"
    }
  },
  {
    "service_request": "2025-1160688",
    "request_type": "Abandoned Vehicles",
    "request_reason": "Abandoned/Junk Vehicles",
    "date_created": "2025-01-08T17:20:15.000",
    "date_modified": "2025-01-08T17:20:17.000",
    "request_status": "Pending",
    "responsible_agency": "Department of Public Works",
    "final_address": "2736 Pauger St",
    "address_councildis": "D",
    "status": "Pending",
    "rowid": "1160688",
    "final_x": "3683542.49077",
    "final_y": "539791.658698",
    "longitude": "-90.06133093276641",
    "latitude": "29.978177715872707",
    "geocoded_column": {
      "latitude": "29.978177715872707",
      "longitude": "-90.06133093276641"
    }
  },
  {
    "service_request": "2025-1160687",
    "request_type": "Abandoned Vehicles",
    "request_reason": "Abandoned/Junk Vehicles",
    "date_created": "2025-01-08T17:14:43.000",
    "date_modified": "2025-01-08T17:14:48.000",
    "request_status": "Pending",
    "responsible_agency": "Department of Public Works",
    "final_address": "2730 Pauger St",
    "address_councildis": "D",
    "status": "Pending",
    "rowid": "1160687",
    "final_x": "3683454.49378",
    "final_y": "539753.079242",
    "longitude": "-90.06161021072167",
    "latitude": "29.978074321584305",
    "geocoded_column": {
      "latitude": "29.978074321584305",
      "longitude": "-90.06161021072167"
    }
  },
  {
    "service_request": "2025-1160686",
    "request_type": "Trash/Recycling",
    "request_reason": "Request a Large Item Pick Up",
    "date_created": "2025-01-08T17:09:20.000",
    "date_modified": "2025-01-08T17:09:21.000",
    "request_status": "Pending",
    "responsible_agency": "Department of Sanitation",
    "final_address": "8217 Birch St",
    "address_councildis": "A",
    "status": "Assigned to Contractor",
    "contractor": "IV Waste",
    "rowid": "1160686",
    "final_x": "3662562.19354",
    "final_y": "529790.754369",
    "longitude": "-90.12792683468498",
    "latitude": "29.95130222556222",
    "geocoded_column": {
      "latitude": "29.95130222556222",
      "longitude": "-90.12792683468498"
    }
  },
  {
    "service_request": "2025-1160685",
    "request_type": "Drainage",
    "request_reason": "Street Flooding",
    "date_created": "2025-01-08T17:08:18.000",
    "date_modified": "2025-01-08T17:08:20.000",
    "request_status": "Pending",
    "responsible_agency": "Department of Public Works",
    "final_address": "2000 BLK Charbonnet St",
    "address_councildis": "E",
    "status": "Pending",
    "rowid": "1160685",
    "final_x": "3699579.70546",
    "final_y": "537166.990742",
    "longitude": "-90.01077567057968",
    "latitude": "29.970461562584575",
    "geocoded_column": {
      "latitude": "29.970461562584575",
      "longitude": "-90.01077567057968"
    }
  },
  {
    "service_request": "2025-1160684",
    "request_type": "Trash/Recycling",
    "request_reason": "Replace Trash Cart",
    "date_created": "2025-01-08T16:54:02.000",
    "date_modified": "2025-01-08T16:54:03.000",
    "request_status": "Pending",
    "responsible_agency": "Department of Sanitation",
    "final_address": "825 Belleville St",
    "address_councildis": "C",
    "status": "Assigned to Contractor",
    "contractor": "Richards Disposal",
    "rowid": "1160684",
    "final_x": "3687752.62908",
    "final_y": "528527.57728",
    "longitude": "-90.0484327789903",
    "latitude": "29.947076219945657",
    "geocoded_column": {
      "latitude": "29.947076219945657",
      "longitude": "-90.0484327789903"
    }
  },
  {
    "service_request": "2025-1160683",
    "request_type": "Streetlights",
    "request_reason": "Streetlight Knocked Down/Leaning",
    "date_created": "2025-01-08T16:53:11.000",
    "date_modified": "2025-01-08T16:53:12.000",
    "request_status": "Pending",
    "responsible_agency": "Department of Public Works",
    "final_address": "I 610 W ONRAMP & ST BERNARD AVE & SERE ST",
    "address_councildis": "D",
    "status": "Pending",
    "contractor": "Legacy Professional Services",
    "rowid": "1160683",
    "final_x": "3678263.5",
    "final_y": "545376.28",
    "longitude": "-90.07781061264674",
    "latitude": "29.993693558296453",
    "geocoded_column": {
      "latitude": "29.993693558296453",
      "longitude": "-90.07781061264674"
    }
  },
  {
    "service_request": "2025-1160682",
    "request_type": "Trash/Recycling",
    "request_reason": "Order Recycling Cart",
    "date_created": "2025-01-08T16:50:28.000",
    "date_modified": "2025-01-08T16:50:31.000",
    "request_status": "Pending",
    "responsible_agency": "Department of Sanitation",
    "final_address": "2600 Ursulines Ave Apt 202",
    "address_councildis": "D",
    "status": "Pending",
    "rowid": "1160682",
    "final_x": "3677974.97621",
    "final_y": "537792.237768",
    "longitude": "-90.07898427118417",
    "latitude": "29.97284876443625",
    "geocoded_column": {
      "latitude": "29.97284876443625",
      "longitude": "-90.07898427118417"
    }
  },
  {
    "service_request": "2025-1160681",
    "request_type": "Trash/Recycling",
    "request_reason": "Request a Large Item Pick Up",
    "date_created": "2025-01-08T16:49:54.000",
    "date_modified": "2025-01-08T16:49:55.000",
    "request_status": "Pending",
    "responsible_agency": "Department of Sanitation",
    "final_address": "501 Wagner St",
    "address_councildis": "C",
    "status": "Assigned to Contractor",
    "contractor": "Richards Disposal",
    "rowid": "1160681",
    "final_x": "3690539.91811",
    "final_y": "529760.344321",
    "longitude": "-90.0395883498639",
    "latitude": "29.950379668468134",
    "geocoded_column": {
      "latitude": "29.950379668468134",
      "longitude": "-90.0395883498639"
    }
  },
  {
    "service_request": "2025-1160680",
    "request_type": "Roads and Streets",
    "request_reason": "ADA Ramps Damaged or Missing",
    "date_created": "2025-01-08T16:45:33.000",
    "date_modified": "2025-01-08T16:45:36.000",
    "request_status": "Pending",
    "responsible_agency": "Department of Public Works",
    "final_address": "827 Decatur St",
    "address_councildis": "C",
    "status": "Pending",
    "rowid": "1160680",
    "final_x": "3683513.18716",
    "final_y": "532513.69754",
    "longitude": "-90.06167858714835",
    "latitude": "29.95816673318754",
    "geocoded_column": {
      "latitude": "29.95816673318754",
      "longitude": "-90.06167858714835"
    }
  },
  {
    "service_request": "2025-1160679",
    "request_type": "Trash/Recycling",
    "request_reason": "Request a Large Item Pick Up",
    "date_created": "2025-01-08T16:44:47.000",
    "date_modified": "2025-01-08T16:44:48.000",
    "request_status": "Pending",
    "responsible_agency": "Department of Sanitation",
    "final_address": "640 Desire St",
    "address_councildis": "C",
    "status": "Assigned to Contractor",
    "contractor": "IV Waste",
    "rowid": "1160679",
    "final_x": "3689756.42895",
    "final_y": "534178.099589",
    "longitude": "-90.04190497891697",
    "latitude": "29.962551265797355",
    "geocoded_column": {
      "latitude": "29.962551265797355",
      "longitude": "-90.04190497891697"
    }
  },
  {
    "service_request": "2025-1160678",
    "request_type": "Trash/Recycling",
    "request_reason": "Repair Recycling Cart",
    "date_created": "2025-01-08T16:43:50.000",
    "date_modified": "2025-01-08T16:43:51.000",
    "request_status": "Pending",
    "responsible_agency": "Department of Sanitation",
    "final_address": "563 Emerald St",
    "address_councildis": "D",
    "status": "Pending",
    "rowid": "1160678",
    "final_x": "3668583.18177",
    "final_y": "555205.983641",
    "longitude": "-90.10805734087374",
    "latitude": "30.021009909484253",
    "geocoded_column": {
      "latitude": "30.021009909484253",
      "longitude": "-90.10805734087374"
    }
  },
  {
    "service_request": "2025-1160677",
    "request_type": "Trash/Recycling",
    "request_reason": "Repair Trash Cart",
    "date_created": "2025-01-08T16:43:04.000",
    "date_modified": "2025-01-08T16:43:06.000",
    "request_status": "Pending",
    "responsible_agency": "Department of Sanitation",
    "final_address": "563 Emerald St",
    "address_councildis": "D",
    "status": "Assigned to Contractor",
    "contractor": "IV Waste",
    "rowid": "1160677",
    "final_x": "3668583.18177",
    "final_y": "555205.983641",
    "longitude": "-90.10805734087374",
    "latitude": "30.021009909484253",
    "geocoded_column": {
      "latitude": "30.021009909484253",
      "longitude": "-90.10805734087374"
    }
  },
  {
    "service_request": "2025-1160676",
    "request_type": "Trash/Recycling",
    "request_reason": "Start Trash Service",
    "date_created": "2025-01-08T16:42:02.000",
    "date_modified": "2025-01-08T16:42:03.000",
    "request_status": "Pending",
    "responsible_agency": "Department of Sanitation",
    "final_address": "1527 Deslonde St",
    "address_councildis": "E",
    "status": "Assigned to Contractor",
    "contractor": "Waste Pro",
    "rowid": "1160676",
    "final_x": "3695894.03389",
    "final_y": "536099.915079",
    "longitude": "-90.02245393302734",
    "latitude": "29.96764394311479",
    "geocoded_column": {
      "latitude": "29.96764394311479",
      "longitude": "-90.02245393302734"
    }
  },
  {
    "service_request": "2025-1160675",
    "request_type": "Trash/Recycling",
    "request_reason": "Missed Trash Pick-Up",
    "date_created": "2025-01-08T16:41:36.000",
    "date_modified": "2025-01-08T16:41:37.000",
    "request_status": "Pending",
    "responsible_agency": "Department of Sanitation",
    "final_address": "1527 Deslonde St",
    "address_councildis": "E",
    "status": "Assigned to Contractor",
    "contractor": "Waste Pro",
    "rowid": "1160675",
    "final_x": "3695894.03389",
    "final_y": "536099.915079",
    "longitude": "-90.02245393302734",
    "latitude": "29.96764394311479",
    "geocoded_column": {
      "latitude": "29.96764394311479",
      "longitude": "-90.02245393302734"
    }
  },
  {
    "service_request": "2025-1160674",
    "request_type": "Parks & Parkways",
    "request_reason": "Request Tree Service (Right of Way/Public Property)",
    "date_created": "2025-01-08T16:41:21.000",
    "date_modified": "2025-01-08T16:41:22.000",
    "request_status": "Pending",
    "responsible_agency": "Department of Parks & Parkway",
    "final_address": "8331 Panola St",
    "address_councildis": "A",
    "status": "Pending",
    "rowid": "1160674",
    "final_x": "3663375.80083",
    "final_y": "531413.630851",
    "longitude": "-90.1253038281004",
    "latitude": "29.955741051328758",
    "geocoded_column": {
      "latitude": "29.955741051328758",
      "longitude": "-90.1253038281004"
    }
  },
  {
    "service_request": "2025-1160673",
    "request_type": "Trash/Recycling",
    "request_reason": "Request a Large Item Pick Up",
    "date_created": "2025-01-08T16:41:12.000",
    "date_modified": "2025-01-08T16:41:34.000",
    "request_status": "Pending",
    "responsible_agency": "Department of Sanitation",
    "final_address": "4104 State Street Dr",
    "address_councildis": "B",
    "status": "Assigned to Contractor",
    "contractor": "IV Waste",
    "rowid": "1160673",
    "final_x": "3668298.44462",
    "final_y": "530687.608386",
    "longitude": "-90.10978428275118",
    "latitude": "29.953601106925042",
    "geocoded_column": {
      "latitude": "29.953601106925042",
      "longitude": "-90.10978428275118"
    }
  },
  {
    "service_request": "2025-1160672",
    "request_type": "Property Maintenance",
    "request_reason": "Property Maintenance",
    "date_created": "2025-01-08T16:40:00.000",
    "date_modified": "2025-01-08T16:40:04.000",
    "request_status": "Pending",
    "responsible_agency": "Department of Code Enforcement",
    "final_address": "2118 Martin Luther King, Jr. Blvd",
    "address_councildis": "B",
    "status": "Pending",
    "rowid": "1160672",
    "final_x": "3677376.21288",
    "final_y": "526605.978046",
    "longitude": "-90.08126131651139",
    "latitude": "29.9421083232264",
    "geocoded_column": {
      "latitude": "29.9421083232264",
      "longitude": "-90.08126131651139"
    }
  },
  {
    "service_request": "2025-1160671",
    "request_type": "Parks & Parkways",
    "request_reason": "Request Tree Service (Right of Way/Public Property)",
    "date_created": "2025-01-08T16:37:39.000",
    "date_modified": "2025-01-08T16:37:41.000",
    "request_status": "Pending",
    "responsible_agency": "Department of Parks & Parkway",
    "final_address": "8333 Panola St",
    "address_councildis": "A",
    "status": "Pending",
    "rowid": "1160671",
    "final_x": "3663366.21344",
    "final_y": "531422.651523",
    "longitude": "-90.1253338015488",
    "latitude": "29.955766133176436",
    "geocoded_column": {
      "latitude": "29.955766133176436",
      "longitude": "-90.1253338015488"
    }
  },
  {
    "service_request": "2025-1160670",
    "request_type": "General Services",
    "request_reason": "General Service Request",
    "date_created": "2025-01-08T16:20:03.000",
    "date_modified": "2025-01-08T16:22:40.000",
    "case_close_date": "2025-01-08T10:22:40.000",
    "request_status": "Closed",
    "responsible_agency": "Orleans Parish Communication District",
    "final_address": "HIGGINS BLVD & LOUISA ST",
    "address_councildis": "D",
    "status": "Referred to Risk Management",
    "rowid": "1160670",
    "final_x": "3691902.0",
    "final_y": "545685.18",
    "longitude": "-90.03471775930684",
    "latitude": "29.99412496393352",
    "geocoded_column": {
      "latitude": "29.99412496393352",
      "longitude": "-90.03471775930684"
    }
  },
  {
    "service_request": "2025-1160669",
    "request_type": "Street and Traffic Signs",
    "request_reason": "Disabled Parking Sign Missing or Damaged",
    "date_created": "2025-01-08T16:18:32.000",
    "date_modified": "2025-01-08T16:18:33.000",
    "request_status": "Pending",
    "responsible_agency": "Department of Public Works",
    "final_address": "7915 Redfish St",
    "address_councildis": "E",
    "status": "Pending",
    "rowid": "1160669",
    "final_x": "3698653.99229",
    "final_y": "560925.39555",
    "longitude": "-90.01283447480422",
    "latitude": "30.035817657944083",
    "geocoded_column": {
      "latitude": "30.035817657944083",
      "longitude": "-90.01283447480422"
    }
  },
  {
    "service_request": "2025-1160668",
    "request_type": "Streetlights",
    "request_reason": "Streetlight Outage/Malfunction",
    "date_created": "2025-01-08T16:11:24.000",
    "date_modified": "2025-01-08T16:11:25.000",
    "request_status": "Pending",
    "responsible_agency": "Department of Public Works",
    "final_address": "CADIZ ST & BARONNE ST",
    "address_councildis": "B",
    "status": "Pending",
    "contractor": "Legacy Professional Services",
    "rowid": "1160668",
    "final_x": "3670031.1",
    "final_y": "521520.48",
    "longitude": "-90.10462366358895",
    "latitude": "29.928343488501337",
    "geocoded_column": {
      "latitude": "29.928343488501337",
      "longitude": "-90.10462366358895"
    }
  },
  {
    "service_request": "2025-1160667",
    "request_type": "Trash/Recycling",
    "request_reason": "Request a Large Item Pick Up",
    "date_created": "2025-01-08T16:09:33.000",
    "date_modified": "2025-01-08T16:09:35.000",
    "request_status": "Pending",
    "responsible_agency": "Department of Sanitation",
    "final_address": "2411 Clouet St",
    "address_councildis": "D",
    "status": "Assigned to Contractor",
    "contractor": "IV Waste",
    "rowid": "1160667",
    "final_x": "3690291.90467",
    "final_y": "540979.184267",
    "longitude": "-90.03997160655305",
    "latitude": "29.98123524299503",
    "geocoded_column": {
      "latitude": "29.98123524299503",
      "longitude": "-90.03997160655305"
    }
  },
  {
    "service_request": "2025-1160666",
    "request_type": "Trash/Recycling",
    "request_reason": "Request a Large Item Pick Up",
    "date_created": "2025-01-08T16:07:44.000",
    "date_modified": "2025-01-08T16:07:45.000",
    "request_status": "Pending",
    "responsible_agency": "Department of Sanitation",
    "final_address": "6660 Curran Rd",
    "address_councildis": "E",
    "status": "Assigned to Contractor",
    "contractor": "Waste Pro",
    "rowid": "1160666",
    "final_x": "3697741.30992",
    "final_y": "559861.733789",
    "longitude": "-90.01575735346528",
    "latitude": "30.032921887471993",
    "geocoded_column": {
      "latitude": "30.032921887471993",
      "longitude": "-90.01575735346528"
    }
  },
  {
    "service_request": "2025-1160665",
    "request_type": "Abandoned Vehicles",
    "request_reason": "Abandoned/Junk Vehicles",
    "date_created": "2025-01-08T16:02:48.000",
    "date_modified": "2025-01-08T16:02:52.000",
    "request_status": "Pending",
    "responsible_agency": "Department of Public Works",
    "final_address": "2517 Soniat St",
    "address_councildis": "B",
    "status": "Pending",
    "rowid": "1160665",
    "final_x": "3668576.81396",
    "final_y": "524788.205308",
    "longitude": "-90.10910432863942",
    "latitude": "29.937371487489603",
    "geocoded_column": {
      "latitude": "29.937371487489603",
      "longitude": "-90.10910432863942"
    }
  },
  {
    "service_request": "2025-1160664",
    "request_type": "Trash/Recycling",
    "request_reason": "Request a Large Item Pick Up",
    "date_created": "2025-01-08T16:00:31.000",
    "date_modified": "2025-01-08T16:00:32.000",
    "request_status": "Pending",
    "responsible_agency": "Department of Sanitation",
    "final_address": "1526 Pauger St",
    "address_councildis": "C",
    "status": "Assigned to Contractor",
    "contractor": "IV Waste",
    "rowid": "1160664",
    "final_x": "3683890.07209",
    "final_y": "535352.817926",
    "longitude": "-90.0603888938303",
    "latitude": "29.96596183235175",
    "geocoded_column": {
      "latitude": "29.96596183235175",
      "longitude": "-90.0603888938303"
    }
  },
  {
    "service_request": "2025-1160663",
    "request_type": "Trash/Recycling",
    "request_reason": "Replace Trash Cart",
    "date_created": "2025-01-08T16:00:18.000",
    "date_modified": "2025-01-08T16:00:19.000",
    "request_status": "Pending",
    "responsible_agency": "Department of Sanitation",
    "final_address": "8000 Nelson St",
    "address_councildis": "A",
    "status": "Assigned to Contractor",
    "contractor": "IV Waste",
    "rowid": "1160663",
    "final_x": "3665397.29492",
    "final_y": "531537.851395",
    "longitude": "-90.11891647859561",
    "latitude": "29.9560238613822",
    "geocoded_column": {
      "latitude": "29.9560238613822",
      "longitude": "-90.11891647859561"
    }
  },
  {
    "service_request": "2025-1160662",
    "request_type": "Trash/Recycling",
    "request_reason": "Request a Large Item Pick Up",
    "date_created": "2025-01-08T15:59:37.000",
    "date_modified": "2025-01-08T15:59:37.000",
    "request_status": "Pending",
    "responsible_agency": "Department of Sanitation",
    "final_address": "1608 S Norman C Francis Prkwy",
    "address_councildis": "B",
    "status": "Assigned to Contractor",
    "contractor": "IV Waste",
    "rowid": "1160662",
    "final_x": "3669525.36366",
    "final_y": "531169.341826",
    "longitude": "-90.10589388221253",
    "latitude": "29.954889634395727",
    "geocoded_column": {
      "latitude": "29.954889634395727",
      "longitude": "-90.10589388221253"
    }
  },
  {
    "service_request": "2025-1160661",
    "request_type": "Trash/Recycling",
    "request_reason": "Request a Large Item Pick Up",
    "date_created": "2025-01-08T15:57:05.000",
    "date_modified": "2025-01-08T15:57:06.000",
    "request_status": "Pending",
    "responsible_agency": "Department of Sanitation",
    "final_address": "603 French St",
    "address_councildis": "A",
    "status": "Assigned to Contractor",
    "contractor": "IV Waste",
    "rowid": "1160661",
    "final_x": "3668255.75623",
    "final_y": "548686.776659",
    "longitude": "-90.10931195859611",
    "latitude": "30.003094002945982",
    "geocoded_column": {
      "latitude": "30.003094002945982",
      "longitude": "-90.10931195859611"
    }
  },
  {
    "service_request": "2025-1160660",
    "request_type": "Trash/Recycling",
    "request_reason": "Replace Recycling Cart",
    "date_created": "2025-01-08T15:46:53.000",
    "date_modified": "2025-01-08T15:46:56.000",
    "request_status": "Pending",
    "responsible_agency": "Department of Sanitation",
    "final_address": "4606 Allen St",
    "address_councildis": "D",
    "status": "Pending",
    "rowid": "1160660",
    "final_x": "3681670.93852",
    "final_y": "549459.087635",
    "longitude": "-90.06690449462505",
    "latitude": "30.004816721564453",
    "geocoded_column": {
      "latitude": "30.004816721564453",
      "longitude": "-90.06690449462505"
    }
  },
  {
    "service_request": "2025-1160659",
    "request_type": "Trash/Recycling",
    "request_reason": "Request a Large Item Pick Up",
    "date_created": "2025-01-08T15:44:07.000",
    "date_modified": "2025-01-08T15:44:09.000",
    "request_status": "Pending",
    "responsible_agency": "Department of Sanitation",
    "final_address": "8001 Parry St",
    "address_councildis": "E",
    "status": "Assigned to Contractor",
    "contractor": "Waste Pro",
    "rowid": "1160659",
    "final_x": "3713696.91743",
    "final_y": "569535.793766",
    "longitude": "-89.96497164486468",
    "latitude": "30.05900750699938",
    "geocoded_column": {
      "latitude": "30.05900750699938",
      "longitude": "-89.96497164486468"
    }
  },
  {
    "service_request": "2025-1160658",
    "request_type": "Drainage",
    "request_reason": "Catch Basin Damaged",
    "date_created": "2025-01-08T15:42:54.000",
    "date_modified": "2025-01-08T15:45:08.000",
    "request_status": "Pending",
    "responsible_agency": "Department of Public Works",
    "final_address": "8635 Palm St",
    "address_councildis": "A",
    "status": "Inspected",
    "rowid": "1160658",
    "final_x": "3666219.47789",
    "final_y": "536128.236743",
    "longitude": "-90.11616632550702",
    "latitude": "29.96862192415077",
    "geocoded_column": {
      "latitude": "29.96862192415077",
      "longitude": "-90.11616632550702"
    }
  },
  {
    "service_request": "2025-1160657",
    "request_type": "Trash/Recycling",
    "request_reason": "Request a Large Item Pick Up",
    "date_created": "2025-01-08T15:42:19.000",
    "date_modified": "2025-01-08T15:46:57.000",
    "request_status": "Pending",
    "responsible_agency": "Department of Sanitation",
    "final_address": "302 S Scott St, New Orleans, Louisiana, 70119",
    "address_councildis": "A",
    "contractor": "IV Waste",
    "rowid": "1160657",
    "final_x": "3671294.31003",
    "final_y": "537134.281224",
    "longitude": "-90.10010549253754",
    "latitude": "29.97123900551795",
    "geocoded_column": {
      "latitude": "29.97123900551795",
      "longitude": "-90.10010549253754"
    }
  },
  {
    "service_request": "2025-1160656",
    "request_type": "Abandoned Vehicles",
    "request_reason": "Abandoned/Junk Vehicles",
    "date_created": "2025-01-08T15:41:41.000",
    "date_modified": "2025-01-08T15:43:11.000",
    "request_status": "Pending",
    "responsible_agency": "Department of Public Works",
    "final_address": "1919 Fern St",
    "address_councildis": "A",
    "status": "Pending",
    "rowid": "1160656",
    "final_x": "3664326.86727",
    "final_y": "529762.343553",
    "longitude": "-90.12235578809329",
    "latitude": "29.951172941915413",
    "geocoded_column": {
      "latitude": "29.951172941915413",
      "longitude": "-90.12235578809329"
    }
  },
  {
    "service_request": "2025-1160655",
    "request_type": "Trash/Recycling",
    "request_reason": "Request a Large Item Pick Up",
    "date_created": "2025-01-08T15:39:16.000",
    "date_modified": "2025-01-08T15:39:17.000",
    "request_status": "Pending",
    "responsible_agency": "Department of Sanitation",
    "final_address": "906 Esplanade Ave",
    "address_councildis": "C",
    "status": "Assigned to Contractor",
    "contractor": "IV Waste",
    "rowid": "1160655",
    "final_x": "3683378.62645",
    "final_y": "534860.863494",
    "longitude": "-90.06202125929862",
    "latitude": "29.964624740171125",
    "geocoded_column": {
      "latitude": "29.964624740171125",
      "longitude": "-90.06202125929862"
    }
  },
  {
    "service_request": "2025-1160654",
    "request_type": "Roads and Streets",
    "request_reason": "Pothole",
    "date_created": "2025-01-08T15:32:45.000",
    "date_modified": "2025-01-08T15:32:47.000",
    "request_status": "Pending",
    "responsible_agency": "Department of Public Works",
    "final_address": "2929 St Anthony Ave",
    "address_councildis": "D",
    "status": "Pending",
    "rowid": "1160654",
    "final_x": "3683023.2886",
    "final_y": "543410.32315",
    "longitude": "-90.0628440337822",
    "latitude": "29.988143609832953",
    "geocoded_column": {
      "latitude": "29.988143609832953",
      "longitude": "-90.0628440337822"
    }
  },
  {
    "service_request": "2025-1160653",
    "request_type": "Property Maintenance",
    "request_reason": "Property Maintenance",
    "date_created": "2025-01-08T15:28:15.000",
    "date_modified": "2025-01-08T15:28:18.000",
    "request_status": "Pending",
    "responsible_agency": "Department of Code Enforcement",
    "final_address": "1226 Chartres St",
    "address_councildis": "C",
    "status": "Pending",
    "rowid": "1160653",
    "final_x": "3684094.43036",
    "final_y": "533834.039365",
    "longitude": "-90.05979684493936",
    "latitude": "29.961779470478238",
    "geocoded_column": {
      "latitude": "29.961779470478238",
      "longitude": "-90.05979684493936"
    }
  },
  {
    "service_request": "2025-1160652",
    "request_type": "Trash/Recycling",
    "request_reason": "Order Second Trash Cart",
    "date_created": "2025-01-08T15:27:43.000",
    "date_modified": "2025-01-08T15:27:44.000",
    "request_status": "Pending",
    "responsible_agency": "Department of Sanitation",
    "final_address": "6746 Deanne St",
    "address_councildis": "D",
    "status": "Assigned to Contractor",
    "contractor": "Waste Pro",
    "rowid": "1160652",
    "final_x": "3695858.9343",
    "final_y": "555542.895705",
    "longitude": "-90.02186200943933",
    "latitude": "30.021106109156342",
    "geocoded_column": {
      "latitude": "30.021106109156342",
      "longitude": "-90.02186200943933"
    }
  },
  {
    "service_request": "2025-1160651",
    "request_type": "Trash/Recycling",
    "request_reason": "Repair Trash Cart",
    "date_created": "2025-01-08T15:24:23.000",
    "date_modified": "2025-01-08T15:24:24.000",
    "request_status": "Pending",
    "responsible_agency": "Department of Sanitation",
    "final_address": "3727 Piedmont Dr",
    "address_councildis": "D",
    "status": "Assigned to Contractor",
    "contractor": "IV Waste",
    "rowid": "1160651",
    "final_x": "3685779.33257",
    "final_y": "546645.591441",
    "longitude": "-90.05402451412408",
    "latitude": "29.99695512800225",
    "geocoded_column": {
      "latitude": "29.99695512800225",
      "longitude": "-90.05402451412408"
    }
  },
  {
    "service_request": "2025-1160650",
    "request_type": "Roads and Streets",
    "request_reason": "Sidewalk Damaged or Missing",
    "date_created": "2025-01-08T15:24:00.000",
    "date_modified": "2025-01-08T15:25:40.000",
    "request_status": "Pending",
    "responsible_agency": "Department of Public Works",
    "final_address": "8217 Panola St",
    "address_councildis": "A",
    "status": "Inspected",
    "rowid": "1160650",
    "final_x": "3663740.33421",
    "final_y": "531080.636546",
    "longitude": "-90.12416385078288",
    "latitude": "29.95481485253596",
    "geocoded_column": {
      "latitude": "29.95481485253596",
      "longitude": "-90.12416385078288"
    }
  },
  {
    "service_request": "2025-1160649",
    "request_type": "Trash/Recycling",
    "request_reason": "Order Trash Cart",
    "date_created": "2025-01-08T15:21:41.000",
    "date_modified": "2025-01-08T15:21:42.000",
    "request_status": "Pending",
    "responsible_agency": "Department of Sanitation",
    "final_address": "3150 N Roman St",
    "address_councildis": "D",
    "status": "Assigned to Contractor",
    "contractor": "IV Waste",
    "rowid": "1160649",
    "final_x": "3690033.412",
    "final_y": "538444.706441",
    "longitude": "-90.04087833416314",
    "latitude": "29.974274349007786",
    "geocoded_column": {
      "latitude": "29.974274349007786",
      "longitude": "-90.04087833416314"
    }
  },
  {
    "service_request": "2025-1160648",
    "request_type": "Trash/Recycling",
    "request_reason": "Request a Large Item Pick Up",
    "date_created": "2025-01-08T15:17:06.000",
    "date_modified": "2025-01-08T15:17:07.000",
    "request_status": "Pending",
    "responsible_agency": "Department of Sanitation",
    "final_address": "1744 Reynes St",
    "address_councildis": "E",
    "status": "Assigned to Contractor",
    "contractor": "Waste Pro",
    "rowid": "1160648",
    "final_x": "3696607.44944",
    "final_y": "536856.916424",
    "longitude": "-90.02017356438172",
    "latitude": "29.969702965342986",
    "geocoded_column": {
      "latitude": "29.969702965342986",
      "longitude": "-90.02017356438172"
    }
  },
  {
    "service_request": "2025-1160647",
    "request_type": "Trash/Recycling",
    "request_reason": "Request a Large Item Pick Up",
    "date_created": "2025-01-08T15:16:22.000",
    "date_modified": "2025-01-08T15:16:23.000",
    "request_status": "Pending",
    "responsible_agency": "Department of Sanitation",
    "final_address": "6409 St Roch Ave",
    "address_councildis": "D",
    "status": "Assigned to Contractor",
    "contractor": "IV Waste",
    "rowid": "1160647",
    "final_x": "3684957.47356",
    "final_y": "556762.005338",
    "longitude": "-90.05626455105921",
    "latitude": "30.024796783263774",
    "geocoded_column": {
      "latitude": "30.024796783263774",
      "longitude": "-90.05626455105921"
    }
  },
  {
    "service_request": "2025-1160646",
    "request_type": "Property Maintenance",
    "request_reason": "Property Maintenance",
    "date_created": "2025-01-08T15:12:33.000",
    "date_modified": "2025-01-08T15:30:45.000",
    "case_close_date": "2025-01-08T09:30:45.000",
    "request_status": "Closed",
    "responsible_agency": "Department of Code Enforcement",
    "final_address": "100 Veterans Blvd",
    "address_councildis": "A",
    "status": "Referred to Code Enforcement",
    "rowid": "1160646",
    "final_x": "3665782.41946",
    "final_y": "547184.399441",
    "longitude": "-90.11717599852675",
    "latitude": "29.99903539956277",
    "geocoded_column": {
      "latitude": "29.99903539956277",
      "longitude": "-90.11717599852675"
    }
  },
  {
    "service_request": "2025-1160645",
    "request_type": "Drainage",
    "request_reason": "Catch Basin Damaged",
    "date_created": "2025-01-08T15:12:00.000",
    "date_modified": "2025-01-08T15:12:01.000",
    "request_status": "Pending",
    "responsible_agency": "Department of Public Works",
    "final_address": "PARIS RD & I 510 S & I 10 W ONRAMP",
    "address_councildis": "E",
    "status": "Pending",
    "rowid": "1160645",
    "final_x": "3721638.2",
    "final_y": "571143.88",
    "longitude": "-89.93980842005682",
    "latitude": "30.06316591952011",
    "geocoded_column": {
      "latitude": "30.06316591952011",
      "longitude": "-89.93980842005682"
    }
  },
  {
    "service_request": "2025-1160644",
    "request_type": "Trash/Recycling",
    "request_reason": "Request a Large Item Pick Up",
    "date_created": "2025-01-08T15:09:58.000",
    "date_modified": "2025-01-08T15:09:59.000",
    "request_status": "Pending",
    "responsible_agency": "Department of Sanitation",
    "final_address": "4711 Major Dr",
    "address_councildis": "E",
    "status": "Assigned to Contractor",
    "contractor": "Waste Pro",
    "rowid": "1160644",
    "final_x": "3718353.69081",
    "final_y": "556736.878682",
    "longitude": "-89.95074029780515",
    "latitude": "30.023661973505387",
    "geocoded_column": {
      "latitude": "30.023661973505387",
      "longitude": "-89.95074029780515"
    }
  },
  {
    "service_request": "2025-1160643",
    "request_type": "Trash/Recycling",
    "request_reason": "Illegal Dumping",
    "date_created": "2025-01-08T15:09:46.000",
    "date_modified": "2025-01-08T15:09:48.000",
    "request_status": "Pending",
    "responsible_agency": "Department of Sanitation",
    "final_address": "6046 Pines Blvd",
    "address_councildis": "D",
    "status": "Pending",
    "rowid": "1160643",
    "final_x": "3696179.09315",
    "final_y": "556071.181913",
    "longitude": "-90.02083128310183",
    "latitude": "30.022548616501496",
    "geocoded_column": {
      "latitude": "30.022548616501496",
      "longitude": "-90.02083128310183"
    }
  },
  {
    "service_request": "2025-1160642",
    "request_type": "Healthy Homes",
    "request_reason": "Healthy Homes",
    "date_created": "2025-01-08T15:07:40.000",
    "date_modified": "2025-01-08T15:37:29.000",
    "case_close_date": "2025-01-08T09:37:29.000",
    "request_status": "Closed",
    "responsible_agency": "Department of Code Enforcement",
    "final_address": "5131 Bundy Rd Apt U13",
    "address_councildis": "E",
    "status": "Referred to Code Enforcement",
    "rowid": "1160642",
    "final_x": "3710069.76593",
    "final_y": "557510.540891",
    "longitude": "-89.97688663566824",
    "latitude": "30.026061479147305",
    "geocoded_column": {
      "latitude": "30.026061479147305",
      "longitude": "-89.97688663566824"
    }
  },
  {
    "service_request": "2025-1160641",
    "request_type": "Trash/Recycling",
    "request_reason": "Illegal Dumping",
    "date_created": "2025-01-08T15:07:07.000",
    "date_modified": "2025-01-08T15:07:10.000",
    "request_status": "Pending",
    "responsible_agency": "Department of Sanitation",
    "final_address": "6045 Pines Blvd",
    "address_councildis": "D",
    "status": "Pending",
    "rowid": "1160641",
    "final_x": "3696160.49968",
    "final_y": "556142.66857",
    "longitude": "-90.02088744651574",
    "latitude": "30.022745763298637",
    "geocoded_column": {
      "latitude": "30.022745763298637",
      "longitude": "-90.02088744651574"
    }
  },
  {
    "service_request": "2025-1160640",
    "request_type": "Trash/Recycling",
    "request_reason": "Request a Large Item Pick Up",
    "date_created": "2025-01-08T15:05:56.000",
    "date_modified": "2025-01-08T15:05:57.000",
    "request_status": "Pending",
    "responsible_agency": "Department of Sanitation",
    "final_address": "1823 Prytania St",
    "address_councildis": "B",
    "status": "Assigned to Contractor",
    "contractor": "IV Waste",
    "rowid": "1160640",
    "final_x": "3678753.23317",
    "final_y": "524036.89446",
    "longitude": "-90.0770026977678",
    "latitude": "29.9350027465606",
    "geocoded_column": {
      "latitude": "29.9350027465606",
      "longitude": "-90.0770026977678"
    }
  },
  {
    "service_request": "2025-1160639",
    "request_type": "Trash/Recycling",
    "request_reason": "Order Trash Cart",
    "date_created": "2025-01-08T15:01:30.000",
    "date_modified": "2025-01-08T15:01:31.000",
    "request_status": "Pending",
    "responsible_agency": "Department of Sanitation",
    "final_address": "2322 S Prieur St",
    "address_councildis": "B",
    "status": "Assigned to Contractor",
    "contractor": "IV Waste",
    "rowid": "1160639",
    "final_x": "3673770.25268",
    "final_y": "528318.596032",
    "longitude": "-90.09258758204798",
    "latitude": "29.946925311847775",
    "geocoded_column": {
      "latitude": "29.946925311847775",
      "longitude": "-90.09258758204798"
    }
  },
  {
    "service_request": "2025-1160638",
    "request_type": "Trash/Recycling",
    "request_reason": "Request a Large Item Pick Up",
    "date_created": "2025-01-08T14:59:56.000",
    "date_modified": "2025-01-08T15:15:17.000",
    "request_status": "Pending",
    "responsible_agency": "Department of Sanitation",
    "final_address": "3001 Marigny St",
    "address_councildis": "D",
    "status": "Assigned to Contractor",
    "contractor": "IV Waste",
    "rowid": "1160638",
    "final_x": "3684868.08303",
    "final_y": "543747.733326",
    "longitude": "-90.05700506964357",
    "latitude": "29.98901499558169",
    "geocoded_column": {
      "latitude": "29.98901499558169",
      "longitude": "-90.05700506964357"
    }
  },
  {
    "service_request": "2025-1160637",
    "request_type": "Trash/Recycling",
    "request_reason": "Repair Trash Cart",
    "date_created": "2025-01-08T14:58:49.000",
    "date_modified": "2025-01-08T14:58:50.000",
    "request_status": "Pending",
    "responsible_agency": "Department of Sanitation",
    "final_address": "6374 Canal Blvd",
    "address_councildis": "A",
    "status": "Assigned to Contractor",
    "contractor": "IV Waste",
    "rowid": "1160637",
    "final_x": "3668584.69095",
    "final_y": "549897.928276",
    "longitude": "-90.10823189347674",
    "latitude": "30.00641458225128",
    "geocoded_column": {
      "latitude": "30.00641458225128",
      "longitude": "-90.10823189347674"
    }
  },
  {
    "service_request": "2025-1160636",
    "request_type": "Trash/Recycling",
    "request_reason": "Repair Recycling Cart",
    "date_created": "2025-01-08T14:57:00.000",
    "date_modified": "2025-01-08T15:23:39.000",
    "request_status": "Pending",
    "responsible_agency": "Department of Sanitation",
    "final_address": "831 Pacific Ave",
    "address_councildis": "C",
    "contractor": "Richards Disposal",
    "rowid": "1160636",
    "final_x": "3688403.64739",
    "final_y": "528426.378816",
    "longitude": "-90.04638086550617",
    "latitude": "29.94677786941864",
    "geocoded_column": {
      "latitude": "29.94677786941864",
      "longitude": "-90.04638086550617"
    }
  },
  {
    "service_request": "2025-1160635",
    "request_type": "Abandoned Vehicles",
    "request_reason": "Abandoned/Junk Vehicles",
    "date_created": "2025-01-08T14:56:04.000",
    "date_modified": "2025-01-08T14:56:33.000",
    "request_status": "Pending",
    "responsible_agency": "Department of Public Works",
    "final_address": "2100 BLK Clio St",
    "address_councildis": "B",
    "status": "Inspected",
    "rowid": "1160635",
    "final_x": "3677638.61549",
    "final_y": "527670.223319",
    "longitude": "-90.08039611328026",
    "latitude": "29.945026758349954",
    "geocoded_column": {
      "latitude": "29.945026758349954",
      "longitude": "-90.08039611328026"
    }
  },
  {
    "service_request": "2025-1160634",
    "request_type": "Trash/Recycling",
    "request_reason": "Request a Large Item Pick Up",
    "date_created": "2025-01-08T14:52:37.000",
    "date_modified": "2025-01-08T14:53:32.000",
    "request_status": "Pending",
    "responsible_agency": "Department of Sanitation",
    "final_address": "4719 Cleveland Ave",
    "address_councildis": "A",
    "status": "Assigned to Contractor",
    "contractor": "IV Waste",
    "rowid": "1160634",
    "final_x": "3668767.78606",
    "final_y": "539668.76033",
    "longitude": "-90.10799903354993",
    "latitude": "29.97828249819671",
    "geocoded_column": {
      "latitude": "29.97828249819671",
      "longitude": "-90.10799903354993"
    }
  },
  {
    "service_request": "2025-1160633",
    "request_type": "Abandoned Vehicles",
    "request_reason": "Abandoned/Junk Vehicles",
    "date_created": "2025-01-08T14:51:16.000",
    "date_modified": "2025-01-08T14:51:35.000",
    "request_status": "Pending",
    "responsible_agency": "Department of Public Works",
    "final_address": "1200 BLK Freret St",
    "address_councildis": "B",
    "status": "Inspected",
    "rowid": "1160633",
    "final_x": "3676817.792",
    "final_y": "527972.294237",
    "longitude": "-90.08297730103945",
    "latitude": "29.94588200717631",
    "geocoded_column": {
      "latitude": "29.94588200717631",
      "longitude": "-90.08297730103945"
    }
  },
  {
    "service_request": "2025-1160632",
    "request_type": "Graffiti Removal",
    "request_reason": "Graffiti Removal",
    "date_created": "2025-01-08T14:48:09.000",
    "date_modified": "2025-01-08T14:48:12.000",
    "request_status": "Pending",
    "responsible_agency": "Department of Code Enforcement",
    "final_address": "1331 Prytania St",
    "address_councildis": "B",
    "status": "Pending",
    "rowid": "1160632",
    "final_x": "3679823.01039",
    "final_y": "525614.153469",
    "longitude": "-90.07357067614024",
    "latitude": "29.939307391958764",
    "geocoded_column": {
      "latitude": "29.939307391958764",
      "longitude": "-90.07357067614024"
    }
  },
  {
    "service_request": "2025-1160631",
    "request_type": "Roads and Streets",
    "request_reason": "Sidewalk Damaged or Missing",
    "date_created": "2025-01-08T14:45:47.000",
    "date_modified": "2025-01-08T14:45:48.000",
    "request_status": "Pending",
    "responsible_agency": "Department of Public Works",
    "final_address": "1331 Prytania St",
    "address_councildis": "B",
    "status": "Pending",
    "rowid": "1160631",
    "final_x": "3679823.01039",
    "final_y": "525614.153469",
    "longitude": "-90.07357067614024",
    "latitude": "29.939307391958764",
    "geocoded_column": {
      "latitude": "29.939307391958764",
      "longitude": "-90.07357067614024"
    }
  },
  {
    "service_request": "2025-1160630",
    "request_type": "Trash/Recycling",
    "request_reason": "Request a Large Item Pick Up",
    "date_created": "2025-01-08T14:45:35.000",
    "date_modified": "2025-01-08T14:45:36.000",
    "request_status": "Pending",
    "responsible_agency": "Department of Sanitation",
    "final_address": "2518 Constance St",
    "address_councildis": "B",
    "status": "Assigned to Contractor",
    "contractor": "IV Waste",
    "rowid": "1160630",
    "final_x": "3677898.38907",
    "final_y": "520907.463417",
    "longitude": "-90.07980951500602",
    "latitude": "29.926423578325192",
    "geocoded_column": {
      "latitude": "29.926423578325192",
      "longitude": "-90.07980951500602"
    }
  },
  {
    "service_request": "2025-1160629",
    "request_type": "Abandoned Vehicles",
    "request_reason": "Abandoned/Junk Vehicles",
    "date_created": "2025-01-08T14:43:03.000",
    "date_modified": "2025-01-08T14:43:05.000",
    "request_status": "Pending",
    "responsible_agency": "Department of Public Works",
    "final_address": "2100 BLK Clio St",
    "address_councildis": "B",
    "status": "Pending",
    "rowid": "1160629",
    "final_x": "3677638.61549",
    "final_y": "527670.223319",
    "longitude": "-90.08039611328026",
    "latitude": "29.945026758349954",
    "geocoded_column": {
      "latitude": "29.945026758349954",
      "longitude": "-90.08039611328026"
    }
  },
  {
    "service_request": "2025-1160628",
    "request_type": "Abandoned Vehicles",
    "request_reason": "Abandoned/Junk Vehicles",
    "date_created": "2025-01-08T14:42:05.000",
    "date_modified": "2025-01-08T14:42:08.000",
    "request_status": "Pending",
    "responsible_agency": "Department of Public Works",
    "final_address": "2100 BLK Clio St",
    "address_councildis": "B",
    "status": "Pending",
    "rowid": "1160628",
    "final_x": "3677638.61549",
    "final_y": "527670.223319",
    "longitude": "-90.08039611328026",
    "latitude": "29.945026758349954",
    "geocoded_column": {
      "latitude": "29.945026758349954",
      "longitude": "-90.08039611328026"
    }
  },
  {
    "service_request": "2025-1160627",
    "request_type": "Abandoned Vehicles",
    "request_reason": "Abandoned/Junk Vehicles",
    "date_created": "2025-01-08T14:40:38.000",
    "date_modified": "2025-01-08T14:52:09.000",
    "request_status": "Pending",
    "responsible_agency": "Department of Public Works",
    "final_address": "1200 BLK Rev. John Raphael, Jr. Way",
    "address_councildis": "B",
    "status": "Inspected",
    "rowid": "1160627",
    "final_x": "3677070.84103",
    "final_y": "527813.291602",
    "longitude": "-90.08218382141374",
    "latitude": "29.945437207573463",
    "geocoded_column": {
      "latitude": "29.945437207573463",
      "longitude": "-90.08218382141374"
    }
  },
  {
    "service_request": "2025-1160626",
    "request_type": "Trash/Recycling",
    "request_reason": "Request a Large Item Pick Up",
    "date_created": "2025-01-08T14:39:37.000",
    "date_modified": "2025-01-08T14:39:38.000",
    "request_status": "Pending",
    "responsible_agency": "Department of Sanitation",
    "final_address": "4642 Gabriel Dr",
    "address_councildis": "E",
    "status": "Assigned to Contractor",
    "contractor": "Waste Pro",
    "rowid": "1160626",
    "final_x": "3708878.82705",
    "final_y": "555086.836889",
    "longitude": "-89.98074022244845",
    "latitude": "30.01943595096567",
    "geocoded_column": {
      "latitude": "30.01943595096567",
      "longitude": "-89.98074022244845"
    }
  },
  {
    "service_request": "2025-1160625",
    "request_type": "Abandoned Vehicles",
    "request_reason": "Abandoned/Junk Vehicles",
    "date_created": "2025-01-08T14:38:42.000",
    "date_modified": "2025-01-08T14:38:56.000",
    "request_status": "Pending",
    "responsible_agency": "Department of Public Works",
    "final_address": "2157 Humanity St",
    "address_councildis": "D",
    "status": "Pending",
    "rowid": "1160625",
    "final_x": "3684046.2742",
    "final_y": "544790.738703",
    "longitude": "-90.05956429042625",
    "latitude": "29.9919080345291",
    "geocoded_column": {
      "latitude": "29.9919080345291",
      "longitude": "-90.05956429042625"
    }
  },
  {
    "service_request": "2025-1160624",
    "request_type": "Abandoned Vehicles",
    "request_reason": "Abandoned/Junk Vehicles",
    "date_created": "2025-01-08T14:38:23.000",
    "date_modified": "2025-01-08T14:38:24.000",
    "request_status": "Pending",
    "responsible_agency": "Department of Public Works",
    "final_address": "1200 BLK Rev. John Raphael, Jr. Way",
    "address_councildis": "B",
    "status": "Pending",
    "rowid": "1160624",
    "final_x": "3677070.84103",
    "final_y": "527813.291602",
    "longitude": "-90.08218382141374",
    "latitude": "29.945437207573463",
    "geocoded_column": {
      "latitude": "29.945437207573463",
      "longitude": "-90.08218382141374"
    }
  },
  {
    "service_request": "2025-1160623",
    "request_type": "Trash/Recycling",
    "request_reason": "Request a Large Item Pick Up",
    "date_created": "2025-01-08T14:38:21.000",
    "date_modified": "2025-01-08T14:38:22.000",
    "request_status": "Pending",
    "responsible_agency": "Department of Sanitation",
    "final_address": "1627 Steeple Chase Ln",
    "address_councildis": "C",
    "status": "Assigned to Contractor",
    "contractor": "Richards Disposal",
    "rowid": "1160623",
    "final_x": "3699908.02845",
    "final_y": "524723.912444",
    "longitude": "-90.01019256672579",
    "latitude": "29.93623707869219",
    "geocoded_column": {
      "latitude": "29.93623707869219",
      "longitude": "-90.01019256672579"
    }
  },
  {
    "service_request": "2025-1160622",
    "request_type": "Trash/Recycling",
    "request_reason": "Order Recycling Cart",
    "date_created": "2025-01-08T14:35:45.000",
    "date_modified": "2025-01-08T14:35:46.000",
    "request_status": "Pending",
    "responsible_agency": "Department of Sanitation",
    "final_address": "1316 Arabella St",
    "address_councildis": "A",
    "status": "Pending",
    "rowid": "1160622",
    "final_x": "3666184.40154",
    "final_y": "520742.727609",
    "longitude": "-90.11679296218718",
    "latitude": "29.92631777612791",
    "geocoded_column": {
      "latitude": "29.92631777612791",
      "longitude": "-90.11679296218718"
    }
  },
  {
    "service_request": "2025-1160621",
    "request_type": "Trash/Recycling",
    "request_reason": "Repair Recycling Cart",
    "date_created": "2025-01-08T14:35:24.000",
    "date_modified": "2025-01-08T14:35:27.000",
    "request_status": "Pending",
    "responsible_agency": "Department of Sanitation",
    "final_address": "41 Christy Ln",
    "address_councildis": "E",
    "status": "Pending",
    "rowid": "1160621",
    "final_x": "3707862.7882",
    "final_y": "557641.264155",
    "longitude": "-89.98385548030666",
    "latitude": "30.02649256963313",
    "geocoded_column": {
      "latitude": "30.02649256963313",
      "longitude": "-89.98385548030666"
    }
  },
  {
    "service_request": "2025-1160620",
    "request_type": "Trash/Recycling",
    "request_reason": "Replace Trash Cart",
    "date_created": "2025-01-08T14:34:16.000",
    "date_modified": "2025-01-08T14:34:17.000",
    "request_status": "Pending",
    "responsible_agency": "Department of Sanitation",
    "final_address": "1316 Arabella St",
    "address_councildis": "A",
    "status": "Assigned to Contractor",
    "contractor": "IV Waste",
    "rowid": "1160620",
    "final_x": "3666184.40154",
    "final_y": "520742.727609",
    "longitude": "-90.11679296218718",
    "latitude": "29.92631777612791",
    "geocoded_column": {
      "latitude": "29.92631777612791",
      "longitude": "-90.11679296218718"
    }
  },
  {
    "service_request": "2025-1160619",
    "request_type": "Trash/Recycling",
    "request_reason": "Request a Large Item Pick Up",
    "date_created": "2025-01-08T14:30:53.000",
    "date_modified": "2025-01-08T14:30:54.000",
    "request_status": "Pending",
    "responsible_agency": "Department of Sanitation",
    "final_address": "1028 Thayer St",
    "address_councildis": "C",
    "status": "Assigned to Contractor",
    "contractor": "Richards Disposal",
    "rowid": "1160619",
    "final_x": "3689484.57775",
    "final_y": "527635.549887",
    "longitude": "-90.04299610364058",
    "latitude": "29.944569933892414",
    "geocoded_column": {
      "latitude": "29.944569933892414",
      "longitude": "-90.04299610364058"
    }
  },
  {
    "service_request": "2025-1160618",
    "request_type": "Trash/Recycling",
    "request_reason": "Replace Trash Cart",
    "date_created": "2025-01-08T14:30:01.000",
    "date_modified": "2025-01-08T14:30:02.000",
    "request_status": "Pending",
    "responsible_agency": "Department of Sanitation",
    "final_address": "1137 Jefferson Ave",
    "address_councildis": "B",
    "status": "Assigned to Contractor",
    "contractor": "IV Waste",
    "rowid": "1160618",
    "final_x": "3667082.79764",
    "final_y": "519734.216888",
    "longitude": "-90.1139908477778",
    "latitude": "29.92351843247646",
    "geocoded_column": {
      "latitude": "29.92351843247646",
      "longitude": "-90.1139908477778"
    }
  },
  {
    "service_request": "2025-1160617",
    "request_type": "Roads and Streets",
    "request_reason": "Pothole",
    "date_created": "2025-01-08T14:29:59.000",
    "date_modified": "2025-01-08T14:30:22.000",
    "case_close_date": "2025-01-08T08:30:22.000",
    "request_status": "Closed",
    "responsible_agency": "Department of Public Works",
    "final_address": "2400 BLK Burgundy St",
    "address_councildis": "C",
    "status": "Resolved",
    "rowid": "1160617",
    "final_x": "3686370.66594",
    "final_y": "535690.572107",
    "longitude": "-90.05254334492854",
    "latitude": "29.966814531986653",
    "geocoded_column": {
      "latitude": "29.966814531986653",
      "longitude": "-90.05254334492854"
    }
  },
  {
    "service_request": "2025-1160616",
    "request_type": "Streetlights",
    "request_reason": "Streetlight Outage/Malfunction",
    "date_created": "2025-01-08T14:18:19.000",
    "date_modified": "2025-01-08T14:18:20.000",
    "request_status": "Pending",
    "responsible_agency": "Department of Public Works",
    "final_address": "111 Tchoupitoulas St",
    "address_councildis": "B",
    "status": "Pending",
    "contractor": "Legacy Professional Services",
    "rowid": "1160616",
    "final_x": "3682046.80764",
    "final_y": "529814.365249",
    "longitude": "-90.06640325074876",
    "latitude": "29.950789151108786",
    "geocoded_column": {
      "latitude": "29.950789151108786",
      "longitude": "-90.06640325074876"
    }
  },
  {
    "service_request": "2025-1160615",
    "request_type": "Trash/Recycling",
    "request_reason": "Order Trash Cart",
    "date_created": "2025-01-08T14:17:24.000",
    "date_modified": "2025-01-08T14:17:25.000",
    "request_status": "Pending",
    "responsible_agency": "Department of Sanitation",
    "final_address": "2347 Madrid St",
    "address_councildis": "D",
    "status": "Assigned to Contractor",
    "contractor": "IV Waste",
    "rowid": "1160615",
    "final_x": "3684682.96175",
    "final_y": "555477.410265",
    "longitude": "-90.05717716886748",
    "latitude": "30.021273031212473",
    "geocoded_column": {
      "latitude": "30.021273031212473",
      "longitude": "-90.05717716886748"
    }
  },
  {
    "service_request": "2025-1160614",
    "request_type": "Streetlights",
    "request_reason": "Streetlight Outage/Malfunction",
    "date_created": "2025-01-08T14:16:51.000",
    "date_modified": "2025-01-08T14:16:52.000",
    "request_status": "Pending",
    "responsible_agency": "Department of Public Works",
    "final_address": "332 St Joseph St",
    "address_councildis": "B",
    "status": "Pending",
    "contractor": "Legacy Professional Services",
    "rowid": "1160614",
    "final_x": "3681969.31157",
    "final_y": "526989.873086",
    "longitude": "-90.06674652467841",
    "latitude": "29.94302510314102",
    "geocoded_column": {
      "latitude": "29.94302510314102",
      "longitude": "-90.06674652467841"
    }
  },
  {
    "service_request": "2025-1160613",
    "request_type": "Trash/Recycling",
    "request_reason": "Request a Large Item Pick Up",
    "date_created": "2025-01-08T14:16:50.000",
    "date_modified": "2025-01-08T14:16:51.000",
    "request_status": "Pending",
    "responsible_agency": "Department of Sanitation",
    "final_address": "5623 Dauphine St",
    "address_councildis": "E",
    "status": "Assigned to Contractor",
    "contractor": "Waste Pro",
    "rowid": "1160613",
    "final_x": "3697964.68547",
    "final_y": "532604.682052",
    "longitude": "-90.01604169904628",
    "latitude": "29.957967997621008",
    "geocoded_column": {
      "latitude": "29.957967997621008",
      "longitude": "-90.01604169904628"
    }
  },
  {
    "service_request": "2025-1160612",
    "request_type": "Trash/Recycling",
    "request_reason": "Request a Large Item Pick Up",
    "date_created": "2025-01-08T14:14:02.000",
    "date_modified": "2025-01-08T14:14:03.000",
    "request_status": "Pending",
    "responsible_agency": "Department of Sanitation",
    "final_address": "4721 Painters St",
    "address_councildis": "D",
    "status": "Assigned to Contractor",
    "contractor": "IV Waste",
    "rowid": "1160612",
    "final_x": "3686307.10095",
    "final_y": "550404.147348",
    "longitude": "-90.05222457536249",
    "latitude": "30.007273583826304",
    "geocoded_column": {
      "latitude": "30.007273583826304",
      "longitude": "-90.05222457536249"
    }
  },
  {
    "service_request": "2025-1160611",
    "request_type": "Streetlights",
    "request_reason": "Streetlight Outage/Malfunction",
    "date_created": "2025-01-08T14:13:57.000",
    "date_modified": "2025-01-08T14:14:20.000",
    "request_status": "Pending",
    "responsible_agency": "Department of Public Works",
    "final_address": "6026 Pasteur Blvd",
    "address_councildis": "D",
    "status": "Pending",
    "contractor": "Legacy Professional Services",
    "rowid": "1160611",
    "final_x": "3682624.84495",
    "final_y": "555052.467289",
    "longitude": "-90.06369511786536",
    "latitude": "30.02016746003852",
    "geocoded_column": {
      "latitude": "30.02016746003852",
      "longitude": "-90.06369511786536"
    }
  },
  {
    "service_request": "2025-1160610",
    "request_type": "Abandoned Vehicles",
    "request_reason": "Abandoned/Junk Vehicles",
    "date_created": "2025-01-08T14:11:15.000",
    "date_modified": "2025-01-08T14:11:18.000",
    "request_status": "Pending",
    "responsible_agency": "Department of Public Works",
    "final_address": "1100 BLK Dublin St",
    "address_councildis": "A",
    "status": "Pending",
    "rowid": "1160610",
    "final_x": "3661586.70468",
    "final_y": "528479.319141",
    "longitude": "-90.1310504123411",
    "latitude": "29.947724380114046",
    "geocoded_column": {
      "latitude": "29.947724380114046",
      "longitude": "-90.1310504123411"
    }
  },
  {
    "service_request": "2025-1160609",
    "request_type": "Trash/Recycling",
    "request_reason": "Repair Trash Cart",
    "date_created": "2025-01-08T14:09:57.000",
    "date_modified": "2025-01-08T14:09:58.000",
    "request_status": "Pending",
    "responsible_agency": "Department of Sanitation",
    "final_address": "4874 Sandalwood St",
    "address_councildis": "E",
    "status": "Assigned to Contractor",
    "contractor": "Waste Pro",
    "rowid": "1160609",
    "final_x": "3712075.01406",
    "final_y": "556942.08169",
    "longitude": "-89.97057173243995",
    "latitude": "30.024433017145608",
    "geocoded_column": {
      "latitude": "30.024433017145608",
      "longitude": "-89.97057173243995"
    }
  },
  {
    "service_request": "2025-1160608",
    "request_type": "Graffiti Removal",
    "request_reason": "Graffiti Removal",
    "date_created": "2025-01-08T14:07:00.000",
    "date_modified": "2025-01-08T14:07:02.000",
    "request_status": "Pending",
    "responsible_agency": "Department of Code Enforcement",
    "final_address": "2549 Esplanade Ave",
    "address_councildis": "D",
    "status": "Pending",
    "rowid": "1160608",
    "final_x": "3678324.98766",
    "final_y": "538921.00961",
    "longitude": "-90.07783980834142",
    "latitude": "29.97594195876407",
    "geocoded_column": {
      "latitude": "29.97594195876407",
      "longitude": "-90.07783980834142"
    }
  },
  {
    "service_request": "2025-1160607",
    "request_type": "Roads and Streets",
    "request_reason": "Pothole",
    "date_created": "2025-01-08T14:03:28.000",
    "date_modified": "2025-01-08T14:10:37.000",
    "case_close_date": "2025-01-08T08:10:37.000",
    "request_status": "Closed",
    "responsible_agency": "Department of Public Works",
    "final_address": "2500 BLK Burgundy St",
    "address_councildis": "C",
    "status": "Resolved",
    "rowid": "1160607",
    "final_x": "3686734.07466",
    "final_y": "535719.426708",
    "longitude": "-90.05139468406831",
    "latitude": "29.966882697756237",
    "geocoded_column": {
      "latitude": "29.966882697756237",
      "longitude": "-90.05139468406831"
    }
  },
  {
    "service_request": "2025-1160606",
    "request_type": "Streetlights",
    "request_reason": "Streetlight Outage/Malfunction",
    "date_created": "2025-01-08T13:56:34.000",
    "date_modified": "2025-01-08T13:56:35.000",
    "request_status": "Pending",
    "responsible_agency": "Department of Public Works",
    "final_address": "1702 Louisa St",
    "address_councildis": "D",
    "status": "Pending",
    "contractor": "Legacy Professional Services",
    "rowid": "1160606",
    "final_x": "3690103.3544",
    "final_y": "538158.498825",
    "longitude": "-90.04066763776727",
    "latitude": "29.97348520981644",
    "geocoded_column": {
      "latitude": "29.97348520981644",
      "longitude": "-90.04066763776727"
    }
  },
  {
    "service_request": "2025-1160605",
    "request_type": "Trash/Recycling",
    "request_reason": "Request a Large Item Pick Up",
    "date_created": "2025-01-08T13:55:51.000",
    "date_modified": "2025-01-08T13:55:52.000",
    "request_status": "Pending",
    "responsible_agency": "Department of Sanitation",
    "final_address": "1654 Joseph St",
    "address_councildis": "A",
    "status": "Assigned to Contractor",
    "contractor": "IV Waste",
    "rowid": "1160605",
    "final_x": "3666845.28161",
    "final_y": "522377.62521",
    "longitude": "-90.11465185325893",
    "latitude": "29.930793916371698",
    "geocoded_column": {
      "latitude": "29.930793916371698",
      "longitude": "-90.11465185325893"
    }
  },
  {
    "service_request": "2025-1160604",
    "request_type": "Trash/Recycling",
    "request_reason": "Request a Large Item Pick Up",
    "date_created": "2025-01-08T13:52:44.000",
    "date_modified": "2025-01-08T13:52:44.000",
    "request_status": "Pending",
    "responsible_agency": "Department of Sanitation",
    "final_address": "4980 Montegut Dr",
    "address_councildis": "D",
    "status": "Assigned to Contractor",
    "contractor": "IV Waste",
    "rowid": "1160604",
    "final_x": "3689637.01884",
    "final_y": "551942.60719",
    "longitude": "-90.04164967863223",
    "latitude": "30.01140099260186",
    "geocoded_column": {
      "latitude": "30.01140099260186",
      "longitude": "-90.04164967863223"
    }
  },
  {
    "service_request": "2025-1160603",
    "request_type": "Trash/Recycling",
    "request_reason": "Request a Large Item Pick Up",
    "date_created": "2025-01-08T13:52:17.000",
    "date_modified": "2025-01-08T13:52:18.000",
    "request_status": "Pending",
    "responsible_agency": "Department of Sanitation",
    "final_address": "6932 Bunker Hill Rd",
    "address_councildis": "E",
    "status": "Assigned to Contractor",
    "contractor": "Waste Pro",
    "rowid": "1160603",
    "final_x": "3706077.87959",
    "final_y": "559974.163037",
    "longitude": "-89.98940908360323",
    "latitude": "30.032964808835352",
    "geocoded_column": {
      "latitude": "30.032964808835352",
      "longitude": "-89.98940908360323"
    }
  },
  {
    "service_request": "2025-1160602",
    "request_type": "Trash/Recycling",
    "request_reason": "Request a Large Item Pick Up",
    "date_created": "2025-01-08T13:51:43.000",
    "date_modified": "2025-01-08T13:51:46.000",
    "request_status": "Pending",
    "responsible_agency": "Department of Sanitation",
    "final_address": "8510 S Claiborne Ave",
    "address_councildis": "A",
    "status": "Assigned to Contractor",
    "contractor": "IV Waste",
    "rowid": "1160602",
    "final_x": "3663616.92941",
    "final_y": "532518.902212",
    "longitude": "-90.12450560635534",
    "latitude": "29.958773195935706",
    "geocoded_column": {
      "latitude": "29.958773195935706",
      "longitude": "-90.12450560635534"
    }
  },
  {
    "service_request": "2025-1160601",
    "request_type": "Trash/Recycling",
    "request_reason": "Order Trash Cart",
    "date_created": "2025-01-08T13:49:14.000",
    "date_modified": "2025-01-08T13:50:10.000",
    "request_status": "Pending",
    "responsible_agency": "Department of Sanitation",
    "final_address": "9 Heritage Ln Unit 36",
    "address_councildis": "C",
    "status": "Assigned to Contractor",
    "contractor": "Richards Disposal",
    "rowid": "1160601",
    "final_x": "3695891.39754",
    "final_y": "520351.704888",
    "longitude": "-90.02303097184054",
    "latitude": "29.924341925241993",
    "geocoded_column": {
      "latitude": "29.924341925241993",
      "longitude": "-90.02303097184054"
    }
  },
  {
    "service_request": "2025-1160600",
    "request_type": "Trash/Recycling",
    "request_reason": "Request a Large Item Pick Up",
    "date_created": "2025-01-08T13:45:20.000",
    "date_modified": "2025-01-08T13:45:21.000",
    "request_status": "Pending",
    "responsible_agency": "Department of Sanitation",
    "final_address": "5851 Waterford Blvd",
    "address_councildis": "E",
    "status": "Assigned to Contractor",
    "contractor": "Waste Pro",
    "rowid": "1160600",
    "final_x": "3713670.03135",
    "final_y": "561398.799326",
    "longitude": "-89.9653636920753",
    "latitude": "30.03663495969328",
    "geocoded_column": {
      "latitude": "30.03663495969328",
      "longitude": "-89.9653636920753"
    }
  },
  {
    "service_request": "2025-1160599",
    "request_type": "Property Maintenance",
    "request_reason": "Property Maintenance",
    "date_created": "2025-01-08T13:44:30.000",
    "date_modified": "2025-01-08T13:44:31.000",
    "request_status": "Pending",
    "responsible_agency": "Department of Code Enforcement",
    "final_address": "5345 Baccich St",
    "address_councildis": "D",
    "status": "Pending",
    "rowid": "1160599",
    "final_x": "3687737.78761",
    "final_y": "552679.790294",
    "longitude": "-90.04762397909339",
    "latitude": "30.01348670726616",
    "geocoded_column": {
      "latitude": "30.01348670726616",
      "longitude": "-90.04762397909339"
    }
  },
  {
    "service_request": "2025-1160598",
    "request_type": "Roads and Streets",
    "request_reason": "Debris in Driving Lanes",
    "date_created": "2025-01-08T13:44:04.000",
    "date_modified": "2025-01-08T13:44:05.000",
    "request_status": "Pending",
    "responsible_agency": "Department of Public Works",
    "final_address": "LAKE FOREST BLVD & MAYO RD",
    "address_councildis": "E",
    "status": "Pending",
    "rowid": "1160598",
    "final_x": "3702502.5",
    "final_y": "556568.19",
    "longitude": "-90.00083269889926",
    "latitude": "30.023714521944257",
    "geocoded_column": {
      "latitude": "30.023714521944257",
      "longitude": "-90.00083269889926"
    }
  },
  {
    "service_request": "2025-1160597",
    "request_type": "Parks & Parkways",
    "request_reason": "Request Tree Service (Right of Way/Public Property)",
    "date_created": "2025-01-08T13:42:57.000",
    "date_modified": "2025-01-08T13:42:59.000",
    "request_status": "Pending",
    "responsible_agency": "Department of Parks & Parkway",
    "final_address": "4701 Pitt St",
    "address_councildis": "B",
    "status": "Pending",
    "rowid": "1160597",
    "final_x": "3669682.38644",
    "final_y": "520500.907448",
    "longitude": "-90.10575896060882",
    "latitude": "29.925550266311745",
    "geocoded_column": {
      "latitude": "29.925550266311745",
      "longitude": "-90.10575896060882"
    }
  },
  {
    "service_request": "2025-1160596",
    "request_type": "Street and Traffic Signs",
    "request_reason": "Street Name Sign Damaged or Missing",
    "date_created": "2025-01-08T13:42:07.000",
    "date_modified": "2025-01-08T13:42:08.000",
    "request_status": "Pending",
    "responsible_agency": "Department of Public Works",
    "final_address": "DEBORE DR & MEXICO ST",
    "address_councildis": "D",
    "status": "Pending",
    "rowid": "1160596",
    "final_x": "3690839.4",
    "final_y": "556572.48",
    "longitude": "-90.03768547674787",
    "latitude": "30.02409409432068",
    "geocoded_column": {
      "latitude": "30.02409409432068",
      "longitude": "-90.03768547674787"
    }
  },
  {
    "service_request": "2025-1160595",
    "request_type": "Trash/Recycling",
    "request_reason": "Request a Large Item Pick Up",
    "date_created": "2025-01-08T13:33:51.000",
    "date_modified": "2025-01-08T13:33:52.000",
    "request_status": "Pending",
    "responsible_agency": "Department of Sanitation",
    "final_address": "2115 Peniston St",
    "address_councildis": "B",
    "status": "Assigned to Contractor",
    "contractor": "IV Waste",
    "rowid": "1160595",
    "final_x": "3672471.85179",
    "final_y": "523000.174075",
    "longitude": "-90.09686832407532",
    "latitude": "29.9323399783098",
    "geocoded_column": {
      "latitude": "29.9323399783098",
      "longitude": "-90.09686832407532"
    }
  },
  {
    "service_request": "2025-1160594",
    "request_type": "Trash/Recycling",
    "request_reason": "Request a Large Item Pick Up",
    "date_created": "2025-01-08T13:28:31.000",
    "date_modified": "2025-01-08T13:28:32.000",
    "request_status": "Pending",
    "responsible_agency": "Department of Sanitation",
    "final_address": "1704 General Ogden St",
    "address_councildis": "A",
    "status": "Assigned to Contractor",
    "contractor": "IV Waste",
    "rowid": "1160594",
    "final_x": "3661062.14733",
    "final_y": "531650.416387",
    "longitude": "-90.13260173482104",
    "latitude": "29.95645900289031",
    "geocoded_column": {
      "latitude": "29.95645900289031",
      "longitude": "-90.13260173482104"
    }
  },
  {
    "service_request": "2025-1160593",
    "request_type": "Trash/Recycling",
    "request_reason": "Request a Large Item Pick Up",
    "date_created": "2025-01-08T13:25:18.000",
    "date_modified": "2025-01-08T13:25:19.000",
    "request_status": "Pending",
    "responsible_agency": "Department of Sanitation",
    "final_address": "5101 N Rampart St",
    "address_councildis": "E",
    "status": "Assigned to Contractor",
    "contractor": "Waste Pro",
    "rowid": "1160593",
    "final_x": "3696166.77526",
    "final_y": "533790.915717",
    "longitude": "-90.02167608448386",
    "latitude": "29.961286432255665",
    "geocoded_column": {
      "latitude": "29.961286432255665",
      "longitude": "-90.02167608448386"
    }
  },
  {
    "service_request": "2025-1160592",
    "request_type": "Streetlights",
    "request_reason": "Streetlight Outage/Malfunction",
    "date_created": "2025-01-08T13:22:54.000",
    "date_modified": "2025-01-08T13:22:55.000",
    "request_status": "Pending",
    "responsible_agency": "Department of Public Works",
    "final_address": "11901 N Interstate 10 Service Rd",
    "address_councildis": "E",
    "status": "Pending",
    "contractor": "Legacy Professional Services",
    "rowid": "1160592",
    "final_x": "3714440.52075",
    "final_y": "564945.708642",
    "longitude": "-89.96279474150609",
    "latitude": "30.04636221272858",
    "geocoded_column": {
      "latitude": "30.04636221272858",
      "longitude": "-89.96279474150609"
    }
  },
  {
    "service_request": "2025-1160591",
    "request_type": "Trash/Recycling",
    "request_reason": "Order Trash Cart",
    "date_created": "2025-01-08T13:22:49.000",
    "date_modified": "2025-01-08T13:22:50.000",
    "request_status": "Pending",
    "responsible_agency": "Department of Sanitation",
    "final_address": "1405 Jourdan Ave Apt B",
    "address_councildis": "E",
    "status": "Assigned to Contractor",
    "contractor": "Waste Pro",
    "rowid": "1160591",
    "final_x": "3695419.9999",
    "final_y": "535669.217094",
    "longitude": "-90.02396647904837",
    "latitude": "29.966474579883865",
    "geocoded_column": {
      "latitude": "29.966474579883865",
      "longitude": "-90.02396647904837"
    }
  },
  {
    "service_request": "2025-1160590",
    "request_type": "Trash/Recycling",
    "request_reason": "Request a Large Item Pick Up",
    "date_created": "2025-01-08T13:18:20.000",
    "date_modified": "2025-01-08T13:18:22.000",
    "request_status": "Pending",
    "responsible_agency": "Department of Sanitation",
    "final_address": "7643 Jonlee Dr",
    "address_councildis": "E",
    "status": "Assigned to Contractor",
    "contractor": "Waste Pro",
    "rowid": "1160590",
    "final_x": "3717084.35359",
    "final_y": "570674.530855",
    "longitude": "-89.95422104169805",
    "latitude": "30.062026896940424",
    "geocoded_column": {
      "latitude": "30.062026896940424",
      "longitude": "-89.95422104169805"
    }
  },
  {
    "service_request": "2025-1160589",
    "request_type": "Abandoned Vehicles",
    "request_reason": "Abandoned/Junk Vehicles",
    "date_created": "2025-01-08T13:16:41.000",
    "date_modified": "2025-01-08T13:16:43.000",
    "request_status": "Pending",
    "responsible_agency": "Department of Public Works",
    "final_address": "5427 N Prieur St",
    "address_councildis": "E",
    "status": "Pending",
    "rowid": "1160589",
    "final_x": "3698244.79018",
    "final_y": "536937.530184",
    "longitude": "-90.01499979719378",
    "latitude": "29.969872927352036",
    "geocoded_column": {
      "latitude": "29.969872927352036",
      "longitude": "-90.01499979719378"
    }
  },
  {
    "service_request": "2025-1160588",
    "request_type": "Trash/Recycling",
    "request_reason": "Repair Recycling Cart",
    "date_created": "2025-01-08T13:12:28.000",
    "date_modified": "2025-01-08T13:12:29.000",
    "request_status": "Pending",
    "responsible_agency": "Department of Sanitation",
    "final_address": "2406 Constance St",
    "address_councildis": "B",
    "status": "Pending",
    "rowid": "1160588",
    "final_x": "3678238.08821",
    "final_y": "521114.795257",
    "longitude": "-90.07873001339779",
    "latitude": "29.926983450563764",
    "geocoded_column": {
      "latitude": "29.926983450563764",
      "longitude": "-90.07873001339779"
    }
  },
  {
    "service_request": "2025-1160587",
    "request_type": "Trash/Recycling",
    "request_reason": "Request a Large Item Pick Up",
    "date_created": "2025-01-08T13:12:09.000",
    "date_modified": "2025-01-08T13:12:10.000",
    "request_status": "Pending",
    "responsible_agency": "Department of Sanitation",
    "final_address": "1518 Religious St",
    "address_councildis": "B",
    "status": "Assigned to Contractor",
    "contractor": "IV Waste",
    "rowid": "1160587",
    "final_x": "3682069.67912",
    "final_y": "523210.179835",
    "longitude": "-90.06656156857525",
    "latitude": "29.932629154067644",
    "geocoded_column": {
      "latitude": "29.932629154067644",
      "longitude": "-90.06656156857525"
    }
  },
  {
    "service_request": "2025-1160586",
    "request_type": "Trash/Recycling",
    "request_reason": "Repair Trash Cart",
    "date_created": "2025-01-08T13:11:52.000",
    "date_modified": "2025-01-08T13:11:53.000",
    "request_status": "Pending",
    "responsible_agency": "Department of Sanitation",
    "final_address": "3800 Red Oak Ct",
    "address_councildis": "C",
    "status": "Assigned to Contractor",
    "contractor": "Richards Disposal",
    "rowid": "1160586",
    "final_x": "3703459.98334",
    "final_y": "513804.14917",
    "longitude": "-89.99938035577918",
    "latitude": "29.906098243201306",
    "geocoded_column": {
      "latitude": "29.906098243201306",
      "longitude": "-89.99938035577918"
    }
  },
  {
    "service_request": "2025-1160585",
    "request_type": "Trash/Recycling",
    "request_reason": "Repair Recycling Cart",
    "date_created": "2025-01-08T13:08:26.000",
    "date_modified": "2025-01-08T13:08:27.000",
    "request_status": "Pending",
    "responsible_agency": "Department of Sanitation",
    "final_address": "10 Marlborough Gate Pl",
    "address_councildis": "B",
    "status": "Pending",
    "rowid": "1160585",
    "final_x": "3668908.48007",
    "final_y": "523685.129275",
    "longitude": "-90.10809447142948",
    "latitude": "29.93432863507649",
    "geocoded_column": {
      "latitude": "29.93432863507649",
      "longitude": "-90.10809447142948"
    }
  },
  {
    "service_request": "2025-1160584",
    "request_type": "Trash/Recycling",
    "request_reason": "Repair Trash Cart",
    "date_created": "2025-01-08T13:08:06.000",
    "date_modified": "2025-01-08T13:08:07.000",
    "request_status": "Pending",
    "responsible_agency": "Department of Sanitation",
    "final_address": "10 Marlborough Gate Pl",
    "address_councildis": "B",
    "status": "Assigned to Contractor",
    "contractor": "IV Waste",
    "rowid": "1160584",
    "final_x": "3668908.48007",
    "final_y": "523685.129275",
    "longitude": "-90.10809447142948",
    "latitude": "29.93432863507649",
    "geocoded_column": {
      "latitude": "29.93432863507649",
      "longitude": "-90.10809447142948"
    }
  },
  {
    "service_request": "2025-1160583",
    "request_type": "Trash/Recycling",
    "request_reason": "Request a Large Item Pick Up",
    "date_created": "2025-01-08T13:05:21.000",
    "date_modified": "2025-01-08T13:05:22.000",
    "request_status": "Pending",
    "responsible_agency": "Department of Sanitation",
    "final_address": "6911 Manchester St",
    "address_councildis": "E",
    "status": "Assigned to Contractor",
    "contractor": "Waste Pro",
    "rowid": "1160583",
    "final_x": "3698700.83069",
    "final_y": "560109.602013",
    "longitude": "-90.01271617062565",
    "latitude": "30.03357305699327",
    "geocoded_column": {
      "latitude": "30.03357305699327",
      "longitude": "-90.01271617062565"
    }
  },
  {
    "service_request": "2025-1160582",
    "request_type": "Drainage",
    "request_reason": "Catch Basin Clogged",
    "date_created": "2025-01-08T13:05:17.000",
    "date_modified": "2025-01-08T14:00:43.000",
    "case_close_date": "2025-01-08T08:00:43.000",
    "request_status": "Closed",
    "responsible_agency": "Department of Public Works",
    "final_address": "500 Lake Marina Ave",
    "address_councildis": "A",
    "status": "Duplicate Request",
    "rowid": "1160582",
    "final_x": "3665086.84116",
    "final_y": "555262.967193",
    "longitude": "-90.11910291645061",
    "latitude": "30.021268932165952",
    "geocoded_column": {
      "latitude": "30.021268932165952",
      "longitude": "-90.11910291645061"
    }
  },
  {
    "service_request": "2025-1160581",
    "request_type": "Abandoned Vehicles",
    "request_reason": "Abandoned/Junk Vehicles",
    "date_created": "2025-01-08T13:04:28.000",
    "date_modified": "2025-01-08T13:04:29.000",
    "request_status": "Pending",
    "responsible_agency": "Department of Public Works",
    "final_address": "2713 S Rocheblave St, New Orleans, Louisiana, 70125",
    "address_councildis": "B",
    "status": "Pending",
    "rowid": "1160581",
    "final_x": "3671818.46279",
    "final_y": "529080.56096",
    "longitude": "-90.09872419423507",
    "latitude": "29.949078433791502",
    "geocoded_column": {
      "latitude": "29.949078433791502",
      "longitude": "-90.09872419423507"
    }
  },
  {
    "service_request": "2025-1160580",
    "request_type": "Trash/Recycling",
    "request_reason": "Request a Large Item Pick Up",
    "date_created": "2025-01-08T13:04:02.000",
    "date_modified": "2025-01-08T13:04:03.000",
    "request_status": "Pending",
    "responsible_agency": "Department of Sanitation",
    "final_address": "6746 Deanne St",
    "address_councildis": "D",
    "status": "Assigned to Contractor",
    "contractor": "Waste Pro",
    "rowid": "1160580",
    "final_x": "3695858.9343",
    "final_y": "555542.895705",
    "longitude": "-90.02186200943933",
    "latitude": "30.021106109156342",
    "geocoded_column": {
      "latitude": "30.021106109156342",
      "longitude": "-90.02186200943933"
    }
  },