[
  {
    "service_request": "2022-866200",
    "request_type": "Trash/Recycling",
    "request_reason": "Request a Large Item Pick Up",
    "date_created": "2022-03-10T23:15:50.000",
    "date_modified": "2022-03-10T23:15:51.000",
    "request_status": "Pending",
    "responsible_agency": "Department of Sanitation",
    "final_address": "8233 Apricot St",
    "address_councildis": "A",
    "status": "Assigned to Contractor",
    "contractor": "Richards Disposal",
    "rowid": "866200",
    "final_x": "3665396.09332",
    "final_y": "533067.691716",
    "longitude": "-90.11886907258994",
    "latitude": "29.960230457195625",
    "geocoded_column": {
      "latitude": "29.960230457195625",
      "longitude": "-90.11886907258994"
    }
  },
  {
    "service_request": "2022-866199",
    "request_type": "Trash/Recycling",
    "request_reason": "Request a Large Item Pick Up",
    "date_created": "2022-03-10T23:03:54.000",
    "date_modified": "2022-03-10T23:03:55.000",
    "request_status": "Pending",
    "responsible_agency": "Department of Sanitation",
    "final_address": "3435 Freret St",
    "address_councildis": "B",
    "status": "Assigned to Contractor",
    "contractor": "Richards Disposal",
    "rowid": "866199",
    "final_x": "3672625.61051",
    "final_y": "524384.722236",
    "longitude": "-90.09633573489135",
    "latitude": "29.93614247431707",
    "geocoded_column": {
      "latitude": "29.93614247431707",
      "longitude": "-90.09633573489135"
    }
  },
  {
    "service_request": "2022-866198",
    "request_type": "Trash/Recycling",
    "request_reason": "MIssed Recycling Pick-Up",
    "date_created": "2022-03-10T23:02:41.000",
    "date_modified": "2022-03-10T23:02:42.000",
    "request_status": "Pending",
    "responsible_agency": "Department of Sanitation",
    "final_address": "4620 S Liberty St",
    "address_councildis": "B",
    "status": "Assigned to Contractor",
    "contractor": "Richards Disposal",
    "rowid": "866198",
    "final_x": "3669668.0187",
    "final_y": "523214.864827",
    "longitude": "-90.10571252941148",
    "latitude": "29.933013205025297",
    "geocoded_column": {
      "latitude": "29.933013205025297",
      "longitude": "-90.10571252941148"
    }
  },
  {
    "service_request": "2022-866197",
    "request_type": "Roads/Drainage",
    "request_reason": "Street Subsidence (Sinking)",
    "date_created": "2022-03-10T22:45:23.000",
    "date_modified": "2022-03-10T22:45:23.000",
    "request_status": "Pending",
    "responsible_agency": "Department of Public Works",
    "final_address": "3337 Desaix Blvd",
    "address_councildis": "D",
    "status": "Pending",
    "rowid": "866197",
    "final_x": "3677305.4043",
    "final_y": "543733.443022",
    "longitude": "-90.08089381662316",
    "latitude": "29.9892051626595",
    "geocoded_column": {
      "latitude": "29.9892051626595",
      "longitude": "-90.08089381662316"
    }
  },
  {
    "service_request": "2022-866196",
    "request_type": "Health Related Questions",
    "request_reason": "Noise Ordinance Complaint",
    "date_created": "2022-03-10T22:29:44.000",
    "date_modified": "2022-03-10T22:29:44.000",
    "request_status": "Pending",
    "responsible_agency": "Health Department",
    "final_address": "718 Bourbon St, New Orleans, Louisiana, 70116",
    "address_councildis": "C",
    "status": "Pending",
    "rowid": "866196",
    "final_x": "3682364.17781",
    "final_y": "532746.008004",
    "longitude": "-90.06529872053143",
    "latitude": "29.95884052062511",
    "geocoded_column": {
      "latitude": "29.95884052062511",
      "longitude": "-90.06529872053143"
    }
  },
  {
    "service_request": "2022-866195",
    "request_type": "Trash/Recycling",
    "request_reason": "MIssed Recycling Pick-Up",
    "date_created": "2022-03-10T22:14:35.000",
    "date_modified": "2022-03-10T22:14:36.000",
    "request_status": "Pending",
    "responsible_agency": "Department of Sanitation",
    "final_address": "7407 Saint Charles Ave, New Orleans, Louisiana, 70118",
    "status": "Assigned to Contractor",
    "rowid": "866195",
    "longitude": "0.0",
    "latitude": "0.0",
    "geocoded_column": {
      "latitude": "0.0",
      "longitude": "0.0"
    }
  },
  {
    "service_request": "2022-866194",
    "request_type": "Trash/Recycling",
    "request_reason": "Request a Large Item Pick Up",
    "date_created": "2022-03-10T22:11:59.000",
    "date_modified": "2022-03-10T22:11:59.000",
    "request_status": "Pending",
    "responsible_agency": "Department of Sanitation",
    "final_address": "7407 Saint Charles Ave, New Orleans, Louisiana, 70118",
    "status": "Assigned to Contractor",
    "rowid": "866194",
    "longitude": "0.0",
    "latitude": "0.0",
    "geocoded_column": {
      "latitude": "0.0",
      "longitude": "0.0"
    }
  },
  {
    "service_request": "2022-866193",
    "request_type": "Trash/Recycling",
    "request_reason": "Request a Large Item Pick Up",
    "date_created": "2022-03-10T22:07:13.000",
    "date_modified": "2022-03-10T22:07:13.000",
    "request_status": "Pending",
    "responsible_agency": "Department of Sanitation",
    "final_address": "7407 Saint Charles Ave, New Orleans, Louisiana, 70118",
    "status": "Assigned to Contractor",
    "rowid": "866193",
    "longitude": "0.0",
    "latitude": "0.0",
    "geocoded_column": {
      "latitude": "0.0",
      "longitude": "0.0"
    }
  },
  {
    "service_request": "2022-866192",
    "request_type": "Traffic Signals/Signs/Striping/Streetlights",
    "request_reason": "Street Light Outage/Malfunction",
    "date_created": "2022-03-10T22:00:35.000",
    "date_modified": "2022-03-10T22:00:37.000",
    "request_status": "Pending",
    "responsible_agency": "Department of Public Works",
    "final_address": "4633 Palmyra St",
    "address_councildis": "A",
    "status": "Pending",
    "contractor": "Royal Engineering",
    "rowid": "866192",
    "final_x": "3668725.27226",
    "final_y": "539192.89761",
    "longitude": "-90.10814937809323",
    "latitude": "29.97697528621415",
    "geocoded_column": {
      "latitude": "29.97697528621415",
      "longitude": "-90.10814937809323"
    }
  },
  {
    "service_request": "2022-866191",
    "request_type": "Trash/Recycling",
    "request_reason": "Missed Trash Pick-Up",
    "date_created": "2022-03-10T21:43:13.000",
    "date_modified": "2022-03-10T21:43:14.000",
    "request_status": "Pending",
    "responsible_agency": "Department of Sanitation",
    "final_address": "941 Verret St",
    "address_councildis": "C",
    "status": "Assigned to Contractor",
    "contractor": "Richards Disposal",
    "rowid": "866191",
    "final_x": "3687155.38665",
    "final_y": "528014.678079",
    "longitude": "-90.05033662440367",
    "latitude": "29.94568432338038",
    "geocoded_column": {
      "latitude": "29.94568432338038",
      "longitude": "-90.05033662440367"
    }
  },
  {
    "service_request": "2022-866190",
    "request_type": "Traffic Signals/Signs/Striping/Streetlights",
    "request_reason": "Street Light Outage/Malfunction",
    "date_created": "2022-03-10T21:27:52.000",
    "date_modified": "2022-03-10T21:27:52.000",
    "request_status": "Pending",
    "responsible_agency": "Department of Public Works",
    "final_address": "3320 Octavia St",
    "address_councildis": "A",
    "status": "Pending",
    "contractor": "Royal Engineering",
    "rowid": "866190",
    "final_x": "3668382.31681",
    "final_y": "527890.027455",
    "longitude": "-90.1096137886064",
    "latitude": "29.945906208783327",
    "geocoded_column": {
      "latitude": "29.945906208783327",
      "longitude": "-90.1096137886064"
    }
  },
  {
    "service_request": "2022-866189",
    "request_type": "Trash/Recycling",
    "request_reason": "Order Trash Cart",
    "date_created": "2022-03-10T21:14:44.000",
    "date_modified": "2022-03-10T21:14:45.000",
    "request_status": "Pending",
    "responsible_agency": "Department of Sanitation",
    "final_address": "5125 Desire Dr",
    "address_councildis": "D",
    "status": "Assigned to Contractor",
    "contractor": "Metro Disposal",
    "rowid": "866189",
    "final_x": "3691535.05392",
    "final_y": "552748.056662",
    "longitude": "-90.03562421054906",
    "latitude": "30.013556711709",
    "geocoded_column": {
      "latitude": "30.013556711709",
      "longitude": "-90.03562421054906"
    }
  },
  {
    "service_request": "2022-866188",
    "request_type": "Trash/Recycling",
    "request_reason": "Order Recycling Cart",
    "date_created": "2022-03-10T21:13:46.000",
    "date_modified": "2022-03-10T21:13:46.000",
    "request_status": "Pending",
    "responsible_agency": "Department of Sanitation",
    "final_address": "5125 Desire Dr",
    "address_councildis": "D",
    "status": "Pending",
    "rowid": "866188",
    "final_x": "3691535.05392",
    "final_y": "552748.056662",
    "longitude": "-90.03562421054906",
    "latitude": "30.013556711709",
    "geocoded_column": {
      "latitude": "30.013556711709",
      "longitude": "-90.03562421054906"
    }
  },
  {
    "service_request": "2022-866187",
    "request_type": "Abandoned Vehicles",
    "request_reason": "Abandoned/Junk Vehicles",
    "date_created": "2022-03-10T20:16:54.000",
    "date_modified": "2022-03-10T20:16:54.000",
    "request_status": "Pending",
    "responsible_agency": "Department of Public Works",
    "final_address": "7220 Pitt St, New Orleans, Louisiana, 70118",
    "address_councildis": "A",
    "status": "Pending",
    "rowid": "866187",
    "final_x": "3661674.64454",
    "final_y": "523118.865275",
    "longitude": "-90.13095035288751",
    "latitude": "29.93298229490055",
    "geocoded_column": {
      "latitude": "29.93298229490055",
      "longitude": "-90.13095035288751"
    }
  },
  {
    "service_request": "2022-866186",
    "request_type": "Roads/Drainage",
    "request_reason": "Pothole",
    "date_created": "2022-03-10T20:09:34.000",
    "date_modified": "2022-03-10T20:09:34.000",
    "request_status": "Pending",
    "responsible_agency": "Department of Public Works",
    "final_address": "LOMBARD ST & FRANKLIN AVE",
    "address_councildis": "D",
    "status": "Pending",
    "rowid": "866186",
    "final_x": "3686914.0",
    "final_y": "549658.88",
    "longitude": "-90.05033357985835",
    "latitude": "30.00520569853544",
    "geocoded_column": {
      "latitude": "30.00520569853544",
      "longitude": "-90.05033357985835"
    }
  },
  {
    "service_request": "2022-866185",
    "request_type": "Trash/Recycling",
    "request_reason": "Replace Trash Cart",
    "date_created": "2022-03-10T19:59:20.000",
    "date_modified": "2022-03-10T19:59:20.000",
    "request_status": "Pending",
    "responsible_agency": "Department of Sanitation",
    "final_address": "727 Eleonore St",
    "address_councildis": "A",
    "status": "Assigned to Contractor",
    "contractor": "Richards Disposal",
    "rowid": "866185",
    "final_x": "3665242.09575",
    "final_y": "518950.240247",
    "longitude": "-90.11982749248142",
    "latitude": "29.921416474284094",
    "geocoded_column": {
      "latitude": "29.921416474284094",
      "longitude": "-90.11982749248142"
    }
  },
  {
    "service_request": "2022-866184",
    "request_type": "Traffic Signals/Signs/Striping/Streetlights",
    "request_reason": "Street Light Outage/Malfunction",
    "date_created": "2022-03-10T19:58:23.000",
    "date_modified": "2022-03-10T19:58:24.000",
    "request_status": "Pending",
    "responsible_agency": "Department of Public Works",
    "final_address": "5600 BLK Rosemary Pl",
    "address_councildis": "A",
    "status": "Pending",
    "contractor": "Royal Engineering",
    "rowid": "866184",
    "final_x": "3667159.56591",
    "final_y": "544981.105363",
    "longitude": "-90.11289968584038",
    "latitude": "29.992936835306516",
    "geocoded_column": {
      "latitude": "29.992936835306516",
      "longitude": "-90.11289968584038"
    }
  },
  {
    "service_request": "2022-866183",
    "request_type": "Abandoned Vehicles",
    "request_reason": "Abandoned/Junk Vehicles",
    "date_created": "2022-03-10T19:45:11.000",
    "date_modified": "2022-03-10T19:45:11.000",
    "request_status": "Pending",
    "responsible_agency": "Department of Public Works",
    "final_address": "7008 Neptune Ct",
    "address_councildis": "E",
    "status": "Pending",
    "rowid": "866183",
    "final_x": "3701895.82308",
    "final_y": "558834.995804",
    "longitude": "-90.00266648316544",
    "latitude": "30.029966747537287",
    "geocoded_column": {
      "latitude": "30.029966747537287",
      "longitude": "-90.00266648316544"
    }
  },
  {
    "service_request": "2022-866182",
    "request_type": "Abandoned Vehicles",
    "request_reason": "Abandoned/Junk Vehicles",
    "date_created": "2022-03-10T19:41:43.000",
    "date_modified": "2022-03-10T19:41:43.000",
    "request_status": "Pending",
    "responsible_agency": "Department of Public Works",
    "final_address": "7000 Neptune Ct",
    "address_councildis": "E",
    "status": "Pending",
    "rowid": "866182",
    "final_x": "3701925.27306",
    "final_y": "558777.416348",
    "longitude": "-90.0025755350857",
    "latitude": "30.029807485930082",
    "geocoded_column": {
      "latitude": "30.029807485930082",
      "longitude": "-90.0025755350857"
    }
  },
  {
    "service_request": "2022-866181",
    "request_type": "Trash/Recycling",
    "request_reason": "Request a Large Item Pick Up",
    "date_created": "2022-03-10T19:39:21.000",
    "date_modified": "2022-03-10T19:39:22.000",
    "request_status": "Pending",
    "responsible_agency": "Department of Sanitation",
    "final_address": "4401 San Remo St",
    "address_councildis": "E",
    "status": "Assigned to Contractor",
    "contractor": "Metro Disposal",
    "rowid": "866181",
    "final_x": "3760574.61315",
    "final_y": "573968.710186",
    "longitude": "-89.81661358427817",
    "latitude": "30.06957339318268",
    "geocoded_column": {
      "latitude": "30.06957339318268",
      "longitude": "-89.81661358427817"
    }
  },
  {
    "service_request": "2022-866180",
    "request_type": "Abandoned Vehicles",
    "request_reason": "Abandoned/Junk Vehicles",
    "date_created": "2022-03-10T19:36:14.000",
    "date_modified": "2022-03-10T19:36:14.000",
    "request_status": "Pending",
    "responsible_agency": "Department of Public Works",
    "final_address": "1728 Marais St",
    "address_councildis": "C",
    "status": "Pending",
    "rowid": "866180",
    "final_x": "3683391.14057",
    "final_y": "536511.567687",
    "longitude": "-90.06192390006456",
    "latitude": "29.96916322527738",
    "geocoded_column": {
      "latitude": "29.96916322527738",
      "longitude": "-90.06192390006456"
    }
  },
  {
    "service_request": "2022-866179",
    "request_type": "Property Maintenance",
    "request_reason": "Property Maintenance",
    "date_created": "2022-03-10T19:32:34.000",
    "date_modified": "2022-03-10T19:32:34.000",
    "request_status": "Pending",
    "responsible_agency": "Department of Code Enforcement",
    "final_address": "2521 Dryades St",
    "address_councildis": "B",
    "status": "Pending",
    "rowid": "866179",
    "final_x": "3675923.48942",
    "final_y": "523880.847356",
    "longitude": "-90.08594154690756",
    "latitude": "29.934658676203817",
    "geocoded_column": {
      "latitude": "29.934658676203817",
      "longitude": "-90.08594154690756"
    }
  },
  {
    "service_request": "2022-866178",
    "request_type": "Traffic Signals/Signs/Striping/Streetlights",
    "request_reason": "Street Light Outage/Malfunction",
    "date_created": "2022-03-10T19:31:38.000",
    "date_modified": "2022-03-10T19:31:39.000",
    "request_status": "Pending",
    "responsible_agency": "Department of Public Works",
    "final_address": "2619 Music St",
    "address_councildis": "D",
    "status": "Pending",
    "contractor": "Royal Engineering",
    "rowid": "866178",
    "final_x": "3686490.99618",
    "final_y": "542149.103565",
    "longitude": "-90.05193525364774",
    "latitude": "29.98456952632223",
    "geocoded_column": {
      "latitude": "29.98456952632223",
      "longitude": "-90.05193525364774"
    }
  },
  {
    "service_request": "2022-866177",
    "request_type": "Abandoned Vehicles",
    "request_reason": "Abandoned/Junk Vehicles",
    "date_created": "2022-03-10T19:20:24.000",
    "date_modified": "2022-03-10T19:20:24.000",
    "request_status": "Pending",
    "responsible_agency": "Department of Public Works",
    "final_address": "1332 Japonica St",
    "address_councildis": "D",
    "status": "Pending",
    "rowid": "866177",
    "final_x": "3693889.15926",
    "final_y": "535729.529799",
    "longitude": "-90.02879866405226",
    "latitude": "29.96668842970037",
    "geocoded_column": {
      "latitude": "29.96668842970037",
      "longitude": "-90.02879866405226"
    }
  },
  {
    "service_request": "2022-866176",
    "request_type": "Roads/Drainage",
    "request_reason": "Damaged Sidewalk",
    "date_created": "2022-03-10T19:16:40.000",
    "date_modified": "2022-03-10T19:16:40.000",
    "request_status": "Pending",
    "responsible_agency": "Department of Public Works",
    "final_address": "616 N Olympia St",
    "address_councildis": "A",
    "status": "Pending",
    "rowid": "866176",
    "final_x": "3670624.43873",
    "final_y": "541147.969548",
    "longitude": "-90.10208483788853",
    "latitude": "29.982295096879756",
    "geocoded_column": {
      "latitude": "29.982295096879756",
      "longitude": "-90.10208483788853"
    }
  },
  {
    "service_request": "2022-866175",
    "request_type": "Trash/Recycling",
    "request_reason": "Request a Large Item Pick Up",
    "date_created": "2022-03-10T19:15:50.000",
    "date_modified": "2022-03-10T19:15:50.000",
    "request_status": "Pending",
    "responsible_agency": "Department of Sanitation",
    "final_address": "2512 Dryades St",
    "address_councildis": "B",
    "status": "Assigned to Contractor",
    "contractor": "Richards Disposal",
    "rowid": "866175",
    "final_x": "3676033.37397",
    "final_y": "523872.246652",
    "longitude": "-90.08559493883756",
    "latitude": "29.93463173737598",
    "geocoded_column": {
      "latitude": "29.93463173737598",
      "longitude": "-90.08559493883756"
    }
  },
  {
    "service_request": "2022-866173",
    "request_type": "Roads/Drainage",
    "request_reason": "Street Flooding / Drainage",
    "date_created": "2022-03-10T18:54:01.000",
    "date_modified": "2022-03-10T18:54:01.000",
    "request_status": "Pending",
    "responsible_agency": "Department of Public Works",
    "final_address": "7500 Jonlee Dr",
    "address_councildis": "E",
    "status": "Pending",
    "rowid": "866173",
    "final_x": "3717487.51224",
    "final_y": "569870.57783",
    "longitude": "-89.95297728110366",
    "latitude": "30.059803012119666",
    "geocoded_column": {
      "latitude": "30.059803012119666",
      "longitude": "-89.95297728110366"
    }
  },
  {
    "service_request": "2022-866172",
    "request_type": "Roads/Drainage",
    "request_reason": "Damaged Sidewalk",
    "date_created": "2022-03-10T18:46:19.000",
    "date_modified": "2022-03-10T18:46:19.000",
    "request_status": "Pending",
    "responsible_agency": "Department of Public Works",
    "final_address": "7500 Jonlee Dr",
    "address_councildis": "E",
    "status": "Pending",
    "rowid": "866172",
    "final_x": "3717487.51224",
    "final_y": "569870.57783",
    "longitude": "-89.95297728110366",
    "latitude": "30.059803012119666",
    "geocoded_column": {
      "latitude": "30.059803012119666",
      "longitude": "-89.95297728110366"
    }
  },
  {
    "service_request": "2022-866171",
    "request_type": "Traffic Signals/Signs/Striping/Streetlights",
    "request_reason": "Street Light Outage/Malfunction",
    "date_created": "2022-03-10T18:42:09.000",
    "date_modified": "2022-03-10T18:42:10.000",
    "request_status": "Pending",
    "responsible_agency": "Department of Public Works",
    "final_address": "7500 Jonlee Dr",
    "address_councildis": "E",
    "status": "Pending",
    "contractor": "Royal Engineering",
    "rowid": "866171",
    "final_x": "3717487.51224",
    "final_y": "569870.57783",
    "longitude": "-89.95297728110366",
    "latitude": "30.059803012119666",
    "geocoded_column": {
      "latitude": "30.059803012119666",
      "longitude": "-89.95297728110366"
    }
  },
  {
    "service_request": "2022-866170",
    "request_type": "Roads/Drainage",
    "request_reason": "Debris in Roadway",
    "date_created": "2022-03-10T18:37:23.000",
    "date_modified": "2022-03-10T18:37:23.000",
    "request_status": "Pending",
    "responsible_agency": "Department of Public Works",
    "final_address": "7500 Jonlee Dr",
    "address_councildis": "E",
    "status": "Pending",
    "rowid": "866170",
    "final_x": "3717487.51224",
    "final_y": "569870.57783",
    "longitude": "-89.95297728110366",
    "latitude": "30.059803012119666",
    "geocoded_column": {
      "latitude": "30.059803012119666",
      "longitude": "-89.95297728110366"
    }
  },
  {
    "service_request": "2022-866169",
    "request_type": "Trash/Recycling",
    "request_reason": "Missed Trash Pick-Up",
    "date_created": "2022-03-10T18:32:03.000",
    "date_modified": "2022-03-10T18:32:04.000",
    "request_status": "Pending",
    "responsible_agency": "Department of Sanitation",
    "final_address": "2935 Saint Charles Ave, New Orleans, Louisiana, 70115",
    "status": "Assigned to Contractor",
    "rowid": "866169",
    "longitude": "0.0",
    "latitude": "0.0",
    "geocoded_column": {
      "latitude": "0.0",
      "longitude": "0.0"
    }
  },
  {
    "service_request": "2022-866168",
    "request_type": "Trash/Recycling",
    "request_reason": "Missed Trash Pick-Up",
    "date_created": "2022-03-10T18:30:50.000",
    "date_modified": "2022-03-10T18:30:51.000",
    "request_status": "Pending",
    "responsible_agency": "Department of Sanitation",
    "final_address": "2301 Carondelet St",
    "address_councildis": "B",
    "status": "Assigned to Contractor",
    "contractor": "Richards Disposal",
    "rowid": "866168",
    "final_x": "3676886.60514",
    "final_y": "523675.080891",
    "longitude": "-90.08290809592863",
    "latitude": "29.934064021083767",
    "geocoded_column": {
      "latitude": "29.934064021083767",
      "longitude": "-90.08290809592863"
    }
  },
  {
    "service_request": "2022-866167",
    "request_type": "Trash/Recycling",
    "request_reason": "Order Recycling Cart",
    "date_created": "2022-03-10T18:17:54.000",
    "date_modified": "2022-03-10T18:17:54.000",
    "request_status": "Pending",
    "responsible_agency": "Department of Sanitation",
    "final_address": "24 Fontainebleau Dr",
    "address_councildis": "A",
    "status": "Pending",
    "rowid": "866167",
    "final_x": "3665854.8018",
    "final_y": "531571.603011",
    "longitude": "-90.11747069234227",
    "latitude": "29.956103326580706",
    "geocoded_column": {
      "latitude": "29.956103326580706",
      "longitude": "-90.11747069234227"
    }
  },
  {
    "service_request": "2022-866165",
    "request_type": "Trash/Recycling",
    "request_reason": "MIssed Recycling Pick-Up",
    "date_created": "2022-03-10T18:08:35.000",
    "date_modified": "2022-03-10T18:08:36.000",
    "request_status": "Pending",
    "responsible_agency": "Department of Sanitation",
    "final_address": "5026 Loyola Ave",
    "address_councildis": "B",
    "status": "Assigned to Contractor",
    "contractor": "Richards Disposal",
    "rowid": "866165",
    "final_x": "3668572.8779",
    "final_y": "522828.316283",
    "longitude": "-90.10918285886576",
    "latitude": "29.93198253673753",
    "geocoded_column": {
      "latitude": "29.93198253673753",
      "longitude": "-90.10918285886576"
    }
  },
  {
    "service_request": "2022-866164",
    "request_type": "Property Maintenance",
    "request_reason": "Property Maintenance",
    "date_created": "2022-03-10T18:07:49.000",
    "date_modified": "2022-03-10T18:07:49.000",
    "request_status": "Pending",
    "responsible_agency": "Department of Code Enforcement",
    "final_address": "5531 Laurel St, New Orleans, Louisiana, 70115",
    "address_councildis": "A",
    "status": "Pending",
    "rowid": "866164",
    "final_x": "3665965.77677",
    "final_y": "517970.820662",
    "longitude": "-90.11757594195777",
    "latitude": "29.91870228343404",
    "geocoded_column": {
      "latitude": "29.91870228343404",
      "longitude": "-90.11757594195777"
    }
  },
  {
    "service_request": "2022-866163",
    "request_type": "Trash/Recycling",
    "request_reason": "Missed Trash Pick-Up",
    "date_created": "2022-03-10T18:07:33.000",
    "date_modified": "2022-03-10T18:07:34.000",
    "request_status": "Pending",
    "responsible_agency": "Department of Sanitation",
    "final_address": "7312 Benjamin St",
    "address_councildis": "A",
    "status": "Assigned to Contractor",
    "contractor": "Richards Disposal",
    "rowid": "866163",
    "final_x": "3662079.13799",
    "final_y": "524067.913532",
    "longitude": "-90.12964191636387",
    "latitude": "29.93558020108946",
    "geocoded_column": {
      "latitude": "29.93558020108946",
      "longitude": "-90.12964191636387"
    }
  },
  {
    "service_request": "2022-866162",
    "request_type": "Abandoned Vehicles",
    "request_reason": "Abandoned/Junk Vehicles",
    "date_created": "2022-03-10T18:06:54.000",
    "date_modified": "2022-03-10T18:06:54.000",
    "request_status": "Pending",
    "responsible_agency": "Department of Public Works",
    "final_address": "1429 Crete St",
    "address_councildis": "A",
    "status": "Pending",
    "rowid": "866162",
    "final_x": "3677880.22734",
    "final_y": "539587.811914",
    "longitude": "-90.0792214401613",
    "latitude": "29.977788827609334",
    "geocoded_column": {
      "latitude": "29.977788827609334",
      "longitude": "-90.0792214401613"
    }
  },
  {
    "service_request": "2022-866161",
    "request_type": "Trash/Recycling",
    "request_reason": "Illegal Dumping",
    "date_created": "2022-03-10T17:59:05.000",
    "date_modified": "2022-03-10T17:59:05.000",
    "request_status": "Pending",
    "responsible_agency": "Department of Sanitation",
    "final_address": "1831 Laurel St",
    "address_councildis": "B",
    "status": "Pending",
    "rowid": "866161",
    "final_x": "3680341.8861",
    "final_y": "522403.97529",
    "longitude": "-90.07204408061497",
    "latitude": "29.93046476653402",
    "geocoded_column": {
      "latitude": "29.93046476653402",
      "longitude": "-90.07204408061497"
    }
  },
  {
    "service_request": "2022-866160",
    "request_type": "Trash/Recycling",
    "request_reason": "Illegal Dumping",
    "date_created": "2022-03-10T17:59:04.000",
    "date_modified": "2022-03-10T17:59:04.000",
    "request_status": "Pending",
    "responsible_agency": "Department of Sanitation",
    "final_address": "1831 Laurel St",
    "address_councildis": "B",
    "status": "Pending",
    "rowid": "866160",
    "final_x": "3680341.8861",
    "final_y": "522403.97529",
    "longitude": "-90.07204408061497",
    "latitude": "29.93046476653402",
    "geocoded_column": {
      "latitude": "29.93046476653402",
      "longitude": "-90.07204408061497"
    }
  },
  {
    "service_request": "2022-866159",
    "request_type": "Trash/Recycling",
    "request_reason": "Return Trash Cart",
    "date_created": "2022-03-10T17:59:00.000",
    "date_modified": "2022-03-10T17:59:01.000",
    "request_status": "Pending",
    "responsible_agency": "Department of Sanitation",
    "final_address": "538 Governor Nicholls St",
    "address_councildis": "C",
    "status": "Assigned to Contractor",
    "contractor": "Empire Services",
    "rowid": "866159",
    "final_x": "3683953.97961",
    "final_y": "533649.135109",
    "longitude": "-90.06024685251371",
    "latitude": "29.961275338836497",
    "geocoded_column": {
      "latitude": "29.961275338836497",
      "longitude": "-90.06024685251371"
    }
  },
  {
    "service_request": "2022-866158",
    "request_type": "Trash/Recycling",
    "request_reason": "Replace Recycling Cart",
    "date_created": "2022-03-10T17:53:46.000",
    "date_modified": "2022-03-10T17:53:46.000",
    "request_status": "Pending",
    "responsible_agency": "Department of Sanitation",
    "final_address": "2814 Saint Claude Ave, New Orleans, Louisiana, 70117",
    "status": "Pending",
    "rowid": "866158",
    "longitude": "0.0",
    "latitude": "0.0",
    "geocoded_column": {
      "latitude": "0.0",
      "longitude": "0.0"
    }
  },
  {
    "service_request": "2022-866157",
    "request_type": "Trash/Recycling",
    "request_reason": "Replace Trash Cart",
    "date_created": "2022-03-10T17:51:26.000",
    "date_modified": "2022-03-10T17:51:27.000",
    "request_status": "Pending",
    "responsible_agency": "Department of Sanitation",
    "final_address": "2425 Chartres St",
    "address_councildis": "C",
    "status": "Assigned to Contractor",
    "contractor": "Metro Disposal",
    "rowid": "866157",
    "final_x": "3686130.22671",
    "final_y": "534620.938694",
    "longitude": "-90.05334038370131",
    "latitude": "29.963880798738845",
    "geocoded_column": {
      "latitude": "29.963880798738845",
      "longitude": "-90.05334038370131"
    }
  },
  {
    "service_request": "2022-866156",
    "request_type": "Trash/Recycling",
    "request_reason": "MIssed Recycling Pick-Up",
    "date_created": "2022-03-10T17:49:07.000",
    "date_modified": "2022-03-10T17:49:08.000",
    "request_status": "Pending",
    "responsible_agency": "Department of Sanitation",
    "final_address": "522 Napoleon Ave",
    "address_councildis": "B",
    "status": "Assigned to Contractor",
    "contractor": "Richards Disposal",
    "rowid": "866156",
    "final_x": "3671051.50849",
    "final_y": "517584.827702",
    "longitude": "-90.10153600960744",
    "latitude": "29.91749157130745",
    "geocoded_column": {
      "latitude": "29.91749157130745",
      "longitude": "-90.10153600960744"
    }
  },
  {
    "service_request": "2022-866155",
    "request_type": "Property Maintenance",
    "request_reason": "Property Maintenance",
    "date_created": "2022-03-10T17:35:58.000",
    "date_modified": "2022-03-10T17:35:58.000",
    "request_status": "Pending",
    "responsible_agency": "Department of Code Enforcement",
    "final_address": "3500 St Charles Ave",
    "address_councildis": "B",
    "status": "Pending",
    "rowid": "866155",
    "final_x": "3673765.55617",
    "final_y": "521211.953017",
    "longitude": "-90.09284532799195",
    "latitude": "29.927384498735318",
    "geocoded_column": {
      "latitude": "29.927384498735318",
      "longitude": "-90.09284532799195"
    }
  },
  {
    "service_request": "2022-866153",
    "request_type": "Roads/Drainage",
    "request_reason": "Pothole",
    "date_created": "2022-03-10T17:30:34.000",
    "date_modified": "2022-03-10T17:30:34.000",
    "request_status": "Pending",
    "responsible_agency": "Department of Public Works",
    "final_address": "3534 Upperline St A",
    "address_councildis": "B",
    "status": "Pending",
    "rowid": "866153",
    "final_x": "3669251.04711",
    "final_y": "527989.154047",
    "longitude": "-90.10686755657366",
    "latitude": "29.946153235318885",
    "geocoded_column": {
      "latitude": "29.946153235318885",
      "longitude": "-90.10686755657366"
    }
  },
  {
    "service_request": "2022-866152",
    "request_type": "Trash/Recycling",
    "request_reason": "Missed Trash Pick-Up",
    "date_created": "2022-03-10T16:54:11.000",
    "date_modified": "2022-03-10T16:54:12.000",
    "request_status": "Pending",
    "responsible_agency": "Department of Sanitation",
    "final_address": "1128 Third St",
    "address_councildis": "B",
    "status": "Assigned to Contractor",
    "contractor": "Richards Disposal",
    "rowid": "866152",
    "final_x": "3677415.99214",
    "final_y": "521314.816953",
    "longitude": "-90.08131825746477",
    "latitude": "29.9275581701972",
    "geocoded_column": {
      "latitude": "29.9275581701972",
      "longitude": "-90.08131825746477"
    }
  },
  {
    "service_request": "2022-866151",
    "request_type": "Trash/Recycling",
    "request_reason": "Request a Large Item Pick Up",
    "date_created": "2022-03-10T16:49:06.000",
    "date_modified": "2022-03-10T16:49:07.000",
    "request_status": "Pending",
    "responsible_agency": "Department of Sanitation",
    "final_address": "4937 Dreux Ave",
    "address_councildis": "D",
    "status": "Assigned to Contractor",
    "contractor": "Metro Disposal",
    "rowid": "866151",
    "final_x": "3691612.74652",
    "final_y": "553359.789399",
    "longitude": "-90.03535684971668",
    "latitude": "30.015236329728125",
    "geocoded_column": {
      "latitude": "30.015236329728125",
      "longitude": "-90.03535684971668"
    }
  },
  {
    "service_request": "2022-866150",
    "request_type": "Trash/Recycling",
    "request_reason": "Request a Large Item Pick Up",
    "date_created": "2022-03-10T16:43:37.000",
    "date_modified": "2022-03-10T16:43:37.000",
    "request_status": "Pending",
    "responsible_agency": "Department of Sanitation",
    "final_address": "7728 Nelson St",
    "address_councildis": "A",
    "status": "Assigned to Contractor",
    "contractor": "Richards Disposal",
    "rowid": "866150",
    "final_x": "3665984.85114",
    "final_y": "530996.352322",
    "longitude": "-90.11707931995366",
    "latitude": "29.95451777979011",
    "geocoded_column": {
      "latitude": "29.95451777979011",
      "longitude": "-90.11707931995366"
    }
  },
  {
    "service_request": "2022-866149",
    "request_type": "Traffic Signals/Signs/Striping/Streetlights",
    "request_reason": "Request for Stop Sign",
    "date_created": "2022-03-10T16:38:28.000",
    "date_modified": "2022-03-10T16:38:28.000",
    "request_status": "Pending",
    "responsible_agency": "Department of Public Works",
    "final_address": "7319 Patterson Rd",
    "address_councildis": "C",
    "status": "Pending",
    "rowid": "866149",
    "final_x": "3711132.58033",
    "final_y": "519310.271671",
    "longitude": "-89.97495927746154",
    "latitude": "29.920990320571903",
    "geocoded_column": {
      "latitude": "29.920990320571903",
      "longitude": "-89.97495927746154"
    }
  },
  {
    "service_request": "2022-866147",
    "request_type": "Trash/Recycling",
    "request_reason": "Replace Trash Cart",
    "date_created": "2022-03-10T16:34:03.000",
    "date_modified": "2022-03-10T16:34:04.000",
    "request_status": "Pending",
    "responsible_agency": "Department of Sanitation",
    "final_address": "721 Pleasant St",
    "address_councildis": "B",
    "status": "Assigned to Contractor",
    "contractor": "Richards Disposal",
    "rowid": "866147",
    "final_x": "3676194.37717",
    "final_y": "518692.356663",
    "longitude": "-90.0852647720752",
    "latitude": "29.92038389792501",
    "geocoded_column": {
      "latitude": "29.92038389792501",
      "longitude": "-90.0852647720752"
    }
  },
  {
    "service_request": "2022-866145",
    "request_type": "Trash/Recycling",
    "request_reason": "Missed Trash Pick-Up",
    "date_created": "2022-03-10T16:30:54.000",
    "date_modified": "2022-03-10T16:31:30.000",
    "request_status": "Pending",
    "responsible_agency": "Department of Sanitation",
    "final_address": "7700 BLK Burke Ave",
    "address_councildis": "E",
    "status": "Assigned to Contractor",
    "contractor": "Metro Disposal",
    "rowid": "866145",
    "final_x": "3705339.48463",
    "final_y": "563111.921464",
    "longitude": "-89.99162635603777",
    "latitude": "30.041616201015003",
    "geocoded_column": {
      "latitude": "30.041616201015003",
      "longitude": "-89.99162635603777"
    }
  },
  {
    "service_request": "2022-866144",
    "request_type": "Trash/Recycling",
    "request_reason": "Illegal Dumping",
    "date_created": "2022-03-10T16:29:43.000",
    "date_modified": "2022-03-10T16:29:43.000",
    "request_status": "Pending",
    "responsible_agency": "Department of Sanitation",
    "final_address": "1811 St Ann St",
    "address_councildis": "D",
    "status": "Pending",
    "rowid": "866144",
    "final_x": "3679633.83394",
    "final_y": "535214.366342",
    "longitude": "-90.07383477513382",
    "latitude": "29.965710465308067",
    "geocoded_column": {
      "latitude": "29.965710465308067",
      "longitude": "-90.07383477513382"
    }
  },
  {
    "service_request": "2022-866143",
    "request_type": "Trash/Recycling",
    "request_reason": "Missed Trash Pick-Up",
    "date_created": "2022-03-10T16:27:40.000",
    "date_modified": "2022-03-10T16:27:41.000",
    "request_status": "Pending",
    "responsible_agency": "Department of Sanitation",
    "final_address": "4010 Athis Ct",
    "address_councildis": "D",
    "status": "Assigned to Contractor",
    "contractor": "Metro Disposal",
    "rowid": "866143",
    "final_x": "3688637.81398",
    "final_y": "554515.25052",
    "longitude": "-90.04471515889364",
    "latitude": "30.018505745065692",
    "geocoded_column": {
      "latitude": "30.018505745065692",
      "longitude": "-90.04471515889364"
    }
  },
  {
    "service_request": "2022-866142",
    "request_type": "Traffic Signals/Signs/Striping/Streetlights",
    "request_reason": "Additional signage",
    "date_created": "2022-03-10T16:22:59.000",
    "date_modified": "2022-03-10T16:22:59.000",
    "request_status": "Pending",
    "responsible_agency": "Department of Public Works",
    "final_address": "WINSTON ST & BARBER ST",
    "address_councildis": "C",
    "status": "Pending",
    "rowid": "866142",
    "final_x": "3711180.0",
    "final_y": "519091.78",
    "longitude": "-89.97481777333465",
    "latitude": "29.92038799956783",
    "geocoded_column": {
      "latitude": "29.92038799956783",
      "longitude": "-89.97481777333465"
    }
  },
  {
    "service_request": "2022-866141",
    "request_type": "Roads/Drainage",
    "request_reason": "Damaged Sidewalk",
    "date_created": "2022-03-10T16:22:10.000",
    "date_modified": "2022-03-10T16:22:10.000",
    "request_status": "Pending",
    "responsible_agency": "Department of Public Works",
    "final_address": "7939 Green St",
    "address_councildis": "A",
    "status": "Pending",
    "rowid": "866141",
    "final_x": "3663541.19955",
    "final_y": "529361.913729",
    "longitude": "-90.12484988273599",
    "latitude": "29.950094696999038",
    "geocoded_column": {
      "latitude": "29.950094696999038",
      "longitude": "-90.12484988273599"
    }
  },
  {
    "service_request": "2022-866140",
    "request_type": "Roads/Drainage",
    "request_reason": "Pothole",
    "date_created": "2022-03-10T16:18:35.000",
    "date_modified": "2022-03-10T16:18:35.000",
    "request_status": "Pending",
    "responsible_agency": "Department of Public Works",
    "final_address": "9300 BLK Apricot St",
    "address_councildis": "A",
    "status": "Pending",
    "rowid": "866140",
    "final_x": "3662571.13479",
    "final_y": "535586.713391",
    "longitude": "-90.12770604549881",
    "latitude": "29.96723897010325",
    "geocoded_column": {
      "latitude": "29.96723897010325",
      "longitude": "-90.12770604549881"
    }
  },
  {
    "service_request": "2022-866139",
    "request_type": "Trash/Recycling",
    "request_reason": "Request a Large Item Pick Up",
    "date_created": "2022-03-10T16:16:21.000",
    "date_modified": "2022-03-10T16:16:22.000",
    "request_status": "Pending",
    "responsible_agency": "Department of Sanitation",
    "final_address": "5449 Dayna Ct",
    "address_councildis": "A",
    "status": "Assigned to Contractor",
    "contractor": "Metro Disposal",
    "rowid": "866139",
    "final_x": "3664402.413",
    "final_y": "543803.81563",
    "longitude": "-90.12164841339215",
    "latitude": "29.989780147359333",
    "geocoded_column": {
      "latitude": "29.989780147359333",
      "longitude": "-90.12164841339215"
    }
  },
  {
    "service_request": "2022-866138",
    "request_type": "Roads/Drainage",
    "request_reason": "Street Subsidence (Sinking)",
    "date_created": "2022-03-10T16:15:43.000",
    "date_modified": "2022-03-10T16:15:43.000",
    "request_status": "Pending",
    "responsible_agency": "Department of Public Works",
    "final_address": "2906 Desire Prkwy",
    "address_councildis": "D",
    "status": "Pending",
    "rowid": "866138",
    "final_x": "3692539.17993",
    "final_y": "542813.598029",
    "longitude": "-90.03280795833679",
    "latitude": "29.986209282191446",
    "geocoded_column": {
      "latitude": "29.986209282191446",
      "longitude": "-90.03280795833679"
    }
  },
  {
    "service_request": "2022-866137",
    "request_type": "Abandoned Vehicles",
    "request_reason": "Abandoned/Junk Vehicles",
    "date_created": "2022-03-10T16:15:33.000",
    "date_modified": "2022-03-10T16:15:33.000",
    "request_status": "Pending",
    "responsible_agency": "Department of Public Works",
    "final_address": "2750 Verbena St",
    "address_councildis": "D",
    "status": "Pending",
    "rowid": "866137",
    "final_x": "3688171.78191",
    "final_y": "547844.572562",
    "longitude": "-90.04642436346035",
    "latitude": "30.000178228729343",
    "geocoded_column": {
      "latitude": "30.000178228729343",
      "longitude": "-90.04642436346035"
    }
  },
  {
    "service_request": "2022-866136",
    "request_type": "Roads/Drainage",
    "request_reason": "Pothole",
    "date_created": "2022-03-10T16:14:17.000",
    "date_modified": "2022-03-10T16:14:17.000",
    "request_status": "Pending",
    "responsible_agency": "Department of Public Works",
    "final_address": "VERBENA ST & PEOPLES AVE",
    "address_councildis": "D",
    "status": "Pending",
    "rowid": "866136",
    "final_x": "3688410.6",
    "final_y": "547913.48",
    "longitude": "-90.04566748000767",
    "latitude": "30.000360321927822",
    "geocoded_column": {
      "latitude": "30.000360321927822",
      "longitude": "-90.04566748000767"
    }
  },
  {
    "service_request": "2022-866135",
    "request_type": "Roads/Drainage",
    "request_reason": "Street Subsidence (Sinking)",
    "date_created": "2022-03-10T16:12:44.000",
    "date_modified": "2022-03-10T16:12:44.000",
    "request_status": "Pending",
    "responsible_agency": "Department of Public Works",
    "final_address": "2906 Desire Prkwy",
    "address_councildis": "D",
    "status": "Pending",
    "rowid": "866135",
    "final_x": "3692539.17993",
    "final_y": "542813.598029",
    "longitude": "-90.03280795833679",
    "latitude": "29.986209282191446",
    "geocoded_column": {
      "latitude": "29.986209282191446",
      "longitude": "-90.03280795833679"
    }
  },
  {
    "service_request": "2022-866134",
    "request_type": "Health Related Questions",
    "request_reason": "Noise Ordinance Complaint",
    "date_created": "2022-03-10T16:12:14.000",
    "date_modified": "2022-03-10T16:12:14.000",
    "request_status": "Pending",
    "responsible_agency": "Health Department",
    "final_address": "2744 Robert E Lee Blvd",
    "address_councildis": "D",
    "status": "Pending",
    "rowid": "866134",
    "final_x": "3687480.71119",
    "final_y": "555976.088729",
    "longitude": "-90.04831940860063",
    "latitude": "30.022558238193067",
    "geocoded_column": {
      "latitude": "30.022558238193067",
      "longitude": "-90.04831940860063"
    }
  },
  {
    "service_request": "2022-866133",
    "request_type": "Trash/Recycling",
    "request_reason": "Missed Trash Pick-Up",
    "date_created": "2022-03-10T16:07:40.000",
    "date_modified": "2022-03-10T16:07:40.000",
    "request_status": "Pending",
    "responsible_agency": "Department of Sanitation",
    "final_address": "2502 Jena St",
    "address_councildis": "B",
    "status": "Assigned to Contractor",
    "contractor": "Richards Disposal",
    "rowid": "866133",
    "final_x": "3670097.2203",
    "final_y": "524051.30758",
    "longitude": "-90.10432924444706",
    "latitude": "29.935300502597634",
    "geocoded_column": {
      "latitude": "29.935300502597634",
      "longitude": "-90.10432924444706"
    }
  },
  {
    "service_request": "2022-866129",
    "request_type": "Trash/Recycling",
    "request_reason": "Missed Trash Pick-Up",
    "date_created": "2022-03-10T16:00:47.000",
    "date_modified": "2022-03-10T16:00:48.000",
    "request_status": "Pending",
    "responsible_agency": "Department of Sanitation",
    "final_address": "800 Poland Ave",
    "address_councildis": "C",
    "status": "Assigned to Contractor",
    "contractor": "Metro Disposal",
    "rowid": "866129",
    "final_x": "3692710.14467",
    "final_y": "533903.995781",
    "longitude": "-90.03258741357921",
    "latitude": "29.961705709714334",
    "geocoded_column": {
      "latitude": "29.961705709714334",
      "longitude": "-90.03258741357921"
    }
  },
  {
    "service_request": "2022-866128",
    "request_type": "Trash/Recycling",
    "request_reason": "Request a Large Item Pick Up",
    "date_created": "2022-03-10T16:00:10.000",
    "date_modified": "2022-03-10T16:00:11.000",
    "request_status": "Pending",
    "responsible_agency": "Department of Sanitation",
    "final_address": "3519 Huntlee Dr",
    "address_councildis": "C",
    "status": "Assigned to Contractor",
    "contractor": "Richards Disposal",
    "rowid": "866128",
    "final_x": "3701649.87249",
    "final_y": "518065.488694",
    "longitude": "-90.00493724832056",
    "latitude": "29.917873295118323",
    "geocoded_column": {
      "latitude": "29.917873295118323",
      "longitude": "-90.00493724832056"
    }
  },
  {
    "service_request": "2022-866127",
    "request_type": "Traffic Signals/Signs/Striping/Streetlights",
    "request_reason": "Street Light Outage/Malfunction",
    "date_created": "2022-03-10T15:57:33.000",
    "date_modified": "2022-03-10T15:57:35.000",
    "request_status": "Pending",
    "responsible_agency": "Department of Public Works",
    "final_address": "63 Spanish Fort Blvd",
    "address_councildis": "D",
    "status": "Pending",
    "contractor": "Royal Engineering",
    "rowid": "866127",
    "final_x": "3674043.42836",
    "final_y": "555399.213657",
    "longitude": "-90.09079787448418",
    "latitude": "30.021379546895165",
    "geocoded_column": {
      "latitude": "30.021379546895165",
      "longitude": "-90.09079787448418"
    }
  },
  {
    "service_request": "2022-866125",
    "request_type": "Trash/Recycling",
    "request_reason": "Order Trash Cart",
    "date_created": "2022-03-10T15:55:07.000",
    "date_modified": "2022-03-10T15:55:08.000",
    "request_status": "Pending",
    "responsible_agency": "Department of Sanitation",
    "final_address": "5370 Pratt Dr, New Orleans, Louisiana, 70122",
    "address_councildis": "D",
    "status": "Assigned to Contractor",
    "contractor": "Metro Disposal",
    "rowid": "866125",
    "final_x": "3680299.66831",
    "final_y": "552196.512534",
    "longitude": "-90.07114134948336",
    "latitude": "30.01238525741769",
    "geocoded_column": {
      "latitude": "30.01238525741769",
      "longitude": "-90.07114134948336"
    }
  },
  {
    "service_request": "2022-866123",
    "request_type": "Abandoned Vehicles",
    "request_reason": "Abandoned/Junk Vehicles",
    "date_created": "2022-03-10T15:46:15.000",
    "date_modified": "2022-03-10T15:46:15.000",
    "request_status": "Pending",
    "responsible_agency": "Department of Public Works",
    "final_address": "3819 Iris St",
    "address_councildis": "D",
    "status": "Pending",
    "rowid": "866123",
    "final_x": "3686370.82786",
    "final_y": "547326.594833",
    "longitude": "-90.05213195894078",
    "latitude": "29.998809470322502",
    "geocoded_column": {
      "latitude": "29.998809470322502",
      "longitude": "-90.05213195894078"
    }
  },
  {
    "service_request": "2022-866122",
    "request_type": "Roads/Drainage",
    "request_reason": "Pothole",
    "date_created": "2022-03-10T15:45:00.000",
    "date_modified": "2022-03-10T15:45:00.000",
    "request_status": "Pending",
    "responsible_agency": "Department of Public Works",
    "final_address": "1539 Burdette St",
    "address_councildis": "A",
    "status": "Pending",
    "rowid": "866122",
    "final_x": "3663746.08429",
    "final_y": "528587.867584",
    "longitude": "-90.12422875225066",
    "latitude": "29.947960376182046",
    "geocoded_column": {
      "latitude": "29.947960376182046",
      "longitude": "-90.12422875225066"
    }
  },
  {
    "service_request": "2022-866121",
    "request_type": "Trash/Recycling",
    "request_reason": "Replace Trash Cart",
    "date_created": "2022-03-10T15:44:09.000",
    "date_modified": "2022-03-10T15:44:09.000",
    "request_status": "Pending",
    "responsible_agency": "Department of Sanitation",
    "final_address": "2012 Sixth St",
    "address_councildis": "B",
    "status": "Assigned to Contractor",
    "contractor": "Richards Disposal",
    "rowid": "866121",
    "final_x": "3674609.80481",
    "final_y": "523536.206075",
    "longitude": "-90.09010063469391",
    "latitude": "29.933750282823894",
    "geocoded_column": {
      "latitude": "29.933750282823894",
      "longitude": "-90.09010063469391"
    }
  },
  {
    "service_request": "2022-866120",
    "request_type": "Roads/Drainage",
    "request_reason": "Pothole",
    "date_created": "2022-03-10T15:42:31.000",
    "date_modified": "2022-03-10T15:42:31.000",
    "request_status": "Pending",
    "responsible_agency": "Department of Public Works",
    "final_address": "10500 River Rd",
    "address_councildis": "C",
    "status": "Pending",
    "rowid": "866120",
    "final_x": "3725923.36595",
    "final_y": "517904.177398",
    "longitude": "-89.92832656456297",
    "latitude": "29.916633656543954",
    "geocoded_column": {
      "latitude": "29.916633656543954",
      "longitude": "-89.92832656456297"
    }
  },
  {
    "service_request": "2022-866119",
    "request_type": "Trash/Recycling",
    "request_reason": "Request a Large Item Pick Up",
    "date_created": "2022-03-10T15:41:14.000",
    "date_modified": "2022-03-10T15:41:15.000",
    "request_status": "Pending",
    "responsible_agency": "Department of Sanitation",
    "final_address": "314 S Gayoso St, New Orleans, Louisiana, 70119",
    "address_councildis": "B",
    "status": "Assigned to Contractor",
    "contractor": "Richards Disposal",
    "rowid": "866119",
    "final_x": "3673807.14555",
    "final_y": "535093.531142",
    "longitude": "-90.0922394053977",
    "latitude": "29.965553028822878",
    "geocoded_column": {
      "latitude": "29.965553028822878",
      "longitude": "-90.0922394053977"
    }
  },
  {
    "service_request": "2022-866118",
    "request_type": "Traffic Signals/Signs/Striping/Streetlights",
    "request_reason": "Request for Traffic Calming due to Speeding",
    "date_created": "2022-03-10T15:39:09.000",
    "date_modified": "2022-03-10T15:41:56.000",
    "request_status": "Pending",
    "responsible_agency": "Department of Public Works",
    "final_address": "9234 Forshey St",
    "address_councildis": "A",
    "status": "Pending",
    "rowid": "866118",
    "final_x": "3663913.10579",
    "final_y": "536692.855047",
    "longitude": "-90.12343118128176",
    "latitude": "29.97024160158485",
    "geocoded_column": {
      "latitude": "29.97024160158485",
      "longitude": "-90.12343118128176"
    }
  },
  {
    "service_request": "2022-866117",
    "request_type": "Trash/Recycling",
    "request_reason": "Repair Trash Cart",
    "date_created": "2022-03-10T15:38:50.000",
    "date_modified": "2022-03-10T15:38:50.000",
    "request_status": "Pending",
    "responsible_agency": "Department of Sanitation",
    "final_address": "1209 Terry St",
    "address_councildis": "C",
    "status": "Assigned to Contractor",
    "contractor": "Richards Disposal",
    "rowid": "866117",
    "final_x": "3696925.81578",
    "final_y": "526880.142142",
    "longitude": "-90.01952940072803",
    "latitude": "29.942260316278226",
    "geocoded_column": {
      "latitude": "29.942260316278226",
      "longitude": "-90.01952940072803"
    }
  },
  {
    "service_request": "2022-866116",
    "request_type": "Property Maintenance",
    "request_reason": "Property Maintenance",
    "date_created": "2022-03-10T15:35:42.000",
    "date_modified": "2022-03-10T15:35:42.000",
    "request_status": "Pending",
    "responsible_agency": "Department of Code Enforcement",
    "final_address": "2433 Lavender St",
    "address_councildis": "D",
    "status": "Pending",
    "rowid": "866116",
    "final_x": "3686188.56278",
    "final_y": "546941.250705",
    "longitude": "-90.0527213399315",
    "latitude": "29.99775551518954",
    "geocoded_column": {
      "latitude": "29.99775551518954",
      "longitude": "-90.0527213399315"
    }
  },
  {
    "service_request": "2022-866115",
    "request_type": "Property Maintenance",
    "request_reason": "Property Maintenance",
    "date_created": "2022-03-10T15:30:25.000",
    "date_modified": "2022-03-10T15:30:25.000",
    "request_status": "Pending",
    "responsible_agency": "Department of Code Enforcement",
    "final_address": "1200 Belleville St",
    "address_councildis": "C",
    "status": "Pending",
    "rowid": "866115",
    "final_x": "3687781.08009",
    "final_y": "527133.710335",
    "longitude": "-90.0483923008942",
    "latitude": "29.943242683125554",
    "geocoded_column": {
      "latitude": "29.943242683125554",
      "longitude": "-90.0483923008942"
    }
  },
  {
    "service_request": "2022-866114",
    "request_type": "Traffic Signals/Signs/Striping/Streetlights",
    "request_reason": "Street Light Outage/Malfunction",
    "date_created": "2022-03-10T15:28:33.000",
    "date_modified": "2022-03-10T15:28:34.000",
    "request_status": "Pending",
    "responsible_agency": "Department of Public Works",
    "final_address": "1643 Josephine St",
    "address_councildis": "B",
    "status": "Pending",
    "contractor": "Royal Engineering",
    "rowid": "866114",
    "final_x": "3677727.88078",
    "final_y": "524249.059196",
    "longitude": "-90.08023240309207",
    "latitude": "29.93561700255386",
    "geocoded_column": {
      "latitude": "29.93561700255386",
      "longitude": "-90.08023240309207"
    }
  },
  {
    "service_request": "2022-866113",
    "request_type": "Trash/Recycling",
    "request_reason": "Illegal Dumping",
    "date_created": "2022-03-10T15:25:04.000",
    "date_modified": "2022-03-10T15:25:29.000",
    "request_status": "Pending",
    "responsible_agency": "Department of Sanitation",
    "final_address": "6718 Argonne Blvd",
    "address_councildis": "A",
    "status": "Pending",
    "rowid": "866113",
    "final_x": "3670544.8395",
    "final_y": "552066.185686",
    "longitude": "-90.10196566072332",
    "latitude": "30.012318756167737",
    "geocoded_column": {
      "latitude": "30.012318756167737",
      "longitude": "-90.10196566072332"
    }
  },
  {
    "service_request": "2022-866112",
    "request_type": "Roads/Drainage",
    "request_reason": "Accessibility Ramps, Curbs and Sidewalk Repair",
    "date_created": "2022-03-10T15:20:33.000",
    "date_modified": "2022-03-10T15:20:33.000",
    "request_status": "Pending",
    "responsible_agency": "Department of Public Works",
    "final_address": "1643 Josephine St",
    "address_councildis": "B",
    "status": "Pending",
    "rowid": "866112",
    "final_x": "3677727.88078",
    "final_y": "524249.059196",
    "longitude": "-90.08023240309207",
    "latitude": "29.93561700255386",
    "geocoded_column": {
      "latitude": "29.93561700255386",
      "longitude": "-90.08023240309207"
    }
  },
  {
    "service_request": "2022-866111",
    "request_type": "Trash/Recycling",
    "request_reason": "Request a Large Item Pick Up",
    "date_created": "2022-03-10T15:17:53.000",
    "date_modified": "2022-03-10T15:17:57.000",
    "request_status": "Pending",
    "responsible_agency": "Department of Sanitation",
    "final_address": "4609 Tchoupitoulas St",
    "address_councildis": "B",
    "status": "Assigned to Contractor",
    "contractor": "Richards Disposal",
    "rowid": "866111",
    "final_x": "3670343.81351",
    "final_y": "517417.617781",
    "longitude": "-90.10377547425627",
    "latitude": "29.917052696981123",
    "geocoded_column": {
      "latitude": "29.917052696981123",
      "longitude": "-90.10377547425627"
    }
  },
  {
    "service_request": "2022-866110",
    "request_type": "Property Maintenance",
    "request_reason": "Property Maintenance",
    "date_created": "2022-03-10T15:16:54.000",
    "date_modified": "2022-03-10T15:16:54.000",
    "request_status": "Pending",
    "responsible_agency": "Department of Code Enforcement",
    "final_address": "1566 Foy St",
    "address_councildis": "D",
    "status": "Pending",
    "rowid": "866110",
    "final_x": "3679407.42562",
    "final_y": "546523.284881",
    "longitude": "-90.07415730870123",
    "latitude": "29.996812902207267",
    "geocoded_column": {
      "latitude": "29.996812902207267",
      "longitude": "-90.07415730870123"
    }
  },
  {
    "service_request": "2022-866108",
    "request_type": "Trash/Recycling",
    "request_reason": "Start Trash Service",
    "date_created": "2022-03-10T15:16:25.000",
    "date_modified": "2022-03-10T15:16:26.000",
    "request_status": "Pending",
    "responsible_agency": "Department of Sanitation",
    "final_address": "1918 Columbus St",
    "address_councildis": "D",
    "status": "Assigned to Contractor",
    "contractor": "Metro Disposal",
    "rowid": "866108",
    "final_x": "3680722.93525",
    "final_y": "537910.201097",
    "longitude": "-90.07030159444065",
    "latitude": "29.97309012198758",
    "geocoded_column": {
      "latitude": "29.97309012198758",
      "longitude": "-90.07030159444065"
    }
  },
  {
    "service_request": "2022-866107",
    "request_type": "Property Maintenance",
    "request_reason": "Property Maintenance",
    "date_created": "2022-03-10T15:16:23.000",
    "date_modified": "2022-03-10T15:16:23.000",
    "request_status": "Pending",
    "responsible_agency": "Department of Code Enforcement",
    "final_address": "1562 Foy St",
    "address_councildis": "D",
    "status": "Pending",
    "rowid": "866107",
    "final_x": "3679357.3716",
    "final_y": "546519.240017",
    "longitude": "-90.07431556712457",
    "latitude": "29.99680329260731",
    "geocoded_column": {
      "latitude": "29.99680329260731",
      "longitude": "-90.07431556712457"
    }
  },
  {
    "service_request": "2022-866106",
    "request_type": "Trash/Recycling",
    "request_reason": "Request a Large Item Pick Up",
    "date_created": "2022-03-10T15:15:41.000",
    "date_modified": "2022-03-10T15:15:42.000",
    "request_status": "Pending",
    "responsible_agency": "Department of Sanitation",
    "final_address": "1920 Brutus St",
    "address_councildis": "D",
    "status": "Assigned to Contractor",
    "contractor": "Metro Disposal",
    "rowid": "866106",
    "final_x": "3681836.8212",
    "final_y": "550062.518292",
    "longitude": "-90.06635935936737",
    "latitude": "30.006470896611088",
    "geocoded_column": {
      "latitude": "30.006470896611088",
      "longitude": "-90.06635935936737"
    }
  },
  {
    "service_request": "2022-866105",
    "request_type": "Trash/Recycling",
    "request_reason": "Request a Large Item Pick Up",
    "date_created": "2022-03-10T15:14:22.000",
    "date_modified": "2022-03-10T15:14:23.000",
    "request_status": "Pending",
    "responsible_agency": "Department of Sanitation",
    "final_address": "915 Pine St, New Orleans, Louisiana, 70118",
    "address_councildis": "A",
    "status": "Assigned to Contractor",
    "contractor": "Richards Disposal",
    "rowid": "866105",
    "final_x": "3663440.33811",
    "final_y": "525880.584573",
    "longitude": "-90.1252842409199",
    "latitude": "29.940525082025268",
    "geocoded_column": {
      "latitude": "29.940525082025268",
      "longitude": "-90.1252842409199"
    }
  },
  {
    "service_request": "2022-866104",
    "request_type": "Trash/Recycling",
    "request_reason": "Repair Trash Cart",
    "date_created": "2022-03-10T15:14:03.000",
    "date_modified": "2022-03-10T15:14:04.000",
    "request_status": "Pending",
    "responsible_agency": "Department of Sanitation",
    "final_address": "63 Neron Pl",
    "address_councildis": "A",
    "status": "Assigned to Contractor",
    "contractor": "Richards Disposal",
    "rowid": "866104",
    "final_x": "3665793.84679",
    "final_y": "530173.508225",
    "longitude": "-90.11771000398639",
    "latitude": "29.952260799613864",
    "geocoded_column": {
      "latitude": "29.952260799613864",
      "longitude": "-90.11771000398639"
    }
  },
  {
    "service_request": "2022-866103",
    "request_type": "Trash/Recycling",
    "request_reason": "Missed Trash Pick-Up",
    "date_created": "2022-03-10T15:09:07.000",
    "date_modified": "2022-03-10T15:09:08.000",
    "request_status": "Pending",
    "responsible_agency": "Department of Sanitation",
    "final_address": "1840 Euterpe St",
    "address_councildis": "B",
    "status": "Assigned to Contractor",
    "contractor": "Richards Disposal",
    "rowid": "866103",
    "final_x": "3677849.43208",
    "final_y": "525626.742013",
    "longitude": "-90.07980108279143",
    "latitude": "29.93940152096696",
    "geocoded_column": {
      "latitude": "29.93940152096696",
      "longitude": "-90.07980108279143"
    }
  },
  {
    "service_request": "2022-866102",
    "request_type": "Trash/Recycling",
    "request_reason": "Order Trash Cart",
    "date_created": "2022-03-10T15:07:32.000",
    "date_modified": "2022-03-10T15:07:33.000",
    "request_status": "Pending",
    "responsible_agency": "Department of Sanitation",
    "final_address": "New Orleans,LA",
    "status": "Assigned to Contractor",
    "rowid": "866102",
    "longitude": "0.0",
    "latitude": "0.0",
    "geocoded_column": {
      "latitude": "0.0",
      "longitude": "0.0"
    }
  },
  {
    "service_request": "2022-866101",
    "request_type": "Roads/Drainage",
    "request_reason": "Debris in Roadway",
    "date_created": "2022-03-10T15:06:20.000",
    "date_modified": "2022-03-10T15:06:20.000",
    "request_status": "Pending",
    "responsible_agency": "Department of Public Works",
    "final_address": "N ROCHEBLAVE ST & TOURO ST",
    "address_councildis": "D",
    "status": "Pending",
    "rowid": "866101",
    "final_x": "3683849.6",
    "final_y": "541035.58",
    "longitude": "-90.06031732538683",
    "latitude": "29.98158868549312",
    "geocoded_column": {
      "latitude": "29.98158868549312",
      "longitude": "-90.06031732538683"
    }
  },
  {
    "service_request": "2022-866100",
    "request_type": "Abandoned Vehicles",
    "request_reason": "Vehicle Blocking Your Driveway",
    "date_created": "2022-03-10T15:05:31.000",
    "date_modified": "2022-03-10T15:05:31.000",
    "request_status": "Pending",
    "responsible_agency": "Department of Public Works",
    "final_address": "5724 Tullis Dr",
    "address_councildis": "C",
    "status": "Pending",
    "rowid": "866100",
    "final_x": "3705161.34929",
    "final_y": "512794.418993",
    "longitude": "-89.99404800395621",
    "latitude": "29.903267257761886",
    "geocoded_column": {
      "latitude": "29.903267257761886",
      "longitude": "-89.99404800395621"
    }
  },
  {
    "service_request": "2022-866099",
    "request_type": "Trash/Recycling",
    "request_reason": "Missed Trash Pick-Up",
    "date_created": "2022-03-10T15:04:18.000",
    "date_modified": "2022-03-10T15:04:18.000",
    "request_status": "Pending",
    "responsible_agency": "Department of Sanitation",
    "final_address": "818 Josephine St",
    "address_councildis": "B",
    "status": "Assigned to Contractor",
    "contractor": "Richards Disposal",
    "rowid": "866099",
    "final_x": "3679682.61314",
    "final_y": "521529.220793",
    "longitude": "-90.07415565099541",
    "latitude": "29.92807941626379",
    "geocoded_column": {
      "latitude": "29.92807941626379",
      "longitude": "-90.07415565099541"
    }
  },
  {
    "service_request": "2022-866098",
    "request_type": "Trash/Recycling",
    "request_reason": "Repair Trash Cart",
    "date_created": "2022-03-10T15:04:04.000",
    "date_modified": "2022-03-10T15:04:04.000",
    "request_status": "Pending",
    "responsible_agency": "Department of Sanitation",
    "final_address": "2408 Pine St",
    "address_councildis": "A",
    "status": "Assigned to Contractor",
    "contractor": "Richards Disposal",
    "rowid": "866098",
    "final_x": "3666358.19073",
    "final_y": "530441.541698",
    "longitude": "-90.11591906807385",
    "latitude": "29.952981329720956",
    "geocoded_column": {
      "latitude": "29.952981329720956",
      "longitude": "-90.11591906807385"
    }
  },
  {
    "service_request": "2022-866096",
    "request_type": "Trash/Recycling",
    "request_reason": "Illegal Dumping",
    "date_created": "2022-03-10T14:58:24.000",
    "date_modified": "2022-03-10T14:58:24.000",
    "request_status": "Pending",
    "responsible_agency": "Department of Sanitation",
    "final_address": "SPAIN ST & N ROCHEBLAVE ST",
    "address_councildis": "D",
    "status": "Pending",
    "rowid": "866096",
    "final_x": "3685749.5",
    "final_y": "541179.68",
    "longitude": "-90.0543114879811",
    "latitude": "29.98192673408609",
    "geocoded_column": {
      "latitude": "29.98192673408609",
      "longitude": "-90.0543114879811"
    }
  },
  {
    "service_request": "2022-866095",
    "request_type": "Trash/Recycling",
    "request_reason": "Illegal Dumping",
    "date_created": "2022-03-10T14:57:26.000",
    "date_modified": "2022-03-10T14:57:26.000",
    "request_status": "Pending",
    "responsible_agency": "Department of Sanitation",
    "final_address": "4819 Reynes St",
    "address_councildis": "E",
    "status": "Pending",
    "rowid": "866095",
    "final_x": "3699152.85284",
    "final_y": "555368.487833",
    "longitude": "-90.01146058000722",
    "latitude": "30.02052248007719",
    "geocoded_column": {
      "latitude": "30.02052248007719",
      "longitude": "-90.01146058000722"
    }
  },
  {
    "service_request": "2022-866094",
    "request_type": "Trash/Recycling",
    "request_reason": "Missed Trash Pick-Up",
    "date_created": "2022-03-10T14:55:03.000",
    "date_modified": "2022-03-10T14:55:06.000",
    "request_status": "Pending",
    "responsible_agency": "Department of Sanitation",
    "final_address": "924 Antonine St, New Orleans, Louisiana, 70115",
    "address_councildis": "B",
    "status": "Assigned to Contractor",
    "contractor": "Richards Disposal",
    "rowid": "866094",
    "final_x": "3673994.93492",
    "final_y": "518682.504311",
    "longitude": "-90.09220772374546",
    "latitude": "29.92042249705389",
    "geocoded_column": {
      "latitude": "29.92042249705389",
      "longitude": "-90.09220772374546"
    }
  },
  {
    "service_request": "2022-866093",
    "request_type": "Property Maintenance",
    "request_reason": "Property Maintenance",
    "date_created": "2022-03-10T14:52:34.000",
    "date_modified": "2022-03-10T14:52:34.000",
    "request_status": "Pending",
    "responsible_agency": "Department of Code Enforcement",
    "final_address": "3643 Herald St",
    "address_councildis": "C",
    "status": "Pending",
    "rowid": "866093",
    "final_x": "3702138.8065",
    "final_y": "517574.237174",
    "longitude": "-90.00341196074436",
    "latitude": "29.916506926759446",
    "geocoded_column": {
      "latitude": "29.916506926759446",
      "longitude": "-90.00341196074436"
    }
  },
  {
    "service_request": "2022-866092",
    "request_type": "Trash/Recycling",
    "request_reason": "Request a Large Item Pick Up",
    "date_created": "2022-03-10T14:51:18.000",
    "date_modified": "2022-03-10T14:51:19.000",
    "request_status": "Pending",
    "responsible_agency": "Department of Sanitation",
    "final_address": "3111 General Pershing St",
    "address_councildis": "B",
    "status": "Assigned to Contractor",
    "contractor": "Richards Disposal",
    "rowid": "866092",
    "final_x": "3670745.47527",
    "final_y": "526414.920766",
    "longitude": "-90.10220252404467",
    "latitude": "29.941780538941426",
    "geocoded_column": {
      "latitude": "29.941780538941426",
      "longitude": "-90.10220252404467"
    }
  },
  {
    "service_request": "2022-866090",
    "request_type": "Roads/Drainage",
    "request_reason": "Damaged Sidewalk",
    "date_created": "2022-03-10T14:45:37.000",
    "date_modified": "2022-03-10T14:45:37.000",
    "request_status": "Pending",
    "responsible_agency": "Department of Public Works",
    "final_address": "1512 St Louis St",
    "address_councildis": "C",
    "status": "Pending",
    "rowid": "866090",
    "final_x": "3679915.11714",
    "final_y": "533426.975876",
    "longitude": "-90.07300857806864",
    "latitude": "29.960787246077214",
    "geocoded_column": {
      "latitude": "29.960787246077214",
      "longitude": "-90.07300857806864"
    }
  },
  {
    "service_request": "2022-866089",
    "request_type": "Trash/Recycling",
    "request_reason": "Illegal Dumping",
    "date_created": "2022-03-10T14:40:40.000",
    "date_modified": "2022-03-10T14:40:40.000",
    "request_status": "Pending",
    "responsible_agency": "Department of Sanitation",
    "final_address": "7036 Orleans Ave",
    "address_councildis": "A",
    "status": "Pending",
    "rowid": "866089",
    "final_x": "3671430.63502",
    "final_y": "554085.368664",
    "longitude": "-90.09909832112142",
    "latitude": "30.017844588458775",
    "geocoded_column": {
      "latitude": "30.017844588458775",
      "longitude": "-90.09909832112142"
    }
  },
  {
    "service_request": "2022-866088",
    "request_type": "Trash/Recycling",
    "request_reason": "Replace Trash Cart",
    "date_created": "2022-03-10T14:40:09.000",
    "date_modified": "2022-03-10T14:40:11.000",
    "request_status": "Pending",
    "responsible_agency": "Department of Sanitation",
    "final_address": "4629 Reynes St",
    "address_councildis": "E",
    "status": "Assigned to Contractor",
    "contractor": "Metro Disposal",
    "rowid": "866088",
    "final_x": "3699286.88016",
    "final_y": "554381.749272",
    "longitude": "-90.01107307491004",
    "latitude": "30.01780507231687",
    "geocoded_column": {
      "latitude": "30.01780507231687",
      "longitude": "-90.01107307491004"
    }
  },
  {
    "service_request": "2022-866087",
    "request_type": "Traffic Signals/Signs/Striping/Streetlights",
    "request_reason": "Disabled Parking Sign ",
    "date_created": "2022-03-10T14:36:41.000",
    "date_modified": "2022-03-10T14:36:41.000",
    "request_status": "Pending",
    "responsible_agency": "Department of Public Works",
    "final_address": "1427 Cambronne St",
    "address_councildis": "A",
    "status": "Pending",
    "rowid": "866087",
    "final_x": "3661814.83328",
    "final_y": "529754.964993",
    "longitude": "-90.13028782871913",
    "latitude": "29.951225413333464",
    "geocoded_column": {
      "latitude": "29.951225413333464",
      "longitude": "-90.13028782871913"
    }
  },
  {
    "service_request": "2022-866086",
    "request_type": "Trash/Recycling",
    "request_reason": "Repair Trash Cart",
    "date_created": "2022-03-10T14:33:18.000",
    "date_modified": "2022-03-10T14:33:18.000",
    "request_status": "Pending",
    "responsible_agency": "Department of Sanitation",
    "final_address": "5559 St Anthony Ave",
    "address_councildis": "D",
    "status": "Assigned to Contractor",
    "contractor": "Metro Disposal",
    "rowid": "866086",
    "final_x": "3682247.55893",
    "final_y": "553484.565207",
    "longitude": "-90.06494206201793",
    "latitude": "30.015867791505265",
    "geocoded_column": {
      "latitude": "30.015867791505265",
      "longitude": "-90.06494206201793"
    }
  },
  {
    "service_request": "2022-866085",
    "request_type": "Trash/Recycling",
    "request_reason": "Replace Trash Cart",
    "date_created": "2022-03-10T14:32:55.000",
    "date_modified": "2022-03-10T14:32:56.000",
    "request_status": "Pending",
    "responsible_agency": "Department of Sanitation",
    "final_address": "8206 Pritchard Pl",
    "address_councildis": "A",
    "status": "Assigned to Contractor",
    "contractor": "Richards Disposal",
    "rowid": "866085",
    "final_x": "3665722.52372",
    "final_y": "533143.048388",
    "longitude": "-90.11783574562577",
    "latitude": "29.96042814599537",
    "geocoded_column": {
      "latitude": "29.96042814599537",
      "longitude": "-90.11783574562577"
    }
  },
  {
    "service_request": "2022-866084",
    "request_type": "Traffic Signals/Signs/Striping/Streetlights",
    "request_reason": "Street Name Sign Damaged or Missing",
    "date_created": "2022-03-10T14:32:47.000",
    "date_modified": "2022-03-10T14:32:47.000",
    "request_status": "Pending",
    "responsible_agency": "Department of Public Works",
    "final_address": "IRBY ST & SHAW AVE",
    "address_councildis": "E",
    "status": "Pending",
    "rowid": "866084",
    "final_x": "3706955.8",
    "final_y": "564672.38",
    "longitude": "-89.9864602820478",
    "latitude": "30.0458547021967",
    "geocoded_column": {
      "latitude": "30.0458547021967",
      "longitude": "-89.9864602820478"
    }
  },
  {
    "service_request": "2022-866083",
    "request_type": "Traffic Signals/Signs/Striping/Streetlights",
    "request_reason": "Street Light Outage/Malfunction",
    "date_created": "2022-03-10T14:32:03.000",
    "date_modified": "2022-03-10T14:32:04.000",
    "request_status": "Pending",
    "responsible_agency": "Department of Public Works",
    "final_address": "5559 St Anthony Ave",
    "address_councildis": "D",
    "status": "Pending",
    "contractor": "Royal Engineering",
    "rowid": "866083",
    "final_x": "3682247.55893",
    "final_y": "553484.565207",
    "longitude": "-90.06494206201793",
    "latitude": "30.015867791505265",
    "geocoded_column": {
      "latitude": "30.015867791505265",
      "longitude": "-90.06494206201793"
    }
  },
  {
    "service_request": "2022-866082",
    "request_type": "Trash/Recycling",
    "request_reason": "Replace Trash Cart",
    "date_created": "2022-03-10T14:31:55.000",
    "date_modified": "2022-03-10T14:31:56.000",
    "request_status": "Pending",
    "responsible_agency": "Department of Sanitation",
    "final_address": "1040 Annunciation St",
    "address_councildis": "B",
    "status": "Assigned to Contractor",
    "contractor": "Empire Services",
    "rowid": "866082",
    "final_x": "3681657.11394",
    "final_y": "526220.88371",
    "longitude": "-90.06775902434894",
    "latitude": "29.94092012459166",
    "geocoded_column": {
      "latitude": "29.94092012459166",
      "longitude": "-90.06775902434894"
    }
  },
  {
    "service_request": "2022-866081",
    "request_type": "Trash/Recycling",
    "request_reason": "Missed Trash Pick-Up",
    "date_created": "2022-03-10T14:30:38.000",
    "date_modified": "2022-03-10T14:30:40.000",
    "request_status": "Pending",
    "responsible_agency": "Department of Sanitation",
    "final_address": "1816 Hillary St",
    "address_councildis": "A",
    "status": "Assigned to Contractor",
    "contractor": "Richards Disposal",
    "rowid": "866081",
    "final_x": "3664777.50778",
    "final_y": "528851.474752",
    "longitude": "-90.12096331382203",
    "latitude": "29.94865524394827",
    "geocoded_column": {
      "latitude": "29.94865524394827",
      "longitude": "-90.12096331382203"
    }
  },
  {
    "service_request": "2022-866080",
    "request_type": "Safety & Permits",
    "request_reason": "Licenses & Permits",
    "date_created": "2022-03-10T14:29:55.000",
    "date_modified": "2022-03-10T14:29:55.000",
    "request_status": "Pending",
    "responsible_agency": "Safety and Permits",
    "final_address": "918 Picheloup Pl",
    "address_councildis": "A",
    "status": "Pending",
    "rowid": "866080",
    "final_x": "3673643.58587",
    "final_y": "540378.894667",
    "longitude": "-90.09257518496551",
    "latitude": "29.980090855143402",
    "geocoded_column": {
      "latitude": "29.980090855143402",
      "longitude": "-90.09257518496551"
    }
  },
  {
    "service_request": "2022-866079",
    "request_type": "Trash/Recycling",
    "request_reason": "Missed Trash Pick-Up",
    "date_created": "2022-03-10T14:28:49.000",
    "date_modified": "2022-03-10T14:28:50.000",
    "request_status": "Pending",
    "responsible_agency": "Department of Sanitation",
    "final_address": "1806 Audubon St",
    "address_councildis": "A",
    "status": "Assigned to Contractor",
    "contractor": "Richards Disposal",
    "rowid": "866079",
    "final_x": "3665617.16928",
    "final_y": "528184.363904",
    "longitude": "-90.11833447102542",
    "latitude": "29.946796449510195",
    "geocoded_column": {
      "latitude": "29.946796449510195",
      "longitude": "-90.11833447102542"
    }
  },
  {
    "service_request": "2022-866078",
    "request_type": "Trash/Recycling",
    "request_reason": "Request a Large Item Pick Up",
    "date_created": "2022-03-10T14:25:38.000",
    "date_modified": "2022-03-10T14:25:39.000",
    "request_status": "Pending",
    "responsible_agency": "Department of Sanitation",
    "final_address": "4861 Tchoupitoulas St",
    "address_councildis": "B",
    "status": "Assigned to Contractor",
    "contractor": "Richards Disposal",
    "rowid": "866078",
    "final_x": "3669189.66132",
    "final_y": "517284.336437",
    "longitude": "-90.10742297971932",
    "latitude": "29.916720218934262",
    "geocoded_column": {
      "latitude": "29.916720218934262",
      "longitude": "-90.10742297971932"
    }
  },
  {
    "service_request": "2022-866077",
    "request_type": "Trash/Recycling",
    "request_reason": "Replace Recycling Cart",
    "date_created": "2022-03-10T14:23:38.000",
    "date_modified": "2022-03-10T14:23:38.000",
    "request_status": "Pending",
    "responsible_agency": "Department of Sanitation",
    "final_address": "5906 Chestnut St",
    "address_councildis": "A",
    "status": "Pending",
    "rowid": "866077",
    "final_x": "3665277.28365",
    "final_y": "519679.197688",
    "longitude": "-90.11969204767884",
    "latitude": "29.923419853926685",
    "geocoded_column": {
      "latitude": "29.923419853926685",
      "longitude": "-90.11969204767884"
    }
  },
  {
    "service_request": "2022-866076",
    "request_type": "Trash/Recycling",
    "request_reason": "Illegal Dumping",
    "date_created": "2022-03-10T14:20:47.000",
    "date_modified": "2022-03-10T14:20:47.000",
    "request_status": "Pending",
    "responsible_agency": "Department of Sanitation",
    "final_address": "FORSHEY ST & PINE ST",
    "address_councildis": "B",
    "status": "Pending",
    "rowid": "866076",
    "final_x": "3668114.4",
    "final_y": "532909.78",
    "longitude": "-90.11029052577246",
    "latitude": "29.959716751374916",
    "geocoded_column": {
      "latitude": "29.959716751374916",
      "longitude": "-90.11029052577246"
    }
  },
  {
    "service_request": "2022-866075",
    "request_type": "Trash/Recycling",
    "request_reason": "Repair Recycling Cart",
    "date_created": "2022-03-10T14:20:28.000",
    "date_modified": "2022-03-10T14:20:28.000",
    "request_status": "Pending",
    "responsible_agency": "Department of Sanitation",
    "final_address": "230 S Dupre St",
    "address_councildis": "B",
    "status": "Pending",
    "rowid": "866075",
    "final_x": "3674228.30376",
    "final_y": "535051.024774",
    "longitude": "-90.09091085887941",
    "latitude": "29.96542360081309",
    "geocoded_column": {
      "latitude": "29.96542360081309",
      "longitude": "-90.09091085887941"
    }
  },
  {
    "service_request": "2022-866074",
    "request_type": "Trash/Recycling",
    "request_reason": "Illegal Dumping",
    "date_created": "2022-03-10T14:19:58.000",
    "date_modified": "2022-03-10T14:19:58.000",
    "request_status": "Pending",
    "responsible_agency": "Department of Sanitation",
    "final_address": "7908 Forshey St",
    "address_councildis": "B",
    "status": "Pending",
    "rowid": "866074",
    "final_x": "3667494.83297",
    "final_y": "533428.084676",
    "longitude": "-90.11222954297864",
    "latitude": "29.961160087756884",
    "geocoded_column": {
      "latitude": "29.961160087756884",
      "longitude": "-90.11222954297864"
    }
  },
  {
    "service_request": "2022-866073",
    "request_type": "Trash/Recycling",
    "request_reason": "Request a Large Item Pick Up",
    "date_created": "2022-03-10T14:19:31.000",
    "date_modified": "2022-03-10T14:19:31.000",
    "request_status": "Pending",
    "responsible_agency": "Department of Sanitation",
    "final_address": "4618 Press Dr",
    "address_councildis": "D",
    "status": "Assigned to Contractor",
    "contractor": "Metro Disposal",
    "rowid": "866073",
    "final_x": "3689608.73519",
    "final_y": "550195.742676",
    "longitude": "-90.04180124592374",
    "latitude": "30.00659863408192",
    "geocoded_column": {
      "latitude": "30.00659863408192",
      "longitude": "-90.04180124592374"
    }
  },
  {
    "service_request": "2022-866072",
    "request_type": "Abandoned Vehicles",
    "request_reason": "Abandoned/Junk Vehicles",
    "date_created": "2022-03-10T14:18:59.000",
    "date_modified": "2022-03-10T14:18:59.000",
    "request_status": "Pending",
    "responsible_agency": "Department of Public Works",
    "final_address": "1709 N Broad St",
    "address_councildis": "D",
    "status": "Pending",
    "rowid": "866072",
    "final_x": "3679552.53064",
    "final_y": "540875.042251",
    "longitude": "-90.07389504352955",
    "latitude": "29.981277831028105",
    "geocoded_column": {
      "latitude": "29.981277831028105",
      "longitude": "-90.07389504352955"
    }
  },
  {
    "service_request": "2022-866071",
    "request_type": "Abandoned Vehicles",
    "request_reason": "Abandoned/Junk Vehicles",
    "date_created": "2022-03-10T14:16:54.000",
    "date_modified": "2022-03-10T14:16:54.000",
    "request_status": "Pending",
    "responsible_agency": "Department of Public Works",
    "final_address": "3132 Toledano St",
    "address_councildis": "B",
    "status": "Pending",
    "rowid": "866071",
    "final_x": "3672145.78785",
    "final_y": "527283.327423",
    "longitude": "-90.09775187471283",
    "latitude": "29.944126929335624",
    "geocoded_column": {
      "latitude": "29.944126929335624",
      "longitude": "-90.09775187471283"
    }
  },
  {
    "service_request": "2022-866070",
    "request_type": "Trash/Recycling",
    "request_reason": "Request a Large Item Pick Up",
    "date_created": "2022-03-10T14:16:29.000",
    "date_modified": "2022-03-10T14:16:29.000",
    "request_status": "Pending",
    "responsible_agency": "Department of Sanitation",
    "final_address": "249 Downs St",
    "address_councildis": "A",
    "status": "Assigned to Contractor",
    "contractor": "Metro Disposal",
    "rowid": "866070",
    "final_x": "3667377.71949",
    "final_y": "553227.247831",
    "longitude": "-90.11193291602899",
    "latitude": "30.01560447350676",
    "geocoded_column": {
      "latitude": "30.01560447350676",
      "longitude": "-90.11193291602899"
    }
  },
  {
    "service_request": "2022-866069",
    "request_type": "Trash/Recycling",
    "request_reason": "Illegal Dumping",
    "date_created": "2022-03-10T14:15:04.000",
    "date_modified": "2022-03-10T14:15:04.000",
    "request_status": "Pending",
    "responsible_agency": "Department of Sanitation",
    "final_address": "3328 Lowerline St",
    "address_councildis": "B",
    "status": "Pending",
    "rowid": "866069",
    "final_x": "3667988.74113",
    "final_y": "533321.4633",
    "longitude": "-90.11067345775635",
    "latitude": "29.960852432069057",
    "geocoded_column": {
      "latitude": "29.960852432069057",
      "longitude": "-90.11067345775635"
    }
  },
  {
    "service_request": "2022-866068",
    "request_type": "Trash/Recycling",
    "request_reason": "Illegal Dumping",
    "date_created": "2022-03-10T14:13:56.000",
    "date_modified": "2022-03-10T14:13:56.000",
    "request_status": "Pending",
    "responsible_agency": "Department of Sanitation",
    "final_address": "3300 BLK Lowerline St",
    "address_councildis": "B",
    "status": "Pending",
    "rowid": "866068",
    "final_x": "3667995.12657",
    "final_y": "533255.525796",
    "longitude": "-90.11065551549572",
    "latitude": "29.96067093834164",
    "geocoded_column": {
      "latitude": "29.96067093834164",
      "longitude": "-90.11065551549572"
    }
  },
  {
    "service_request": "2022-866067",
    "request_type": "Trash/Recycling",
    "request_reason": "Missed Trash Pick-Up",
    "date_created": "2022-03-10T14:13:36.000",
    "date_modified": "2022-03-10T14:13:37.000",
    "request_status": "Pending",
    "responsible_agency": "Department of Sanitation",
    "final_address": "541 Audubon St",
    "address_councildis": "A",
    "status": "Assigned to Contractor",
    "contractor": "Richards Disposal",
    "rowid": "866067",
    "final_x": "3662921.3417",
    "final_y": "524026.812348",
    "longitude": "-90.12698442419376",
    "latitude": "29.935442831917573",
    "geocoded_column": {
      "latitude": "29.935442831917573",
      "longitude": "-90.12698442419376"
    }
  },
  {
    "service_request": "2022-866066",
    "request_type": "Trash/Recycling",
    "request_reason": "Illegal Dumping",
    "date_created": "2022-03-10T14:13:02.000",
    "date_modified": "2022-03-10T14:13:02.000",
    "request_status": "Pending",
    "responsible_agency": "Department of Sanitation",
    "final_address": "7100 BLK Palm St",
    "address_councildis": "B",
    "status": "Pending",
    "rowid": "866066",
    "final_x": "3669050.36823",
    "final_y": "533465.594274",
    "longitude": "-90.10731616169141",
    "latitude": "29.961217553634928",
    "geocoded_column": {
      "latitude": "29.961217553634928",
      "longitude": "-90.10731616169141"
    }
  },
  {
    "service_request": "2022-866065",
    "request_type": "Trash/Recycling",
    "request_reason": "Illegal Dumping",
    "date_created": "2022-03-10T14:12:10.000",
    "date_modified": "2022-03-10T14:12:10.000",
    "request_status": "Pending",
    "responsible_agency": "Department of Sanitation",
    "final_address": "3500 BLK Audubon St",
    "address_councildis": "B",
    "status": "Pending",
    "rowid": "866065",
    "final_x": "3669038.99883",
    "final_y": "533198.575779",
    "longitude": "-90.10736108597584",
    "latitude": "29.960483675614643",
    "geocoded_column": {
      "latitude": "29.960483675614643",
      "longitude": "-90.10736108597584"
    }
  },
  {
    "service_request": "2022-866064",
    "request_type": "Trash/Recycling",
    "request_reason": "Order Trash Cart",
    "date_created": "2022-03-10T14:11:58.000",
    "date_modified": "2022-03-10T14:11:59.000",
    "request_status": "Pending",
    "responsible_agency": "Department of Sanitation",
    "final_address": "1914 Washington Ave",
    "address_councildis": "B",
    "status": "Assigned to Contractor",
    "contractor": "Richards Disposal",
    "rowid": "866064",
    "final_x": "3675212.38888",
    "final_y": "523534.329019",
    "longitude": "-90.08819836781383",
    "latitude": "29.93372713037974",
    "geocoded_column": {
      "latitude": "29.93372713037974",
      "longitude": "-90.08819836781383"
    }
  },
  {
    "service_request": "2022-866063",
    "request_type": "Roads/Drainage",
    "request_reason": "Pothole",
    "date_created": "2022-03-10T14:11:12.000",
    "date_modified": "2022-03-10T14:11:12.000",
    "request_status": "Pending",
    "responsible_agency": "Department of Public Works",
    "final_address": "PATTON ST & WEBSTER ST",
    "address_councildis": "A",
    "status": "Pending",
    "rowid": "866063",
    "final_x": "3663888.4",
    "final_y": "518794.48",
    "longitude": "-90.12410572507713",
    "latitude": "29.92102753318624",
    "geocoded_column": {
      "latitude": "29.92102753318624",
      "longitude": "-90.12410572507713"
    }
  },
  {
    "service_request": "2022-866062",
    "request_type": "Trash/Recycling",
    "request_reason": "Replace Trash Cart",
    "date_created": "2022-03-10T14:10:57.000",
    "date_modified": "2022-03-10T14:10:58.000",
    "request_status": "Pending",
    "responsible_agency": "Department of Sanitation",
    "final_address": "2249 General Collins Ave",
    "address_councildis": "C",
    "status": "Assigned to Contractor",
    "contractor": "Richards Disposal",
    "rowid": "866062",
    "final_x": "3698391.88157",
    "final_y": "522614.740538",
    "longitude": "-90.01505566823622",
    "latitude": "29.930485636691518",
    "geocoded_column": {
      "latitude": "29.930485636691518",
      "longitude": "-90.01505566823622"
    }
  },
  {
    "service_request": "2022-866061",
    "request_type": "Trash/Recycling",
    "request_reason": "Illegal Dumping",
    "date_created": "2022-03-10T14:08:18.000",
    "date_modified": "2022-03-10T14:08:18.000",
    "request_status": "Pending",
    "responsible_agency": "Department of Sanitation",
    "final_address": "3400 BLK Bloomingdale Ct",
    "address_councildis": "B",
    "status": "Pending",
    "rowid": "866061",
    "final_x": "3669086.89243",
    "final_y": "532790.766227",
    "longitude": "-90.10722362715651",
    "latitude": "29.959360925056487",
    "geocoded_column": {
      "latitude": "29.959360925056487",
      "longitude": "-90.10722362715651"
    }
  },
  {
    "service_request": "2022-866060",
    "request_type": "Trash/Recycling",
    "request_reason": "Illegal Dumping",
    "date_created": "2022-03-10T14:07:25.000",
    "date_modified": "2022-03-10T14:07:25.000",
    "request_status": "Pending",
    "responsible_agency": "Department of Sanitation",
    "final_address": "1208 S Telemachus St",
    "address_councildis": "B",
    "status": "Pending",
    "rowid": "866060",
    "final_x": "3669246.84513",
    "final_y": "532814.112388",
    "longitude": "-90.10671774387609",
    "latitude": "29.959420412049234",
    "geocoded_column": {
      "latitude": "29.959420412049234",
      "longitude": "-90.10671774387609"
    }
  },
  {
    "service_request": "2022-866059",
    "request_type": "Trash/Recycling",
    "request_reason": "Illegal Dumping",
    "date_created": "2022-03-10T14:06:32.000",
    "date_modified": "2022-03-10T14:06:32.000",
    "request_status": "Pending",
    "responsible_agency": "Department of Sanitation",
    "final_address": "3500 BLK Audubon Ct",
    "address_councildis": "B",
    "status": "Pending",
    "rowid": "866059",
    "final_x": "3669078.50334",
    "final_y": "533166.133915",
    "longitude": "-90.10723743454882",
    "latitude": "29.960393308954725",
    "geocoded_column": {
      "latitude": "29.960393308954725",
      "longitude": "-90.10723743454882"
    }
  },
  {
    "service_request": "2022-866058",
    "request_type": "Trash/Recycling",
    "request_reason": "Illegal Dumping",
    "date_created": "2022-03-10T14:05:28.000",
    "date_modified": "2022-03-10T14:05:28.000",
    "request_status": "Pending",
    "responsible_agency": "Department of Sanitation",
    "final_address": "3431 Audubon Ct",
    "address_councildis": "B",
    "status": "Pending",
    "rowid": "866058",
    "final_x": "3668987.91847",
    "final_y": "532911.1529",
    "longitude": "-90.10753209752787",
    "latitude": "29.95969486036571",
    "geocoded_column": {
      "latitude": "29.95969486036571",
      "longitude": "-90.10753209752787"
    }
  },
  {
    "service_request": "2022-866057",
    "request_type": "Trash/Recycling",
    "request_reason": "Request a Large Item Pick Up",
    "date_created": "2022-03-10T14:05:01.000",
    "date_modified": "2022-03-10T14:05:02.000",
    "request_status": "Pending",
    "responsible_agency": "Department of Sanitation",
    "final_address": "4510 Eden St",
    "address_councildis": "B",
    "status": "Assigned to Contractor",
    "contractor": "Richards Disposal",
    "rowid": "866057",
    "final_x": "3669561.45831",
    "final_y": "530836.02189",
    "longitude": "-90.10579118412008",
    "latitude": "29.953972050968808",
    "geocoded_column": {
      "latitude": "29.953972050968808",
      "longitude": "-90.10579118412008"
    }
  },
  {
    "service_request": "2022-866056",
    "request_type": "Trash/Recycling",
    "request_reason": "MIssed Recycling Pick-Up",
    "date_created": "2022-03-10T14:01:01.000",
    "date_modified": "2022-03-10T14:01:02.000",
    "request_status": "Pending",
    "responsible_agency": "Department of Sanitation",
    "final_address": "9324 Palm St",
    "address_councildis": "A",
    "status": "Assigned to Contractor",
    "contractor": "Richards Disposal",
    "rowid": "866056",
    "final_x": "3664348.21236",
    "final_y": "537665.253832",
    "longitude": "-90.12202459827753",
    "latitude": "29.97290273607677",
    "geocoded_column": {
      "latitude": "29.97290273607677",
      "longitude": "-90.12202459827753"
    }
  },
  {
    "service_request": "2022-866055",
    "request_type": "Trash/Recycling",
    "request_reason": "Request a Large Item Pick Up",
    "date_created": "2022-03-10T13:57:44.000",
    "date_modified": "2022-03-10T13:57:45.000",
    "request_status": "Pending",
    "responsible_agency": "Department of Sanitation",
    "final_address": "1327 Riviera Ave",
    "address_councildis": "D",
    "status": "Assigned to Contractor",
    "contractor": "Metro Disposal",
    "rowid": "866055",
    "final_x": "3677401.07586",
    "final_y": "550892.545301",
    "longitude": "-90.08034433686348",
    "latitude": "30.00888728985315",
    "geocoded_column": {
      "latitude": "30.00888728985315",
      "longitude": "-90.08034433686348"
    }
  },
  {
    "service_request": "2022-866054",
    "request_type": "Abandoned Vehicles",
    "request_reason": "Abandoned/Junk Vehicles",
    "date_created": "2022-03-10T13:48:05.000",
    "date_modified": "2022-03-10T13:48:05.000",
    "request_status": "Pending",
    "responsible_agency": "Department of Public Works",
    "final_address": "9018 Cohn St",
    "address_councildis": "A",
    "status": "Pending",
    "rowid": "866054",
    "final_x": "3661131.03091",
    "final_y": "532406.118595",
    "longitude": "-90.13235921120895",
    "latitude": "29.958534954706654",
    "geocoded_column": {
      "latitude": "29.958534954706654",
      "longitude": "-90.13235921120895"
    }
  },
  {
    "service_request": "2022-866053",
    "request_type": "Trash/Recycling",
    "request_reason": "Replace Trash Cart",
    "date_created": "2022-03-10T13:47:33.000",
    "date_modified": "2022-03-10T13:48:10.000",
    "request_status": "Pending",
    "responsible_agency": "Department of Sanitation",
    "final_address": "1625 Second St",
    "address_councildis": "B",
    "status": "Assigned to Contractor",
    "contractor": "Richards Disposal",
    "rowid": "866053",
    "final_x": "3676585.63374",
    "final_y": "523271.875899",
    "longitude": "-90.08387213207477",
    "latitude": "29.932964366761016",
    "geocoded_column": {
      "latitude": "29.932964366761016",
      "longitude": "-90.08387213207477"
    }
  },
  {
    "service_request": "2022-866052",
    "request_type": "Property Maintenance",
    "request_reason": "Property Maintenance",
    "date_created": "2022-03-10T13:45:56.000",
    "date_modified": "2022-03-10T13:45:56.000",
    "request_status": "Pending",
    "responsible_agency": "Department of Code Enforcement",
    "final_address": "1826 Hollygrove St",
    "address_councildis": "A",
    "status": "Pending",
    "rowid": "866052",
    "final_x": "3661148.85056",
    "final_y": "532261.155587",
    "longitude": "-90.13230773917518",
    "latitude": "29.958135839772",
    "geocoded_column": {
      "latitude": "29.958135839772",
      "longitude": "-90.13230773917518"
    }
  },
  {
    "service_request": "2022-866051",
    "request_type": "Trash/Recycling",
    "request_reason": "Return Trash Cart",
    "date_created": "2022-03-10T13:41:14.000",
    "date_modified": "2022-03-10T13:41:25.000",
    "request_status": "Pending",
    "responsible_agency": "Department of Sanitation",
    "final_address": "3219 State Street Dr",
    "address_councildis": "A",
    "status": "Assigned to Contractor",
    "contractor": "Richards Disposal",
    "rowid": "866051",
    "final_x": "3667627.8745",
    "final_y": "528085.516799",
    "longitude": "-90.11198924609933",
    "latitude": "29.946465874167323",
    "geocoded_column": {
      "latitude": "29.946465874167323",
      "longitude": "-90.11198924609933"
    }
  },
  {
    "service_request": "2022-866050",
    "request_type": "Trash/Recycling",
    "request_reason": "Order Recycling Cart",
    "date_created": "2022-03-10T13:40:44.000",
    "date_modified": "2022-03-10T13:40:44.000",
    "request_status": "Pending",
    "responsible_agency": "Department of Sanitation",
    "final_address": "3219 State Street Dr",
    "address_councildis": "A",
    "status": "Pending",
    "rowid": "866050",
    "final_x": "3667627.8745",
    "final_y": "528085.516799",
    "longitude": "-90.11198924609933",
    "latitude": "29.946465874167323",
    "geocoded_column": {
      "latitude": "29.946465874167323",
      "longitude": "-90.11198924609933"
    }
  },
  {
    "service_request": "2022-866048",
    "request_type": "Trash/Recycling",
    "request_reason": "Request a Large Item Pick Up",
    "date_created": "2022-03-10T13:40:26.000",
    "date_modified": "2022-03-10T13:40:29.000",
    "request_status": "Pending",
    "responsible_agency": "Department of Sanitation",
    "final_address": "2821 Bacchus Dr",
    "address_councildis": "C",
    "status": "Assigned to Contractor",
    "contractor": "Richards Disposal",
    "rowid": "866048",
    "final_x": "3710192.94065",
    "final_y": "518991.981623",
    "longitude": "-89.97793715118071",
    "latitude": "29.92014573050673",
    "geocoded_column": {
      "latitude": "29.92014573050673",
      "longitude": "-89.97793715118071"
    }
  },
  {
    "service_request": "2022-866047",
    "request_type": "Abandoned Vehicles",
    "request_reason": "Abandoned/Junk Vehicles",
    "date_created": "2022-03-10T13:39:29.000",
    "date_modified": "2022-03-10T13:49:27.000",
    "request_status": "Pending",
    "responsible_agency": "Department of Public Works",
    "final_address": "8 Eugenie Ct",
    "address_councildis": "C",
    "status": "Pending",
    "rowid": "866047",
    "final_x": "3700428.93418",
    "final_y": "511765.689904",
    "longitude": "-90.00902087532002",
    "latitude": "29.900589844708975",
    "geocoded_column": {
      "latitude": "29.900589844708975",
      "longitude": "-90.00902087532002"
    }
  },