[
  {
    "service_request": "2025-1183065",
    "request_type": "Parks & Parkways",
    "request_reason": "Park Maintenance/Clean Up",
    "date_created": "2025-04-10T23:12:24.000",
    "date_modified": "2025-04-10T23:12:26.000",
    "request_status": "Pending",
    "responsible_agency": "Department of Parks & Parkway",
    "final_address": "614 Verret St",
    "address_councildis": "C",
    "status": "Pending",
    "rowid": "1183065",
    "final_x": "3687091.40508",
    "final_y": "529358.703873",
    "longitude": "-90.05049112577544",
    "latitude": "29.94938190602061",
    "geocoded_column": {
      "latitude": "29.94938190602061",
      "longitude": "-90.05049112577544"
    }
  },
  {
    "service_request": "2025-1183064",
    "request_type": "Street and Traffic Signs",
    "request_reason": "Additional Signage Request",
    "date_created": "2025-04-10T22:23:55.000",
    "date_modified": "2025-04-10T22:23:57.000",
    "request_status": "Pending",
    "responsible_agency": "Department of Public Works",
    "final_address": "4011 DHemecourt St",
    "address_councildis": "A",
    "status": "Pending",
    "rowid": "1183064",
    "final_x": "3670156.61793",
    "final_y": "536616.231879",
    "longitude": "-90.10371604798335",
    "latitude": "29.969848163046255",
    "geocoded_column": {
      "latitude": "29.969848163046255",
      "longitude": "-90.10371604798335"
    }
  },
  {
    "service_request": "2025-1183063",
    "request_type": "Trash/Recycling",
    "request_reason": "Order Second Trash Cart",
    "date_created": "2025-04-10T22:18:48.000",
    "date_modified": "2025-04-10T22:18:50.000",
    "request_status": "Pending",
    "responsible_agency": "Department of Sanitation",
    "final_address": "1662 Milton St",
    "address_councildis": "D",
    "status": "Assigned to Contractor",
    "contractor": "IV Waste",
    "rowid": "1183063",
    "final_x": "3680227.31816",
    "final_y": "546262.944592",
    "longitude": "-90.0715763677687",
    "latitude": "29.99607225920622",
    "geocoded_column": {
      "latitude": "29.99607225920622",
      "longitude": "-90.0715763677687"
    }
  },
  {
    "service_request": "2025-1183062",
    "request_type": "Abandoned Vehicles",
    "request_reason": "Abandoned/Junk Vehicles",
    "date_created": "2025-04-10T22:17:33.000",
    "date_modified": "2025-04-10T22:17:35.000",
    "request_status": "Pending",
    "responsible_agency": "Department of Public Works",
    "final_address": "4827 Perelli Dr",
    "address_councildis": "E",
    "status": "Pending",
    "rowid": "1183062",
    "final_x": "3711749.13342",
    "final_y": "556547.779226",
    "longitude": "-89.97161625344437",
    "latitude": "30.023359493352544",
    "geocoded_column": {
      "latitude": "30.023359493352544",
      "longitude": "-89.97161625344437"
    }
  },
  {
    "service_request": "2025-1183061",
    "request_type": "Safety & Permits",
    "request_reason": "Licenses & Permits",
    "date_created": "2025-04-10T21:59:44.000",
    "date_modified": "2025-04-10T21:59:46.000",
    "request_status": "Pending",
    "responsible_agency": "Safety and Permits",
    "final_address": "1500 S Carrollton Ave",
    "address_councildis": "A",
    "status": "Pending",
    "rowid": "1183061",
    "final_x": "3662685.26663",
    "final_y": "529185.500032",
    "longitude": "-90.12755833921449",
    "latitude": "29.949634410304096",
    "geocoded_column": {
      "latitude": "29.949634410304096",
      "longitude": "-90.12755833921449"
    }
  },
  {
    "service_request": "2025-1183060",
    "request_type": "Safety & Permits",
    "request_reason": "Licenses & Permits",
    "date_created": "2025-04-10T21:56:07.000",
    "date_modified": "2025-04-10T21:56:08.000",
    "request_status": "Pending",
    "responsible_agency": "Safety and Permits",
    "final_address": "1500 S Carrollton Ave",
    "address_councildis": "A",
    "status": "Pending",
    "rowid": "1183060",
    "final_x": "3662685.26663",
    "final_y": "529185.500032",
    "longitude": "-90.12755833921449",
    "latitude": "29.949634410304096",
    "geocoded_column": {
      "latitude": "29.949634410304096",
      "longitude": "-90.12755833921449"
    }
  },
  {
    "service_request": "2025-1183059",
    "request_type": "Safety & Permits",
    "request_reason": "Licenses & Permits",
    "date_created": "2025-04-10T21:52:35.000",
    "date_modified": "2025-04-10T21:52:37.000",
    "request_status": "Pending",
    "responsible_agency": "Safety and Permits",
    "final_address": "1500 S Carrollton Ave",
    "address_councildis": "A",
    "status": "Pending",
    "rowid": "1183059",
    "final_x": "3662685.26663",
    "final_y": "529185.500032",
    "longitude": "-90.12755833921449",
    "latitude": "29.949634410304096",
    "geocoded_column": {
      "latitude": "29.949634410304096",
      "longitude": "-90.12755833921449"
    }
  },
  {
    "service_request": "2025-1183058",
    "request_type": "Trash/Recycling",
    "request_reason": "Request a Large Item Pick Up",
    "date_created": "2025-04-10T21:51:18.000",
    "date_modified": "2025-04-10T21:51:20.000",
    "request_status": "Pending",
    "responsible_agency": "Department of Sanitation",
    "final_address": "4737 Good Dr",
    "address_councildis": "E",
    "status": "Assigned to Contractor",
    "contractor": "Waste Pro",
    "rowid": "1183058",
    "final_x": "3714854.54469",
    "final_y": "556853.72105",
    "longitude": "-89.9617923496182",
    "latitude": "30.02409887239293",
    "geocoded_column": {
      "latitude": "30.02409887239293",
      "longitude": "-89.9617923496182"
    }
  },
  {
    "service_request": "2025-1183057",
    "request_type": "Safety & Permits",
    "request_reason": "Licenses & Permits",
    "date_created": "2025-04-10T21:47:44.000",
    "date_modified": "2025-04-10T21:47:46.000",
    "request_status": "Pending",
    "responsible_agency": "Safety and Permits",
    "final_address": "1500 S Carrollton Ave",
    "address_councildis": "A",
    "status": "Pending",
    "rowid": "1183057",
    "final_x": "3662685.26663",
    "final_y": "529185.500032",
    "longitude": "-90.12755833921449",
    "latitude": "29.949634410304096",
    "geocoded_column": {
      "latitude": "29.949634410304096",
      "longitude": "-90.12755833921449"
    }
  },
  {
    "service_request": "2025-1183056",
    "request_type": "Streetlights",
    "request_reason": "Streetlight Outage/Malfunction",
    "date_created": "2025-04-10T21:45:30.000",
    "date_modified": "2025-04-10T21:45:32.000",
    "request_status": "Pending",
    "responsible_agency": "Department of Public Works",
    "final_address": "2108 Pauline St",
    "address_councildis": "D",
    "status": "Pending",
    "contractor": "Legacy Professional Services",
    "rowid": "1183056",
    "final_x": "3692114.09385",
    "final_y": "539304.558602",
    "longitude": "-90.03427629240987",
    "latitude": "29.97657394046005",
    "geocoded_column": {
      "latitude": "29.97657394046005",
      "longitude": "-90.03427629240987"
    }
  },
  {
    "service_request": "2025-1183055",
    "request_type": "Streetlights",
    "request_reason": "Streetlight Outage/Malfunction",
    "date_created": "2025-04-10T21:42:47.000",
    "date_modified": "2025-04-10T21:42:49.000",
    "request_status": "Pending",
    "responsible_agency": "Department of Public Works",
    "final_address": "2108 Pauline St",
    "address_councildis": "D",
    "status": "Pending",
    "contractor": "Legacy Professional Services",
    "rowid": "1183055",
    "final_x": "3692114.09385",
    "final_y": "539304.558602",
    "longitude": "-90.03427629240987",
    "latitude": "29.97657394046005",
    "geocoded_column": {
      "latitude": "29.97657394046005",
      "longitude": "-90.03427629240987"
    }
  },
  {
    "service_request": "2025-1183054",
    "request_type": "Traffic Safety",
    "request_reason": "Request for Traffic Calming due to Speeding",
    "date_created": "2025-04-10T21:06:18.000",
    "date_modified": "2025-04-10T21:06:20.000",
    "request_status": "Pending",
    "responsible_agency": "Department of Public Works",
    "final_address": "2110 Poland Ave",
    "address_councildis": "D",
    "status": "Pending",
    "rowid": "1183054",
    "final_x": "3693560.09865",
    "final_y": "539009.709386",
    "longitude": "-90.02971997999666",
    "latitude": "29.975718054645053",
    "geocoded_column": {
      "latitude": "29.975718054645053",
      "longitude": "-90.02971997999666"
    }
  },
  {
    "service_request": "2025-1183053",
    "request_type": "Abandoned Vehicles",
    "request_reason": "Abandoned/Junk Vehicles",
    "date_created": "2025-04-10T20:52:19.000",
    "date_modified": "2025-04-10T20:52:21.000",
    "request_status": "Pending",
    "responsible_agency": "Department of Public Works",
    "final_address": "2677 Acacia St",
    "address_councildis": "D",
    "status": "Pending",
    "rowid": "1183053",
    "final_x": "3687780.23983",
    "final_y": "546445.977681",
    "longitude": "-90.04771083510363",
    "latitude": "29.996344684099043",
    "geocoded_column": {
      "latitude": "29.996344684099043",
      "longitude": "-90.04771083510363"
    }
  },
  {
    "service_request": "2025-1183052",
    "request_type": "Trash/Recycling",
    "request_reason": "Order Trash Cart",
    "date_created": "2025-04-10T20:52:07.000",
    "date_modified": "2025-04-10T20:52:10.000",
    "request_status": "Pending",
    "responsible_agency": "Department of Sanitation",
    "final_address": "926 Harmony St",
    "address_councildis": "B",
    "status": "Assigned to Contractor",
    "contractor": "IV Waste",
    "rowid": "1183052",
    "final_x": "3675994.41077",
    "final_y": "519524.167671",
    "longitude": "-90.08586738742474",
    "latitude": "29.922677097837827",
    "geocoded_column": {
      "latitude": "29.922677097837827",
      "longitude": "-90.08586738742474"
    }
  },
  {
    "service_request": "2025-1183051",
    "request_type": "Roads and Streets",
    "request_reason": "Pothole",
    "date_created": "2025-04-10T20:50:36.000",
    "date_modified": "2025-04-10T20:50:37.000",
    "request_status": "Pending",
    "responsible_agency": "Department of Public Works",
    "final_address": "29428 Ulloa St",
    "address_councildis": "A",
    "status": "Pending",
    "rowid": "1183051",
    "final_x": "3668690.09799",
    "final_y": "537134.04468",
    "longitude": "-90.10832998766796",
    "latitude": "29.971315166166935",
    "geocoded_column": {
      "latitude": "29.971315166166935",
      "longitude": "-90.10832998766796"
    }
  },
  {
    "service_request": "2025-1183050",
    "request_type": "Property Maintenance",
    "request_reason": "Property Maintenance",
    "date_created": "2025-04-10T20:47:08.000",
    "date_modified": "2025-04-10T20:47:09.000",
    "request_status": "Pending",
    "responsible_agency": "Department of Code Enforcement",
    "final_address": "2038 St Ferdinand St",
    "address_councildis": "D",
    "status": "Pending",
    "rowid": "1183050",
    "final_x": "3688630.93391",
    "final_y": "540019.830987",
    "longitude": "-90.04525175421071",
    "latitude": "29.978648808020875",
    "geocoded_column": {
      "latitude": "29.978648808020875",
      "longitude": "-90.04525175421071"
    }
  },
  {
    "service_request": "2025-1183049",
    "request_type": "Property Maintenance",
    "request_reason": "Property Maintenance",
    "date_created": "2025-04-10T20:42:08.000",
    "date_modified": "2025-04-10T20:42:10.000",
    "request_status": "Pending",
    "responsible_agency": "Department of Code Enforcement",
    "final_address": "2036 St Ferdinand St",
    "address_councildis": "D",
    "status": "Pending",
    "rowid": "1183049",
    "final_x": "3688626.41999",
    "final_y": "540006.636491",
    "longitude": "-90.0452664792684",
    "latitude": "29.978612667354046",
    "geocoded_column": {
      "latitude": "29.978612667354046",
      "longitude": "-90.0452664792684"
    }
  },
  {
    "service_request": "2025-1183048",
    "request_type": "General Services",
    "request_reason": "General Service Request",
    "date_created": "2025-04-10T20:36:02.000",
    "date_modified": "2025-04-10T20:36:06.000",
    "request_status": "Pending",
    "responsible_agency": "Orleans Parish Communication District",
    "final_address": "4745 Tulip St, New Orleans, Louisiana, 70126",
    "address_councildis": "E",
    "status": "Pending",
    "rowid": "1183048",
    "final_x": "3702127.19357",
    "final_y": "554346.128024",
    "longitude": "-90.00210015633633",
    "latitude": "30.017616699108352",
    "geocoded_column": {
      "latitude": "30.017616699108352",
      "longitude": "-90.00210015633633"
    }
  },
  {
    "service_request": "2025-1183047",
    "request_type": "Health Related Request",
    "request_reason": "Homeless Encampment Complaint",
    "date_created": "2025-04-10T19:50:19.000",
    "date_modified": "2025-04-10T19:50:21.000",
    "request_status": "Pending",
    "responsible_agency": "Health Department",
    "final_address": "1600 BLK Saint Maurice Ave",
    "address_councildis": "E",
    "status": "Pending",
    "rowid": "1183047",
    "final_x": "3700622.65416",
    "final_y": "535115.282247",
    "longitude": "-90.00755691228234",
    "latitude": "29.964786961748235",
    "geocoded_column": {
      "latitude": "29.964786961748235",
      "longitude": "-90.00755691228234"
    }
  },
  {
    "service_request": "2025-1183046",
    "request_type": "Street and Traffic Signs",
    "request_reason": "Additional Signage Request",
    "date_created": "2025-04-10T19:28:43.000",
    "date_modified": "2025-04-10T19:28:45.000",
    "request_status": "Pending",
    "responsible_agency": "Department of Public Works",
    "final_address": "425 S Gayoso St",
    "address_councildis": "B",
    "status": "Pending",
    "rowid": "1183046",
    "final_x": "3673442.33627",
    "final_y": "534742.489478",
    "longitude": "-90.0934034558858",
    "latitude": "29.964598642088262",
    "geocoded_column": {
      "latitude": "29.964598642088262",
      "longitude": "-90.0934034558858"
    }
  },
  {
    "service_request": "2025-1183045",
    "request_type": "Abandoned Vehicles",
    "request_reason": "Abandoned/Junk Vehicles",
    "date_created": "2025-04-10T18:53:16.000",
    "date_modified": "2025-04-10T18:53:18.000",
    "request_status": "Pending",
    "responsible_agency": "Department of Public Works",
    "final_address": "3106 Gravier St",
    "address_councildis": "B",
    "status": "Pending",
    "rowid": "1183045",
    "final_x": "3672455.17492",
    "final_y": "534093.579781",
    "longitude": "-90.09654296528562",
    "latitude": "29.962843693198916",
    "geocoded_column": {
      "latitude": "29.962843693198916",
      "longitude": "-90.09654296528562"
    }
  },
  {
    "service_request": "2025-1183044",
    "request_type": "Healthy Homes",
    "request_reason": "Healthy Homes",
    "date_created": "2025-04-10T18:48:17.000",
    "date_modified": "2025-04-10T18:48:19.000",
    "request_status": "Pending",
    "responsible_agency": "Department of Code Enforcement",
    "final_address": "1117 Congress St",
    "address_councildis": "C",
    "status": "Pending",
    "rowid": "1183044",
    "final_x": "3690807.68649",
    "final_y": "535803.568775",
    "longitude": "-90.03852726007985",
    "latitude": "29.966988115679108",
    "geocoded_column": {
      "latitude": "29.966988115679108",
      "longitude": "-90.03852726007985"
    }
  },
  {
    "service_request": "2025-1183043",
    "request_type": "Abandoned Vehicles",
    "request_reason": "Abandoned/Junk Vehicles",
    "date_created": "2025-04-10T18:47:11.000",
    "date_modified": "2025-04-10T18:47:13.000",
    "request_status": "Pending",
    "responsible_agency": "Department of Public Works",
    "final_address": "637 S Salcedo St",
    "address_councildis": "B",
    "status": "Pending",
    "rowid": "1183043",
    "final_x": "3672609.79444",
    "final_y": "534236.764549",
    "longitude": "-90.09604981316365",
    "latitude": "29.963232813516665",
    "geocoded_column": {
      "latitude": "29.963232813516665",
      "longitude": "-90.09604981316365"
    }
  },
  {
    "service_request": "2025-1183042",
    "request_type": "Trash/Recycling",
    "request_reason": "Request a Large Item Pick Up",
    "date_created": "2025-04-10T18:38:12.000",
    "date_modified": "2025-04-10T18:38:15.000",
    "request_status": "Pending",
    "responsible_agency": "Department of Sanitation",
    "final_address": "13220 Lincoln Beach Blvd",
    "address_councildis": "E",
    "status": "Assigned to Contractor",
    "contractor": "Waste Pro",
    "rowid": "1183042",
    "final_x": "3715717.61298",
    "final_y": "571416.11524",
    "longitude": "-89.95851315232396",
    "latitude": "30.064111105894032",
    "geocoded_column": {
      "latitude": "30.064111105894032",
      "longitude": "-89.95851315232396"
    }
  },
  {
    "service_request": "2025-1183041",
    "request_type": "Trash/Recycling",
    "request_reason": "Damaged Caused By Contractor",
    "date_created": "2025-04-10T18:25:16.000",
    "date_modified": "2025-04-10T18:25:18.000",
    "request_status": "Pending",
    "responsible_agency": "Department of Sanitation",
    "final_address": "6012 Stratford Pl",
    "address_councildis": "C",
    "status": "Assigned to Contractor",
    "contractor": "Richards Disposal",
    "rowid": "1183041",
    "final_x": "3706034.12721",
    "final_y": "516248.979828",
    "longitude": "-89.99116584477727",
    "latitude": "29.9127380363502",
    "geocoded_column": {
      "latitude": "29.9127380363502",
      "longitude": "-89.99116584477727"
    }
  },
  {
    "service_request": "2025-1183040",
    "request_type": "Trash/Recycling",
    "request_reason": "Order Recycling Cart",
    "date_created": "2025-04-10T18:19:20.000",
    "date_modified": "2025-04-10T18:19:22.000",
    "request_status": "Pending",
    "responsible_agency": "Department of Sanitation",
    "final_address": "4848 Eastview Dr",
    "address_councildis": "E",
    "status": "Pending",
    "rowid": "1183040",
    "final_x": "3704976.11012",
    "final_y": "556033.546457",
    "longitude": "-89.99303640942786",
    "latitude": "30.022165132281128",
    "geocoded_column": {
      "latitude": "30.022165132281128",
      "longitude": "-89.99303640942786"
    }
  },
  {
    "service_request": "2025-1183039",
    "request_type": "Traffic Signals",
    "request_reason": "Traffic Signal Malfunctioning or Damaged",
    "date_created": "2025-04-10T18:17:55.000",
    "date_modified": "2025-04-10T18:17:57.000",
    "request_status": "Pending",
    "responsible_agency": "Department of Public Works",
    "final_address": "1008 S Claiborne Ave",
    "address_councildis": "B",
    "status": "Pending",
    "rowid": "1183039",
    "final_x": "3676022.75125",
    "final_y": "529405.667713",
    "longitude": "-90.08543822680747",
    "latitude": "29.949847139913047",
    "geocoded_column": {
      "latitude": "29.949847139913047",
      "longitude": "-90.08543822680747"
    }
  },
  {
    "service_request": "2025-1183038",
    "request_type": "General Services",
    "request_reason": "General Service Request",
    "date_created": "2025-04-10T18:01:18.000",
    "date_modified": "2025-04-10T18:01:19.000",
    "request_status": "Pending",
    "responsible_agency": "Orleans Parish Communication District",
    "final_address": "3900 BLK Clio Pl",
    "address_councildis": "B",
    "status": "Pending",
    "rowid": "1183038",
    "final_x": "3672620.66063",
    "final_y": "530719.289727",
    "longitude": "-90.09613543299172",
    "latitude": "29.953560605921684",
    "geocoded_column": {
      "latitude": "29.953560605921684",
      "longitude": "-90.09613543299172"
    }
  },
  {
    "service_request": "2025-1183037",
    "request_type": "Trash/Recycling",
    "request_reason": "Repair Trash Cart",
    "date_created": "2025-04-10T17:51:32.000",
    "date_modified": "2025-04-10T17:51:34.000",
    "request_status": "Pending",
    "responsible_agency": "Department of Sanitation",
    "final_address": "6848 Catina St",
    "address_councildis": "A",
    "status": "Assigned to Contractor",
    "contractor": "IV Waste",
    "rowid": "1183037",
    "final_x": "3667044.32269",
    "final_y": "553430.335255",
    "longitude": "-90.11297946745044",
    "latitude": "30.0161726599779",
    "geocoded_column": {
      "latitude": "30.0161726599779",
      "longitude": "-90.11297946745044"
    }
  },
  {
    "service_request": "2025-1183036",
    "request_type": "Roads and Streets",
    "request_reason": "Sidewalk Damaged or Missing",
    "date_created": "2025-04-10T17:41:20.000",
    "date_modified": "2025-04-10T17:41:22.000",
    "request_status": "Pending",
    "responsible_agency": "Department of Public Works",
    "final_address": "4801 Bienville Ave",
    "address_councildis": "A",
    "status": "Pending",
    "rowid": "1183036",
    "final_x": "3669301.71156",
    "final_y": "540770.138955",
    "longitude": "-90.1062754478953",
    "latitude": "29.981295206071636",
    "geocoded_column": {
      "latitude": "29.981295206071636",
      "longitude": "-90.1062754478953"
    }
  },
  {
    "service_request": "2025-1183035",
    "request_type": "Trash/Recycling",
    "request_reason": "Request a Large Item Pick Up",
    "date_created": "2025-04-10T17:24:53.000",
    "date_modified": "2025-04-10T17:24:56.000",
    "request_status": "Pending",
    "responsible_agency": "Department of Sanitation",
    "final_address": "3219 Behrman Hwy",
    "address_councildis": "C",
    "status": "Assigned to Contractor",
    "contractor": "Richards Disposal",
    "rowid": "1183035",
    "final_x": "3695130.36963",
    "final_y": "518505.785207",
    "longitude": "-90.02549976922538",
    "latitude": "29.91929017777863",
    "geocoded_column": {
      "latitude": "29.91929017777863",
      "longitude": "-90.02549976922538"
    }
  },
  {
    "service_request": "2025-1183034",
    "request_type": "Streetlights",
    "request_reason": "Streetlight Outage/Malfunction",
    "date_created": "2025-04-10T17:24:00.000",
    "date_modified": "2025-04-10T17:24:01.000",
    "request_status": "Pending",
    "responsible_agency": "Department of Public Works",
    "final_address": "700 Fats Domino Ave",
    "address_councildis": "E",
    "status": "Pending",
    "contractor": "Legacy Professional Services",
    "rowid": "1183034",
    "final_x": "3697580.99312",
    "final_y": "532322.188227",
    "longitude": "-90.0172635300185",
    "latitude": "29.95720336276117",
    "geocoded_column": {
      "latitude": "29.95720336276117",
      "longitude": "-90.0172635300185"
    }
  },
  {
    "service_request": "2025-1183033",
    "request_type": "Abandoned Vehicles",
    "request_reason": "Abandoned/Junk Vehicles",
    "date_created": "2025-04-10T17:09:45.000",
    "date_modified": "2025-04-10T17:09:47.000",
    "request_status": "Pending",
    "responsible_agency": "Department of Public Works",
    "final_address": "2200 BLK Saint Ann St",
    "address_councildis": "D",
    "status": "Pending",
    "rowid": "1183033",
    "final_x": "3678430.97906",
    "final_y": "536071.17174",
    "longitude": "-90.07760369489134",
    "latitude": "29.96810268831551",
    "geocoded_column": {
      "latitude": "29.96810268831551",
      "longitude": "-90.07760369489134"
    }
  },
  {
    "service_request": "2025-1183032",
    "request_type": "Trash/Recycling",
    "request_reason": "Request a Large Item Pick Up",
    "date_created": "2025-04-10T16:53:29.000",
    "date_modified": "2025-04-10T16:53:31.000",
    "request_status": "Pending",
    "responsible_agency": "Department of Sanitation",
    "final_address": "8852 Dinkins St",
    "address_councildis": "E",
    "status": "Assigned to Contractor",
    "contractor": "Waste Pro",
    "rowid": "1183032",
    "final_x": "3704737.71658",
    "final_y": "563354.314208",
    "longitude": "-89.99351919158063",
    "latitude": "30.04230204619629",
    "geocoded_column": {
      "latitude": "30.04230204619629",
      "longitude": "-89.99351919158063"
    }
  },
  {
    "service_request": "2025-1183031",
    "request_type": "Trash/Recycling",
    "request_reason": "Request a Large Item Pick Up",
    "date_created": "2025-04-10T16:47:37.000",
    "date_modified": "2025-04-10T16:47:39.000",
    "request_status": "Pending",
    "responsible_agency": "Department of Sanitation",
    "final_address": "1628 New York St",
    "address_councildis": "D",
    "status": "Assigned to Contractor",
    "contractor": "IV Waste",
    "rowid": "1183031",
    "final_x": "3679331.08469",
    "final_y": "555891.825433",
    "longitude": "-90.07407322440186",
    "latitude": "30.02257532911289",
    "geocoded_column": {
      "latitude": "30.02257532911289",
      "longitude": "-90.07407322440186"
    }
  },
  {
    "service_request": "2025-1183030",
    "request_type": "Trash/Recycling",
    "request_reason": "Request a Large Item Pick Up",
    "date_created": "2025-04-10T16:45:05.000",
    "date_modified": "2025-04-10T16:45:08.000",
    "request_status": "Pending",
    "responsible_agency": "Department of Sanitation",
    "final_address": "4750 Lurline St",
    "address_councildis": "E",
    "status": "Assigned to Contractor",
    "contractor": "Waste Pro",
    "rowid": "1183030",
    "final_x": "3711891.34194",
    "final_y": "556175.566234",
    "longitude": "-89.97118089057514",
    "latitude": "30.022331406338832",
    "geocoded_column": {
      "latitude": "30.022331406338832",
      "longitude": "-89.97118089057514"
    }
  },
  {
    "service_request": "2025-1183029",
    "request_type": "Drainage",
    "request_reason": "Street Flooding",
    "date_created": "2025-04-10T16:42:05.000",
    "date_modified": "2025-04-10T16:42:07.000",
    "request_status": "Pending",
    "responsible_agency": "Sewerage & Water Board ",
    "final_address": "4101 Clara St",
    "address_councildis": "B",
    "status": "Pending",
    "rowid": "1183029",
    "final_x": "3671605.68391",
    "final_y": "525238.368829",
    "longitude": "-90.09952665988259",
    "latitude": "29.938519962106753",
    "geocoded_column": {
      "latitude": "29.938519962106753",
      "longitude": "-90.09952665988259"
    }
  },
  {
    "service_request": "2025-1183027",
    "request_type": "Trash/Recycling",
    "request_reason": "MIssed Recycling Pick-Up",
    "date_created": "2025-04-10T16:37:36.000",
    "date_modified": "2025-04-10T16:37:38.000",
    "request_status": "Pending",
    "responsible_agency": "Department of Sanitation",
    "final_address": "4421 Dodt Ave",
    "address_councildis": "E",
    "status": "Assigned to Contractor",
    "contractor": "Waste Pro",
    "rowid": "1183027",
    "final_x": "3705686.06481",
    "final_y": "553591.113559",
    "longitude": "-89.99088356469466",
    "latitude": "30.015426531264048",
    "geocoded_column": {
      "latitude": "30.015426531264048",
      "longitude": "-89.99088356469466"
    }
  },
  {
    "service_request": "2025-1183026",
    "request_type": "Trash/Recycling",
    "request_reason": "Request a Large Item Pick Up",
    "date_created": "2025-04-10T16:36:35.000",
    "date_modified": "2025-04-10T16:36:37.000",
    "request_status": "Pending",
    "responsible_agency": "Department of Sanitation",
    "final_address": "1410 Terpsichore St",
    "address_councildis": "B",
    "status": "Assigned to Contractor",
    "contractor": "IV Waste",
    "rowid": "1183026",
    "final_x": "3679679.42927",
    "final_y": "524792.771004",
    "longitude": "-90.07405247943625",
    "latitude": "29.937053201845476",
    "geocoded_column": {
      "latitude": "29.937053201845476",
      "longitude": "-90.07405247943625"
    }
  },
  {
    "service_request": "2025-1183025",
    "request_type": "Traffic Signals",
    "request_reason": "Traffic Signal Malfunctioning or Damaged",
    "date_created": "2025-04-10T16:34:50.000",
    "date_modified": "2025-04-10T16:34:52.000",
    "request_status": "Pending",
    "responsible_agency": "Department of Public Works",
    "final_address": "ST CHARLES AVE & STATE ST",
    "address_councildis": "A",
    "status": "Pending",
    "rowid": "1183025",
    "final_x": "3665749.4",
    "final_y": "522436.58",
    "longitude": "-90.11810943646248",
    "latitude": "29.930988026619243",
    "geocoded_column": {
      "latitude": "29.930988026619243",
      "longitude": "-90.11810943646248"
    }
  },
  {
    "service_request": "2025-1183024",
    "request_type": "Trash/Recycling",
    "request_reason": "Request a Large Item Pick Up",
    "date_created": "2025-04-10T16:32:53.000",
    "date_modified": "2025-04-10T16:32:55.000",
    "request_status": "Pending",
    "responsible_agency": "Department of Sanitation",
    "final_address": "723 fats domino ave, new orleans, la 70117",
    "address_councildis": "E",
    "status": "Assigned to Contractor",
    "contractor": "Waste Pro",
    "rowid": "1183024",
    "final_x": "3697727.54237",
    "final_y": "532453.301956",
    "longitude": "-90.01679601806876",
    "latitude": "29.957559250081925",
    "geocoded_column": {
      "latitude": "29.957559250081925",
      "longitude": "-90.01679601806876"
    }
  },
  {
    "service_request": "2025-1183023",
    "request_type": "Traffic Signals",
    "request_reason": "Traffic Signal Malfunctioning or Damaged",
    "date_created": "2025-04-10T16:25:07.000",
    "date_modified": "2025-04-10T16:25:09.000",
    "request_status": "Pending",
    "responsible_agency": "Department of Public Works",
    "final_address": "1901 Leon C Simon Dr",
    "address_councildis": "D",
    "status": "Pending",
    "rowid": "1183023",
    "final_x": "3681431.68879",
    "final_y": "556436.967898",
    "longitude": "-90.06741678578368",
    "latitude": "30.024010627429632",
    "geocoded_column": {
      "latitude": "30.024010627429632",
      "longitude": "-90.06741678578368"
    }
  },
  {
    "service_request": "2025-1183022",
    "request_type": "Property Maintenance",
    "request_reason": "Property Maintenance",
    "date_created": "2025-04-10T16:18:08.000",
    "date_modified": "2025-04-10T16:18:10.000",
    "request_status": "Pending",
    "responsible_agency": "Department of Code Enforcement",
    "final_address": "8311 Colapissa St",
    "address_councildis": "A",
    "status": "Pending",
    "rowid": "1183022",
    "final_x": "3665895.0962",
    "final_y": "534039.397829",
    "longitude": "-90.11726075496544",
    "latitude": "29.96288777761268",
    "geocoded_column": {
      "latitude": "29.96288777761268",
      "longitude": "-90.11726075496544"
    }
  },
  {
    "service_request": "2025-1183021",
    "request_type": "Trash/Recycling",
    "request_reason": "Replace Trash Cart",
    "date_created": "2025-04-10T16:17:37.000",
    "date_modified": "2025-04-10T16:17:39.000",
    "request_status": "Pending",
    "responsible_agency": "Department of Sanitation",
    "final_address": "3235 Tulane Ave",
    "address_councildis": "B",
    "status": "Assigned to Contractor",
    "contractor": "IV Waste",
    "rowid": "1183021",
    "final_x": "3672391.52756",
    "final_y": "534799.381126",
    "longitude": "-90.0967199019467",
    "latitude": "29.964786299466653",
    "geocoded_column": {
      "latitude": "29.964786299466653",
      "longitude": "-90.0967199019467"
    }
  },
  {
    "service_request": "2025-1183020",
    "request_type": "Trash/Recycling",
    "request_reason": "Illegal Dumping",
    "date_created": "2025-04-10T16:16:58.000",
    "date_modified": "2025-04-10T16:16:59.000",
    "request_status": "Pending",
    "responsible_agency": "Department of Sanitation",
    "final_address": "3235 Tulane Ave",
    "address_councildis": "B",
    "status": "Pending",
    "rowid": "1183020",
    "final_x": "3672391.52756",
    "final_y": "534799.381126",
    "longitude": "-90.0967199019467",
    "latitude": "29.964786299466653",
    "geocoded_column": {
      "latitude": "29.964786299466653",
      "longitude": "-90.0967199019467"
    }
  },
  {
    "service_request": "2025-1183019",
    "request_type": "Trash/Recycling",
    "request_reason": "Missed Trash Pick-Up",
    "date_created": "2025-04-10T16:10:14.000",
    "date_modified": "2025-04-10T17:17:01.000",
    "case_close_date": "2025-04-10T12:16:58.000",
    "request_status": "Closed",
    "responsible_agency": "Department of Sanitation",
    "final_address": "5316 S Liberty St",
    "address_councildis": "B",
    "status": "Invalid Request",
    "contractor": "IV Waste",
    "contractor_action": "Invalid",
    "rowid": "1183019",
    "final_x": "3667924.18945",
    "final_y": "523165.961979",
    "longitude": "-90.11121933911954",
    "latitude": "29.93292999448721",
    "geocoded_column": {
      "latitude": "29.93292999448721",
      "longitude": "-90.11121933911954"
    }
  },
  {
    "service_request": "2025-1183018",
    "request_type": "Trash/Recycling",
    "request_reason": "Replace Trash Cart",
    "date_created": "2025-04-10T16:10:03.000",
    "date_modified": "2025-04-10T16:10:05.000",
    "request_status": "Pending",
    "responsible_agency": "Department of Sanitation",
    "final_address": "6478 Marshal Foch St",
    "address_councildis": "A",
    "status": "Assigned to Contractor",
    "contractor": "IV Waste",
    "rowid": "1183018",
    "final_x": "3670063.17882",
    "final_y": "550533.722644",
    "longitude": "-90.1035394070928",
    "latitude": "30.008119245734154",
    "geocoded_column": {
      "latitude": "30.008119245734154",
      "longitude": "-90.1035394070928"
    }
  },
  {
    "service_request": "2025-1183017",
    "request_type": "Trash/Recycling",
    "request_reason": "Request a Large Item Pick Up",
    "date_created": "2025-04-10T16:08:28.000",
    "date_modified": "2025-04-10T16:08:30.000",
    "request_status": "Pending",
    "responsible_agency": "Department of Sanitation",
    "final_address": "8629 Oak St",
    "address_councildis": "A",
    "status": "Assigned to Contractor",
    "contractor": "IV Waste",
    "rowid": "1183017",
    "final_x": "3660486.95411",
    "final_y": "529765.551425",
    "longitude": "-90.13448028701502",
    "latitude": "29.951292790956813",
    "geocoded_column": {
      "latitude": "29.951292790956813",
      "longitude": "-90.13448028701502"
    }
  },
  {
    "service_request": "2025-1183016",
    "request_type": "Trash/Recycling",
    "request_reason": "Request a Large Item Pick Up",
    "date_created": "2025-04-10T16:07:49.000",
    "date_modified": "2025-04-10T16:07:52.000",
    "request_status": "Pending",
    "responsible_agency": "Department of Sanitation",
    "final_address": "3029 Louisiana Avenue Prkwy",
    "address_councildis": "B",
    "status": "Assigned to Contractor",
    "contractor": "IV Waste",
    "rowid": "1183016",
    "final_x": "3672215.26478",
    "final_y": "526509.844734",
    "longitude": "-90.09755885389104",
    "latitude": "29.941998044452852",
    "geocoded_column": {
      "latitude": "29.941998044452852",
      "longitude": "-90.09755885389104"
    }
  },
  {
    "service_request": "2025-1183015",
    "request_type": "Trash/Recycling",
    "request_reason": "Request a Large Item Pick Up",
    "date_created": "2025-04-10T16:02:56.000",
    "date_modified": "2025-04-10T16:02:58.000",
    "request_status": "Pending",
    "responsible_agency": "Department of Sanitation",
    "final_address": "2312 N Rampart St",
    "address_councildis": "C",
    "status": "Assigned to Contractor",
    "contractor": "IV Waste",
    "rowid": "1183015",
    "final_x": "3685571.94473",
    "final_y": "535952.132295",
    "longitude": "-90.05505648531832",
    "latitude": "29.967558256196664",
    "geocoded_column": {
      "latitude": "29.967558256196664",
      "longitude": "-90.05505648531832"
    }
  },
  {
    "service_request": "2025-1183014",
    "request_type": "Trash/Recycling",
    "request_reason": "Order Trash Cart",
    "date_created": "2025-04-10T15:57:39.000",
    "date_modified": "2025-04-10T15:57:41.000",
    "request_status": "Pending",
    "responsible_agency": "Department of Sanitation",
    "final_address": "4248 Joycelyn Dr",
    "address_councildis": "C",
    "status": "Assigned to Contractor",
    "contractor": "Richards Disposal",
    "rowid": "1183014",
    "final_x": "3708261.08305",
    "final_y": "515055.447155",
    "longitude": "-89.98418135104102",
    "latitude": "29.90938432094007",
    "geocoded_column": {
      "latitude": "29.90938432094007",
      "longitude": "-89.98418135104102"
    }
  },
  {
    "service_request": "2025-1183012",
    "request_type": "Property Maintenance",
    "request_reason": "Property Maintenance",
    "date_created": "2025-04-10T15:51:50.000",
    "date_modified": "2025-04-10T15:51:52.000",
    "request_status": "Pending",
    "responsible_agency": "Department of Code Enforcement",
    "final_address": "808 General Taylor St",
    "address_councildis": "B",
    "status": "Pending",
    "rowid": "1183012",
    "final_x": "3673140.08161",
    "final_y": "518721.910327",
    "longitude": "-90.09490475486311",
    "latitude": "29.920556283720384",
    "geocoded_column": {
      "latitude": "29.920556283720384",
      "longitude": "-90.09490475486311"
    }
  },
  {
    "service_request": "2025-1183011",
    "request_type": "Trash/Recycling",
    "request_reason": "Repair Trash Cart",
    "date_created": "2025-04-10T15:51:06.000",
    "date_modified": "2025-04-10T15:51:08.000",
    "request_status": "Pending",
    "responsible_agency": "Department of Sanitation",
    "final_address": "2831 Potomac St",
    "address_councildis": "C",
    "status": "Assigned to Contractor",
    "contractor": "Richards Disposal",
    "rowid": "1183011",
    "final_x": "3692709.18832",
    "final_y": "519483.915127",
    "longitude": "-90.0331071490467",
    "latitude": "29.922055471134133",
    "geocoded_column": {
      "latitude": "29.922055471134133",
      "longitude": "-90.0331071490467"
    }
  },
  {
    "service_request": "2025-1183010",
    "request_type": "Trash/Recycling",
    "request_reason": "Illegal Dumping",
    "date_created": "2025-04-10T15:50:13.000",
    "date_modified": "2025-04-10T15:50:15.000",
    "request_status": "Pending",
    "responsible_agency": "Department of Sanitation",
    "final_address": "5053 Good Dr",
    "address_councildis": "E",
    "status": "Pending",
    "rowid": "1183010",
    "final_x": "3714714.14181",
    "final_y": "558256.843228",
    "longitude": "-89.96218293759814",
    "latitude": "30.027961521302625",
    "geocoded_column": {
      "latitude": "30.027961521302625",
      "longitude": "-89.96218293759814"
    }
  },
  {
    "service_request": "2025-1183009",
    "request_type": "Parks & Parkways",
    "request_reason": "Request Tree Service (Right of Way/Public Property)",
    "date_created": "2025-04-10T15:50:05.000",
    "date_modified": "2025-04-10T15:50:06.000",
    "request_status": "Pending",
    "responsible_agency": "Department of Parks & Parkway",
    "final_address": "7617 Dominican St",
    "address_councildis": "A",
    "status": "Pending",
    "rowid": "1183009",
    "final_x": "3661293.55437",
    "final_y": "525238.644861",
    "longitude": "-90.13208327728184",
    "latitude": "29.93882201080379",
    "geocoded_column": {
      "latitude": "29.93882201080379",
      "longitude": "-90.13208327728184"
    }
  },
  {
    "service_request": "2025-1183008",
    "request_type": "Trash/Recycling",
    "request_reason": "Illegal Dumping",
    "date_created": "2025-04-10T15:49:29.000",
    "date_modified": "2025-04-10T15:49:31.000",
    "request_status": "Pending",
    "responsible_agency": "Department of Sanitation",
    "final_address": "7900 Almonaster Ave",
    "address_councildis": "E",
    "status": "Pending",
    "rowid": "1183008",
    "final_x": "3705010.17726",
    "final_y": "550947.180501",
    "longitude": "-89.99311674596433",
    "latitude": "30.00817848196787",
    "geocoded_column": {
      "latitude": "30.00817848196787",
      "longitude": "-89.99311674596433"
    }
  },
  {
    "service_request": "2025-1183007",
    "request_type": "Streetlights",
    "request_reason": "Streetlight Outage/Malfunction",
    "date_created": "2025-04-10T15:48:09.000",
    "date_modified": "2025-04-10T15:48:11.000",
    "request_status": "Pending",
    "responsible_agency": "Department of Public Works",
    "final_address": "7617 Dominican St",
    "address_councildis": "A",
    "status": "Pending",
    "contractor": "Legacy Professional Services",
    "rowid": "1183007",
    "final_x": "3661293.55437",
    "final_y": "525238.644861",
    "longitude": "-90.13208327728184",
    "latitude": "29.93882201080379",
    "geocoded_column": {
      "latitude": "29.93882201080379",
      "longitude": "-90.13208327728184"
    }
  },
  {
    "service_request": "2025-1183006",
    "request_type": "Trash/Recycling",
    "request_reason": "Illegal Dumping",
    "date_created": "2025-04-10T15:32:58.000",
    "date_modified": "2025-04-10T15:33:01.000",
    "request_status": "Pending",
    "responsible_agency": "Department of Sanitation",
    "final_address": "7171 Whitmore Pl",
    "address_councildis": "E",
    "status": "Pending",
    "rowid": "1183006",
    "final_x": "3718625.8782",
    "final_y": "569876.539814",
    "longitude": "-89.94937878782356",
    "latitude": "30.059781649161298",
    "geocoded_column": {
      "latitude": "30.059781649161298",
      "longitude": "-89.94937878782356"
    }
  },
  {
    "service_request": "2025-1183005",
    "request_type": "Street and Traffic Signs",
    "request_reason": "Additional Signage Request",
    "date_created": "2025-04-10T15:32:08.000",
    "date_modified": "2025-04-10T15:32:10.000",
    "request_status": "Pending",
    "responsible_agency": "Department of Public Works",
    "final_address": "500 BLK Warrington Dr",
    "address_councildis": "D",
    "status": "Pending",
    "rowid": "1183005",
    "final_x": "3681202.38362",
    "final_y": "548826.444458",
    "longitude": "-90.0684068165983",
    "latitude": "30.0030914106957",
    "geocoded_column": {
      "latitude": "30.0030914106957",
      "longitude": "-90.0684068165983"
    }
  },
  {
    "service_request": "2025-1183004",
    "request_type": "Safety & Permits",
    "request_reason": "Zoning Enforcement",
    "date_created": "2025-04-10T15:31:07.000",
    "date_modified": "2025-04-10T15:40:30.000",
    "request_status": "Pending",
    "responsible_agency": "Safety and Permits",
    "final_address": "3026 Castiglione St",
    "address_councildis": "D",
    "status": "Pending",
    "rowid": "1183004",
    "final_x": "3678904.05102",
    "final_y": "542603.592077",
    "longitude": "-90.0758833246699",
    "latitude": "29.986050324177498",
    "geocoded_column": {
      "latitude": "29.986050324177498",
      "longitude": "-90.0758833246699"
    }
  },
  {
    "service_request": "2025-1183003",
    "request_type": "Trash/Recycling",
    "request_reason": "Missed Trash Pick-Up",
    "date_created": "2025-04-10T15:30:58.000",
    "date_modified": "2025-04-10T17:00:17.000",
    "case_close_date": "2025-04-10T12:00:16.000",
    "request_status": "Closed",
    "responsible_agency": "Department of Sanitation",
    "final_address": "6323 Debore Dr",
    "address_councildis": "D",
    "status": "Invalid Request",
    "contractor": "IV Waste",
    "contractor_action": "Invalid",
    "rowid": "1183003",
    "final_x": "3690879.71932",
    "final_y": "556792.613082",
    "longitude": "-90.0375502097317",
    "latitude": "30.02469812401314",
    "geocoded_column": {
      "latitude": "30.02469812401314",
      "longitude": "-90.0375502097317"
    }
  },
  {
    "service_request": "2025-1183002",
    "request_type": "Trash/Recycling",
    "request_reason": "Repair Trash Cart",
    "date_created": "2025-04-10T15:28:06.000",
    "date_modified": "2025-04-10T15:28:08.000",
    "request_status": "Pending",
    "responsible_agency": "Department of Sanitation",
    "final_address": "6600 Louis Xiv St",
    "address_councildis": "A",
    "status": "Assigned to Contractor",
    "contractor": "IV Waste",
    "rowid": "1183002",
    "final_x": "3668357.75854",
    "final_y": "551464.466709",
    "longitude": "-90.10889594674029",
    "latitude": "30.01072868450671",
    "geocoded_column": {
      "latitude": "30.01072868450671",
      "longitude": "-90.10889594674029"
    }
  },
  {
    "service_request": "2025-1183001",
    "request_type": "Roads and Streets",
    "request_reason": "Pothole",
    "date_created": "2025-04-10T15:27:11.000",
    "date_modified": "2025-04-10T15:27:13.000",
    "request_status": "Pending",
    "responsible_agency": "Department of Public Works",
    "final_address": "3133 General Meyer Ave",
    "address_councildis": "C",
    "status": "Pending",
    "rowid": "1183001",
    "final_x": "3695713.54173",
    "final_y": "526273.20275",
    "longitude": "-90.02337870546731",
    "latitude": "29.94062960685906",
    "geocoded_column": {
      "latitude": "29.94062960685906",
      "longitude": "-90.02337870546731"
    }
  },
  {
    "service_request": "2025-1183000",
    "request_type": "Trash/Recycling",
    "request_reason": "Order Trash Cart",
    "date_created": "2025-04-10T15:26:03.000",
    "date_modified": "2025-04-10T15:26:10.000",
    "request_status": "Pending",
    "responsible_agency": "Department of Sanitation",
    "final_address": "1808 Bayou Rd",
    "address_councildis": "D",
    "status": "Assigned to Contractor",
    "contractor": "IV Waste",
    "rowid": "1183000",
    "final_x": "3680629.89019",
    "final_y": "536540.134663",
    "longitude": "-90.07064313080053",
    "latitude": "29.96932573100885",
    "geocoded_column": {
      "latitude": "29.96932573100885",
      "longitude": "-90.07064313080053"
    }
  },
  {
    "service_request": "2025-1182999",
    "request_type": "Health Related Request",
    "request_reason": "Homeless Encampment Complaint",
    "date_created": "2025-04-10T15:25:28.000",
    "date_modified": "2025-04-10T15:25:30.000",
    "request_status": "Pending",
    "responsible_agency": "Health Department",
    "final_address": "3133 General Meyer Ave",
    "address_councildis": "C",
    "status": "Pending",
    "rowid": "1182999",
    "final_x": "3695713.54173",
    "final_y": "526273.20275",
    "longitude": "-90.02337870546731",
    "latitude": "29.94062960685906",
    "geocoded_column": {
      "latitude": "29.94062960685906",
      "longitude": "-90.02337870546731"
    }
  },
  {
    "service_request": "2025-1182998",
    "request_type": "Trash/Recycling",
    "request_reason": "Repair Trash Cart",
    "date_created": "2025-04-10T15:24:17.000",
    "date_modified": "2025-04-10T15:24:20.000",
    "request_status": "Pending",
    "responsible_agency": "Department of Sanitation",
    "final_address": "3204 Louisiana Avenue Prkwy",
    "address_councildis": "B",
    "status": "Assigned to Contractor",
    "contractor": "IV Waste",
    "rowid": "1182998",
    "final_x": "3671866.59508",
    "final_y": "526943.715262",
    "longitude": "-90.0986449203979",
    "latitude": "29.9432013819947",
    "geocoded_column": {
      "latitude": "29.9432013819947",
      "longitude": "-90.0986449203979"
    }
  },
  {
    "service_request": "2025-1182997",
    "request_type": "Trash/Recycling",
    "request_reason": "Illegal Dumping",
    "date_created": "2025-04-10T15:24:11.000",
    "date_modified": "2025-04-10T15:24:12.000",
    "request_status": "Pending",
    "responsible_agency": "Department of Sanitation",
    "final_address": "3133 General Meyer Ave",
    "address_councildis": "C",
    "status": "Pending",
    "rowid": "1182997",
    "final_x": "3695713.54173",
    "final_y": "526273.20275",
    "longitude": "-90.02337870546731",
    "latitude": "29.94062960685906",
    "geocoded_column": {
      "latitude": "29.94062960685906",
      "longitude": "-90.02337870546731"
    }
  },
  {
    "service_request": "2025-1182994",
    "request_type": "Trash/Recycling",
    "request_reason": "Request a Large Item Pick Up",
    "date_created": "2025-04-10T15:16:10.000",
    "date_modified": "2025-04-10T15:16:13.000",
    "request_status": "Pending",
    "responsible_agency": "Department of Sanitation",
    "final_address": "6107 Royal St",
    "address_councildis": "E",
    "status": "Assigned to Contractor",
    "contractor": "Waste Pro",
    "rowid": "1182994",
    "final_x": "3699021.47472",
    "final_y": "531925.470403",
    "longitude": "-90.0127293956933",
    "latitude": "29.95606695814137",
    "geocoded_column": {
      "latitude": "29.95606695814137",
      "longitude": "-90.0127293956933"
    }
  },
  {
    "service_request": "2025-1182993",
    "request_type": "Trash/Recycling",
    "request_reason": "Request a Large Item Pick Up",
    "date_created": "2025-04-10T15:06:13.000",
    "date_modified": "2025-04-10T15:07:25.000",
    "request_status": "Pending",
    "responsible_agency": "Department of Sanitation",
    "final_address": "810 Turquoise St",
    "address_councildis": "D",
    "status": "Assigned to Contractor",
    "contractor": "IV Waste",
    "rowid": "1182993",
    "final_x": "3670356.02266",
    "final_y": "555089.218329",
    "longitude": "-90.10245961870372",
    "latitude": "30.020636601279445",
    "geocoded_column": {
      "latitude": "30.020636601279445",
      "longitude": "-90.10245961870372"
    }
  },
  {
    "service_request": "2025-1182992",
    "request_type": "Roads and Streets",
    "request_reason": "Sidewalk Damaged or Missing",
    "date_created": "2025-04-10T15:05:49.000",
    "date_modified": "2025-04-10T15:05:51.000",
    "request_status": "Pending",
    "responsible_agency": "Department of Public Works",
    "final_address": "618 Magazine St",
    "address_councildis": "B",
    "status": "Pending",
    "rowid": "1182992",
    "final_x": "3681407.51074",
    "final_y": "528585.216",
    "longitude": "-90.06846466542987",
    "latitude": "29.947428825065046",
    "geocoded_column": {
      "latitude": "29.947428825065046",
      "longitude": "-90.06846466542987"
    }
  },
  {
    "service_request": "2025-1182991",
    "request_type": "Property Maintenance",
    "request_reason": "Property Maintenance",
    "date_created": "2025-04-10T15:03:05.000",
    "date_modified": "2025-04-10T15:06:40.000",
    "request_status": "Pending",
    "responsible_agency": "Department of Code Enforcement",
    "final_address": "618 Magazine St",
    "address_councildis": "B",
    "status": "Pending",
    "rowid": "1182991",
    "final_x": "3681407.51074",
    "final_y": "528585.216",
    "longitude": "-90.06846466542987",
    "latitude": "29.947428825065046",
    "geocoded_column": {
      "latitude": "29.947428825065046",
      "longitude": "-90.06846466542987"
    }
  },
  {
    "service_request": "2025-1182990",
    "request_type": "Trash/Recycling",
    "request_reason": "Order Trash Cart",
    "date_created": "2025-04-10T15:02:08.000",
    "date_modified": "2025-04-10T15:02:10.000",
    "request_status": "Pending",
    "responsible_agency": "Department of Sanitation",
    "final_address": "2425 Allen St",
    "address_councildis": "D",
    "status": "Assigned to Contractor",
    "contractor": "IV Waste",
    "rowid": "1182990",
    "final_x": "3682406.29436",
    "final_y": "541187.632204",
    "longitude": "-90.06487063589563",
    "latitude": "29.98205078742311",
    "geocoded_column": {
      "latitude": "29.98205078742311",
      "longitude": "-90.06487063589563"
    }
  },
  {
    "service_request": "2025-1182989",
    "request_type": "Abandoned Vehicles",
    "request_reason": "Abandoned/Junk Vehicles",
    "date_created": "2025-04-10T15:01:49.000",
    "date_modified": "2025-04-10T15:05:13.000",
    "request_status": "Pending",
    "responsible_agency": "Department of Public Works",
    "final_address": "CHARBONNET ST & URQUHART ST",
    "address_councildis": "E",
    "status": "Pending",
    "rowid": "1182989",
    "final_x": "3698815.3",
    "final_y": "534338.78",
    "longitude": "-90.01329263191633",
    "latitude": "29.96270923401512",
    "geocoded_column": {
      "latitude": "29.96270923401512",
      "longitude": "-90.01329263191633"
    }
  },
  {
    "service_request": "2025-1182988",
    "request_type": "Trash/Recycling",
    "request_reason": "Request a Large Item Pick Up",
    "date_created": "2025-04-10T14:56:48.000",
    "date_modified": "2025-04-10T14:56:50.000",
    "request_status": "Pending",
    "responsible_agency": "Department of Sanitation",
    "final_address": "1974 Mirabeau Ave",
    "address_councildis": "D",
    "status": "Assigned to Contractor",
    "contractor": "IV Waste",
    "rowid": "1182988",
    "final_x": "3682254.85352",
    "final_y": "550494.711764",
    "longitude": "-90.06502357700847",
    "latitude": "30.007646556660156",
    "geocoded_column": {
      "latitude": "30.007646556660156",
      "longitude": "-90.06502357700847"
    }
  },
  {
    "service_request": "2025-1182987",
    "request_type": "Trash/Recycling",
    "request_reason": "Request a Large Item Pick Up",
    "date_created": "2025-04-10T14:52:48.000",
    "date_modified": "2025-04-10T14:52:50.000",
    "request_status": "Pending",
    "responsible_agency": "Department of Sanitation",
    "final_address": "4959 Elysian Fields Ave",
    "address_councildis": "D",
    "status": "Assigned to Contractor",
    "contractor": "IV Waste",
    "rowid": "1182987",
    "final_x": "3683942.92981",
    "final_y": "551166.022037",
    "longitude": "-90.05966688608936",
    "latitude": "30.00944093139664",
    "geocoded_column": {
      "latitude": "30.00944093139664",
      "longitude": "-90.05966688608936"
    }
  },
  {
    "service_request": "2025-1182986",
    "request_type": "Trash/Recycling",
    "request_reason": "Repair Recycling Cart",
    "date_created": "2025-04-10T14:47:47.000",
    "date_modified": "2025-04-10T14:47:50.000",
    "request_status": "Pending",
    "responsible_agency": "Department of Sanitation",
    "final_address": "6819 Milne Blvd",
    "address_councildis": "A",
    "status": "Pending",
    "rowid": "1182986",
    "final_x": "3667674.74401",
    "final_y": "552952.370583",
    "longitude": "-90.11100371568803",
    "latitude": "30.014839948839143",
    "geocoded_column": {
      "latitude": "30.014839948839143",
      "longitude": "-90.11100371568803"
    }
  },
  {
    "service_request": "2025-1182985",
    "request_type": "Roads and Streets",
    "request_reason": "Pothole",
    "date_created": "2025-04-10T14:46:23.000",
    "date_modified": "2025-04-10T14:46:25.000",
    "request_status": "Pending",
    "responsible_agency": "Department of Public Works",
    "final_address": "2411 Valence St",
    "address_councildis": "B",
    "status": "Pending",
    "rowid": "1182985",
    "final_x": "3669495.41255",
    "final_y": "523699.704763",
    "longitude": "-90.10624104487638",
    "latitude": "29.934351442914235",
    "geocoded_column": {
      "latitude": "29.934351442914235",
      "longitude": "-90.10624104487638"
    }
  },
  {
    "service_request": "2025-1182984",
    "request_type": "Trash/Recycling",
    "request_reason": "Replace Trash Cart",
    "date_created": "2025-04-10T14:46:01.000",
    "date_modified": "2025-04-10T14:46:02.000",
    "request_status": "Pending",
    "responsible_agency": "Department of Sanitation",
    "final_address": "2120 Philip St",
    "address_councildis": "B",
    "status": "Assigned to Contractor",
    "contractor": "IV Waste",
    "rowid": "1182984",
    "final_x": "3676027.93307",
    "final_y": "524969.019901",
    "longitude": "-90.08557441098043",
    "latitude": "29.937647667773895",
    "geocoded_column": {
      "latitude": "29.937647667773895",
      "longitude": "-90.08557441098043"
    }
  },
  {
    "service_request": "2025-1182983",
    "request_type": "Abandoned Vehicles",
    "request_reason": "Abandoned/Junk Vehicles",
    "date_created": "2025-04-10T14:43:29.000",
    "date_modified": "2025-04-10T14:45:19.000",
    "request_status": "Pending",
    "responsible_agency": "Department of Public Works",
    "final_address": "2100 Baronne St",
    "address_councildis": "B",
    "status": "Inspected",
    "rowid": "1182983",
    "final_x": "3677324.11816",
    "final_y": "524644.926396",
    "longitude": "-90.08149343316524",
    "latitude": "29.9367176425901",
    "geocoded_column": {
      "latitude": "29.9367176425901",
      "longitude": "-90.08149343316524"
    }
  },
  {
    "service_request": "2025-1182982",
    "request_type": "Property Maintenance",
    "request_reason": "Property Maintenance",
    "date_created": "2025-04-10T14:34:10.000",
    "date_modified": "2025-04-10T14:34:12.000",
    "request_status": "Pending",
    "responsible_agency": "Department of Code Enforcement",
    "final_address": "3222 First St",
    "address_councildis": "B",
    "status": "Pending",
    "rowid": "1182982",
    "final_x": "3673673.66619",
    "final_y": "528116.600447",
    "longitude": "-90.09289944597603",
    "latitude": "29.946372765917822",
    "geocoded_column": {
      "latitude": "29.946372765917822",
      "longitude": "-90.09289944597603"
    }
  },
  {
    "service_request": "2025-1182981",
    "request_type": "Trash/Recycling",
    "request_reason": "Request a Large Item Pick Up",
    "date_created": "2025-04-10T14:33:25.000",
    "date_modified": "2025-04-10T14:33:27.000",
    "request_status": "Pending",
    "responsible_agency": "Department of Sanitation",
    "final_address": "6556 Coveview Ct",
    "address_councildis": "E",
    "status": "Assigned to Contractor",
    "contractor": "Waste Pro",
    "rowid": "1182981",
    "final_x": "3698853.83357",
    "final_y": "555652.977881",
    "longitude": "-90.01239502242674",
    "latitude": "30.02131420101914",
    "geocoded_column": {
      "latitude": "30.02131420101914",
      "longitude": "-90.01239502242674"
    }
  },
  {
    "service_request": "2025-1182980",
    "request_type": "Trash/Recycling",
    "request_reason": "Order Trash Cart",
    "date_created": "2025-04-10T14:32:56.000",
    "date_modified": "2025-04-10T14:33:03.000",
    "request_status": "Pending",
    "responsible_agency": "Department of Sanitation",
    "final_address": "1522 Camp St",
    "address_councildis": "B",
    "status": "Assigned to Contractor",
    "contractor": "IV Waste",
    "rowid": "1182980",
    "final_x": "3679800.20328",
    "final_y": "523733.730363",
    "longitude": "-90.07370794377567",
    "latitude": "29.93413753956748",
    "geocoded_column": {
      "latitude": "29.93413753956748",
      "longitude": "-90.07370794377567"
    }
  },
  {
    "service_request": "2025-1182979",
    "request_type": "Trash/Recycling",
    "request_reason": "Request a Large Item Pick Up",
    "date_created": "2025-04-10T14:30:15.000",
    "date_modified": "2025-04-10T14:30:17.000",
    "request_status": "Pending",
    "responsible_agency": "Department of Sanitation",
    "final_address": "1421 Delery St",
    "address_councildis": "E",
    "status": "Assigned to Contractor",
    "contractor": "Waste Pro",
    "rowid": "1182979",
    "final_x": "3701010.56759",
    "final_y": "534266.934405",
    "longitude": "-90.00636294069996",
    "latitude": "29.962441962749338",
    "geocoded_column": {
      "latitude": "29.962441962749338",
      "longitude": "-90.00636294069996"
    }
  },
  {
    "service_request": "2025-1182978",
    "request_type": "Trash/Recycling",
    "request_reason": "Request a Large Item Pick Up",
    "date_created": "2025-04-10T14:26:28.000",
    "date_modified": "2025-04-10T14:26:30.000",
    "request_status": "Pending",
    "responsible_agency": "Department of Sanitation",
    "final_address": "1541 N Rocheblave St",
    "address_councildis": "D",
    "status": "Assigned to Contractor",
    "contractor": "IV Waste",
    "rowid": "1182978",
    "final_x": "3679663.54869",
    "final_y": "539195.932874",
    "longitude": "-90.07360270316711",
    "latitude": "29.976657506802617",
    "geocoded_column": {
      "latitude": "29.976657506802617",
      "longitude": "-90.07360270316711"
    }
  },
  {
    "service_request": "2025-1182977",
    "request_type": "Trash/Recycling",
    "request_reason": "Request a Large Item Pick Up",
    "date_created": "2025-04-10T14:26:23.000",
    "date_modified": "2025-04-10T14:26:24.000",
    "request_status": "Pending",
    "responsible_agency": "Department of Sanitation",
    "final_address": "5843 Brighton Pl",
    "address_councildis": "C",
    "status": "Assigned to Contractor",
    "contractor": "Richards Disposal",
    "rowid": "1182977",
    "final_x": "3705259.76606",
    "final_y": "520014.885176",
    "longitude": "-89.9934709422231",
    "latitude": "29.923117891913655",
    "geocoded_column": {
      "latitude": "29.923117891913655",
      "longitude": "-89.9934709422231"
    }
  },
  {
    "service_request": "2025-1182976",
    "request_type": "Trash/Recycling",
    "request_reason": "Repair Trash Cart",
    "date_created": "2025-04-10T14:25:32.000",
    "date_modified": "2025-04-10T14:25:34.000",
    "request_status": "Pending",
    "responsible_agency": "Department of Sanitation",
    "final_address": "2473 Oriole St",
    "address_councildis": "D",
    "status": "Assigned to Contractor",
    "contractor": "IV Waste",
    "rowid": "1182976",
    "final_x": "3685112.85794",
    "final_y": "558331.770908",
    "longitude": "-90.0557182567535",
    "latitude": "30.029108292441492",
    "geocoded_column": {
      "latitude": "30.029108292441492",
      "longitude": "-90.0557182567535"
    }
  },
  {
    "service_request": "2025-1182975",
    "request_type": "Streetlights",
    "request_reason": "Streetlight Outage/Malfunction",
    "date_created": "2025-04-10T14:24:53.000",
    "date_modified": "2025-04-10T14:24:54.000",
    "request_status": "Pending",
    "responsible_agency": "Department of Public Works",
    "final_address": "11036 Chaucer St",
    "address_councildis": "E",
    "status": "Pending",
    "contractor": "Legacy Professional Services",
    "rowid": "1182975",
    "final_x": "3713393.26603",
    "final_y": "562196.647967",
    "longitude": "-89.96620823612497",
    "latitude": "30.038837805662624",
    "geocoded_column": {
      "latitude": "30.038837805662624",
      "longitude": "-89.96620823612497"
    }
  },
  {
    "service_request": "2025-1182973",
    "request_type": "Trash/Recycling",
    "request_reason": "Order Recycling Cart",
    "date_created": "2025-04-10T14:22:42.000",
    "date_modified": "2025-04-10T14:22:44.000",
    "request_status": "Pending",
    "responsible_agency": "Department of Sanitation",
    "final_address": "2906 Palmyra St",
    "address_councildis": "B",
    "status": "Pending",
    "rowid": "1182973",
    "final_x": "3674025.39156",
    "final_y": "535016.556294",
    "longitude": "-90.09155282692217",
    "latitude": "29.96533487221845",
    "geocoded_column": {
      "latitude": "29.96533487221845",
      "longitude": "-90.09155282692217"
    }
  },
  {
    "service_request": "2025-1182972",
    "request_type": "Trash/Recycling",
    "request_reason": "Damaged Caused By Contractor",
    "date_created": "2025-04-10T14:22:00.000",
    "date_modified": "2025-04-10T14:22:03.000",
    "request_status": "Pending",
    "responsible_agency": "Department of Sanitation",
    "final_address": "3501 S Tonti St",
    "address_councildis": "B",
    "status": "Assigned to Contractor",
    "contractor": "IV Waste",
    "rowid": "1182972",
    "final_x": "3671160.31284",
    "final_y": "528334.379328",
    "longitude": "-90.10082760836491",
    "latitude": "29.947046161342815",
    "geocoded_column": {
      "latitude": "29.947046161342815",
      "longitude": "-90.10082760836491"
    }
  },
  {
    "service_request": "2025-1182971",
    "request_type": "Drainage",
    "request_reason": "Catch Basin Clogged",
    "date_created": "2025-04-10T14:19:28.000",
    "date_modified": "2025-04-10T14:19:30.000",
    "request_status": "Pending",
    "responsible_agency": "Sewerage & Water Board ",
    "final_address": "3152 St Bernard Ave",
    "address_councildis": "D",
    "status": "Pending",
    "rowid": "1182971",
    "final_x": "3678917.49877",
    "final_y": "543965.949902",
    "longitude": "-90.0757936221622",
    "latitude": "29.98979592585871",
    "geocoded_column": {
      "latitude": "29.98979592585871",
      "longitude": "-90.0757936221622"
    }
  },
  {
    "service_request": "2025-1182970",
    "request_type": "Streetlights",
    "request_reason": "Streetlight Outage/Malfunction",
    "date_created": "2025-04-10T14:19:08.000",
    "date_modified": "2025-04-10T14:19:10.000",
    "request_status": "Pending",
    "responsible_agency": "Department of Public Works",
    "final_address": "11036 Chaucer St",
    "address_councildis": "E",
    "status": "Pending",
    "contractor": "Legacy Professional Services",
    "rowid": "1182970",
    "final_x": "3713393.26603",
    "final_y": "562196.647967",
    "longitude": "-89.96620823612497",
    "latitude": "30.038837805662624",
    "geocoded_column": {
      "latitude": "30.038837805662624",
      "longitude": "-89.96620823612497"
    }
  },
  {
    "service_request": "2025-1182969",
    "request_type": "Roads and Streets",
    "request_reason": "Street Subsidence (Sinking)",
    "date_created": "2025-04-10T14:15:32.000",
    "date_modified": "2025-04-10T14:15:34.000",
    "request_status": "Pending",
    "responsible_agency": "Department of Public Works",
    "final_address": "PONTCHARTRAIN BLVD & NO HAMMOND HWY & ROBERT E LEE BLVD",
    "address_councildis": "A",
    "status": "Pending",
    "rowid": "1182969",
    "final_x": "3666603.2",
    "final_y": "554859.98",
    "longitude": "-90.11432517178939",
    "latitude": "30.020116589758146",
    "geocoded_column": {
      "latitude": "30.020116589758146",
      "longitude": "-90.11432517178939"
    }
  },
  {
    "service_request": "2025-1182968",
    "request_type": "Trash/Recycling",
    "request_reason": "Return Recycling Cart",
    "date_created": "2025-04-10T14:14:55.000",
    "date_modified": "2025-04-10T14:14:57.000",
    "request_status": "Pending",
    "responsible_agency": "Department of Sanitation",
    "final_address": "932 Desire St",
    "address_councildis": "C",
    "status": "Pending",
    "rowid": "1182968",
    "final_x": "3690016.28694",
    "final_y": "535177.732614",
    "longitude": "-90.04104878423847",
    "latitude": "29.965291851586567",
    "geocoded_column": {
      "latitude": "29.965291851586567",
      "longitude": "-90.04104878423847"
    }
  },
  {
    "service_request": "2025-1182967",
    "request_type": "Trash/Recycling",
    "request_reason": "Order Second Trash Cart",
    "date_created": "2025-04-10T14:14:36.000",
    "date_modified": "2025-04-10T14:14:38.000",
    "request_status": "Pending",
    "responsible_agency": "Department of Sanitation",
    "final_address": "4745 Good Dr",
    "address_councildis": "E",
    "status": "Assigned to Contractor",
    "contractor": "Waste Pro",
    "rowid": "1182967",
    "final_x": "3714848.57643",
    "final_y": "556913.400218",
    "longitude": "-89.96180895082843",
    "latitude": "30.024263162870064",
    "geocoded_column": {
      "latitude": "30.024263162870064",
      "longitude": "-89.96180895082843"
    }
  },
  {
    "service_request": "2025-1182966",
    "request_type": "Parks & Parkways",
    "request_reason": "Request Grass Cutting Service (City Owned Property)",
    "date_created": "2025-04-10T14:13:55.000",
    "date_modified": "2025-04-10T14:13:57.000",
    "request_status": "Pending",
    "responsible_agency": "Department of Parks & Parkway",
    "final_address": "2700 Jackson Ave",
    "address_councildis": "B",
    "status": "Pending",
    "rowid": "1182966",
    "final_x": "3674974.30209",
    "final_y": "527050.40179",
    "longitude": "-90.08882943860762",
    "latitude": "29.943402291441235",
    "geocoded_column": {
      "latitude": "29.943402291441235",
      "longitude": "-90.08882943860762"
    }
  },
  {
    "service_request": "2025-1182965",
    "request_type": "Trash/Recycling",
    "request_reason": "Request a Large Item Pick Up",
    "date_created": "2025-04-10T14:11:45.000",
    "date_modified": "2025-04-10T14:11:54.000",
    "request_status": "Pending",
    "responsible_agency": "Department of Sanitation",
    "final_address": "2007 Bodenger Blvd",
    "address_councildis": "C",
    "status": "Assigned to Contractor",
    "contractor": "Richards Disposal",
    "rowid": "1182965",
    "final_x": "3688363.10819",
    "final_y": "524433.247036",
    "longitude": "-90.04665043673988",
    "latitude": "29.935799364662742",
    "geocoded_column": {
      "latitude": "29.935799364662742",
      "longitude": "-90.04665043673988"
    }
  },
  {
    "service_request": "2025-1182964",
    "request_type": "Trash/Recycling",
    "request_reason": "Request a Large Item Pick Up",
    "date_created": "2025-04-10T14:09:18.000",
    "date_modified": "2025-04-10T14:09:19.000",
    "request_status": "Pending",
    "responsible_agency": "Department of Sanitation",
    "final_address": "1443 St Mary St",
    "address_councildis": "B",
    "status": "Assigned to Contractor",
    "contractor": "IV Waste",
    "rowid": "1182964",
    "final_x": "3678855.51765",
    "final_y": "523854.656891",
    "longitude": "-90.07668609606944",
    "latitude": "29.93449856913883",
    "geocoded_column": {
      "latitude": "29.93449856913883",
      "longitude": "-90.07668609606944"
    }
  },
  {
    "service_request": "2025-1182963",
    "request_type": "Trash/Recycling",
    "request_reason": "Replace Recycling Cart",
    "date_created": "2025-04-10T14:09:17.000",
    "date_modified": "2025-04-10T14:09:19.000",
    "request_status": "Pending",
    "responsible_agency": "Department of Sanitation",
    "final_address": "535 Atlantic Ave",
    "address_councildis": "C",
    "status": "Pending",
    "rowid": "1182963",
    "final_x": "3688744.56329",
    "final_y": "529593.123905",
    "longitude": "-90.0452630620451",
    "latitude": "29.94997548594607",
    "geocoded_column": {
      "latitude": "29.94997548594607",
      "longitude": "-90.0452630620451"
    }
  },
  {
    "service_request": "2025-1182962",
    "request_type": "Trash/Recycling",
    "request_reason": "Return Recycling Cart",
    "date_created": "2025-04-10T14:09:13.000",
    "date_modified": "2025-04-10T14:09:15.000",
    "request_status": "Pending",
    "responsible_agency": "Department of Sanitation",
    "final_address": "932 Desire St",
    "address_councildis": "C",
    "status": "Pending",
    "rowid": "1182962",
    "final_x": "3690016.28694",
    "final_y": "535177.732614",
    "longitude": "-90.04104878423847",
    "latitude": "29.965291851586567",
    "geocoded_column": {
      "latitude": "29.965291851586567",
      "longitude": "-90.04104878423847"
    }
  },
  {
    "service_request": "2025-1182961",
    "request_type": "Roads and Streets",
    "request_reason": "Sidewalk Damaged or Missing",
    "date_created": "2025-04-10T14:08:07.000",
    "date_modified": "2025-04-10T14:08:09.000",
    "request_status": "Pending",
    "responsible_agency": "Department of Public Works",
    "final_address": "835 Decatur St",
    "address_councildis": "C",
    "status": "Pending",
    "rowid": "1182961",
    "final_x": "3683548.08508",
    "final_y": "532547.51098",
    "longitude": "-90.06156720420304",
    "latitude": "29.95825864360603",
    "geocoded_column": {
      "latitude": "29.95825864360603",
      "longitude": "-90.06156720420304"
    }
  },
  {
    "service_request": "2025-1182960",
    "request_type": "Drainage",
    "request_reason": "Street Flooding",
    "date_created": "2025-04-10T14:03:58.000",
    "date_modified": "2025-04-10T14:04:00.000",
    "request_status": "Pending",
    "responsible_agency": "Sewerage & Water Board ",
    "final_address": "1137 Kerlerec St",
    "address_councildis": "C",
    "status": "Pending",
    "rowid": "1182960",
    "final_x": "3682888.46562",
    "final_y": "535812.211271",
    "longitude": "-90.06353585764097",
    "latitude": "29.96725556349338",
    "geocoded_column": {
      "latitude": "29.96725556349338",
      "longitude": "-90.06353585764097"
    }
  },
  {
    "service_request": "2025-1182959",
    "request_type": "Property Maintenance",
    "request_reason": "Property Maintenance",
    "date_created": "2025-04-10T14:03:23.000",
    "date_modified": "2025-04-10T14:03:24.000",
    "request_status": "Pending",
    "responsible_agency": "Department of Code Enforcement",
    "final_address": "3620 Preston Pl",
    "address_councildis": "C",
    "status": "Pending",
    "rowid": "1182959",
    "final_x": "3708530.80324",
    "final_y": "517512.788022",
    "longitude": "-89.98323868983923",
    "latitude": "29.91613242093647",
    "geocoded_column": {
      "latitude": "29.91613242093647",
      "longitude": "-89.98323868983923"
    }
  },
  {
    "service_request": "2025-1182958",
    "request_type": "Trash/Recycling",
    "request_reason": "Repair Recycling Cart",
    "date_created": "2025-04-10T13:54:57.000",
    "date_modified": "2025-04-10T13:54:59.000",
    "request_status": "Pending",
    "responsible_agency": "Department of Sanitation",
    "final_address": "935 Sixth St",
    "address_councildis": "B",
    "status": "Pending",
    "rowid": "1182958",
    "final_x": "3676908.07573",
    "final_y": "520193.468728",
    "longitude": "-90.0829602543888",
    "latitude": "29.924490076651942",
    "geocoded_column": {
      "latitude": "29.924490076651942",
      "longitude": "-90.0829602543888"
    }
  },
  {
    "service_request": "2025-1182957",
    "request_type": "Trash/Recycling",
    "request_reason": "MIssed Recycling Pick-Up",
    "date_created": "2025-04-10T13:51:50.000",
    "date_modified": "2025-04-10T13:51:52.000",
    "request_status": "Pending",
    "responsible_agency": "Department of Sanitation",
    "final_address": "4829 Burgundy St",
    "address_councildis": "E",
    "status": "Assigned to Contractor",
    "contractor": "Waste Pro",
    "rowid": "1182957",
    "final_x": "3695090.10134",
    "final_y": "533692.479621",
    "longitude": "-90.02507956265967",
    "latitude": "29.961049612802643",
    "geocoded_column": {
      "latitude": "29.961049612802643",
      "longitude": "-90.02507956265967"
    }
  },
  {
    "service_request": "2025-1182956",
    "request_type": "Property Maintenance",
    "request_reason": "Property Maintenance",
    "date_created": "2025-04-10T13:47:32.000",
    "date_modified": "2025-04-10T13:47:34.000",
    "request_status": "Pending",
    "responsible_agency": "Department of Code Enforcement",
    "final_address": "5134 Piety Dr",
    "address_councildis": "D",
    "status": "Pending",
    "rowid": "1182956",
    "final_x": "3691098.86096",
    "final_y": "552864.669783",
    "longitude": "-90.03699817934523",
    "latitude": "30.013890930674425",
    "geocoded_column": {
      "latitude": "30.013890930674425",
      "longitude": "-90.03699817934523"
    }
  },
  {
    "service_request": "2025-1182955",
    "request_type": "Drainage",
    "request_reason": "Catch Basin Clogged",
    "date_created": "2025-04-10T13:45:17.000",
    "date_modified": "2025-04-10T13:45:19.000",
    "request_status": "Pending",
    "responsible_agency": "Sewerage & Water Board ",
    "final_address": "514 City Park Ave",
    "address_councildis": "A",
    "status": "Pending",
    "rowid": "1182955",
    "final_x": "3669697.3273",
    "final_y": "541424.52334",
    "longitude": "-90.10500375287299",
    "latitude": "29.98308288568216",
    "geocoded_column": {
      "latitude": "29.98308288568216",
      "longitude": "-90.10500375287299"
    }
  },
  {
    "service_request": "2025-1182954",
    "request_type": "Trash/Recycling",
    "request_reason": "Request a Large Item Pick Up",
    "date_created": "2025-04-10T13:43:46.000",
    "date_modified": "2025-04-10T13:43:48.000",
    "request_status": "Pending",
    "responsible_agency": "Department of Sanitation",
    "final_address": "1731 N Dupre St",
    "address_councildis": "D",
    "status": "Assigned to Contractor",
    "contractor": "IV Waste",
    "rowid": "1182954",
    "final_x": "3679078.85967",
    "final_y": "541397.476684",
    "longitude": "-90.0753729969871",
    "latitude": "29.982728651188168",
    "geocoded_column": {
      "latitude": "29.982728651188168",
      "longitude": "-90.0753729969871"
    }
  },
  {
    "service_request": "2025-1182953",
    "request_type": "Abandoned Vehicles",
    "request_reason": "Abandoned/Junk Vehicles",
    "date_created": "2025-04-10T13:43:29.000",
    "date_modified": "2025-04-10T13:46:23.000",
    "request_status": "Pending",
    "responsible_agency": "Department of Public Works",
    "final_address": "1669 Pace Blvd",
    "address_councildis": "C",
    "status": "Inspected",
    "rowid": "1182953",
    "final_x": "3694273.72541",
    "final_y": "524850.760124",
    "longitude": "-90.02797558949119",
    "latitude": "29.936763560339813",
    "geocoded_column": {
      "latitude": "29.936763560339813",
      "longitude": "-90.02797558949119"
    }
  },
  {
    "service_request": "2025-1182952",
    "request_type": "Trash/Recycling",
    "request_reason": "Order Trash Cart",
    "date_created": "2025-04-10T13:43:22.000",
    "date_modified": "2025-04-10T13:43:24.000",
    "request_status": "Pending",
    "responsible_agency": "Department of Sanitation",
    "final_address": "4518 Palmyra St",
    "address_councildis": "A",
    "status": "Assigned to Contractor",
    "contractor": "IV Waste",
    "rowid": "1182952",
    "final_x": "3669063.29441",
    "final_y": "538839.819977",
    "longitude": "-90.10709372662227",
    "latitude": "29.975994499358666",
    "geocoded_column": {
      "latitude": "29.975994499358666",
      "longitude": "-90.10709372662227"
    }
  },
  {
    "service_request": "2025-1182951",
    "request_type": "Trash/Recycling",
    "request_reason": "Request a Large Item Pick Up",
    "date_created": "2025-04-10T13:41:30.000",
    "date_modified": "2025-04-10T13:45:49.000",
    "case_close_date": "2025-04-10T08:45:48.000",
    "request_status": "Closed",
    "responsible_agency": "Department of Sanitation",
    "final_address": "3401 Belfort St Apt A",
    "address_councildis": "A",
    "status": "Resolved",
    "rowid": "1182951",
    "final_x": "3676878.31016",
    "final_y": "542598.057037",
    "longitude": "-90.08228203927554",
    "latitude": "29.986096075512616",
    "geocoded_column": {
      "latitude": "29.986096075512616",
      "longitude": "-90.08228203927554"
    }
  },
  {
    "service_request": "2025-1182950",
    "request_type": "Trash/Recycling",
    "request_reason": "Request a Large Item Pick Up",
    "date_created": "2025-04-10T13:40:02.000",
    "date_modified": "2025-04-10T14:12:37.000",
    "request_status": "Pending",
    "responsible_agency": "Department of Sanitation",
    "final_address": "1724 S Carrollton Ave",
    "address_councildis": "A",
    "status": "Assigned to Contractor",
    "contractor": "IV Waste",
    "rowid": "1182950",
    "final_x": "3663253.17645",
    "final_y": "529812.529217",
    "longitude": "-90.12574431624303",
    "latitude": "29.95134209384637",
    "geocoded_column": {
      "latitude": "29.95134209384637",
      "longitude": "-90.12574431624303"
    }
  },
  {
    "service_request": "2025-1182949",
    "request_type": "Trash/Recycling",
    "request_reason": "Request a Large Item Pick Up",
    "date_created": "2025-04-10T13:34:16.000",
    "date_modified": "2025-04-10T13:34:18.000",
    "request_status": "Pending",
    "responsible_agency": "Department of Sanitation",
    "final_address": "5451 Patio Way",
    "address_councildis": "E",
    "status": "Assigned to Contractor",
    "contractor": "Waste Pro",
    "rowid": "1182949",
    "final_x": "3725545.41196",
    "final_y": "564105.002081",
    "longitude": "-89.92773065183195",
    "latitude": "30.043680724178113",
    "geocoded_column": {
      "latitude": "30.043680724178113",
      "longitude": "-89.92773065183195"
    }
  },
  {
    "service_request": "2025-1182948",
    "request_type": "Trash/Recycling",
    "request_reason": "Repair Trash Cart",
    "date_created": "2025-04-10T13:33:18.000",
    "date_modified": "2025-04-10T13:33:21.000",
    "request_status": "Pending",
    "responsible_agency": "Department of Sanitation",
    "final_address": "154 Audubon Blvd",
    "address_councildis": "A",
    "status": "Assigned to Contractor",
    "contractor": "IV Waste",
    "rowid": "1182948",
    "final_x": "3666001.94452",
    "final_y": "528194.56672",
    "longitude": "-90.11711924857853",
    "latitude": "29.946813279731007",
    "geocoded_column": {
      "latitude": "29.946813279731007",
      "longitude": "-90.11711924857853"
    }
  },
  {
    "service_request": "2025-1182947",
    "request_type": "Roads and Streets",
    "request_reason": "Pothole",
    "date_created": "2025-04-10T13:31:22.000",
    "date_modified": "2025-04-10T13:31:24.000",
    "request_status": "Pending",
    "responsible_agency": "Department of Public Works",
    "final_address": "7901 Pompano St",
    "address_councildis": "E",
    "status": "Pending",
    "rowid": "1182947",
    "final_x": "3700298.91882",
    "final_y": "561491.217119",
    "longitude": "-90.00761555137743",
    "latitude": "30.037321221032563",
    "geocoded_column": {
      "latitude": "30.037321221032563",
      "longitude": "-90.00761555137743"
    }
  },
  {
    "service_request": "2025-1182946",
    "request_type": "Safety & Permits",
    "request_reason": "Licenses & Permits",
    "date_created": "2025-04-10T13:29:50.000",
    "date_modified": "2025-04-10T13:29:53.000",
    "request_status": "Pending",
    "responsible_agency": "Safety and Permits",
    "final_address": "1941 Allen St",
    "address_councildis": "D",
    "status": "Pending",
    "rowid": "1182946",
    "final_x": "3682556.07311",
    "final_y": "539403.862986",
    "longitude": "-90.06445995253864",
    "latitude": "29.97714148543269",
    "geocoded_column": {
      "latitude": "29.97714148543269",
      "longitude": "-90.06445995253864"
    }
  },
  {
    "service_request": "2025-1182945",
    "request_type": "Trash/Recycling",
    "request_reason": "Request a Large Item Pick Up",
    "date_created": "2025-04-10T13:29:27.000",
    "date_modified": "2025-04-10T13:29:30.000",
    "request_status": "Pending",
    "responsible_agency": "Department of Sanitation",
    "final_address": "7901 Pompano St",
    "address_councildis": "E",
    "status": "Assigned to Contractor",
    "contractor": "Waste Pro",
    "rowid": "1182945",
    "final_x": "3700298.91882",
    "final_y": "561491.217119",
    "longitude": "-90.00761555137743",
    "latitude": "30.037321221032563",
    "geocoded_column": {
      "latitude": "30.037321221032563",
      "longitude": "-90.00761555137743"
    }
  },
  {
    "service_request": "2025-1182944",
    "request_type": "Trash/Recycling",
    "request_reason": "Request a Large Item Pick Up",
    "date_created": "2025-04-10T13:29:09.000",
    "date_modified": "2025-04-10T13:29:12.000",
    "request_status": "Pending",
    "responsible_agency": "Department of Sanitation",
    "final_address": "2646 Gallinghouse St",
    "address_councildis": "C",
    "status": "Assigned to Contractor",
    "contractor": "Richards Disposal",
    "rowid": "1182944",
    "final_x": "3700141.84855",
    "final_y": "521329.711993",
    "longitude": "-90.00957818807589",
    "latitude": "29.926896776047872",
    "geocoded_column": {
      "latitude": "29.926896776047872",
      "longitude": "-90.00957818807589"
    }
  },
  {
    "service_request": "2025-1182943",
    "request_type": "Parks & Parkways",
    "request_reason": "Request Tree Service (Right of Way/Public Property)",
    "date_created": "2025-04-10T13:28:55.000",
    "date_modified": "2025-04-10T13:28:57.000",
    "request_status": "Pending",
    "responsible_agency": "Department of Parks & Parkway",
    "final_address": "3441 Magazine St",
    "address_councildis": "B",
    "status": "Pending",
    "rowid": "1182943",
    "final_x": "3674681.17313",
    "final_y": "519530.658807",
    "longitude": "-90.09001253906844",
    "latitude": "29.922734193441546",
    "geocoded_column": {
      "latitude": "29.922734193441546",
      "longitude": "-90.09001253906844"
    }
  },
  {
    "service_request": "2025-1182942",
    "request_type": "Roads and Streets",
    "request_reason": "Pothole",
    "date_created": "2025-04-10T13:25:34.000",
    "date_modified": "2025-04-10T13:51:28.000",
    "request_status": "Pending",
    "responsible_agency": "Department of Public Works",
    "final_address": "4311 Werner Dr",
    "address_councildis": "E",
    "status": "Pending",
    "rowid": "1182942",
    "final_x": "3705058.91876",
    "final_y": "553039.397143",
    "longitude": "-89.9928854322284",
    "latitude": "30.01392971087774",
    "geocoded_column": {
      "latitude": "30.01392971087774",
      "longitude": "-89.9928854322284"
    }
  },
  {
    "service_request": "2025-1182941",
    "request_type": "Trash/Recycling",
    "request_reason": "Request a Large Item Pick Up",
    "date_created": "2025-04-10T13:24:42.000",
    "date_modified": "2025-04-10T13:24:44.000",
    "request_status": "Pending",
    "responsible_agency": "Department of Sanitation",
    "final_address": "812 Foucher St",
    "address_councildis": "B",
    "status": "Assigned to Contractor",
    "contractor": "IV Waste",
    "rowid": "1182941",
    "final_x": "3674440.4763",
    "final_y": "518368.772598",
    "longitude": "-90.09081209537266",
    "latitude": "29.919546558059444",
    "geocoded_column": {
      "latitude": "29.919546558059444",
      "longitude": "-90.09081209537266"
    }
  },
  {
    "service_request": "2025-1182940",
    "request_type": "Roads and Streets",
    "request_reason": "Sidewalk Damaged or Missing",
    "date_created": "2025-04-10T13:21:58.000",
    "date_modified": "2025-04-10T13:23:02.000",
    "request_status": "Pending",
    "responsible_agency": "Department of Public Works",
    "final_address": "4801 Bienville Ave",
    "address_councildis": "A",
    "status": "Pending",
    "rowid": "1182940",
    "final_x": "3669301.71156",
    "final_y": "540770.138955",
    "longitude": "-90.1062754478953",
    "latitude": "29.981295206071636",
    "geocoded_column": {
      "latitude": "29.981295206071636",
      "longitude": "-90.1062754478953"
    }
  },
  {
    "service_request": "2025-1182939",
    "request_type": "Trash/Recycling",
    "request_reason": "Request a Large Item Pick Up",
    "date_created": "2025-04-10T13:20:16.000",
    "date_modified": "2025-04-10T17:49:33.000",
    "case_close_date": "2025-04-10T12:49:32.000",
    "request_status": "Closed",
    "responsible_agency": "Department of Sanitation",
    "final_address": "7733 Dogwood Dr",
    "address_councildis": "E",
    "status": "Duplicate Request",
    "contractor": "Waste Pro",
    "contractor_action": "Duplicate",
    "rowid": "1182939",
    "final_x": "3701189.50801",
    "final_y": "561475.559775",
    "longitude": "-90.00480167669622",
    "latitude": "30.037249807357217",
    "geocoded_column": {
      "latitude": "30.037249807357217",
      "longitude": "-90.00480167669622"
    }
  },
  {
    "service_request": "2025-1182938",
    "request_type": "Parks & Parkways",
    "request_reason": "Request Tree Service (Right of Way/Public Property)",
    "date_created": "2025-04-10T13:17:33.000",
    "date_modified": "2025-04-10T13:17:35.000",
    "request_status": "Pending",
    "responsible_agency": "Department of Parks & Parkway",
    "final_address": "7040 Pinebrook Dr",
    "address_councildis": "E",
    "status": "Pending",
    "rowid": "1182938",
    "final_x": "3719515.24729",
    "final_y": "569711.089126",
    "longitude": "-89.94657390819788",
    "latitude": "30.05929716283975",
    "geocoded_column": {
      "latitude": "30.05929716283975",
      "longitude": "-89.94657390819788"
    }
  },
  {
    "service_request": "2025-1182937",
    "request_type": "Trash/Recycling",
    "request_reason": "Request a Large Item Pick Up",
    "date_created": "2025-04-10T13:15:01.000",
    "date_modified": "2025-04-10T13:15:03.000",
    "request_status": "Pending",
    "responsible_agency": "Department of Sanitation",
    "final_address": "1339 Lamanche St",
    "address_councildis": "E",
    "status": "Assigned to Contractor",
    "contractor": "Waste Pro",
    "rowid": "1182937",
    "final_x": "3698697.82416",
    "final_y": "534730.019014",
    "longitude": "-90.01364937367012",
    "latitude": "29.96378872245283",
    "geocoded_column": {
      "latitude": "29.96378872245283",
      "longitude": "-90.01364937367012"
    }
  },
  {
    "service_request": "2025-1182936",
    "request_type": "Trash/Recycling",
    "request_reason": "Request a Large Item Pick Up",
    "date_created": "2025-04-10T13:12:06.000",
    "date_modified": "2025-04-10T13:12:09.000",
    "request_status": "Pending",
    "responsible_agency": "Department of Sanitation",
    "final_address": "1824 Oretha Castle Haley Blvd",
    "address_councildis": "B",
    "status": "Assigned to Contractor",
    "contractor": "IV Waste",
    "rowid": "1182936",
    "final_x": "3677489.3364",
    "final_y": "525257.591229",
    "longitude": "-90.0809506907614",
    "latitude": "29.938397305061265",
    "geocoded_column": {
      "latitude": "29.938397305061265",
      "longitude": "-90.0809506907614"
    }
  },
  {
    "service_request": "2025-1182935",
    "request_type": "Trash/Recycling",
    "request_reason": "Replace Trash Cart",
    "date_created": "2025-04-10T13:11:29.000",
    "date_modified": "2025-04-10T13:11:31.000",
    "request_status": "Pending",
    "responsible_agency": "Department of Sanitation",
    "final_address": "4710 St Peter St",
    "address_councildis": "A",
    "status": "Assigned to Contractor",
    "contractor": "IV Waste",
    "rowid": "1182935",
    "final_x": "3670289.19335",
    "final_y": "541568.835276",
    "longitude": "-90.10312943754029",
    "latitude": "29.983462235192825",
    "geocoded_column": {
      "latitude": "29.983462235192825",
      "longitude": "-90.10312943754029"
    }
  },
  {
    "service_request": "2025-1182934",
    "request_type": "Trash/Recycling",
    "request_reason": "Repair Trash Cart",
    "date_created": "2025-04-10T13:09:37.000",
    "date_modified": "2025-04-10T13:09:40.000",
    "request_status": "Pending",
    "responsible_agency": "Department of Sanitation",
    "final_address": "4749 Camelot Dr",
    "address_councildis": "E",
    "status": "Assigned to Contractor",
    "contractor": "Waste Pro",
    "rowid": "1182934",
    "final_x": "3708436.32139",
    "final_y": "555699.201561",
    "longitude": "-89.98211556236512",
    "latitude": "30.021134070866633",
    "geocoded_column": {
      "latitude": "30.021134070866633",
      "longitude": "-89.98211556236512"
    }
  },
  {
    "service_request": "2025-1182933",
    "request_type": "Trash/Recycling",
    "request_reason": "Request a Large Item Pick Up",
    "date_created": "2025-04-10T13:07:33.000",
    "date_modified": "2025-04-10T13:07:37.000",
    "request_status": "Pending",
    "responsible_agency": "Department of Sanitation",
    "final_address": "8927 Jeannette St",
    "address_councildis": "A",
    "status": "Assigned to Contractor",
    "contractor": "IV Waste",
    "rowid": "1182933",
    "final_x": "3660446.35258",
    "final_y": "531238.219458",
    "longitude": "-90.13455983956602",
    "latitude": "29.955343323176024",
    "geocoded_column": {
      "latitude": "29.955343323176024",
      "longitude": "-90.13455983956602"
    }
  },
  {
    "service_request": "2025-1182932",
    "request_type": "Trash/Recycling",
    "request_reason": "Request a Large Item Pick Up",
    "date_created": "2025-04-10T13:05:08.000",
    "date_modified": "2025-04-10T13:05:10.000",
    "request_status": "Pending",
    "responsible_agency": "Department of Sanitation",
    "final_address": "823 N Alexander St",
    "address_councildis": "A",
    "status": "Assigned to Contractor",
    "contractor": "IV Waste",
    "rowid": "1182932",
    "final_x": "3671655.04571",
    "final_y": "541419.81326",
    "longitude": "-90.09882042003532",
    "latitude": "29.983012083575773",
    "geocoded_column": {
      "latitude": "29.983012083575773",
      "longitude": "-90.09882042003532"
    }
  },
  {
    "service_request": "2025-1182931",
    "request_type": "Parks & Parkways",
    "request_reason": "Tree Stump (removal, grind)",
    "date_created": "2025-04-10T13:04:58.000",
    "date_modified": "2025-04-10T13:05:01.000",
    "request_status": "Pending",
    "responsible_agency": "Department of Parks & Parkway",
    "final_address": "717 Milan St",
    "address_councildis": "B",
    "status": "Pending",
    "rowid": "1182931",
    "final_x": "3671898.02574",
    "final_y": "518280.426166",
    "longitude": "-90.09884036978566",
    "latitude": "29.91937919645249",
    "geocoded_column": {
      "latitude": "29.91937919645249",
      "longitude": "-90.09884036978566"
    }
  },
  {
    "service_request": "2025-1182930",
    "request_type": "Property Maintenance",
    "request_reason": "Property Maintenance",
    "date_created": "2025-04-10T13:01:35.000",
    "date_modified": "2025-04-10T13:01:38.000",
    "request_status": "Pending",
    "responsible_agency": "Department of Code Enforcement",
    "final_address": "4237 Marais St",
    "address_councildis": "D",
    "status": "Pending",
    "rowid": "1182930",
    "final_x": "3692754.57622",
    "final_y": "535472.437702",
    "longitude": "-90.03239087358027",
    "latitude": "29.96601698615879",
    "geocoded_column": {
      "latitude": "29.96601698615879",
      "longitude": "-90.03239087358027"
    }
  },
  {
    "service_request": "2025-1182929",
    "request_type": "Abandoned Vehicles",
    "request_reason": "Abandoned/Junk Vehicles",
    "date_created": "2025-04-10T13:00:37.000",
    "date_modified": "2025-04-10T13:00:39.000",
    "request_status": "Pending",
    "responsible_agency": "Department of Public Works",
    "final_address": "4300 BLK Perlita St",
    "address_councildis": "D",
    "status": "Pending",
    "rowid": "1182929",
    "final_x": "3678819.77881",
    "final_y": "548279.815301",
    "longitude": "-90.07595276522083",
    "latitude": "30.00166048165346",
    "geocoded_column": {
      "latitude": "30.00166048165346",
      "longitude": "-90.07595276522083"
    }
  },
  {
    "service_request": "2025-1182928",
    "request_type": "Trash/Recycling",
    "request_reason": "Request a Large Item Pick Up",
    "date_created": "2025-04-10T12:59:56.000",
    "date_modified": "2025-04-10T12:59:59.000",
    "request_status": "Pending",
    "responsible_agency": "Department of Sanitation",
    "final_address": "4524 Rosemont Pl",
    "address_councildis": "E",
    "status": "Assigned to Contractor",
    "contractor": "Waste Pro",
    "rowid": "1182928",
    "final_x": "3702746.81994",
    "final_y": "553713.533783",
    "longitude": "-90.00016565014923",
    "latitude": "30.015857498261596",
    "geocoded_column": {
      "latitude": "30.015857498261596",
      "longitude": "-90.00016565014923"
    }
  },
  {
    "service_request": "2025-1182927",
    "request_type": "Parks & Parkways",
    "request_reason": "Request Tree Service (Right of Way/Public Property)",
    "date_created": "2025-04-10T12:59:10.000",
    "date_modified": "2025-04-10T12:59:12.000",
    "request_status": "Pending",
    "responsible_agency": "Department of Parks & Parkway",
    "final_address": "4801 Bienville Ave",
    "address_councildis": "A",
    "status": "Pending",
    "rowid": "1182927",
    "final_x": "3669301.71156",
    "final_y": "540770.138955",
    "longitude": "-90.1062754478953",
    "latitude": "29.981295206071636",
    "geocoded_column": {
      "latitude": "29.981295206071636",
      "longitude": "-90.1062754478953"
    }
  },
  {
    "service_request": "2025-1182926",
    "request_type": "Abandoned Vehicles",
    "request_reason": "Abandoned/Junk Vehicles",
    "date_created": "2025-04-10T12:55:42.000",
    "date_modified": "2025-04-10T12:57:41.000",
    "request_status": "Pending",
    "responsible_agency": "Department of Public Works",
    "final_address": "2950 Falmouth Dr",
    "address_councildis": "C",
    "status": "Pending",
    "rowid": "1182926",
    "final_x": "3706706.07467",
    "final_y": "519687.391608",
    "longitude": "-89.98891767014378",
    "latitude": "29.9221708169779",
    "geocoded_column": {
      "latitude": "29.9221708169779",
      "longitude": "-89.98891767014378"
    }
  },
  {
    "service_request": "2025-1182925",
    "request_type": "Abandoned Vehicles",
    "request_reason": "Abandoned/Junk Vehicles",
    "date_created": "2025-04-10T12:53:54.000",
    "date_modified": "2025-04-10T12:55:09.000",
    "request_status": "Pending",
    "responsible_agency": "Department of Public Works",
    "final_address": "GENERAL DE GAULLE DR & FLORENCE AVE",
    "address_councildis": "C",
    "status": "Inspected",
    "rowid": "1182925",
    "final_x": "3692967.4",
    "final_y": "522052.48",
    "longitude": "-90.03220001897874",
    "latitude": "29.929110097957626",
    "geocoded_column": {
      "latitude": "29.929110097957626",
      "longitude": "-90.03220001897874"
    }
  },
  {
    "service_request": "2025-1182924",
    "request_type": "Abandoned Vehicles",
    "request_reason": "Abandoned/Junk Vehicles",
    "date_created": "2025-04-10T12:53:28.000",
    "date_modified": "2025-04-10T12:54:44.000",
    "request_status": "Pending",
    "responsible_agency": "Department of Public Works",
    "final_address": "6070 Oxford Pl",
    "address_councildis": "C",
    "status": "Pending",
    "rowid": "1182924",
    "final_x": "3706532.31268",
    "final_y": "519855.278008",
    "longitude": "-89.98945994473256",
    "latitude": "29.922638050821504",
    "geocoded_column": {
      "latitude": "29.922638050821504",
      "longitude": "-89.98945994473256"
    }
  },
  {
    "service_request": "2025-1182923",
    "request_type": "Property Maintenance",
    "request_reason": "Property Maintenance",
    "date_created": "2025-04-10T12:52:56.000",
    "date_modified": "2025-04-10T12:52:58.000",
    "request_status": "Pending",
    "responsible_agency": "Department of Code Enforcement",
    "final_address": "511 Westchester St",
    "address_councildis": "C",
    "status": "Pending",
    "rowid": "1182923",
    "final_x": "3706121.81975",
    "final_y": "519617.72108",
    "longitude": "-89.99076448220573",
    "latitude": "29.921998083497687",
    "geocoded_column": {
      "latitude": "29.921998083497687",
      "longitude": "-89.99076448220573"
    }
  },
  {
    "service_request": "2025-1182922",
    "request_type": "Trash/Recycling",
    "request_reason": "Request a Large Item Pick Up",
    "date_created": "2025-04-10T12:50:42.000",
    "date_modified": "2025-04-10T12:50:44.000",
    "request_status": "Pending",
    "responsible_agency": "Department of Sanitation",
    "final_address": "4221 Mendez St",
    "address_councildis": "D",
    "status": "Assigned to Contractor",
    "contractor": "IV Waste",
    "rowid": "1182922",
    "final_x": "3689635.62691",
    "final_y": "553957.98044",
    "longitude": "-90.0415822942765",
    "latitude": "30.01694256669058",
    "geocoded_column": {
      "latitude": "30.01694256669058",
      "longitude": "-90.0415822942765"
    }
  },