[
  {
    "service_request": "2022-914161",
    "request_type": "Property Maintenance",
    "request_reason": "Property Maintenance",
    "date_created": "2022-08-29T01:11:02.000",
    "date_modified": "2022-08-29T01:11:02.000",
    "request_status": "Pending",
    "responsible_agency": "Department of Code Enforcement",
    "final_address": "9800 Lake Forest Blvd",
    "address_councildis": "E",
    "status": "Pending",
    "rowid": "914161",
    "final_x": "3709283.69912",
    "final_y": "558662.502684",
    "longitude": "-89.97932747113909",
    "latitude": "30.029254484440223",
    "geocoded_column": {
      "latitude": "30.029254484440223",
      "longitude": "-89.97932747113909"
    }
  },
  {
    "service_request": "2022-914160",
    "request_type": "Property Maintenance",
    "request_reason": "Property Maintenance",
    "date_created": "2022-08-29T00:59:55.000",
    "date_modified": "2022-08-29T00:59:55.000",
    "request_status": "Pending",
    "responsible_agency": "Department of Code Enforcement",
    "final_address": "9951 Lake Forest Blvd",
    "address_councildis": "E",
    "status": "Pending",
    "rowid": "914160",
    "final_x": "3710888.08561",
    "final_y": "559885.788637",
    "longitude": "-89.9742118493147",
    "latitude": "30.032565810015807",
    "geocoded_column": {
      "latitude": "30.032565810015807",
      "longitude": "-89.9742118493147"
    }
  },
  {
    "service_request": "2022-914159",
    "request_type": "Abandoned Vehicles",
    "request_reason": "Abandoned/Junk Vehicles",
    "date_created": "2022-08-28T23:03:38.000",
    "date_modified": "2022-08-28T23:03:38.000",
    "request_status": "Pending",
    "responsible_agency": "Department of Public Works",
    "final_address": "2611 Lapeyrouse St",
    "address_councildis": "D",
    "status": "Pending",
    "rowid": "914159",
    "final_x": "3679013.6715",
    "final_y": "540257.884427",
    "longitude": "-90.07561840228577",
    "latitude": "29.97959713573465",
    "geocoded_column": {
      "latitude": "29.97959713573465",
      "longitude": "-90.07561840228577"
    }
  },
  {
    "service_request": "2022-914158",
    "request_type": "Abandoned Vehicles",
    "request_reason": "Abandoned/Junk Vehicles",
    "date_created": "2022-08-28T23:01:35.000",
    "date_modified": "2022-08-28T23:01:35.000",
    "request_status": "Pending",
    "responsible_agency": "Department of Public Works",
    "final_address": "2611 Lapeyrouse St",
    "address_councildis": "D",
    "status": "Pending",
    "rowid": "914158",
    "final_x": "3679013.6715",
    "final_y": "540257.884427",
    "longitude": "-90.07561840228577",
    "latitude": "29.97959713573465",
    "geocoded_column": {
      "latitude": "29.97959713573465",
      "longitude": "-90.07561840228577"
    }
  },
  {
    "service_request": "2022-914157",
    "request_type": "Traffic Signals/Signs/Striping/Streetlights",
    "request_reason": "Street Light Outage/Malfunction",
    "date_created": "2022-08-28T22:59:15.000",
    "date_modified": "2022-08-28T22:59:16.000",
    "request_status": "Pending",
    "responsible_agency": "Department of Public Works",
    "final_address": "2825 Ursulines Ave",
    "address_councildis": "A",
    "status": "Pending",
    "contractor": "Legacy Professional Services",
    "rowid": "914157",
    "final_x": "3677000.63419",
    "final_y": "538720.932937",
    "longitude": "-90.0820294000459",
    "latitude": "29.975431650089046",
    "geocoded_column": {
      "latitude": "29.975431650089046",
      "longitude": "-90.0820294000459"
    }
  },
  {
    "service_request": "2022-914155",
    "request_type": "Property Maintenance",
    "request_reason": "Property Maintenance",
    "date_created": "2022-08-28T22:42:39.000",
    "date_modified": "2022-08-28T22:42:39.000",
    "request_status": "Pending",
    "responsible_agency": "Department of Code Enforcement",
    "final_address": "4219 Clio St",
    "address_councildis": "B",
    "status": "Pending",
    "rowid": "914155",
    "final_x": "3671468.16065",
    "final_y": "531591.879683",
    "longitude": "-90.09974488806519",
    "latitude": "29.955994106084443",
    "geocoded_column": {
      "latitude": "29.955994106084443",
      "longitude": "-90.09974488806519"
    }
  },
  {
    "service_request": "2022-914154",
    "request_type": "Trash/Recycling",
    "request_reason": "Repair Trash Cart",
    "date_created": "2022-08-28T22:20:00.000",
    "date_modified": "2022-08-28T22:20:01.000",
    "request_status": "Pending",
    "responsible_agency": "Department of Sanitation",
    "final_address": "1220 N Tonti St",
    "address_councildis": "D",
    "status": "Assigned to Contractor",
    "contractor": "Richards Disposal",
    "rowid": "914154",
    "final_x": "3679063.74888",
    "final_y": "537677.927304",
    "longitude": "-90.075549683925",
    "latitude": "29.97250163251202",
    "geocoded_column": {
      "latitude": "29.97250163251202",
      "longitude": "-90.075549683925"
    }
  },
  {
    "service_request": "2022-914153",
    "request_type": "Traffic Signals/Signs/Striping/Streetlights",
    "request_reason": "Street Light Outage/Malfunction",
    "date_created": "2022-08-28T22:17:23.000",
    "date_modified": "2022-08-28T22:17:24.000",
    "request_status": "Pending",
    "responsible_agency": "Department of Public Works",
    "final_address": "9700 W Wheaton Cir",
    "address_councildis": "E",
    "status": "Pending",
    "contractor": "Legacy Professional Services",
    "rowid": "914153",
    "final_x": "3708628.29604",
    "final_y": "562086.994271",
    "longitude": "-89.98127082130563",
    "latitude": "30.038691761469998",
    "geocoded_column": {
      "latitude": "30.038691761469998",
      "longitude": "-89.98127082130563"
    }
  },
  {
    "service_request": "2022-914152",
    "request_type": "Trash/Recycling",
    "request_reason": "MIssed Recycling Pick-Up",
    "date_created": "2022-08-28T22:05:15.000",
    "date_modified": "2022-08-28T22:05:16.000",
    "request_status": "Pending",
    "responsible_agency": "Department of Sanitation",
    "final_address": "8534 Apricot St",
    "address_councildis": "A",
    "status": "Assigned to Contractor",
    "contractor": "Richards Disposal",
    "rowid": "914152",
    "final_x": "3664541.88282",
    "final_y": "533743.219781",
    "longitude": "-90.12154394193134",
    "latitude": "29.96211280517692",
    "geocoded_column": {
      "latitude": "29.96211280517692",
      "longitude": "-90.12154394193134"
    }
  },
  {
    "service_request": "2022-914151",
    "request_type": "Property Maintenance",
    "request_reason": "Property Maintenance",
    "date_created": "2022-08-28T21:57:16.000",
    "date_modified": "2022-08-28T21:57:16.000",
    "request_status": "Pending",
    "responsible_agency": "Department of Code Enforcement",
    "final_address": "6700 Plaza Dr",
    "address_councildis": "E",
    "status": "Pending",
    "rowid": "914151",
    "final_x": "3708600.87569",
    "final_y": "559744.969757",
    "longitude": "-89.98144479994687",
    "latitude": "30.032253010900185",
    "geocoded_column": {
      "latitude": "30.032253010900185",
      "longitude": "-89.98144479994687"
    }
  },
  {
    "service_request": "2022-914150",
    "request_type": "Property Maintenance",
    "request_reason": "Property Maintenance",
    "date_created": "2022-08-28T21:56:21.000",
    "date_modified": "2022-08-28T21:56:21.000",
    "request_status": "Pending",
    "responsible_agency": "Department of Code Enforcement",
    "final_address": "13000 Chateau Ct",
    "address_councildis": "E",
    "status": "Pending",
    "rowid": "914150",
    "final_x": "3724454.28102",
    "final_y": "562233.852575",
    "longitude": "-89.93125140834094",
    "latitude": "30.03857259384478",
    "geocoded_column": {
      "latitude": "30.03857259384478",
      "longitude": "-89.93125140834094"
    }
  },
  {
    "service_request": "2022-914149",
    "request_type": "Trash/Recycling",
    "request_reason": "Dead Animal Pick Up",
    "date_created": "2022-08-28T21:04:24.000",
    "date_modified": "2022-08-28T21:04:24.000",
    "request_status": "Pending",
    "responsible_agency": "Department of Sanitation",
    "final_address": "9408 Hayne Blvd",
    "address_councildis": "E",
    "status": "Assigned to Contractor",
    "contractor": "Metro Disposal",
    "rowid": "914149",
    "final_x": "3705747.31185",
    "final_y": "564735.170978",
    "longitude": "-89.99027735292523",
    "latitude": "30.046066355647287",
    "geocoded_column": {
      "latitude": "30.046066355647287",
      "longitude": "-89.99027735292523"
    }
  },
  {
    "service_request": "2022-914148",
    "request_type": "Property Maintenance",
    "request_reason": "Property Maintenance",
    "date_created": "2022-08-28T20:58:08.000",
    "date_modified": "2022-08-28T20:58:08.000",
    "request_status": "Pending",
    "responsible_agency": "Department of Code Enforcement",
    "final_address": "6700 Plaza Dr",
    "address_councildis": "E",
    "status": "Pending",
    "rowid": "914148",
    "final_x": "3708600.87569",
    "final_y": "559744.969757",
    "longitude": "-89.98144479994687",
    "latitude": "30.032253010900185",
    "geocoded_column": {
      "latitude": "30.032253010900185",
      "longitude": "-89.98144479994687"
    }
  },
  {
    "service_request": "2022-914147",
    "request_type": "Trash/Recycling",
    "request_reason": "Order Recycling Cart",
    "date_created": "2022-08-28T20:50:57.000",
    "date_modified": "2022-08-28T20:50:57.000",
    "request_status": "Pending",
    "responsible_agency": "Department of Sanitation",
    "final_address": "4216 Freret St",
    "address_councildis": "B",
    "status": "Pending",
    "rowid": "914147",
    "final_x": "3671132.97979",
    "final_y": "524070.014908",
    "longitude": "-90.10105870762288",
    "latitude": "29.935321354033793",
    "geocoded_column": {
      "latitude": "29.935321354033793",
      "longitude": "-90.10105870762288"
    }
  },
  {
    "service_request": "2022-914146",
    "request_type": "Trash/Recycling",
    "request_reason": "Request a Large Item Pick Up",
    "date_created": "2022-08-28T20:50:18.000",
    "date_modified": "2022-08-28T20:50:18.000",
    "request_status": "Pending",
    "responsible_agency": "Department of Sanitation",
    "final_address": "7929 Freret St",
    "address_councildis": "A",
    "status": "Assigned to Contractor",
    "contractor": "Richards Disposal",
    "rowid": "914146",
    "final_x": "3661926.85114",
    "final_y": "527522.518655",
    "longitude": "-90.13000815603785",
    "latitude": "29.9450836666227",
    "geocoded_column": {
      "latitude": "29.9450836666227",
      "longitude": "-90.13000815603785"
    }
  },
  {
    "service_request": "2022-914145",
    "request_type": "Trash/Recycling",
    "request_reason": "Request a Large Item Pick Up",
    "date_created": "2022-08-28T20:49:57.000",
    "date_modified": "2022-08-28T20:49:58.000",
    "request_status": "Pending",
    "responsible_agency": "Department of Sanitation",
    "final_address": "44 Vivian Ct",
    "address_councildis": "C",
    "status": "Assigned to Contractor",
    "contractor": "Richards Disposal",
    "rowid": "914145",
    "final_x": "3702013.69809",
    "final_y": "521036.514553",
    "longitude": "-90.0036800367231",
    "latitude": "29.926030990470117",
    "geocoded_column": {
      "latitude": "29.926030990470117",
      "longitude": "-90.0036800367231"
    }
  },
  {
    "service_request": "2022-914144",
    "request_type": "Property Maintenance",
    "request_reason": "Property Maintenance",
    "date_created": "2022-08-28T20:40:35.000",
    "date_modified": "2022-08-28T20:40:35.000",
    "request_status": "Pending",
    "responsible_agency": "Department of Code Enforcement",
    "final_address": "5500 Bundy Rd",
    "address_councildis": "E",
    "status": "Pending",
    "rowid": "914144",
    "final_x": "3708330.29387",
    "final_y": "558143.568347",
    "longitude": "-89.98235951458518",
    "latitude": "30.027858561830183",
    "geocoded_column": {
      "latitude": "30.027858561830183",
      "longitude": "-89.98235951458518"
    }
  },
  {
    "service_request": "2022-914143",
    "request_type": "Property Maintenance",
    "request_reason": "Property Maintenance",
    "date_created": "2022-08-28T19:58:59.000",
    "date_modified": "2022-08-28T19:58:59.000",
    "request_status": "Pending",
    "responsible_agency": "Department of Code Enforcement",
    "final_address": "10880 Morrison Rd",
    "address_councildis": "E",
    "status": "Pending",
    "rowid": "914143",
    "final_x": "3710874.24664",
    "final_y": "564678.834402",
    "longitude": "-89.97407590688428",
    "latitude": "30.045745221820557",
    "geocoded_column": {
      "latitude": "30.045745221820557",
      "longitude": "-89.97407590688428"
    }
  },
  {
    "service_request": "2022-914142",
    "request_type": "Trash/Recycling",
    "request_reason": "Replace Trash Cart",
    "date_created": "2022-08-28T19:47:22.000",
    "date_modified": "2022-08-28T19:47:23.000",
    "request_status": "Pending",
    "responsible_agency": "Department of Sanitation",
    "final_address": "9408 Palm St",
    "address_councildis": "A",
    "status": "Assigned to Contractor",
    "contractor": "Richards Disposal",
    "rowid": "914142",
    "final_x": "3664198.11546",
    "final_y": "537835.589001",
    "longitude": "-90.12249295035443",
    "latitude": "29.97337546338181",
    "geocoded_column": {
      "latitude": "29.97337546338181",
      "longitude": "-90.12249295035443"
    }
  },
  {
    "service_request": "2022-914141",
    "request_type": "Trash/Recycling",
    "request_reason": "MIssed Recycling Pick-Up",
    "date_created": "2022-08-28T19:44:55.000",
    "date_modified": "2022-08-28T19:44:55.000",
    "request_status": "Pending",
    "responsible_agency": "Department of Sanitation",
    "final_address": "9408 Palm St",
    "address_councildis": "A",
    "status": "Assigned to Contractor",
    "contractor": "Richards Disposal",
    "rowid": "914141",
    "final_x": "3664198.11546",
    "final_y": "537835.589001",
    "longitude": "-90.12249295035443",
    "latitude": "29.97337546338181",
    "geocoded_column": {
      "latitude": "29.97337546338181",
      "longitude": "-90.12249295035443"
    }
  },
  {
    "service_request": "2022-914138",
    "request_type": "Trash/Recycling",
    "request_reason": "Request a Large Item Pick Up",
    "date_created": "2022-08-28T19:27:51.000",
    "date_modified": "2022-08-28T19:27:52.000",
    "request_status": "Pending",
    "responsible_agency": "Department of Sanitation",
    "final_address": "4131 Prytania St",
    "address_councildis": "B",
    "status": "Assigned to Contractor",
    "contractor": "Richards Disposal",
    "rowid": "914138",
    "final_x": "3671738.79457",
    "final_y": "520453.897208",
    "longitude": "-90.09926909581954",
    "latitude": "29.92536026507658",
    "geocoded_column": {
      "latitude": "29.92536026507658",
      "longitude": "-90.09926909581954"
    }
  },
  {
    "service_request": "2022-914137",
    "request_type": "Roads/Drainage",
    "request_reason": "Street Flooding / Drainage",
    "date_created": "2022-08-28T19:26:18.000",
    "date_modified": "2022-08-28T19:26:18.000",
    "request_status": "Pending",
    "responsible_agency": "Department of Public Works",
    "final_address": "11020 Morrison Rd",
    "address_councildis": "E",
    "status": "Pending",
    "rowid": "914137",
    "final_x": "3711232.43154",
    "final_y": "564886.839778",
    "longitude": "-89.9729360706685",
    "latitude": "30.046305464831907",
    "geocoded_column": {
      "latitude": "30.046305464831907",
      "longitude": "-89.9729360706685"
    }
  },
  {
    "service_request": "2022-914136",
    "request_type": "Trash/Recycling",
    "request_reason": "Request a Large Item Pick Up",
    "date_created": "2022-08-28T19:18:34.000",
    "date_modified": "2022-08-28T19:18:35.000",
    "request_status": "Pending",
    "responsible_agency": "Department of Sanitation",
    "final_address": "224 N Pierce St",
    "address_councildis": "A",
    "status": "Assigned to Contractor",
    "contractor": "Richards Disposal",
    "rowid": "914136",
    "final_x": "3671875.37723",
    "final_y": "538530.443401",
    "longitude": "-90.09822287010316",
    "latitude": "29.975060770908723",
    "geocoded_column": {
      "latitude": "29.975060770908723",
      "longitude": "-90.09822287010316"
    }
  },
  {
    "service_request": "2022-914135",
    "request_type": "Trash/Recycling",
    "request_reason": "Illegal Dumping",
    "date_created": "2022-08-28T19:13:31.000",
    "date_modified": "2022-08-28T19:13:31.000",
    "request_status": "Pending",
    "responsible_agency": "Department of Sanitation",
    "final_address": "10251 N Interstate 10 Service Rd",
    "address_councildis": "E",
    "status": "Pending",
    "rowid": "914135",
    "final_x": "3711058.74072",
    "final_y": "562304.359711",
    "longitude": "-89.97358187428338",
    "latitude": "30.039210350266405",
    "geocoded_column": {
      "latitude": "30.039210350266405",
      "longitude": "-89.97358187428338"
    }
  },
  {
    "service_request": "2022-914134",
    "request_type": "Trash/Recycling",
    "request_reason": "Illegal Dumping",
    "date_created": "2022-08-28T19:07:56.000",
    "date_modified": "2022-08-28T19:07:56.000",
    "request_status": "Pending",
    "responsible_agency": "Department of Sanitation",
    "final_address": "7001 Read Ln",
    "address_councildis": "E",
    "status": "Pending",
    "rowid": "914134",
    "final_x": "3710212.57867",
    "final_y": "562064.346143",
    "longitude": "-89.97626494982514",
    "latitude": "30.03857799123166",
    "geocoded_column": {
      "latitude": "30.03857799123166",
      "longitude": "-89.97626494982514"
    }
  },
  {
    "service_request": "2022-914133",
    "request_type": "Trash/Recycling",
    "request_reason": "Order Recycling Cart",
    "date_created": "2022-08-28T19:01:11.000",
    "date_modified": "2022-08-28T19:01:11.000",
    "request_status": "Pending",
    "responsible_agency": "Department of Sanitation",
    "final_address": "2017 Marengo St",
    "address_councildis": "B",
    "status": "Pending",
    "rowid": "914133",
    "final_x": "3671862.49857",
    "final_y": "522593.834682",
    "longitude": "-90.0988058206253",
    "latitude": "29.93124074226045",
    "geocoded_column": {
      "latitude": "29.93124074226045",
      "longitude": "-90.0988058206253"
    }
  },
  {
    "service_request": "2022-914132",
    "request_type": "Trash/Recycling",
    "request_reason": "Order Recycling Cart",
    "date_created": "2022-08-28T19:00:26.000",
    "date_modified": "2022-08-28T19:00:26.000",
    "request_status": "Pending",
    "responsible_agency": "Department of Sanitation",
    "final_address": "814 N Dorgenois St",
    "address_councildis": "D",
    "status": "Pending",
    "rowid": "914132",
    "final_x": "3677478.27803",
    "final_y": "536968.405576",
    "longitude": "-90.08058138455218",
    "latitude": "29.970598449192412",
    "geocoded_column": {
      "latitude": "29.970598449192412",
      "longitude": "-90.08058138455218"
    }
  },
  {
    "service_request": "2022-914131",
    "request_type": "Trash/Recycling",
    "request_reason": "Illegal Dumping",
    "date_created": "2022-08-28T18:55:42.000",
    "date_modified": "2022-08-28T18:55:42.000",
    "request_status": "Pending",
    "responsible_agency": "Department of Sanitation",
    "final_address": "10200 Plainfield Dr",
    "address_councildis": "E",
    "status": "Pending",
    "rowid": "914131",
    "final_x": "3710446.73297",
    "final_y": "562661.5048",
    "longitude": "-89.97550260287292",
    "latitude": "30.04021231177489",
    "geocoded_column": {
      "latitude": "30.04021231177489",
      "longitude": "-89.97550260287292"
    }
  },
  {
    "service_request": "2022-914130",
    "request_type": "Health Related Questions",
    "request_reason": "Noise Ordinance Complaint",
    "date_created": "2022-08-28T18:42:13.000",
    "date_modified": "2022-08-28T18:42:13.000",
    "request_status": "Pending",
    "responsible_agency": "Health Department",
    "final_address": "550 Baronne St",
    "address_councildis": "B",
    "status": "Pending",
    "rowid": "914130",
    "final_x": "3679871.27515",
    "final_y": "529133.143296",
    "longitude": "-90.07329612681656",
    "latitude": "29.948981981496516",
    "geocoded_column": {
      "latitude": "29.948981981496516",
      "longitude": "-90.07329612681656"
    }
  },
  {
    "service_request": "2022-914127",
    "request_type": "Property Maintenance",
    "request_reason": "Property Maintenance",
    "date_created": "2022-08-28T18:30:02.000",
    "date_modified": "2022-08-28T18:30:02.000",
    "request_status": "Pending",
    "responsible_agency": "Department of Code Enforcement",
    "final_address": "2133 Allen St",
    "address_councildis": "D",
    "status": "Pending",
    "rowid": "914127",
    "final_x": "3682492.00316",
    "final_y": "540093.106635",
    "longitude": "-90.06463820353143",
    "latitude": "29.979038615774183",
    "geocoded_column": {
      "latitude": "29.979038615774183",
      "longitude": "-90.06463820353143"
    }
  },
  {
    "service_request": "2022-914126",
    "request_type": "Abandoned Vehicles",
    "request_reason": "Abandoned/Junk Vehicles",
    "date_created": "2022-08-28T18:27:36.000",
    "date_modified": "2022-08-28T18:27:36.000",
    "request_status": "Pending",
    "responsible_agency": "Department of Public Works",
    "final_address": "541 Atlantic Ave",
    "address_councildis": "C",
    "status": "Pending",
    "rowid": "914126",
    "final_x": "3688742.24412",
    "final_y": "529556.869889",
    "longitude": "-90.04527167150971",
    "latitude": "29.949875871524508",
    "geocoded_column": {
      "latitude": "29.949875871524508",
      "longitude": "-90.04527167150971"
    }
  },
  {
    "service_request": "2022-914125",
    "request_type": "Traffic Signals/Signs/Striping/Streetlights",
    "request_reason": "Street Name Sign Damaged or Missing",
    "date_created": "2022-08-28T18:19:35.000",
    "date_modified": "2022-08-28T18:19:35.000",
    "request_status": "Pending",
    "responsible_agency": "Department of Public Works",
    "final_address": "1901 Ursulines Ave",
    "address_councildis": "D",
    "status": "Pending",
    "rowid": "914125",
    "final_x": "3680109.8493",
    "final_y": "536294.917511",
    "longitude": "-90.07229398253429",
    "latitude": "29.968667215295312",
    "geocoded_column": {
      "latitude": "29.968667215295312",
      "longitude": "-90.07229398253429"
    }
  },
  {
    "service_request": "2022-914124",
    "request_type": "Trash/Recycling",
    "request_reason": "Illegal Dumping",
    "date_created": "2022-08-28T18:12:52.000",
    "date_modified": "2022-08-28T18:12:52.000",
    "request_status": "Pending",
    "responsible_agency": "Department of Sanitation",
    "final_address": "1726 Governor Nicholls St Apt A",
    "address_councildis": "D",
    "status": "Pending",
    "rowid": "914124",
    "final_x": "3680620.71496",
    "final_y": "536213.913351",
    "longitude": "-90.07068345943718",
    "latitude": "29.968429012485945",
    "geocoded_column": {
      "latitude": "29.968429012485945",
      "longitude": "-90.07068345943718"
    }
  },
  {
    "service_request": "2022-914123",
    "request_type": "Traffic Signals/Signs/Striping/Streetlights",
    "request_reason": "Traffic Sign Missing/Damaged",
    "date_created": "2022-08-28T18:10:53.000",
    "date_modified": "2022-08-28T18:10:53.000",
    "request_status": "Pending",
    "responsible_agency": "Department of Public Works",
    "final_address": "1208 N Derbigny St",
    "address_councildis": "D",
    "status": "Pending",
    "rowid": "914123",
    "final_x": "3680662.36488",
    "final_y": "536345.687111",
    "longitude": "-90.07054734079568",
    "latitude": "29.968790083021425",
    "geocoded_column": {
      "latitude": "29.968790083021425",
      "longitude": "-90.07054734079568"
    }
  },
  {
    "service_request": "2022-914122",
    "request_type": "Property Maintenance",
    "request_reason": "Property Maintenance",
    "date_created": "2022-08-28T18:00:53.000",
    "date_modified": "2022-08-28T18:00:53.000",
    "request_status": "Pending",
    "responsible_agency": "Department of Code Enforcement",
    "final_address": "6327 Argonne Blvd",
    "address_councildis": "A",
    "status": "Pending",
    "rowid": "914122",
    "final_x": "3670411.62458",
    "final_y": "549390.840211",
    "longitude": "-90.10247734361337",
    "latitude": "30.004966432112393",
    "geocoded_column": {
      "latitude": "30.004966432112393",
      "longitude": "-90.10247734361337"
    }
  },
  {
    "service_request": "2022-914121",
    "request_type": "Trash/Recycling",
    "request_reason": "Order Recycling Cart",
    "date_created": "2022-08-28T17:54:01.000",
    "date_modified": "2022-08-28T17:54:01.000",
    "request_status": "Pending",
    "responsible_agency": "Department of Sanitation",
    "final_address": "3514 Robert St, New Orleans, Louisiana, 70125",
    "address_councildis": "B",
    "status": "Pending",
    "rowid": "914121",
    "final_x": "3668905.82836",
    "final_y": "527758.096831",
    "longitude": "-90.10796533599857",
    "latitude": "29.94552805885523",
    "geocoded_column": {
      "latitude": "29.94552805885523",
      "longitude": "-90.10796533599857"
    }
  },
  {
    "service_request": "2022-914120",
    "request_type": "Trash/Recycling",
    "request_reason": "Request a Large Item Pick Up",
    "date_created": "2022-08-28T17:53:59.000",
    "date_modified": "2022-08-28T17:54:00.000",
    "request_status": "Pending",
    "responsible_agency": "Department of Sanitation",
    "final_address": "3141 St Philip St",
    "address_councildis": "A",
    "status": "Assigned to Contractor",
    "contractor": "Richards Disposal",
    "rowid": "914120",
    "final_x": "3675719.54421",
    "final_y": "539194.374602",
    "longitude": "-90.08605915716954",
    "latitude": "29.97677185812415",
    "geocoded_column": {
      "latitude": "29.97677185812415",
      "longitude": "-90.08605915716954"
    }
  },
  {
    "service_request": "2022-914119",
    "request_type": "Property Maintenance",
    "request_reason": "Property Maintenance",
    "date_created": "2022-08-28T17:45:13.000",
    "date_modified": "2022-08-28T17:45:13.000",
    "request_status": "Pending",
    "responsible_agency": "Department of Code Enforcement",
    "final_address": "11700 Morrison Rd",
    "address_councildis": "E",
    "status": "Pending",
    "rowid": "914119",
    "final_x": "3713226.46795",
    "final_y": "566298.776355",
    "longitude": "-89.96658072710648",
    "latitude": "30.050122471734742",
    "geocoded_column": {
      "latitude": "30.050122471734742",
      "longitude": "-89.96658072710648"
    }
  },
  {
    "service_request": "2022-914118",
    "request_type": "Traffic Signals/Signs/Striping/Streetlights",
    "request_reason": "Disabled Parking Sign ",
    "date_created": "2022-08-28T17:43:34.000",
    "date_modified": "2022-08-28T17:43:34.000",
    "request_status": "Pending",
    "responsible_agency": "Department of Public Works",
    "final_address": "1522 N Prieur St",
    "address_councildis": "D",
    "status": "Pending",
    "rowid": "914118",
    "final_x": "3681058.53448",
    "final_y": "537953.249481",
    "longitude": "-90.06924020679288",
    "latitude": "29.973198314296173",
    "geocoded_column": {
      "latitude": "29.973198314296173",
      "longitude": "-90.06924020679288"
    }
  },
  {
    "service_request": "2022-914117",
    "request_type": "Trash/Recycling",
    "request_reason": "Replace Trash Cart",
    "date_created": "2022-08-28T17:42:35.000",
    "date_modified": "2022-08-28T17:42:36.000",
    "request_status": "Pending",
    "responsible_agency": "Department of Sanitation",
    "final_address": "127 N Johnson St",
    "address_councildis": "B",
    "status": "Assigned to Contractor",
    "contractor": "Richards Disposal",
    "rowid": "914117",
    "final_x": "3677406.51835",
    "final_y": "533937.470533",
    "longitude": "-90.08091263415633",
    "latitude": "29.962266565144233",
    "geocoded_column": {
      "latitude": "29.962266565144233",
      "longitude": "-90.08091263415633"
    }
  },
  {
    "service_request": "2022-914115",
    "request_type": "Trash/Recycling",
    "request_reason": "Request a Large Item Pick Up",
    "date_created": "2022-08-28T17:29:14.000",
    "date_modified": "2022-08-28T17:29:15.000",
    "request_status": "Pending",
    "responsible_agency": "Department of Sanitation",
    "final_address": "466 Crystal St",
    "address_councildis": "D",
    "status": "Assigned to Contractor",
    "contractor": "Metro Disposal",
    "rowid": "914115",
    "final_x": "3668283.42433",
    "final_y": "556184.38921",
    "longitude": "-90.10897145843856",
    "latitude": "30.023708987017255",
    "geocoded_column": {
      "latitude": "30.023708987017255",
      "longitude": "-90.10897145843856"
    }
  },
  {
    "service_request": "2022-914114",
    "request_type": "Traffic Signals/Signs/Striping/Streetlights",
    "request_reason": "Traffic Signal Malfunctioning/Damaged",
    "date_created": "2022-08-28T17:10:21.000",
    "date_modified": "2022-08-28T17:10:21.000",
    "request_status": "Pending",
    "responsible_agency": "Department of Public Works",
    "final_address": "2300 Orleans Ave",
    "address_councildis": "D",
    "status": "Pending",
    "rowid": "914114",
    "final_x": "3678074.03586",
    "final_y": "535962.094919",
    "longitude": "-90.07873470741417",
    "latitude": "29.96781351540864",
    "geocoded_column": {
      "latitude": "29.96781351540864",
      "longitude": "-90.07873470741417"
    }
  },
  {
    "service_request": "2022-914113",
    "request_type": "Roads/Drainage",
    "request_reason": "Leaking Hydrant",
    "date_created": "2022-08-28T16:40:09.000",
    "date_modified": "2022-08-28T16:40:09.000",
    "request_status": "Pending",
    "responsible_agency": "Department of Public Works",
    "final_address": "14800 Hayne Blvd, New Orleans, Louisiana, 70128",
    "status": "Pending",
    "rowid": "914113",
    "longitude": "0.0",
    "latitude": "0.0",
    "geocoded_column": {
      "latitude": "0.0",
      "longitude": "0.0"
    }
  },
  {
    "service_request": "2022-914111",
    "request_type": "Trash/Recycling",
    "request_reason": "Request a Large Item Pick Up",
    "date_created": "2022-08-28T16:29:54.000",
    "date_modified": "2022-08-28T16:29:55.000",
    "request_status": "Pending",
    "responsible_agency": "Department of Sanitation",
    "final_address": "1017 N Villere St",
    "address_councildis": "C",
    "status": "Assigned to Contractor",
    "contractor": "Richards Disposal",
    "rowid": "914111",
    "final_x": "3681052.02338",
    "final_y": "535217.058502",
    "longitude": "-90.06935609387916",
    "latitude": "29.965674928225507",
    "geocoded_column": {
      "latitude": "29.965674928225507",
      "longitude": "-90.06935609387916"
    }
  },
  {
    "service_request": "2022-914110",
    "request_type": "Trash/Recycling",
    "request_reason": "Request a Large Item Pick Up",
    "date_created": "2022-08-28T16:24:07.000",
    "date_modified": "2022-08-28T16:24:07.000",
    "request_status": "Pending",
    "responsible_agency": "Department of Sanitation",
    "final_address": "2459 Royal St",
    "address_councildis": "C",
    "status": "Assigned to Contractor",
    "contractor": "Metro Disposal",
    "rowid": "914110",
    "final_x": "3686396.84649",
    "final_y": "534994.811654",
    "longitude": "-90.05248522791058",
    "latitude": "29.964900627640272",
    "geocoded_column": {
      "latitude": "29.964900627640272",
      "longitude": "-90.05248522791058"
    }
  },
  {
    "service_request": "2022-914109",
    "request_type": "Property Maintenance",
    "request_reason": "Property Maintenance",
    "date_created": "2022-08-28T16:22:59.000",
    "date_modified": "2022-08-28T16:22:59.000",
    "request_status": "Pending",
    "responsible_agency": "Department of Code Enforcement",
    "final_address": "2026 Reynes St",
    "address_councildis": "E",
    "status": "Pending",
    "rowid": "914109",
    "final_x": "3696920.156",
    "final_y": "537830.411785",
    "longitude": "-90.01915075394434",
    "latitude": "29.972369871183236",
    "geocoded_column": {
      "latitude": "29.972369871183236",
      "longitude": "-90.01915075394434"
    }
  },
  {
    "service_request": "2022-914108",
    "request_type": "Trash/Recycling",
    "request_reason": "Order Trash Cart",
    "date_created": "2022-08-28T16:17:07.000",
    "date_modified": "2022-08-28T16:17:08.000",
    "request_status": "Pending",
    "responsible_agency": "Department of Sanitation",
    "final_address": "1353 Sere St",
    "address_councildis": "D",
    "status": "Assigned to Contractor",
    "contractor": "Metro Disposal",
    "rowid": "914108",
    "final_x": "3677921.7179",
    "final_y": "545411.50184",
    "longitude": "-90.07888903304855",
    "latitude": "29.993800698935065",
    "geocoded_column": {
      "latitude": "29.993800698935065",
      "longitude": "-90.07888903304855"
    }
  },
  {
    "service_request": "2022-914107",
    "request_type": "Property Maintenance",
    "request_reason": "Property Maintenance",
    "date_created": "2022-08-28T16:07:55.000",
    "date_modified": "2022-08-28T16:07:55.000",
    "request_status": "Pending",
    "responsible_agency": "Department of Code Enforcement",
    "final_address": "8118 Burthe St, New Orleans, Louisiana, 70118",
    "address_councildis": "A",
    "status": "Pending",
    "rowid": "914107",
    "final_x": "3661126.08256",
    "final_y": "527665.425983",
    "longitude": "-90.1325317161274",
    "latitude": "29.945499715085198",
    "geocoded_column": {
      "latitude": "29.945499715085198",
      "longitude": "-90.1325317161274"
    }
  },
  {
    "service_request": "2022-914106",
    "request_type": "Abandoned Vehicles",
    "request_reason": "Abandoned/Junk Vehicles",
    "date_created": "2022-08-28T16:05:28.000",
    "date_modified": "2022-08-28T16:05:28.000",
    "request_status": "Pending",
    "responsible_agency": "Department of Public Works",
    "final_address": "6060 Chatham Dr",
    "address_councildis": "D",
    "status": "Pending",
    "rowid": "914106",
    "final_x": "3679485.7469",
    "final_y": "554915.519576",
    "longitude": "-90.07361844313826",
    "latitude": "30.019886169283073",
    "geocoded_column": {
      "latitude": "30.019886169283073",
      "longitude": "-90.07361844313826"
    }
  },
  {
    "service_request": "2022-914105",
    "request_type": "Trash/Recycling",
    "request_reason": "Request a Large Item Pick Up",
    "date_created": "2022-08-28T16:00:18.000",
    "date_modified": "2022-08-28T16:00:19.000",
    "request_status": "Pending",
    "responsible_agency": "Department of Sanitation",
    "final_address": "2125 Sumpter St",
    "address_councildis": "D",
    "status": "Assigned to Contractor",
    "contractor": "Metro Disposal",
    "rowid": "914105",
    "final_x": "3683361.70633",
    "final_y": "549558.114643",
    "longitude": "-90.06155955330924",
    "latitude": "30.005037519084624",
    "geocoded_column": {
      "latitude": "30.005037519084624",
      "longitude": "-90.06155955330924"
    }
  },
  {
    "service_request": "2022-914104",
    "request_type": "Trash/Recycling",
    "request_reason": "Missed Trash Pick-Up",
    "date_created": "2022-08-28T15:43:01.000",
    "date_modified": "2022-08-28T15:43:01.000",
    "request_status": "Pending",
    "responsible_agency": "Department of Sanitation",
    "final_address": "5015 St Claude Ave",
    "address_councildis": "E",
    "status": "Assigned to Contractor",
    "contractor": "Metro Disposal",
    "rowid": "914104",
    "final_x": "3696113.05085",
    "final_y": "534351.361221",
    "longitude": "-90.02182547915295",
    "latitude": "29.962829149857008",
    "geocoded_column": {
      "latitude": "29.962829149857008",
      "longitude": "-90.02182547915295"
    }
  },
  {
    "service_request": "2022-914103",
    "request_type": "Roads/Drainage",
    "request_reason": "Catch Basin - Clogged",
    "date_created": "2022-08-28T15:42:39.000",
    "date_modified": "2022-08-28T15:42:39.000",
    "request_status": "Pending",
    "responsible_agency": "Department of Public Works",
    "final_address": "5938 Tchoupitoulas St",
    "address_councildis": "A",
    "status": "Pending",
    "rowid": "914103",
    "final_x": "3664503.65498",
    "final_y": "517358.407157",
    "longitude": "-90.12221154669213",
    "latitude": "29.917060912830376",
    "geocoded_column": {
      "latitude": "29.917060912830376",
      "longitude": "-90.12221154669213"
    }
  },
  {
    "service_request": "2022-914102",
    "request_type": "Roads/Drainage",
    "request_reason": "Catch Basin - Clogged",
    "date_created": "2022-08-28T15:39:46.000",
    "date_modified": "2022-08-28T15:39:47.000",
    "request_status": "Pending",
    "responsible_agency": "Department of Public Works",
    "final_address": "4674 Venus St",
    "address_councildis": "D",
    "status": "Pending",
    "rowid": "914102",
    "final_x": "3686442.36399",
    "final_y": "550219.611924",
    "longitude": "-90.0518037629815",
    "latitude": "30.006762019598067",
    "geocoded_column": {
      "latitude": "30.006762019598067",
      "longitude": "-90.0518037629815"
    }
  },
  {
    "service_request": "2022-914101",
    "request_type": "Trash/Recycling",
    "request_reason": "Order Recycling Cart",
    "date_created": "2022-08-28T15:35:04.000",
    "date_modified": "2022-08-28T15:35:04.000",
    "request_status": "Pending",
    "responsible_agency": "Department of Sanitation",
    "final_address": "2211 State St, New Orleans, Louisiana, 70118",
    "address_councildis": "A",
    "status": "Pending",
    "rowid": "914101",
    "final_x": "3666601.53543",
    "final_y": "524779.233852",
    "longitude": "-90.11534073885652",
    "latitude": "29.937404700429816",
    "geocoded_column": {
      "latitude": "29.937404700429816",
      "longitude": "-90.11534073885652"
    }
  },
  {
    "service_request": "2022-914100",
    "request_type": "Abandoned Vehicles",
    "request_reason": "Abandoned/Junk Vehicles",
    "date_created": "2022-08-28T15:16:48.000",
    "date_modified": "2022-08-28T15:16:48.000",
    "request_status": "Pending",
    "responsible_agency": "Department of Public Works",
    "final_address": "2547 Dumaine St",
    "address_councildis": "D",
    "status": "Pending",
    "rowid": "914100",
    "final_x": "3677689.06453",
    "final_y": "537153.957256",
    "longitude": "-90.07990928550632",
    "latitude": "29.971102314502875",
    "geocoded_column": {
      "latitude": "29.971102314502875",
      "longitude": "-90.07990928550632"
    }
  },
  {
    "service_request": "2022-914099",
    "request_type": "Trash/Recycling",
    "request_reason": "Request a Large Item Pick Up",
    "date_created": "2022-08-28T15:15:43.000",
    "date_modified": "2022-08-28T15:15:43.000",
    "request_status": "Pending",
    "responsible_agency": "Department of Sanitation",
    "final_address": "3831 Lennox Blvd",
    "address_councildis": "C",
    "status": "Assigned to Contractor",
    "contractor": "Richards Disposal",
    "rowid": "914099",
    "final_x": "3700465.48061",
    "final_y": "517125.426165",
    "longitude": "-90.00870999961347",
    "latitude": "29.915326146081327",
    "geocoded_column": {
      "latitude": "29.915326146081327",
      "longitude": "-90.00870999961347"
    }
  },
  {
    "service_request": "2022-914098",
    "request_type": "Abandoned Vehicles",
    "request_reason": "Abandoned/Junk Vehicles",
    "date_created": "2022-08-28T15:14:07.000",
    "date_modified": "2022-08-28T15:14:07.000",
    "request_status": "Pending",
    "responsible_agency": "Department of Public Works",
    "final_address": "2547 Dumaine St",
    "address_councildis": "D",
    "status": "Pending",
    "rowid": "914098",
    "final_x": "3677689.06453",
    "final_y": "537153.957256",
    "longitude": "-90.07990928550632",
    "latitude": "29.971102314502875",
    "geocoded_column": {
      "latitude": "29.971102314502875",
      "longitude": "-90.07990928550632"
    }
  },
  {
    "service_request": "2022-914097",
    "request_type": "Roads/Drainage",
    "request_reason": "Street Subsidence (Sinking)",
    "date_created": "2022-08-28T15:06:09.000",
    "date_modified": "2022-08-28T15:06:09.000",
    "request_status": "Pending",
    "responsible_agency": "Department of Public Works",
    "final_address": "6479 Memphis St",
    "address_councildis": "A",
    "status": "Pending",
    "rowid": "914097",
    "final_x": "3669584.40474",
    "final_y": "550584.160916",
    "longitude": "-90.10505029704869",
    "latitude": "30.008272053735055",
    "geocoded_column": {
      "latitude": "30.008272053735055",
      "longitude": "-90.10505029704869"
    }
  },
  {
    "service_request": "2022-914096",
    "request_type": "Roads/Drainage",
    "request_reason": "Pothole",
    "date_created": "2022-08-28T15:02:02.000",
    "date_modified": "2022-08-28T15:02:02.000",
    "request_status": "Pending",
    "responsible_agency": "Department of Public Works",
    "final_address": "888 Harrison Ave",
    "address_councildis": "A",
    "status": "Pending",
    "rowid": "914096",
    "final_x": "3669932.72058",
    "final_y": "549019.836627",
    "longitude": "-90.10400287899766",
    "latitude": "30.003960438330868",
    "geocoded_column": {
      "latitude": "30.003960438330868",
      "longitude": "-90.10400287899766"
    }
  },
  {
    "service_request": "2022-914095",
    "request_type": "Abandoned Vehicles",
    "request_reason": "Abandoned/Junk Vehicles",
    "date_created": "2022-08-28T14:58:49.000",
    "date_modified": "2022-08-28T14:58:50.000",
    "request_status": "Pending",
    "responsible_agency": "Department of Public Works",
    "final_address": "ALIX ST & VALLETTE ST",
    "address_councildis": "C",
    "status": "Pending",
    "rowid": "914095",
    "final_x": "3687553.6",
    "final_y": "530357.78",
    "longitude": "-90.04899641568026",
    "latitude": "29.95211478689837",
    "geocoded_column": {
      "latitude": "29.95211478689837",
      "longitude": "-90.04899641568026"
    }
  },
  {
    "service_request": "2022-914094",
    "request_type": "Trash/Recycling",
    "request_reason": "Request a Large Item Pick Up",
    "date_created": "2022-08-28T14:56:34.000",
    "date_modified": "2022-08-28T14:56:35.000",
    "request_status": "Pending",
    "responsible_agency": "Department of Sanitation",
    "final_address": "3046 Fortin St",
    "address_councildis": "A",
    "status": "Assigned to Contractor",
    "contractor": "Metro Disposal",
    "rowid": "914094",
    "final_x": "3676804.82056",
    "final_y": "540903.784459",
    "longitude": "-90.08257257997363",
    "latitude": "29.981439618771667",
    "geocoded_column": {
      "latitude": "29.981439618771667",
      "longitude": "-90.08257257997363"
    }
  },
  {
    "service_request": "2022-914093",
    "request_type": "Roads/Drainage",
    "request_reason": "Catch Basin - Clogged",
    "date_created": "2022-08-28T14:45:20.000",
    "date_modified": "2022-08-28T14:45:20.000",
    "request_status": "Pending",
    "responsible_agency": "Department of Public Works",
    "final_address": "164 Middle Park Pl",
    "address_councildis": "A",
    "status": "Pending",
    "rowid": "914093",
    "final_x": "3669875.94862",
    "final_y": "544766.686479",
    "longitude": "-90.10432634890307",
    "latitude": "29.99226742417138",
    "geocoded_column": {
      "latitude": "29.99226742417138",
      "longitude": "-90.10432634890307"
    }
  },
  {
    "service_request": "2022-914092",
    "request_type": "Trash/Recycling",
    "request_reason": "Request a Large Item Pick Up",
    "date_created": "2022-08-28T14:41:43.000",
    "date_modified": "2022-08-28T14:41:44.000",
    "request_status": "Pending",
    "responsible_agency": "Department of Sanitation",
    "final_address": "1515 Jefferson Ave",
    "address_councildis": "B",
    "status": "Assigned to Contractor",
    "contractor": "Richards Disposal",
    "rowid": "914092",
    "final_x": "3667248.21767",
    "final_y": "520687.835257",
    "longitude": "-90.11343662860484",
    "latitude": "29.926135740304627",
    "geocoded_column": {
      "latitude": "29.926135740304627",
      "longitude": "-90.11343662860484"
    }
  },
  {
    "service_request": "2022-914091",
    "request_type": "Trash/Recycling",
    "request_reason": "Request a Large Item Pick Up",
    "date_created": "2022-08-28T14:35:03.000",
    "date_modified": "2022-08-28T14:35:04.000",
    "request_status": "Pending",
    "responsible_agency": "Department of Sanitation",
    "final_address": "3046 Fortin St, New Orleans, Louisiana, 70119",
    "address_councildis": "A",
    "status": "Assigned to Contractor",
    "contractor": "Metro Disposal",
    "rowid": "914091",
    "final_x": "3676804.82056",
    "final_y": "540903.784459",
    "longitude": "-90.08257257997363",
    "latitude": "29.981439618771667",
    "geocoded_column": {
      "latitude": "29.981439618771667",
      "longitude": "-90.08257257997363"
    }
  },
  {
    "service_request": "2022-914090",
    "request_type": "Traffic Signals/Signs/Striping/Streetlights",
    "request_reason": "Street Light Outage/Malfunction",
    "date_created": "2022-08-28T14:25:18.000",
    "date_modified": "2022-08-28T14:25:18.000",
    "request_status": "Pending",
    "responsible_agency": "Department of Public Works",
    "final_address": "BIENVILLE ST & N BROAD ST",
    "address_councildis": "B",
    "status": "Pending",
    "contractor": "Legacy Professional Services",
    "rowid": "914090",
    "final_x": "3675766.89",
    "final_y": "535752.34",
    "longitude": "-90.08602796081566",
    "latitude": "29.9673060187524",
    "geocoded_column": {
      "latitude": "29.9673060187524",
      "longitude": "-90.08602796081566"
    }
  },
  {
    "service_request": "2022-914089",
    "request_type": "Trash/Recycling",
    "request_reason": "Missed Trash Pick-Up",
    "date_created": "2022-08-28T14:03:05.000",
    "date_modified": "2022-08-28T14:03:06.000",
    "request_status": "Pending",
    "responsible_agency": "Department of Sanitation",
    "final_address": "615 Adams St",
    "address_councildis": "A",
    "status": "Assigned to Contractor",
    "contractor": "Richards Disposal",
    "rowid": "914089",
    "final_x": "3661813.44384",
    "final_y": "525950.767741",
    "longitude": "-90.13041831691956",
    "latitude": "29.940765126126973",
    "geocoded_column": {
      "latitude": "29.940765126126973",
      "longitude": "-90.13041831691956"
    }
  },
  {
    "service_request": "2022-914088",
    "request_type": "Roads/Drainage",
    "request_reason": "Catch Basin - Clogged",
    "date_created": "2022-08-28T14:02:06.000",
    "date_modified": "2022-08-28T14:02:06.000",
    "request_status": "Pending",
    "responsible_agency": "Department of Public Works",
    "final_address": "615 Adams St",
    "address_councildis": "A",
    "status": "Pending",
    "rowid": "914088",
    "final_x": "3661813.44384",
    "final_y": "525950.767741",
    "longitude": "-90.13041831691956",
    "latitude": "29.940765126126973",
    "geocoded_column": {
      "latitude": "29.940765126126973",
      "longitude": "-90.13041831691956"
    }
  },
  {
    "service_request": "2022-914087",
    "request_type": "Safety & Permits",
    "request_reason": "Safety & Permits Request (Cyber Incident Back Up)",
    "date_created": "2022-08-28T13:56:02.000",
    "date_modified": "2022-08-28T13:56:02.000",
    "request_status": "Pending",
    "responsible_agency": "Safety and Permits",
    "status": "Pending",
    "rowid": "914087",
    "longitude": "0.0",
    "latitude": "0.0",
    "geocoded_column": {
      "latitude": "0.0",
      "longitude": "0.0"
    }
  },
  {
    "service_request": "2022-914085",
    "request_type": "Trash/Recycling",
    "request_reason": "Request a Large Item Pick Up",
    "date_created": "2022-08-28T13:50:26.000",
    "date_modified": "2022-08-28T13:50:27.000",
    "request_status": "Pending",
    "responsible_agency": "Department of Sanitation",
    "final_address": "2355 N Galvez St",
    "address_councildis": "D",
    "status": "Assigned to Contractor",
    "contractor": "Metro Disposal",
    "rowid": "914085",
    "final_x": "3685956.18383",
    "final_y": "540122.403659",
    "longitude": "-90.05369597642962",
    "latitude": "29.979013251764638",
    "geocoded_column": {
      "latitude": "29.979013251764638",
      "longitude": "-90.05369597642962"
    }
  },
  {
    "service_request": "2022-914084",
    "request_type": "Trash/Recycling",
    "request_reason": "MIssed Recycling Pick-Up",
    "date_created": "2022-08-28T13:32:22.000",
    "date_modified": "2022-08-28T13:32:22.000",
    "request_status": "Pending",
    "responsible_agency": "Department of Sanitation",
    "final_address": "2659 Iberville St",
    "address_councildis": "B",
    "status": "Assigned to Contractor",
    "contractor": "Richards Disposal",
    "rowid": "914084",
    "final_x": "3675732.35176",
    "final_y": "535453.225798",
    "longitude": "-90.08614731470516",
    "latitude": "29.966484589744436",
    "geocoded_column": {
      "latitude": "29.966484589744436",
      "longitude": "-90.08614731470516"
    }
  },
  {
    "service_request": "2022-914083",
    "request_type": "Trash/Recycling",
    "request_reason": "Replace Trash Cart",
    "date_created": "2022-08-28T13:30:28.000",
    "date_modified": "2022-08-28T13:30:29.000",
    "request_status": "Pending",
    "responsible_agency": "Department of Sanitation",
    "final_address": "2657 Iberville St",
    "address_councildis": "B",
    "status": "Assigned to Contractor",
    "contractor": "Richards Disposal",
    "rowid": "914083",
    "final_x": "3675755.99182",
    "final_y": "535435.268166",
    "longitude": "-90.0860732769049",
    "latitude": "29.96643450480175",
    "geocoded_column": {
      "latitude": "29.96643450480175",
      "longitude": "-90.0860732769049"
    }
  },
  {
    "service_request": "2022-914082",
    "request_type": "Property Maintenance",
    "request_reason": "Property Maintenance",
    "date_created": "2022-08-28T13:25:59.000",
    "date_modified": "2022-08-28T13:25:59.000",
    "request_status": "Pending",
    "responsible_agency": "Department of Code Enforcement",
    "final_address": "2663 Iberville St",
    "address_councildis": "B",
    "status": "Pending",
    "rowid": "914082",
    "final_x": "3675685.64417",
    "final_y": "535440.188614",
    "longitude": "-90.08629526492776",
    "latitude": "29.96645013971042",
    "geocoded_column": {
      "latitude": "29.96645013971042",
      "longitude": "-90.08629526492776"
    }
  },
  {
    "service_request": "2022-914081",
    "request_type": "Trash/Recycling",
    "request_reason": "Replace Recycling Cart",
    "date_created": "2022-08-28T13:25:13.000",
    "date_modified": "2022-08-28T13:25:13.000",
    "request_status": "Pending",
    "responsible_agency": "Department of Sanitation",
    "final_address": "6135 Catina St",
    "address_councildis": "A",
    "status": "Pending",
    "rowid": "914081",
    "final_x": "3666900.32833",
    "final_y": "548430.595666",
    "longitude": "-90.11360258490949",
    "latitude": "30.002429336636297",
    "geocoded_column": {
      "latitude": "30.002429336636297",
      "longitude": "-90.11360258490949"
    }
  },
  {
    "service_request": "2022-914080",
    "request_type": "Trash/Recycling",
    "request_reason": "Missed Trash Pick-Up",
    "date_created": "2022-08-28T13:21:15.000",
    "date_modified": "2022-08-28T13:21:16.000",
    "request_status": "Pending",
    "responsible_agency": "Department of Sanitation",
    "final_address": "6135 Catina St",
    "address_councildis": "A",
    "status": "Assigned to Contractor",
    "contractor": "Metro Disposal",
    "rowid": "914080",
    "final_x": "3666900.32833",
    "final_y": "548430.595666",
    "longitude": "-90.11360258490949",
    "latitude": "30.002429336636297",
    "geocoded_column": {
      "latitude": "30.002429336636297",
      "longitude": "-90.11360258490949"
    }
  },
  {
    "service_request": "2022-914079",
    "request_type": "Trash/Recycling",
    "request_reason": "Replace Trash Cart",
    "date_created": "2022-08-28T13:19:27.000",
    "date_modified": "2022-08-28T13:19:27.000",
    "request_status": "Pending",
    "responsible_agency": "Department of Sanitation",
    "final_address": "5627 Bancroft Dr",
    "address_councildis": "D",
    "status": "Assigned to Contractor",
    "contractor": "Metro Disposal",
    "rowid": "914079",
    "final_x": "3676656.26229",
    "final_y": "552846.181527",
    "longitude": "-90.08263008027579",
    "latitude": "30.014281464072237",
    "geocoded_column": {
      "latitude": "30.014281464072237",
      "longitude": "-90.08263008027579"
    }
  },
  {
    "service_request": "2022-914078",
    "request_type": "Trash/Recycling",
    "request_reason": "Request a Large Item Pick Up",
    "date_created": "2022-08-28T13:05:35.000",
    "date_modified": "2022-08-28T13:05:36.000",
    "request_status": "Pending",
    "responsible_agency": "Department of Sanitation",
    "final_address": "1727 Bordeaux St",
    "address_councildis": "B",
    "status": "Assigned to Contractor",
    "contractor": "Richards Disposal",
    "rowid": "914078",
    "final_x": "3669423.18746",
    "final_y": "521314.262521",
    "longitude": "-90.10654968566124",
    "latitude": "29.92779436673298",
    "geocoded_column": {
      "latitude": "29.92779436673298",
      "longitude": "-90.10654968566124"
    }
  },
  {
    "service_request": "2022-914077",
    "request_type": "Property Maintenance",
    "request_reason": "Property Maintenance",
    "date_created": "2022-08-28T12:26:33.000",
    "date_modified": "2022-08-28T12:26:33.000",
    "request_status": "Pending",
    "responsible_agency": "Department of Code Enforcement",
    "final_address": "4210 Saint Peter St, New Orleans, Louisiana, 70119",
    "status": "Pending",
    "rowid": "914077",
    "longitude": "0.0",
    "latitude": "0.0",
    "geocoded_column": {
      "latitude": "0.0",
      "longitude": "0.0"
    }
  },
  {
    "service_request": "2022-914076",
    "request_type": "Trash/Recycling",
    "request_reason": "Missed Trash Pick-Up",
    "date_created": "2022-08-28T12:25:44.000",
    "date_modified": "2022-08-28T12:25:45.000",
    "request_status": "Pending",
    "responsible_agency": "Department of Sanitation",
    "final_address": "7401 Dogwood Dr",
    "address_councildis": "E",
    "status": "Assigned to Contractor",
    "contractor": "Metro Disposal",
    "rowid": "914076",
    "final_x": "3701608.02423",
    "final_y": "560375.824414",
    "longitude": "-90.00351941300735",
    "latitude": "30.03421261479023",
    "geocoded_column": {
      "latitude": "30.03421261479023",
      "longitude": "-90.00351941300735"
    }
  },
  {
    "service_request": "2022-914075",
    "request_type": "Roads/Drainage",
    "request_reason": "Pothole",
    "date_created": "2022-08-28T12:23:55.000",
    "date_modified": "2022-08-28T12:23:55.000",
    "request_status": "Pending",
    "responsible_agency": "Department of Public Works",
    "final_address": "7520 Plum St",
    "address_councildis": "A",
    "status": "Pending",
    "rowid": "914075",
    "final_x": "3663731.46778",
    "final_y": "527196.452607",
    "longitude": "-90.12432125733751",
    "latitude": "29.944134855675344",
    "geocoded_column": {
      "latitude": "29.944134855675344",
      "longitude": "-90.12432125733751"
    }
  },
  {
    "service_request": "2022-914074",
    "request_type": "Trash/Recycling",
    "request_reason": "Request a Large Item Pick Up",
    "date_created": "2022-08-28T12:18:11.000",
    "date_modified": "2022-08-28T12:18:11.000",
    "request_status": "Pending",
    "responsible_agency": "Department of Sanitation",
    "final_address": "420 40Th St",
    "address_councildis": "A",
    "status": "Assigned to Contractor",
    "contractor": "Metro Disposal",
    "rowid": "914074",
    "final_x": "3664858.84967",
    "final_y": "553317.453783",
    "longitude": "-90.11988840916199",
    "latitude": "30.015926094866252",
    "geocoded_column": {
      "latitude": "30.015926094866252",
      "longitude": "-90.11988840916199"
    }
  },
  {
    "service_request": "2022-914073",
    "request_type": "Trash/Recycling",
    "request_reason": "Replace Trash Cart",
    "date_created": "2022-08-28T12:15:30.000",
    "date_modified": "2022-08-28T12:15:31.000",
    "request_status": "Pending",
    "responsible_agency": "Department of Sanitation",
    "final_address": "2833 Napoleon Ave",
    "address_councildis": "B",
    "status": "Assigned to Contractor",
    "contractor": "Richards Disposal",
    "rowid": "914073",
    "final_x": "3670495.89857",
    "final_y": "525341.129469",
    "longitude": "-90.10302689207099",
    "latitude": "29.938835332072447",
    "geocoded_column": {
      "latitude": "29.938835332072447",
      "longitude": "-90.10302689207099"
    }
  },
  {
    "service_request": "2022-914072",
    "request_type": "Abandoned Vehicles",
    "request_reason": "Vehicle Blocking Your Driveway",
    "date_created": "2022-08-28T11:55:15.000",
    "date_modified": "2022-08-28T11:55:15.000",
    "request_status": "Pending",
    "responsible_agency": "Department of Public Works",
    "final_address": "1933 Fern St",
    "address_councildis": "A",
    "status": "Pending",
    "rowid": "914072",
    "final_x": "3664405.5154",
    "final_y": "529845.334721",
    "longitude": "-90.12210468529486",
    "latitude": "29.95139885505022",
    "geocoded_column": {
      "latitude": "29.95139885505022",
      "longitude": "-90.12210468529486"
    }
  },
  {
    "service_request": "2022-914071",
    "request_type": "Property Maintenance",
    "request_reason": "Property Maintenance",
    "date_created": "2022-08-28T11:52:34.000",
    "date_modified": "2022-08-28T11:52:34.000",
    "request_status": "Pending",
    "responsible_agency": "Department of Code Enforcement",
    "final_address": "1459 Magazine St",
    "address_councildis": "B",
    "status": "Pending",
    "rowid": "914071",
    "final_x": "3680211.98971",
    "final_y": "524055.71046",
    "longitude": "-90.07239676331734",
    "latitude": "29.935010424952612",
    "geocoded_column": {
      "latitude": "29.935010424952612",
      "longitude": "-90.07239676331734"
    }
  },
  {
    "service_request": "2022-914070",
    "request_type": "Property Maintenance",
    "request_reason": "Property Maintenance",
    "date_created": "2022-08-28T11:50:36.000",
    "date_modified": "2022-08-28T11:50:36.000",
    "request_status": "Pending",
    "responsible_agency": "Department of Code Enforcement",
    "final_address": "6700 Plaza Dr",
    "address_councildis": "E",
    "status": "Pending",
    "rowid": "914070",
    "final_x": "3708600.87569",
    "final_y": "559744.969757",
    "longitude": "-89.98144479994687",
    "latitude": "30.032253010900185",
    "geocoded_column": {
      "latitude": "30.032253010900185",
      "longitude": "-89.98144479994687"
    }
  },
  {
    "service_request": "2022-914069",
    "request_type": "Traffic Signals/Signs/Striping/Streetlights",
    "request_reason": "Street Light Outage/Malfunction",
    "date_created": "2022-08-28T11:47:12.000",
    "date_modified": "2022-08-28T11:47:13.000",
    "request_status": "Pending",
    "responsible_agency": "Department of Public Works",
    "final_address": "230 N Broad St",
    "address_councildis": "B",
    "status": "Pending",
    "contractor": "Legacy Professional Services",
    "rowid": "914069",
    "final_x": "3675822.33269",
    "final_y": "535572.72647",
    "longitude": "-90.08585904720267",
    "latitude": "29.966810482811358",
    "geocoded_column": {
      "latitude": "29.966810482811358",
      "longitude": "-90.08585904720267"
    }
  },
  {
    "service_request": "2022-914068",
    "request_type": "Traffic Signals/Signs/Striping/Streetlights",
    "request_reason": "Street Light Outage/Malfunction",
    "date_created": "2022-08-28T11:46:10.000",
    "date_modified": "2022-08-28T11:46:11.000",
    "request_status": "Pending",
    "responsible_agency": "Department of Public Works",
    "final_address": "1461 Magazine St",
    "address_councildis": "B",
    "status": "Pending",
    "contractor": "Legacy Professional Services",
    "rowid": "914068",
    "final_x": "3680202.78491",
    "final_y": "524023.150652",
    "longitude": "-90.0724269539209",
    "latitude": "29.934921174757065",
    "geocoded_column": {
      "latitude": "29.934921174757065",
      "longitude": "-90.0724269539209"
    }
  },
  {
    "service_request": "2022-914067",
    "request_type": "Trash/Recycling",
    "request_reason": "Replace Trash Cart",
    "date_created": "2022-08-28T11:45:58.000",
    "date_modified": "2022-08-28T11:45:58.000",
    "request_status": "Pending",
    "responsible_agency": "Department of Sanitation",
    "final_address": "10317 Willow Dr",
    "address_councildis": "C",
    "status": "Assigned to Contractor",
    "contractor": "Richards Disposal",
    "rowid": "914067",
    "final_x": "3722314.98086",
    "final_y": "517240.380021",
    "longitude": "-89.93974143589126",
    "latitude": "29.914929619592506",
    "geocoded_column": {
      "latitude": "29.914929619592506",
      "longitude": "-89.93974143589126"
    }
  },
  {
    "service_request": "2022-914066",
    "request_type": "Trash/Recycling",
    "request_reason": "Replace Trash Cart",
    "date_created": "2022-08-28T11:16:25.000",
    "date_modified": "2022-08-28T11:16:26.000",
    "request_status": "Pending",
    "responsible_agency": "Department of Sanitation",
    "final_address": "2819 Ramsey Dr",
    "address_councildis": "C",
    "status": "Assigned to Contractor",
    "contractor": "Richards Disposal",
    "rowid": "914066",
    "final_x": "3702988.18142",
    "final_y": "520294.129208",
    "longitude": "-90.00063115688705",
    "latitude": "29.923958558399615",
    "geocoded_column": {
      "latitude": "29.923958558399615",
      "longitude": "-90.00063115688705"
    }
  },
  {
    "service_request": "2022-914065",
    "request_type": "Trash/Recycling",
    "request_reason": "Request a Large Item Pick Up",
    "date_created": "2022-08-28T11:00:06.000",
    "date_modified": "2022-08-28T11:00:06.000",
    "request_status": "Pending",
    "responsible_agency": "Department of Sanitation",
    "final_address": "3172 Toulouse St",
    "address_councildis": "A",
    "status": "Assigned to Contractor",
    "contractor": "Richards Disposal",
    "rowid": "914065",
    "final_x": "3674717.28276",
    "final_y": "537824.869704",
    "longitude": "-90.08927157801492",
    "latitude": "29.97303614699609",
    "geocoded_column": {
      "latitude": "29.97303614699609",
      "longitude": "-90.08927157801492"
    }
  },
  {
    "service_request": "2022-914064",
    "request_type": "Abandoned Vehicles",
    "request_reason": "Abandoned/Junk Vehicles",
    "date_created": "2022-08-28T10:57:32.000",
    "date_modified": "2022-08-28T10:57:32.000",
    "request_status": "Pending",
    "responsible_agency": "Department of Public Works",
    "final_address": "2552 Ursulines Ave",
    "address_councildis": "D",
    "status": "Pending",
    "rowid": "914064",
    "final_x": "3678061.25749",
    "final_y": "537736.304264",
    "longitude": "-90.07871371268011",
    "latitude": "29.972692369097597",
    "geocoded_column": {
      "latitude": "29.972692369097597",
      "longitude": "-90.07871371268011"
    }
  },
  {
    "service_request": "2022-914063",
    "request_type": "Trash/Recycling",
    "request_reason": "Request a Large Item Pick Up",
    "date_created": "2022-08-28T10:33:59.000",
    "date_modified": "2022-08-28T10:34:00.000",
    "request_status": "Pending",
    "responsible_agency": "Department of Sanitation",
    "final_address": "802 Taft Pl, New Orleans, Louisiana, 70119",
    "address_councildis": "A",
    "status": "Assigned to Contractor",
    "contractor": "Richards Disposal",
    "rowid": "914063",
    "final_x": "3673843.59361",
    "final_y": "539413.617738",
    "longitude": "-90.0919765047506",
    "latitude": "29.977430716992856",
    "geocoded_column": {
      "latitude": "29.977430716992856",
      "longitude": "-90.0919765047506"
    }
  },
  {
    "service_request": "2022-914062",
    "request_type": "Trash/Recycling",
    "request_reason": "Repair Trash Cart",
    "date_created": "2022-08-28T10:29:04.000",
    "date_modified": "2022-08-28T10:29:05.000",
    "request_status": "Pending",
    "responsible_agency": "Department of Sanitation",
    "final_address": "706 Jena St",
    "address_councildis": "B",
    "status": "Assigned to Contractor",
    "contractor": "Richards Disposal",
    "rowid": "914062",
    "final_x": "3670683.64942",
    "final_y": "518073.468918",
    "longitude": "-90.10268057157344",
    "latitude": "29.918846048630225",
    "geocoded_column": {
      "latitude": "29.918846048630225",
      "longitude": "-90.10268057157344"
    }
  },
  {
    "service_request": "2022-914061",
    "request_type": "Abandoned Vehicles",
    "request_reason": "Abandoned/Junk Vehicles",
    "date_created": "2022-08-28T10:12:17.000",
    "date_modified": "2022-08-28T10:12:17.000",
    "request_status": "Pending",
    "responsible_agency": "Department of Public Works",
    "final_address": "932 Euterpe St",
    "address_councildis": "B",
    "status": "Pending",
    "rowid": "914061",
    "final_x": "3680755.23989",
    "final_y": "524058.271164",
    "longitude": "-90.07068163864484",
    "latitude": "29.935001016840783",
    "geocoded_column": {
      "latitude": "29.935001016840783",
      "longitude": "-90.07068163864484"
    }
  },
  {
    "service_request": "2022-914060",
    "request_type": "Abandoned Vehicles",
    "request_reason": "Abandoned/Junk Vehicles",
    "date_created": "2022-08-28T10:06:41.000",
    "date_modified": "2022-08-28T10:06:42.000",
    "request_status": "Pending",
    "responsible_agency": "Department of Public Works",
    "final_address": "6701 Foch Rd",
    "address_councildis": "D",
    "status": "Pending",
    "rowid": "914060",
    "final_x": "3696890.71088",
    "final_y": "555945.747545",
    "longitude": "-90.01858729972633",
    "latitude": "30.022181287580207",
    "geocoded_column": {
      "latitude": "30.022181287580207",
      "longitude": "-90.01858729972633"
    }
  },
  {
    "service_request": "2022-914059",
    "request_type": "Trash/Recycling",
    "request_reason": "Replace Trash Cart",
    "date_created": "2022-08-28T10:05:16.000",
    "date_modified": "2022-08-28T10:05:17.000",
    "request_status": "Pending",
    "responsible_agency": "Department of Sanitation",
    "final_address": "4824 Howard Ave",
    "address_councildis": "B",
    "status": "Assigned to Contractor",
    "contractor": "Richards Disposal",
    "rowid": "914059",
    "final_x": "3670257.02516",
    "final_y": "534402.824773",
    "longitude": "-90.10347397873286",
    "latitude": "29.96375907011062",
    "geocoded_column": {
      "latitude": "29.96375907011062",
      "longitude": "-90.10347397873286"
    }
  },
  {
    "service_request": "2022-914058",
    "request_type": "Abandoned Vehicles",
    "request_reason": "Abandoned/Junk Vehicles",
    "date_created": "2022-08-28T10:02:26.000",
    "date_modified": "2022-08-28T10:02:27.000",
    "request_status": "Pending",
    "responsible_agency": "Department of Public Works",
    "final_address": "6745 Dorian St",
    "address_councildis": "D",
    "status": "Pending",
    "rowid": "914058",
    "final_x": "3696482.28855",
    "final_y": "556150.767258",
    "longitude": "-90.01987038005446",
    "latitude": "30.022757893184828",
    "geocoded_column": {
      "latitude": "30.022757893184828",
      "longitude": "-90.01987038005446"
    }
  },
  {
    "service_request": "2022-914057",
    "request_type": "Roads/Drainage",
    "request_reason": "Damaged Sidewalk",
    "date_created": "2022-08-28T09:48:41.000",
    "date_modified": "2022-08-28T09:48:41.000",
    "request_status": "Pending",
    "responsible_agency": "Department of Public Works",
    "final_address": "1333 S Carrollton Ave",
    "address_councildis": "A",
    "status": "Pending",
    "rowid": "914057",
    "final_x": "3662515.43635",
    "final_y": "528731.596352",
    "longitude": "-90.12810964781309",
    "latitude": "29.948391233872897",
    "geocoded_column": {
      "latitude": "29.948391233872897",
      "longitude": "-90.12810964781309"
    }
  },
  {
    "service_request": "2022-914056",
    "request_type": "Property Maintenance",
    "request_reason": "Property Maintenance",
    "date_created": "2022-08-28T09:14:22.000",
    "date_modified": "2022-08-28T09:14:22.000",
    "request_status": "Pending",
    "responsible_agency": "Department of Code Enforcement",
    "final_address": "4202 S Carrollton Ave",
    "address_councildis": "A",
    "status": "Pending",
    "rowid": "914056",
    "final_x": "3669622.6002",
    "final_y": "536543.207623",
    "longitude": "-90.10540500244745",
    "latitude": "29.969663117238614",
    "geocoded_column": {
      "latitude": "29.969663117238614",
      "longitude": "-90.10540500244745"
    }
  },
  {
    "service_request": "2022-914055",
    "request_type": "Property Maintenance",
    "request_reason": "Property Maintenance",
    "date_created": "2022-08-28T09:13:29.000",
    "date_modified": "2022-08-28T09:13:29.000",
    "request_status": "Pending",
    "responsible_agency": "Department of Code Enforcement",
    "final_address": "4041 Tulane Ave",
    "address_councildis": "A",
    "status": "Pending",
    "rowid": "914055",
    "final_x": "3669643.28628",
    "final_y": "536226.881159",
    "longitude": "-90.10535037982294",
    "latitude": "29.96879271575841",
    "geocoded_column": {
      "latitude": "29.96879271575841",
      "longitude": "-90.10535037982294"
    }
  },
  {
    "service_request": "2022-914054",
    "request_type": "Property Maintenance",
    "request_reason": "Property Maintenance",
    "date_created": "2022-08-28T09:12:07.000",
    "date_modified": "2022-08-28T09:12:07.000",
    "request_status": "Pending",
    "responsible_agency": "Department of Code Enforcement",
    "final_address": "4118 S Carrollton Ave",
    "address_councildis": "A",
    "status": "Pending",
    "rowid": "914054",
    "final_x": "3669537.0779",
    "final_y": "536403.305927",
    "longitude": "-90.10567982388267",
    "latitude": "29.96928095415532",
    "geocoded_column": {
      "latitude": "29.96928095415532",
      "longitude": "-90.10567982388267"
    }
  },
  {
    "service_request": "2022-914053",
    "request_type": "Property Maintenance",
    "request_reason": "Property Maintenance",
    "date_created": "2022-08-28T09:10:59.000",
    "date_modified": "2022-08-28T09:10:59.000",
    "request_status": "Pending",
    "responsible_agency": "Department of Code Enforcement",
    "final_address": "4126 S Carrollton Ave",
    "address_councildis": "A",
    "status": "Pending",
    "rowid": "914053",
    "final_x": "3669576.77678",
    "final_y": "536457.693127",
    "longitude": "-90.10555261101833",
    "latitude": "29.969429331171934",
    "geocoded_column": {
      "latitude": "29.969429331171934",
      "longitude": "-90.10555261101833"
    }
  },
  {
    "service_request": "2022-914052",
    "request_type": "Property Maintenance",
    "request_reason": "Property Maintenance",
    "date_created": "2022-08-28T09:09:34.000",
    "date_modified": "2022-08-28T09:09:34.000",
    "request_status": "Pending",
    "responsible_agency": "Department of Code Enforcement",
    "final_address": "4025 Ulloa St",
    "address_councildis": "A",
    "status": "Pending",
    "rowid": "914052",
    "final_x": "3669907.57978",
    "final_y": "536336.740103",
    "longitude": "-90.10451200192104",
    "latitude": "29.96908700029365",
    "geocoded_column": {
      "latitude": "29.96908700029365",
      "longitude": "-90.10451200192104"
    }
  },
  {
    "service_request": "2022-914051",
    "request_type": "Property Maintenance",
    "request_reason": "Property Maintenance",
    "date_created": "2022-08-28T09:07:43.000",
    "date_modified": "2022-08-28T09:07:43.000",
    "request_status": "Pending",
    "responsible_agency": "Department of Code Enforcement",
    "final_address": "4051 Tulane Ave",
    "address_councildis": "A",
    "status": "Pending",
    "rowid": "914051",
    "final_x": "3669602.0962",
    "final_y": "536274.100551",
    "longitude": "-90.10547886301586",
    "latitude": "29.96892376700848",
    "geocoded_column": {
      "latitude": "29.96892376700848",
      "longitude": "-90.10547886301586"
    }
  },
  {
    "service_request": "2022-914050",
    "request_type": "Property Maintenance",
    "request_reason": "Property Maintenance",
    "date_created": "2022-08-28T09:04:45.000",
    "date_modified": "2022-08-28T09:04:45.000",
    "request_status": "Pending",
    "responsible_agency": "Department of Code Enforcement",
    "final_address": "4044 Ulloa St",
    "address_councildis": "A",
    "status": "Pending",
    "rowid": "914050",
    "final_x": "3669728.88967",
    "final_y": "536366.720263",
    "longitude": "-90.10507530450072",
    "latitude": "29.969174703683215",
    "geocoded_column": {
      "latitude": "29.969174703683215",
      "longitude": "-90.10507530450072"
    }
  },
  {
    "service_request": "2022-914049",
    "request_type": "Property Maintenance",
    "request_reason": "Property Maintenance",
    "date_created": "2022-08-28T09:03:11.000",
    "date_modified": "2022-08-28T09:03:11.000",
    "request_status": "Pending",
    "responsible_agency": "Department of Code Enforcement",
    "final_address": "4052 Ulloa St",
    "address_councildis": "A",
    "status": "Pending",
    "rowid": "914049",
    "final_x": "3669677.65748",
    "final_y": "536391.234887",
    "longitude": "-90.10523627017909",
    "latitude": "29.96924362063183",
    "geocoded_column": {
      "latitude": "29.96924362063183",
      "longitude": "-90.10523627017909"
    }
  },
  {
    "service_request": "2022-914048",
    "request_type": "Trash/Recycling",
    "request_reason": "Order Recycling Cart",
    "date_created": "2022-08-28T09:03:05.000",
    "date_modified": "2022-08-28T09:03:05.000",
    "request_status": "Pending",
    "responsible_agency": "Department of Sanitation",
    "final_address": "1314 Frenchmen St",
    "address_councildis": "C",
    "status": "Pending",
    "rowid": "914048",
    "final_x": "3684493.07292",
    "final_y": "537146.233416",
    "longitude": "-90.05842162259366",
    "latitude": "29.97087466987811",
    "geocoded_column": {
      "latitude": "29.97087466987811",
      "longitude": "-90.05842162259366"
    }
  },
  {
    "service_request": "2022-914047",
    "request_type": "Trash/Recycling",
    "request_reason": "Missed Trash Pick-Up",
    "date_created": "2022-08-28T08:38:33.000",
    "date_modified": "2022-08-28T08:38:33.000",
    "request_status": "Pending",
    "responsible_agency": "Department of Sanitation",
    "final_address": "5901 Brighton Pl",
    "address_councildis": "C",
    "status": "Assigned to Contractor",
    "contractor": "Richards Disposal",
    "rowid": "914047",
    "final_x": "3705653.85809",
    "final_y": "520023.15372",
    "longitude": "-89.99222664990286",
    "latitude": "29.923127950565007",
    "geocoded_column": {
      "latitude": "29.923127950565007",
      "longitude": "-89.99222664990286"
    }
  },
  {
    "service_request": "2022-914046",
    "request_type": "Trash/Recycling",
    "request_reason": "Illegal Dumping",
    "date_created": "2022-08-28T08:36:40.000",
    "date_modified": "2022-08-28T08:36:41.000",
    "request_status": "Pending",
    "responsible_agency": "Department of Code Enforcement",
    "final_address": "2748 Clouet St",
    "address_councildis": "D",
    "status": "Pending",
    "rowid": "914046",
    "final_x": "3690662.07299",
    "final_y": "542749.595277",
    "longitude": "-90.03873927405374",
    "latitude": "29.98609174558926",
    "geocoded_column": {
      "latitude": "29.98609174558926",
      "longitude": "-90.03873927405374"
    }
  },
  {
    "service_request": "2022-914045",
    "request_type": "Property Maintenance",
    "request_reason": "Property Maintenance",
    "date_created": "2022-08-28T08:27:05.000",
    "date_modified": "2022-08-28T08:27:06.000",
    "request_status": "Pending",
    "responsible_agency": "Department of Code Enforcement",
    "final_address": "5460 Royal St",
    "address_councildis": "E",
    "status": "Pending",
    "rowid": "914045",
    "final_x": "3697090.18371",
    "final_y": "532367.291011",
    "longitude": "-90.01881171347497",
    "latitude": "29.95734287088281",
    "geocoded_column": {
      "latitude": "29.95734287088281",
      "longitude": "-90.01881171347497"
    }
  },
  {
    "service_request": "2022-914044",
    "request_type": "Trash/Recycling",
    "request_reason": "Missed Trash Pick-Up",
    "date_created": "2022-08-28T07:42:43.000",
    "date_modified": "2022-08-28T07:42:44.000",
    "request_status": "Pending",
    "responsible_agency": "Department of Sanitation",
    "final_address": "6218 Cambridge St",
    "address_councildis": "C",
    "status": "Assigned to Contractor",
    "contractor": "Richards Disposal",
    "rowid": "914044",
    "final_x": "3707098.50372",
    "final_y": "518465.167158",
    "longitude": "-89.98772425163699",
    "latitude": "29.91879745907295",
    "geocoded_column": {
      "latitude": "29.91879745907295",
      "longitude": "-89.98772425163699"
    }
  },
  {
    "service_request": "2022-914043",
    "request_type": "Property Maintenance",
    "request_reason": "Property Maintenance",
    "date_created": "2022-08-28T07:09:16.000",
    "date_modified": "2022-08-28T07:09:16.000",
    "request_status": "Pending",
    "responsible_agency": "Department of Code Enforcement",
    "final_address": "1912 Gordon St",
    "address_councildis": "E",
    "status": "Pending",
    "rowid": "914043",
    "final_x": "3700312.39946",
    "final_y": "536429.700039",
    "longitude": "-90.00848867686712",
    "latitude": "29.968411005062585",
    "geocoded_column": {
      "latitude": "29.968411005062585",
      "longitude": "-90.00848867686712"
    }
  },
  {
    "service_request": "2022-914042",
    "request_type": "Health Related Questions",
    "request_reason": "Noise Ordinance Complaint",
    "date_created": "2022-08-28T02:03:47.000",
    "date_modified": "2022-08-28T02:03:47.000",
    "request_status": "Pending",
    "responsible_agency": "Health Department",
    "final_address": "1200 St Bernard Ave",
    "address_councildis": "C",
    "status": "Pending",
    "rowid": "914042",
    "final_x": "3683033.3165",
    "final_y": "536132.891847",
    "longitude": "-90.06306719052876",
    "latitude": "29.96813290984115",
    "geocoded_column": {
      "latitude": "29.96813290984115",
      "longitude": "-90.06306719052876"
    }
  },
  {
    "service_request": "2022-914041",
    "request_type": "Health Related Questions",
    "request_reason": "Noise Ordinance Complaint",
    "date_created": "2022-08-28T01:58:41.000",
    "date_modified": "2022-08-28T01:58:41.000",
    "request_status": "Pending",
    "responsible_agency": "Health Department",
    "final_address": "4008 Royal St, New Orleans, Louisiana, 70117",
    "address_councildis": "C",
    "status": "Pending",
    "rowid": "914041",
    "final_x": "3691478.01206",
    "final_y": "533654.404037",
    "longitude": "-90.03648719250774",
    "latitude": "29.961057821763145",
    "geocoded_column": {
      "latitude": "29.961057821763145",
      "longitude": "-90.03648719250774"
    }
  },
  {
    "service_request": "2022-914040",
    "request_type": "Health Related Questions",
    "request_reason": "Noise Ordinance Complaint",
    "date_created": "2022-08-28T00:23:59.000",
    "date_modified": "2022-08-28T00:23:59.000",
    "request_status": "Pending",
    "responsible_agency": "Health Department",
    "final_address": "1711 Henriette Delille St",
    "address_councildis": "C",
    "status": "Pending",
    "rowid": "914040",
    "final_x": "3683258.02236",
    "final_y": "536191.367367",
    "longitude": "-90.06235551299721",
    "latitude": "29.96828684583246",
    "geocoded_column": {
      "latitude": "29.96828684583246",
      "longitude": "-90.06235551299721"
    }
  },
  {
    "service_request": "2022-914039",
    "request_type": "Safety & Permits",
    "request_reason": "Licenses & Permits",
    "date_created": "2022-08-28T00:03:58.000",
    "date_modified": "2022-08-28T00:03:58.000",
    "request_status": "Pending",
    "responsible_agency": "Safety and Permits",
    "final_address": "2517 Bayou Rd",
    "address_councildis": "D",
    "status": "Pending",
    "rowid": "914039",
    "final_x": "3678830.45045",
    "final_y": "539070.796874",
    "longitude": "-90.07623822157638",
    "latitude": "29.976338583869488",
    "geocoded_column": {
      "latitude": "29.976338583869488",
      "longitude": "-90.07623822157638"
    }
  },
  {
    "service_request": "2022-914038",
    "request_type": "Roads/Drainage",
    "request_reason": "Pothole",
    "date_created": "2022-08-27T23:31:07.000",
    "date_modified": "2022-08-27T23:31:07.000",
    "request_status": "Pending",
    "responsible_agency": "Department of Public Works",
    "final_address": "5625 Milne St",
    "address_councildis": "A",
    "status": "Pending",
    "rowid": "914038",
    "final_x": "3666867.71277",
    "final_y": "544939.975631",
    "longitude": "-90.1138229849836",
    "latitude": "29.992832286740573",
    "geocoded_column": {
      "latitude": "29.992832286740573",
      "longitude": "-90.1138229849836"
    }
  },
  {
    "service_request": "2022-914037",
    "request_type": "Trash/Recycling",
    "request_reason": "Order Trash Cart",
    "date_created": "2022-08-27T22:49:33.000",
    "date_modified": "2022-08-27T22:49:34.000",
    "request_status": "Pending",
    "responsible_agency": "Department of Sanitation",
    "final_address": "4007 Magazine St",
    "address_councildis": "B",
    "status": "Assigned to Contractor",
    "contractor": "Richards Disposal",
    "rowid": "914037",
    "final_x": "3672418.30567",
    "final_y": "518962.645751",
    "longitude": "-90.09717487248052",
    "latitude": "29.921239659834562",
    "geocoded_column": {
      "latitude": "29.921239659834562",
      "longitude": "-90.09717487248052"
    }
  },
  {
    "service_request": "2022-914034",
    "request_type": "Roads/Drainage",
    "request_reason": "Pothole",
    "date_created": "2022-08-27T21:39:38.000",
    "date_modified": "2022-08-27T21:39:38.000",
    "request_status": "Pending",
    "responsible_agency": "Department of Public Works",
    "final_address": "5140 Painters St, New Orleans, Louisiana, 70122",
    "address_councildis": "D",
    "status": "Pending",
    "rowid": "914034",
    "final_x": "3686021.75868",
    "final_y": "551827.19855",
    "longitude": "-90.0530758172332",
    "latitude": "30.011195224658845",
    "geocoded_column": {
      "latitude": "30.011195224658845",
      "longitude": "-90.0530758172332"
    }
  },
  {
    "service_request": "2022-914033",
    "request_type": "Traffic Signals/Signs/Striping/Streetlights",
    "request_reason": "Street Light Outage/Malfunction",
    "date_created": "2022-08-27T21:13:16.000",
    "date_modified": "2022-08-27T21:13:17.000",
    "request_status": "Pending",
    "responsible_agency": "Department of Public Works",
    "final_address": "4614 Perrier St",
    "address_councildis": "B",
    "status": "Pending",
    "contractor": "Legacy Professional Services",
    "rowid": "914033",
    "final_x": "3670043.47866",
    "final_y": "519947.915896",
    "longitude": "-90.10463781882825",
    "latitude": "29.924019073498595",
    "geocoded_column": {
      "latitude": "29.924019073498595",
      "longitude": "-90.10463781882825"
    }
  },
  {
    "service_request": "2022-914032",
    "request_type": "Roads/Drainage",
    "request_reason": "Pothole",
    "date_created": "2022-08-27T20:41:44.000",
    "date_modified": "2022-08-27T20:41:44.000",
    "request_status": "Pending",
    "responsible_agency": "Department of Public Works",
    "final_address": "13357 Curran Rd",
    "address_councildis": "E",
    "status": "Pending",
    "rowid": "914032",
    "final_x": "3716604.05317",
    "final_y": "570637.535335",
    "longitude": "-89.95574066611944",
    "latitude": "30.0619410608225",
    "geocoded_column": {
      "latitude": "30.0619410608225",
      "longitude": "-89.95574066611944"
    }
  },
  {
    "service_request": "2022-914031",
    "request_type": "Roads/Drainage",
    "request_reason": "Pothole",
    "date_created": "2022-08-27T20:40:08.000",
    "date_modified": "2022-08-27T20:40:08.000",
    "request_status": "Pending",
    "responsible_agency": "Department of Public Works",
    "final_address": "13351 Curran Rd",
    "address_councildis": "E",
    "status": "Pending",
    "rowid": "914031",
    "final_x": "3716536.69394",
    "final_y": "570595.510311",
    "longitude": "-89.955955183742",
    "latitude": "30.06182773600021",
    "geocoded_column": {
      "latitude": "30.06182773600021",
      "longitude": "-89.955955183742"
    }
  },
  {
    "service_request": "2022-914030",
    "request_type": "Traffic Signals/Signs/Striping/Streetlights",
    "request_reason": "Street Light Outage/Malfunction",
    "date_created": "2022-08-27T20:40:03.000",
    "date_modified": "2022-08-27T20:40:04.000",
    "request_status": "Pending",
    "responsible_agency": "Department of Public Works",
    "final_address": "7718 Tricia Ct",
    "address_councildis": "E",
    "status": "Pending",
    "contractor": "Legacy Professional Services",
    "rowid": "914030",
    "final_x": "3717311.26258",
    "final_y": "571429.422312",
    "longitude": "-89.95347505226846",
    "latitude": "30.064095022777998",
    "geocoded_column": {
      "latitude": "30.064095022777998",
      "longitude": "-89.95347505226846"
    }
  },
  {
    "service_request": "2022-914029",
    "request_type": "Traffic Signals/Signs/Striping/Streetlights",
    "request_reason": "Street Light Outage/Malfunction",
    "date_created": "2022-08-27T20:36:48.000",
    "date_modified": "2022-08-27T20:36:50.000",
    "request_status": "Pending",
    "responsible_agency": "Department of Public Works",
    "final_address": "7500 Bullard Ave",
    "address_councildis": "E",
    "status": "Pending",
    "contractor": "Legacy Professional Services",
    "rowid": "914029",
    "final_x": "3713397.11979",
    "final_y": "566755.044771",
    "longitude": "-89.96602415621832",
    "latitude": "30.05137142606786",
    "geocoded_column": {
      "latitude": "30.05137142606786",
      "longitude": "-89.96602415621832"
    }
  },
  {
    "service_request": "2022-914028",
    "request_type": "Traffic Signals/Signs/Striping/Streetlights",
    "request_reason": "Street Light Outage/Malfunction",
    "date_created": "2022-08-27T20:35:12.000",
    "date_modified": "2022-08-27T20:35:12.000",
    "request_status": "Pending",
    "responsible_agency": "Department of Public Works",
    "final_address": "7600 Gannon Rd",
    "address_councildis": "E",
    "status": "Pending",
    "contractor": "Legacy Professional Services",
    "rowid": "914028",
    "final_x": "3716469.08671",
    "final_y": "569659.73431",
    "longitude": "-89.95620443875303",
    "latitude": "30.059256974348585",
    "geocoded_column": {
      "latitude": "30.059256974348585",
      "longitude": "-89.95620443875303"
    }
  },
  {
    "service_request": "2022-914027",
    "request_type": "Trash/Recycling",
    "request_reason": "Request a Large Item Pick Up",
    "date_created": "2022-08-27T20:34:45.000",
    "date_modified": "2022-08-27T20:34:45.000",
    "request_status": "Pending",
    "responsible_agency": "Department of Sanitation",
    "final_address": "2600 St Ann St",
    "address_councildis": "D",
    "status": "Assigned to Contractor",
    "contractor": "Richards Disposal",
    "rowid": "914027",
    "final_x": "3677300.15125",
    "final_y": "536886.786312",
    "longitude": "-90.08114674710275",
    "latitude": "29.970379377748756",
    "geocoded_column": {
      "latitude": "29.970379377748756",
      "longitude": "-90.08114674710275"
    }
  },
  {
    "service_request": "2022-914026",
    "request_type": "Abandoned Vehicles",
    "request_reason": "Abandoned/Junk Vehicles",
    "date_created": "2022-08-27T20:18:34.000",
    "date_modified": "2022-08-27T20:18:34.000",
    "request_status": "Pending",
    "responsible_agency": "Department of Public Works",
    "final_address": "3808 Paris Ave",
    "address_councildis": "D",
    "status": "Pending",
    "rowid": "914026",
    "final_x": "3679496.81147",
    "final_y": "546350.552272",
    "longitude": "-90.07388094105144",
    "latitude": "29.9963352474567",
    "geocoded_column": {
      "latitude": "29.9963352474567",
      "longitude": "-90.07388094105144"
    }
  },
  {
    "service_request": "2022-914025",
    "request_type": "Trash/Recycling",
    "request_reason": "Illegal Dumping",
    "date_created": "2022-08-27T20:16:06.000",
    "date_modified": "2022-08-27T20:16:06.000",
    "request_status": "Pending",
    "responsible_agency": "Department of Sanitation",
    "final_address": "7700 Tricia Ct",
    "address_councildis": "E",
    "status": "Pending",
    "rowid": "914025",
    "final_x": "3717416.82181",
    "final_y": "571313.218472",
    "longitude": "-89.9531457997029",
    "latitude": "30.063772015019794",
    "geocoded_column": {
      "latitude": "30.063772015019794",
      "longitude": "-89.9531457997029"
    }
  },
  {
    "service_request": "2022-914024",
    "request_type": "Traffic Signals/Signs/Striping/Streetlights",
    "request_reason": "Street Light Outage/Malfunction",
    "date_created": "2022-08-27T20:10:46.000",
    "date_modified": "2022-08-27T20:10:47.000",
    "request_status": "Pending",
    "responsible_agency": "Department of Public Works",
    "final_address": "Kings Canyon Drive and 86 Yosemite Drive",
    "status": "Pending",
    "contractor": "Legacy Professional Services",
    "rowid": "914024",
    "longitude": "0.0",
    "latitude": "0.0",
    "geocoded_column": {
      "latitude": "0.0",
      "longitude": "0.0"
    }
  },
  {
    "service_request": "2022-914023",
    "request_type": "Parks & Parkways",
    "request_reason": "Tree Stump (removal, grind)",
    "date_created": "2022-08-27T19:34:52.000",
    "date_modified": "2022-08-27T19:34:52.000",
    "request_status": "Pending",
    "responsible_agency": "Department of Parks & Parkway",
    "final_address": "11110 Lake Forest Blvd",
    "address_councildis": "E",
    "status": "Pending",
    "rowid": "914023",
    "final_x": "3715747.04415",
    "final_y": "560729.799262",
    "longitude": "-89.9588253336553",
    "latitude": "30.03472713407765",
    "geocoded_column": {
      "latitude": "30.03472713407765",
      "longitude": "-89.9588253336553"
    }
  },
  {
    "service_request": "2022-914022",
    "request_type": "Traffic Signals/Signs/Striping/Streetlights",
    "request_reason": "Street Name Sign Damaged or Missing",
    "date_created": "2022-08-27T19:26:19.000",
    "date_modified": "2022-08-27T19:26:19.000",
    "request_status": "Pending",
    "responsible_agency": "Department of Public Works",
    "final_address": "11110 Lake Forest Blvd",
    "address_councildis": "E",
    "status": "Pending",
    "rowid": "914022",
    "final_x": "3715747.04415",
    "final_y": "560729.799262",
    "longitude": "-89.9588253336553",
    "latitude": "30.03472713407765",
    "geocoded_column": {
      "latitude": "30.03472713407765",
      "longitude": "-89.9588253336553"
    }
  },
  {
    "service_request": "2022-914021",
    "request_type": "Parks & Parkways",
    "request_reason": "Request Tree Service (Right of Way/Public Property)",
    "date_created": "2022-08-27T19:25:25.000",
    "date_modified": "2022-08-27T19:41:20.000",
    "request_status": "Pending",
    "responsible_agency": "Department of Parks & Parkway",
    "final_address": "5411 Fontainebleau Dr",
    "address_councildis": "B",
    "status": "Pending",
    "rowid": "914021",
    "final_x": "3668891.65556",
    "final_y": "529767.483201",
    "longitude": "-90.10794223679153",
    "latitude": "29.951053633137814",
    "geocoded_column": {
      "latitude": "29.951053633137814",
      "longitude": "-90.10794223679153"
    }
  },
  {
    "service_request": "2022-914020",
    "request_type": "Roads/Drainage",
    "request_reason": "Pothole",
    "date_created": "2022-08-27T19:25:19.000",
    "date_modified": "2022-08-27T19:25:19.000",
    "request_status": "Pending",
    "responsible_agency": "Department of Public Works",
    "final_address": "1923 Humanity St",
    "address_councildis": "D",
    "status": "Pending",
    "rowid": "914020",
    "final_x": "3682302.75976",
    "final_y": "544662.400015",
    "longitude": "-90.06507617255672",
    "latitude": "29.991608326250564",
    "geocoded_column": {
      "latitude": "29.991608326250564",
      "longitude": "-90.06507617255672"
    }
  },
  {
    "service_request": "2022-914019",
    "request_type": "Property Maintenance",
    "request_reason": "Property Maintenance",
    "date_created": "2022-08-27T19:14:25.000",
    "date_modified": "2022-08-28T11:56:14.000",
    "request_status": "Pending",
    "responsible_agency": "Department of Code Enforcement",
    "final_address": "12990 N Lake Carmel Dr",
    "address_councildis": "E",
    "status": "Pending",
    "rowid": "914019",
    "final_x": "3716566.7148",
    "final_y": "568639.318821",
    "longitude": "-89.9559346198289",
    "latitude": "30.056448027004883",
    "geocoded_column": {
      "latitude": "30.056448027004883",
      "longitude": "-89.9559346198289"
    }
  },
  {
    "service_request": "2022-914018",
    "request_type": "Roads/Drainage",
    "request_reason": "Accessibility Ramps, Curbs and Sidewalk Repair",
    "date_created": "2022-08-27T19:11:26.000",
    "date_modified": "2022-08-27T19:11:26.000",
    "request_status": "Pending",
    "responsible_agency": "Department of Public Works",
    "final_address": "5757 Read Blvd",
    "address_councildis": "E",
    "status": "Pending",
    "rowid": "914018",
    "final_x": "3710769.01029",
    "final_y": "561214.427934",
    "longitude": "-89.97453834413257",
    "latitude": "30.03622292313844",
    "geocoded_column": {
      "latitude": "30.03622292313844",
      "longitude": "-89.97453834413257"
    }
  },
  {
    "service_request": "2022-914017",
    "request_type": "Roads/Drainage",
    "request_reason": "Accessibility Ramps, Curbs and Sidewalk Repair",
    "date_created": "2022-08-27T19:03:45.000",
    "date_modified": "2022-08-27T19:03:45.000",
    "request_status": "Pending",
    "responsible_agency": "Department of Public Works",
    "final_address": "11110 Lake Forest Blvd",
    "address_councildis": "E",
    "status": "Pending",
    "rowid": "914017",
    "final_x": "3715747.04415",
    "final_y": "560729.799262",
    "longitude": "-89.9588253336553",
    "latitude": "30.03472713407765",
    "geocoded_column": {
      "latitude": "30.03472713407765",
      "longitude": "-89.9588253336553"
    }
  },
  {
    "service_request": "2022-914015",
    "request_type": "Traffic Signals/Signs/Striping/Streetlights",
    "request_reason": "Street Light Outage/Malfunction",
    "date_created": "2022-08-27T18:47:34.000",
    "date_modified": "2022-08-27T18:47:34.000",
    "request_status": "Pending",
    "responsible_agency": "Department of Public Works",
    "final_address": "11101 Ivy Ln",
    "address_councildis": "E",
    "status": "Pending",
    "contractor": "Legacy Professional Services",
    "rowid": "914015",
    "final_x": "3715925.494",
    "final_y": "559872.604445",
    "longitude": "-89.95829391908892",
    "latitude": "30.032364305526663",
    "geocoded_column": {
      "latitude": "30.032364305526663",
      "longitude": "-89.95829391908892"
    }
  },
  {
    "service_request": "2022-914014",
    "request_type": "Parks & Parkways",
    "request_reason": "Request Tree Service (Right of Way/Public Property)",
    "date_created": "2022-08-27T18:43:46.000",
    "date_modified": "2022-08-27T18:43:46.000",
    "request_status": "Pending",
    "responsible_agency": "Department of Parks & Parkway",
    "final_address": "4824 Bancroft Dr",
    "address_councildis": "D",
    "status": "Pending",
    "rowid": "914014",
    "final_x": "3676309.03163",
    "final_y": "550001.421332",
    "longitude": "-90.08382516888214",
    "latitude": "30.006469806080144",
    "geocoded_column": {
      "latitude": "30.006469806080144",
      "longitude": "-90.08382516888214"
    }
  },
  {
    "service_request": "2022-914013",
    "request_type": "Trash/Recycling",
    "request_reason": "MIssed Recycling Pick-Up",
    "date_created": "2022-08-27T18:29:39.000",
    "date_modified": "2022-08-27T18:29:40.000",
    "request_status": "Pending",
    "responsible_agency": "Department of Sanitation",
    "final_address": "2128 St Andrew St",
    "address_councildis": "B",
    "status": "Assigned to Contractor",
    "contractor": "Richards Disposal",
    "rowid": "914013",
    "final_x": "3676851.91688",
    "final_y": "525814.340861",
    "longitude": "-90.08294390778713",
    "latitude": "29.939947324561064",
    "geocoded_column": {
      "latitude": "29.939947324561064",
      "longitude": "-90.08294390778713"
    }
  },
  {
    "service_request": "2022-914012",
    "request_type": "Roads/Drainage",
    "request_reason": "Catch Basin - Clogged",
    "date_created": "2022-08-27T18:19:30.000",
    "date_modified": "2022-08-27T18:19:30.000",
    "request_status": "Pending",
    "responsible_agency": "Department of Public Works",
    "final_address": "1111 Poland Ave",
    "address_councildis": "D",
    "status": "Pending",
    "rowid": "914012",
    "final_x": "3693198.2847",
    "final_y": "535193.421126",
    "longitude": "-90.03099967493971",
    "latitude": "29.965235929674588",
    "geocoded_column": {
      "latitude": "29.965235929674588",
      "longitude": "-90.03099967493971"
    }
  },
  {
    "service_request": "2022-914011",
    "request_type": "Property Maintenance",
    "request_reason": "Property Maintenance",
    "date_created": "2022-08-27T18:17:15.000",
    "date_modified": "2022-08-27T18:17:15.000",
    "request_status": "Pending",
    "responsible_agency": "Department of Code Enforcement",
    "final_address": "1111 Poland Ave",
    "address_councildis": "D",
    "status": "Pending",
    "rowid": "914011",
    "final_x": "3693198.2847",
    "final_y": "535193.421126",
    "longitude": "-90.03099967493971",
    "latitude": "29.965235929674588",
    "geocoded_column": {
      "latitude": "29.965235929674588",
      "longitude": "-90.03099967493971"
    }
  },