[
  {
    "service_request": "2023-1052429",
    "request_type": "Roads/Drainage",
    "request_reason": "Road Shoulder Repair",
    "date_created": "2023-11-29T01:24:58.000",
    "date_modified": "2023-11-29T01:24:58.000",
    "request_status": "Pending",
    "responsible_agency": "Department of Public Works",
    "final_address": "1300 General Taylor St",
    "address_councildis": "B",
    "status": "Pending",
    "rowid": "1052429",
    "final_x": "3672762.11304",
    "final_y": "520298.263352",
    "longitude": "-90.09604409876785",
    "latitude": "29.924901977789897",
    "geocoded_column": {
      "latitude": "29.924901977789897",
      "longitude": "-90.09604409876785"
    }
  },
  {
    "service_request": "2023-1052428",
    "request_type": "Trash/Recycling",
    "request_reason": "Request a Large Item Pick Up",
    "date_created": "2023-11-29T01:24:27.000",
    "date_modified": "2023-11-29T01:24:28.000",
    "request_status": "Pending",
    "responsible_agency": "Department of Sanitation",
    "final_address": "1801 Governor Nicholls St",
    "address_councildis": "D",
    "status": "Assigned to Contractor",
    "contractor": "Richards Disposal",
    "rowid": "1052428",
    "final_x": "3680579.55099",
    "final_y": "536339.522887",
    "longitude": "-90.07080908646411",
    "latitude": "29.968775642763724",
    "geocoded_column": {
      "latitude": "29.968775642763724",
      "longitude": "-90.07080908646411"
    }
  },
  {
    "service_request": "2023-1052427",
    "request_type": "Trash/Recycling",
    "request_reason": "Replace Trash Cart",
    "date_created": "2023-11-28T23:02:06.000",
    "date_modified": "2023-11-28T23:02:07.000",
    "request_status": "Pending",
    "responsible_agency": "Department of Sanitation",
    "final_address": "2130 Robert St",
    "address_councildis": "B",
    "status": "Assigned to Contractor",
    "contractor": "Richards Disposal",
    "rowid": "1052427",
    "final_x": "3668759.48826",
    "final_y": "523471.727419",
    "longitude": "-90.10857203667472",
    "latitude": "29.933746228206783",
    "geocoded_column": {
      "latitude": "29.933746228206783",
      "longitude": "-90.10857203667472"
    }
  },
  {
    "service_request": "2023-1052426",
    "request_type": "Trash/Recycling",
    "request_reason": "Replace Recycling Cart",
    "date_created": "2023-11-28T22:35:25.000",
    "date_modified": "2023-11-28T22:35:25.000",
    "request_status": "Pending",
    "responsible_agency": "Department of Sanitation",
    "final_address": "4437 S Liberty St",
    "address_councildis": "B",
    "status": "Pending",
    "rowid": "1052426",
    "final_x": "3670254.30375",
    "final_y": "523351.815483",
    "longitude": "-90.10385702535233",
    "latitude": "29.933372490783984",
    "geocoded_column": {
      "latitude": "29.933372490783984",
      "longitude": "-90.10385702535233"
    }
  },
  {
    "service_request": "2023-1052425",
    "request_type": "Trash/Recycling",
    "request_reason": "Repair Trash Cart",
    "date_created": "2023-11-28T22:33:07.000",
    "date_modified": "2023-11-28T22:33:08.000",
    "request_status": "Pending",
    "responsible_agency": "Department of Sanitation",
    "final_address": "4437 S Liberty St",
    "address_councildis": "B",
    "status": "Assigned to Contractor",
    "contractor": "Richards Disposal",
    "rowid": "1052425",
    "final_x": "3670254.30375",
    "final_y": "523351.815483",
    "longitude": "-90.10385702535233",
    "latitude": "29.933372490783984",
    "geocoded_column": {
      "latitude": "29.933372490783984",
      "longitude": "-90.10385702535233"
    }
  },
  {
    "service_request": "2023-1052424",
    "request_type": "Property Maintenance",
    "request_reason": "Property Maintenance",
    "date_created": "2023-11-28T21:44:19.000",
    "date_modified": "2023-11-28T21:44:19.000",
    "request_status": "Pending",
    "responsible_agency": "Department of Code Enforcement",
    "final_address": "2224 Odin St",
    "address_councildis": "D",
    "status": "Pending",
    "rowid": "1052424",
    "final_x": "3683940.46332",
    "final_y": "553013.649367",
    "longitude": "-90.05960979083996",
    "latitude": "30.014521309175315",
    "geocoded_column": {
      "latitude": "30.014521309175315",
      "longitude": "-90.05960979083996"
    }
  },
  {
    "service_request": "2023-1052422",
    "request_type": "Traffic Signals/Signs/Striping/Streetlights",
    "request_reason": "Street Light Outage/Malfunction",
    "date_created": "2023-11-28T21:30:43.000",
    "date_modified": "2023-11-28T21:30:44.000",
    "request_status": "Pending",
    "responsible_agency": "Department of Public Works",
    "final_address": "2000 BLK First St",
    "address_councildis": "B",
    "status": "Assigned to Contractor",
    "contractor": "Legacy Professional Services",
    "rowid": "1052422",
    "final_x": "3676060.31648",
    "final_y": "524555.666556",
    "longitude": "-90.0854863856438",
    "latitude": "29.93651011183095",
    "geocoded_column": {
      "latitude": "29.93651011183095",
      "longitude": "-90.0854863856438"
    }
  },
  {
    "service_request": "2023-1052421",
    "request_type": "Traffic Signals/Signs/Striping/Streetlights",
    "request_reason": "Street Light Outage/Malfunction",
    "date_created": "2023-11-28T21:29:10.000",
    "date_modified": "2023-11-28T21:29:10.000",
    "request_status": "Pending",
    "responsible_agency": "Department of Public Works",
    "final_address": "2300 BLK S Saratoga St",
    "address_councildis": "B",
    "status": "Assigned to Contractor",
    "contractor": "Legacy Professional Services",
    "rowid": "1052421",
    "final_x": "3676061.37783",
    "final_y": "524766.258326",
    "longitude": "-90.08547579452028",
    "latitude": "29.937089138438502",
    "geocoded_column": {
      "latitude": "29.937089138438502",
      "longitude": "-90.08547579452028"
    }
  },
  {
    "service_request": "2023-1052420",
    "request_type": "Traffic Signals/Signs/Striping/Streetlights",
    "request_reason": "Street Light Outage/Malfunction",
    "date_created": "2023-11-28T21:26:44.000",
    "date_modified": "2023-11-28T21:26:45.000",
    "request_status": "Pending",
    "responsible_agency": "Department of Public Works",
    "final_address": "2114 First St",
    "address_councildis": "B",
    "status": "Assigned to Contractor",
    "contractor": "Legacy Professional Services",
    "rowid": "1052420",
    "final_x": "3675863.29819",
    "final_y": "524796.660412",
    "longitude": "-90.08610009924051",
    "latitude": "29.937178664188522",
    "geocoded_column": {
      "latitude": "29.937178664188522",
      "longitude": "-90.08610009924051"
    }
  },
  {
    "service_request": "2023-1052419",
    "request_type": "Trash/Recycling",
    "request_reason": "Request a Large Item Pick Up",
    "date_created": "2023-11-28T21:08:52.000",
    "date_modified": "2023-11-28T21:08:53.000",
    "request_status": "Pending",
    "responsible_agency": "Department of Sanitation",
    "final_address": "1019 Foucher St",
    "address_councildis": "B",
    "status": "Assigned to Contractor",
    "contractor": "Richards Disposal",
    "rowid": "1052419",
    "final_x": "3674278.31764",
    "final_y": "519122.490615",
    "longitude": "-90.0912981619636",
    "latitude": "29.921623875302313",
    "geocoded_column": {
      "latitude": "29.921623875302313",
      "longitude": "-90.0912981619636"
    }
  },
  {
    "service_request": "2023-1052418",
    "request_type": "Trash/Recycling",
    "request_reason": "Order Recycling Cart",
    "date_created": "2023-11-28T20:16:02.000",
    "date_modified": "2023-11-28T20:16:02.000",
    "request_status": "Pending",
    "responsible_agency": "Department of Sanitation",
    "final_address": "2816 General Pershing St",
    "address_councildis": "B",
    "status": "Pending",
    "rowid": "1052418",
    "final_x": "3670773.90119",
    "final_y": "525265.846653",
    "longitude": "-90.1021517580002",
    "latitude": "29.938620118136434",
    "geocoded_column": {
      "latitude": "29.938620118136434",
      "longitude": "-90.1021517580002"
    }
  },
  {
    "service_request": "2023-1052417",
    "request_type": "Trash/Recycling",
    "request_reason": "Illegal Dumping",
    "date_created": "2023-11-28T19:53:14.000",
    "date_modified": "2023-11-28T19:53:14.000",
    "request_status": "Pending",
    "responsible_agency": "Department of Sanitation",
    "final_address": "840 Poland Ave",
    "address_councildis": "C",
    "status": "Pending",
    "rowid": "1052417",
    "final_x": "3692781.3631",
    "final_y": "534187.074181",
    "longitude": "-90.03235236891733",
    "latitude": "29.962481852705903",
    "geocoded_column": {
      "latitude": "29.962481852705903",
      "longitude": "-90.03235236891733"
    }
  },
  {
    "service_request": "2023-1052416",
    "request_type": "Property Maintenance",
    "request_reason": "Property Maintenance",
    "date_created": "2023-11-28T19:27:53.000",
    "date_modified": "2023-11-28T19:27:53.000",
    "request_status": "Pending",
    "responsible_agency": "Department of Code Enforcement",
    "final_address": "260 Hillary St",
    "address_councildis": "A",
    "status": "Pending",
    "rowid": "1052416",
    "final_x": "3661084.19046",
    "final_y": "524790.633916",
    "longitude": "-90.13275908609009",
    "latitude": "29.937596155798104",
    "geocoded_column": {
      "latitude": "29.937596155798104",
      "longitude": "-90.13275908609009"
    }
  },
  {
    "service_request": "2023-1052415",
    "request_type": "Roads/Drainage",
    "request_reason": "Road Shoulder Repair",
    "date_created": "2023-11-28T19:23:46.000",
    "date_modified": "2023-11-28T19:23:46.000",
    "request_status": "Pending",
    "responsible_agency": "Department of Public Works",
    "final_address": "1725 Dufossat St",
    "address_councildis": "B",
    "status": "Pending",
    "rowid": "1052415",
    "final_x": "3668192.68743",
    "final_y": "522036.060218",
    "longitude": "-90.11040977787289",
    "latitude": "29.92981524824353",
    "geocoded_column": {
      "latitude": "29.92981524824353",
      "longitude": "-90.11040977787289"
    }
  },
  {
    "service_request": "2023-1052414",
    "request_type": "Roads/Drainage",
    "request_reason": "Road Shoulder Repair",
    "date_created": "2023-11-28T19:20:39.000",
    "date_modified": "2023-11-28T19:20:39.000",
    "request_status": "Pending",
    "responsible_agency": "Department of Public Works",
    "final_address": "5030 Danneel St",
    "address_councildis": "B",
    "status": "Pending",
    "rowid": "1052414",
    "final_x": "3668583.04846",
    "final_y": "522061.497338",
    "longitude": "-90.10917661362056",
    "latitude": "29.929873730703292",
    "geocoded_column": {
      "latitude": "29.929873730703292",
      "longitude": "-90.10917661362056"
    }
  },
  {
    "service_request": "2023-1052413",
    "request_type": "Traffic Signals/Signs/Striping/Streetlights",
    "request_reason": "Street Light Outage/Malfunction",
    "date_created": "2023-11-28T18:55:55.000",
    "date_modified": "2023-11-28T18:55:55.000",
    "request_status": "Pending",
    "responsible_agency": "Department of Public Works",
    "final_address": "1133 General Pershing St",
    "address_councildis": "B",
    "status": "Assigned to Contractor",
    "contractor": "Legacy Professional Services",
    "rowid": "1052413",
    "final_x": "3671409.54177",
    "final_y": "519820.041016",
    "longitude": "-90.1003299770963",
    "latitude": "29.92362710926554",
    "geocoded_column": {
      "latitude": "29.92362710926554",
      "longitude": "-90.1003299770963"
    }
  },
  {
    "service_request": "2023-1052412",
    "request_type": "Trash/Recycling",
    "request_reason": "Request a Large Item Pick Up",
    "date_created": "2023-11-28T18:43:54.000",
    "date_modified": "2023-11-28T18:43:54.000",
    "request_status": "Pending",
    "responsible_agency": "Department of Sanitation",
    "final_address": "5422 Constance St",
    "address_councildis": "A",
    "status": "Assigned to Contractor",
    "contractor": "Richards Disposal",
    "rowid": "1052412",
    "final_x": "3666469.10093",
    "final_y": "518415.882934",
    "longitude": "-90.11597228007085",
    "latitude": "29.91991137131213",
    "geocoded_column": {
      "latitude": "29.91991137131213",
      "longitude": "-90.11597228007085"
    }
  },
  {
    "service_request": "2023-1052411",
    "request_type": "Traffic Signals/Signs/Striping/Streetlights",
    "request_reason": "Street Light Outage/Malfunction",
    "date_created": "2023-11-28T18:43:04.000",
    "date_modified": "2023-11-28T18:43:04.000",
    "request_status": "Pending",
    "responsible_agency": "Department of Public Works",
    "final_address": "2163 Timoleon St",
    "address_councildis": "D",
    "status": "Assigned to Contractor",
    "contractor": "Legacy Professional Services",
    "rowid": "1052411",
    "final_x": "3683594.40354",
    "final_y": "551145.417109",
    "longitude": "-90.06076872326982",
    "latitude": "30.00939492300142",
    "geocoded_column": {
      "latitude": "30.00939492300142",
      "longitude": "-90.06076872326982"
    }
  },
  {
    "service_request": "2023-1052410",
    "request_type": "Abandoned Vehicles",
    "request_reason": "Abandoned/Junk Vehicles",
    "date_created": "2023-11-28T18:34:33.000",
    "date_modified": "2023-11-28T18:34:33.000",
    "request_status": "Pending",
    "responsible_agency": "Department of Public Works",
    "final_address": "3035 Jackson Ave",
    "address_councildis": "B",
    "status": "Pending",
    "rowid": "1052410",
    "final_x": "3674204.49704",
    "final_y": "528248.707712",
    "longitude": "-90.09121890245012",
    "latitude": "29.94672020562869",
    "geocoded_column": {
      "latitude": "29.94672020562869",
      "longitude": "-90.09121890245012"
    }
  },
  {
    "service_request": "2023-1052409",
    "request_type": "Roads/Drainage",
    "request_reason": "Road Shoulder Repair",
    "date_created": "2023-11-28T17:53:52.000",
    "date_modified": "2023-11-28T17:53:52.000",
    "request_status": "Pending",
    "responsible_agency": "Department of Public Works",
    "final_address": "5220 Atlanta St",
    "address_councildis": "B",
    "status": "Pending",
    "rowid": "1052409",
    "final_x": "3667917.40577",
    "final_y": "520685.623161",
    "longitude": "-90.1113242624008",
    "latitude": "29.926110051036336",
    "geocoded_column": {
      "latitude": "29.926110051036336",
      "longitude": "-90.1113242624008"
    }
  },
  {
    "service_request": "2023-1052408",
    "request_type": "Trash/Recycling",
    "request_reason": "Missed Trash Pick-Up",
    "date_created": "2023-11-28T17:52:57.000",
    "date_modified": "2023-11-28T17:52:58.000",
    "request_status": "Pending",
    "responsible_agency": "Department of Sanitation",
    "final_address": "215 12Th St",
    "address_councildis": "A",
    "status": "Assigned to Contractor",
    "contractor": "IV Waste",
    "rowid": "1052408",
    "final_x": "3665517.63258",
    "final_y": "547856.219922",
    "longitude": "-90.1179899582178",
    "latitude": "30.0008903997364",
    "geocoded_column": {
      "latitude": "30.0008903997364",
      "longitude": "-90.1179899582178"
    }
  },
  {
    "service_request": "2023-1052407",
    "request_type": "Roads/Drainage",
    "request_reason": "Damaged Sidewalk",
    "date_created": "2023-11-28T17:48:39.000",
    "date_modified": "2023-11-28T17:48:39.000",
    "request_status": "Pending",
    "responsible_agency": "Department of Public Works",
    "final_address": "2625 DAbadie St",
    "address_councildis": "D",
    "status": "Pending",
    "rowid": "1052407",
    "final_x": "3679363.09115",
    "final_y": "540930.510219",
    "longitude": "-90.07449145506907",
    "latitude": "29.981436072642925",
    "geocoded_column": {
      "latitude": "29.981436072642925",
      "longitude": "-90.07449145506907"
    }
  },
  {
    "service_request": "2023-1052406",
    "request_type": "Trash/Recycling",
    "request_reason": "Repair Trash Cart",
    "date_created": "2023-11-28T17:40:27.000",
    "date_modified": "2023-11-28T17:40:28.000",
    "request_status": "Pending",
    "responsible_agency": "Department of Sanitation",
    "final_address": "2415 Marengo St",
    "address_councildis": "B",
    "status": "Assigned to Contractor",
    "contractor": "Richards Disposal",
    "rowid": "1052406",
    "final_x": "3671708.08724",
    "final_y": "523942.499516",
    "longitude": "-90.0992474240481",
    "latitude": "29.93495370897462",
    "geocoded_column": {
      "latitude": "29.93495370897462",
      "longitude": "-90.0992474240481"
    }
  },
  {
    "service_request": "2023-1052405",
    "request_type": "Trash/Recycling",
    "request_reason": "Request a Large Item Pick Up",
    "date_created": "2023-11-28T17:32:20.000",
    "date_modified": "2023-11-28T17:32:21.000",
    "request_status": "Pending",
    "responsible_agency": "Department of Sanitation",
    "final_address": "910 First St",
    "address_councildis": "B",
    "status": "Assigned to Contractor",
    "contractor": "Richards Disposal",
    "rowid": "1052405",
    "final_x": "3678373.57307",
    "final_y": "520959.441209",
    "longitude": "-90.07830769450966",
    "latitude": "29.92655219784845",
    "geocoded_column": {
      "latitude": "29.92655219784845",
      "longitude": "-90.07830769450966"
    }
  },
  {
    "service_request": "2023-1052404",
    "request_type": "Trash/Recycling",
    "request_reason": "Request a Large Item Pick Up",
    "date_created": "2023-11-28T17:00:59.000",
    "date_modified": "2023-11-28T17:00:59.000",
    "request_status": "Pending",
    "responsible_agency": "Department of Sanitation",
    "final_address": "4219 Jena St",
    "address_councildis": "A",
    "status": "Assigned to Contractor",
    "contractor": "Richards Disposal",
    "rowid": "1052404",
    "final_x": "3669464.24378",
    "final_y": "529032.215808",
    "longitude": "-90.1061591485912",
    "latitude": "29.94901503855076",
    "geocoded_column": {
      "latitude": "29.94901503855076",
      "longitude": "-90.1061591485912"
    }
  },
  {
    "service_request": "2023-1052403",
    "request_type": "Trash/Recycling",
    "request_reason": "Request a Large Item Pick Up",
    "date_created": "2023-11-28T16:59:52.000",
    "date_modified": "2023-11-28T16:59:52.000",
    "request_status": "Pending",
    "responsible_agency": "Department of Sanitation",
    "final_address": "4219 Jena St",
    "address_councildis": "A",
    "status": "Assigned to Contractor",
    "contractor": "Richards Disposal",
    "rowid": "1052403",
    "final_x": "3669464.24378",
    "final_y": "529032.215808",
    "longitude": "-90.1061591485912",
    "latitude": "29.94901503855076",
    "geocoded_column": {
      "latitude": "29.94901503855076",
      "longitude": "-90.1061591485912"
    }
  },
  {
    "service_request": "2023-1052402",
    "request_type": "Trash/Recycling",
    "request_reason": "Request a Large Item Pick Up",
    "date_created": "2023-11-28T16:56:53.000",
    "date_modified": "2023-11-28T16:56:54.000",
    "request_status": "Pending",
    "responsible_agency": "Department of Sanitation",
    "final_address": "4102 Rayne Dr",
    "address_councildis": "D",
    "status": "Assigned to Contractor",
    "contractor": "IV Waste",
    "rowid": "1052402",
    "final_x": "3680175.77461",
    "final_y": "547227.528465",
    "longitude": "-90.07170564037881",
    "latitude": "29.99872608318815",
    "geocoded_column": {
      "latitude": "29.99872608318815",
      "longitude": "-90.07170564037881"
    }
  },
  {
    "service_request": "2023-1052401",
    "request_type": "Trash/Recycling",
    "request_reason": "Request a Large Item Pick Up",
    "date_created": "2023-11-28T16:54:39.000",
    "date_modified": "2023-11-28T16:54:40.000",
    "request_status": "Pending",
    "responsible_agency": "Department of Sanitation",
    "final_address": "7822 Zimple St",
    "address_councildis": "A",
    "status": "Assigned to Contractor",
    "contractor": "Richards Disposal",
    "rowid": "1052401",
    "final_x": "3662345.90432",
    "final_y": "527359.628415",
    "longitude": "-90.12869047531791",
    "latitude": "29.94462366318619",
    "geocoded_column": {
      "latitude": "29.94462366318619",
      "longitude": "-90.12869047531791"
    }
  },
  {
    "service_request": "2023-1052400",
    "request_type": "Abandoned Vehicles",
    "request_reason": "Abandoned/Junk Vehicles",
    "date_created": "2023-11-28T16:51:45.000",
    "date_modified": "2023-11-28T16:51:45.000",
    "request_status": "Pending",
    "responsible_agency": "Department of Public Works",
    "final_address": "2826 Palmyra St",
    "address_councildis": "B",
    "status": "Pending",
    "rowid": "1052400",
    "final_x": "3674185.40641",
    "final_y": "534898.379462",
    "longitude": "-90.0910515531379",
    "latitude": "29.96500515649646",
    "geocoded_column": {
      "latitude": "29.96500515649646",
      "longitude": "-90.0910515531379"
    }
  },
  {
    "service_request": "2023-1052399",
    "request_type": "Abandoned Vehicles",
    "request_reason": "Abandoned/Junk Vehicles",
    "date_created": "2023-11-28T16:51:09.000",
    "date_modified": "2023-11-28T16:51:10.000",
    "request_status": "Pending",
    "responsible_agency": "Department of Public Works",
    "final_address": "536 S Telemachus St",
    "address_councildis": "B",
    "status": "Pending",
    "rowid": "1052399",
    "final_x": "3671253.35521",
    "final_y": "535826.854471",
    "longitude": "-90.1002792669434",
    "latitude": "29.9676452332348",
    "geocoded_column": {
      "latitude": "29.9676452332348",
      "longitude": "-90.1002792669434"
    }
  },
  {
    "service_request": "2023-1052397",
    "request_type": "Abandoned Vehicles",
    "request_reason": "Abandoned/Junk Vehicles",
    "date_created": "2023-11-28T16:42:37.000",
    "date_modified": "2023-11-28T16:42:38.000",
    "request_status": "Pending",
    "responsible_agency": "Department of Public Works",
    "final_address": "2328 Touro St",
    "address_councildis": "D",
    "status": "Pending",
    "rowid": "1052397",
    "final_x": "3683825.40188",
    "final_y": "540899.588427",
    "longitude": "-90.06039852587745",
    "latitude": "29.98121549562343",
    "geocoded_column": {
      "latitude": "29.98121549562343",
      "longitude": "-90.06039852587745"
    }
  },
  {
    "service_request": "2023-1052396",
    "request_type": "Property Maintenance",
    "request_reason": "Property Maintenance",
    "date_created": "2023-11-28T16:39:55.000",
    "date_modified": "2023-11-28T16:39:55.000",
    "request_status": "Pending",
    "responsible_agency": "Department of Code Enforcement",
    "final_address": "8431 Chef Menteur Hwy",
    "address_councildis": "E",
    "status": "Pending",
    "rowid": "1052396",
    "final_x": "3706482.49815",
    "final_y": "553511.353623",
    "longitude": "-89.9883701832992",
    "latitude": "30.015181541591474",
    "geocoded_column": {
      "latitude": "30.015181541591474",
      "longitude": "-89.9883701832992"
    }
  },
  {
    "service_request": "2023-1052395",
    "request_type": "Trash/Recycling",
    "request_reason": "Repair Trash Cart",
    "date_created": "2023-11-28T16:32:40.000",
    "date_modified": "2023-11-28T16:32:41.000",
    "request_status": "Pending",
    "responsible_agency": "Department of Sanitation",
    "final_address": "5210 Pitt St",
    "address_councildis": "B",
    "status": "Assigned to Contractor",
    "contractor": "Richards Disposal",
    "rowid": "1052395",
    "final_x": "3667985.14817",
    "final_y": "520348.8958",
    "longitude": "-90.11112175653221",
    "latitude": "29.92518217081234",
    "geocoded_column": {
      "latitude": "29.92518217081234",
      "longitude": "-90.11112175653221"
    }
  },
  {
    "service_request": "2023-1052394",
    "request_type": "Trash/Recycling",
    "request_reason": "Request a Large Item Pick Up",
    "date_created": "2023-11-28T16:29:10.000",
    "date_modified": "2023-11-28T16:29:11.000",
    "request_status": "Pending",
    "responsible_agency": "Department of Sanitation",
    "final_address": "829 Desire St",
    "address_councildis": "C",
    "status": "Assigned to Contractor",
    "contractor": "IV Waste",
    "rowid": "1052394",
    "final_x": "3689986.96636",
    "final_y": "534790.04679",
    "longitude": "-90.04115518333323",
    "latitude": "29.96422676042177",
    "geocoded_column": {
      "latitude": "29.96422676042177",
      "longitude": "-90.04115518333323"
    }
  },
  {
    "service_request": "2023-1052393",
    "request_type": "Trash/Recycling",
    "request_reason": "Repair Trash Cart",
    "date_created": "2023-11-28T16:25:37.000",
    "date_modified": "2023-11-28T16:25:39.000",
    "request_status": "Pending",
    "responsible_agency": "Department of Sanitation",
    "final_address": "1934 Mediamolle Dr",
    "address_councildis": "C",
    "status": "Assigned to Contractor",
    "contractor": "Richards Disposal",
    "rowid": "1052393",
    "final_x": "3699307.16189",
    "final_y": "524098.273916",
    "longitude": "-90.01211228375763",
    "latitude": "29.93453585431573",
    "geocoded_column": {
      "latitude": "29.93453585431573",
      "longitude": "-90.01211228375763"
    }
  },
  {
    "service_request": "2023-1052392",
    "request_type": "Trash/Recycling",
    "request_reason": "MIssed Recycling Pick-Up",
    "date_created": "2023-11-28T16:23:26.000",
    "date_modified": "2023-11-28T16:23:27.000",
    "request_status": "Pending",
    "responsible_agency": "Department of Sanitation",
    "final_address": "12921 Ashland Dr",
    "address_councildis": "E",
    "status": "Assigned to Contractor",
    "contractor": "Waste Pro",
    "rowid": "1052392",
    "final_x": "3717133.00344",
    "final_y": "567236.177316",
    "longitude": "-89.95419807581092",
    "latitude": "30.052571236947585",
    "geocoded_column": {
      "latitude": "30.052571236947585",
      "longitude": "-89.95419807581092"
    }
  },
  {
    "service_request": "2023-1052391",
    "request_type": "Trash/Recycling",
    "request_reason": "Missed Trash Pick-Up",
    "date_created": "2023-11-28T16:23:20.000",
    "date_modified": "2023-11-28T16:23:21.000",
    "request_status": "Pending",
    "responsible_agency": "Department of Sanitation",
    "final_address": "4591 Francisco Verrett Dr",
    "address_councildis": "E",
    "status": "Assigned to Contractor",
    "contractor": "Waste Pro",
    "rowid": "1052391",
    "final_x": "3704361.0465",
    "final_y": "554218.771864",
    "longitude": "-89.99504681487598",
    "latitude": "30.017194968743766",
    "geocoded_column": {
      "latitude": "30.017194968743766",
      "longitude": "-89.99504681487598"
    }
  },
  {
    "service_request": "2023-1052390",
    "request_type": "Property Maintenance",
    "request_reason": "Property Maintenance",
    "date_created": "2023-11-28T16:23:05.000",
    "date_modified": "2023-11-28T16:23:05.000",
    "request_status": "Pending",
    "responsible_agency": "Department of Code Enforcement",
    "final_address": "1329 Mandolin St",
    "address_councildis": "D",
    "status": "Pending",
    "rowid": "1052390",
    "final_x": "3677456.01672",
    "final_y": "548108.25301",
    "longitude": "-90.08026695708274",
    "latitude": "30.00122982448429",
    "geocoded_column": {
      "latitude": "30.00122982448429",
      "longitude": "-90.08026695708274"
    }
  },
  {
    "service_request": "2023-1052389",
    "request_type": "Trash/Recycling",
    "request_reason": "Missed Trash Pick-Up",
    "date_created": "2023-11-28T16:21:33.000",
    "date_modified": "2023-11-28T16:21:33.000",
    "request_status": "Pending",
    "responsible_agency": "Department of Sanitation",
    "final_address": "517 Warrington Dr",
    "address_councildis": "D",
    "status": "Assigned to Contractor",
    "contractor": "IV Waste",
    "rowid": "1052389",
    "final_x": "3681277.24021",
    "final_y": "548735.258771",
    "longitude": "-90.06817351446739",
    "latitude": "30.002838410286635",
    "geocoded_column": {
      "latitude": "30.002838410286635",
      "longitude": "-90.06817351446739"
    }
  },
  {
    "service_request": "2023-1052388",
    "request_type": "Trash/Recycling",
    "request_reason": "Order Recycling Cart",
    "date_created": "2023-11-28T16:19:27.000",
    "date_modified": "2023-11-28T16:19:28.000",
    "request_status": "Pending",
    "responsible_agency": "Department of Sanitation",
    "final_address": "1422 Japonica St",
    "address_councildis": "D",
    "status": "Pending",
    "rowid": "1052388",
    "final_x": "3693996.22966",
    "final_y": "536128.253959",
    "longitude": "-90.02844619847008",
    "latitude": "29.9677814276471",
    "geocoded_column": {
      "latitude": "29.9677814276471",
      "longitude": "-90.02844619847008"
    }
  },
  {
    "service_request": "2023-1052387",
    "request_type": "Trash/Recycling",
    "request_reason": "Order Recycling Cart",
    "date_created": "2023-11-28T16:16:42.000",
    "date_modified": "2023-11-28T16:16:43.000",
    "request_status": "Pending",
    "responsible_agency": "Department of Sanitation",
    "final_address": "308 Maumus Ave",
    "address_councildis": "C",
    "status": "Pending",
    "rowid": "1052387",
    "final_x": "3707227.89406",
    "final_y": "516826.313013",
    "longitude": "-89.98737660165979",
    "latitude": "29.914287000130724",
    "geocoded_column": {
      "latitude": "29.914287000130724",
      "longitude": "-89.98737660165979"
    }
  },
  {
    "service_request": "2023-1052386",
    "request_type": "Trash/Recycling",
    "request_reason": "Repair Trash Cart",
    "date_created": "2023-11-28T16:15:46.000",
    "date_modified": "2023-11-28T16:19:17.000",
    "request_status": "Pending",
    "responsible_agency": "Department of Sanitation",
    "final_address": "308 Maumus Ave",
    "address_councildis": "C",
    "status": "Assigned to Contractor",
    "contractor": "Richards Disposal",
    "rowid": "1052386",
    "final_x": "3707227.89406",
    "final_y": "516826.313013",
    "longitude": "-89.98737660165979",
    "latitude": "29.914287000130724",
    "geocoded_column": {
      "latitude": "29.914287000130724",
      "longitude": "-89.98737660165979"
    }
  },
  {
    "service_request": "2023-1052385",
    "request_type": "Trash/Recycling",
    "request_reason": "Repair Trash Cart",
    "date_created": "2023-11-28T16:14:02.000",
    "date_modified": "2023-11-28T16:14:03.000",
    "request_status": "Pending",
    "responsible_agency": "Department of Sanitation",
    "final_address": "9861 E Wheaton Cir",
    "address_councildis": "E",
    "status": "Assigned to Contractor",
    "contractor": "Waste Pro",
    "rowid": "1052385",
    "final_x": "3708962.84184",
    "final_y": "562595.954464",
    "longitude": "-89.98019458023273",
    "latitude": "30.0400803409163",
    "geocoded_column": {
      "latitude": "30.0400803409163",
      "longitude": "-89.98019458023273"
    }
  },
  {
    "service_request": "2023-1052384",
    "request_type": "Traffic Signals/Signs/Striping/Streetlights",
    "request_reason": "Street Light Outage/Malfunction",
    "date_created": "2023-11-28T16:11:40.000",
    "date_modified": "2023-11-28T16:11:40.000",
    "request_status": "Pending",
    "responsible_agency": "Department of Public Works",
    "final_address": "4801 Dreux Ave",
    "address_councildis": "D",
    "status": "Assigned to Contractor",
    "contractor": "Legacy Professional Services",
    "rowid": "1052384",
    "final_x": "3691117.74217",
    "final_y": "553220.747287",
    "longitude": "-90.03692579606539",
    "latitude": "30.014869424247518",
    "geocoded_column": {
      "latitude": "30.014869424247518",
      "longitude": "-90.03692579606539"
    }
  },
  {
    "service_request": "2023-1052383",
    "request_type": "Trash/Recycling",
    "request_reason": "Repair Trash Cart",
    "date_created": "2023-11-28T16:10:13.000",
    "date_modified": "2023-11-28T16:10:13.000",
    "request_status": "Pending",
    "responsible_agency": "Department of Sanitation",
    "final_address": "1626 S Norman C Francis Prkwy",
    "address_councildis": "B",
    "status": "Assigned to Contractor",
    "contractor": "Richards Disposal",
    "rowid": "1052383",
    "final_x": "3669483.83214",
    "final_y": "531082.233602",
    "longitude": "-90.10602796948552",
    "latitude": "29.95465133866619",
    "geocoded_column": {
      "latitude": "29.95465133866619",
      "longitude": "-90.10602796948552"
    }
  },
  {
    "service_request": "2023-1052382",
    "request_type": "Trash/Recycling",
    "request_reason": "Request a Large Item Pick Up",
    "date_created": "2023-11-28T16:08:37.000",
    "date_modified": "2023-11-28T16:08:38.000",
    "request_status": "Pending",
    "responsible_agency": "Department of Sanitation",
    "final_address": "315 35Th St",
    "address_councildis": "A",
    "status": "Assigned to Contractor",
    "contractor": "IV Waste",
    "rowid": "1052382",
    "final_x": "3665183.71047",
    "final_y": "551719.514325",
    "longitude": "-90.1189154993714",
    "latitude": "30.011522856200592",
    "geocoded_column": {
      "latitude": "30.011522856200592",
      "longitude": "-90.1189154993714"
    }
  },
  {
    "service_request": "2023-1052381",
    "request_type": "Trash/Recycling",
    "request_reason": "Request a Large Item Pick Up",
    "date_created": "2023-11-28T16:08:32.000",
    "date_modified": "2023-11-28T16:08:32.000",
    "request_status": "Pending",
    "responsible_agency": "Department of Sanitation",
    "final_address": "6220 General Diaz St",
    "address_councildis": "A",
    "status": "Assigned to Contractor",
    "contractor": "IV Waste",
    "rowid": "1052381",
    "final_x": "3669561.23425",
    "final_y": "548621.657491",
    "longitude": "-90.10518995510601",
    "latitude": "30.002876538095162",
    "geocoded_column": {
      "latitude": "30.002876538095162",
      "longitude": "-90.10518995510601"
    }
  },
  {
    "service_request": "2023-1052380",
    "request_type": "Roads/Drainage",
    "request_reason": "Pothole",
    "date_created": "2023-11-28T16:05:26.000",
    "date_modified": "2023-11-28T16:05:26.000",
    "request_status": "Pending",
    "responsible_agency": "Department of Public Works",
    "final_address": "4216 Chestnut St",
    "address_councildis": "B",
    "status": "Pending",
    "rowid": "1052380",
    "final_x": "3671574.31393",
    "final_y": "519539.203703",
    "longitude": "-90.09981939416457",
    "latitude": "29.922850019854593",
    "geocoded_column": {
      "latitude": "29.922850019854593",
      "longitude": "-90.09981939416457"
    }
  },
  {
    "service_request": "2023-1052379",
    "request_type": "Abandoned Vehicles",
    "request_reason": "Abandoned/Junk Vehicles",
    "date_created": "2023-11-28T15:51:23.000",
    "date_modified": "2023-11-28T15:51:24.000",
    "request_status": "Pending",
    "responsible_agency": "Department of Public Works",
    "final_address": "1200 BLK Lauradale Dr",
    "address_councildis": "C",
    "status": "Pending",
    "rowid": "1052379",
    "final_x": "3692819.79182",
    "final_y": "526578.179243",
    "longitude": "-90.03250379542295",
    "latitude": "29.941558834986363",
    "geocoded_column": {
      "latitude": "29.941558834986363",
      "longitude": "-90.03250379542295"
    }
  },
  {
    "service_request": "2023-1052378",
    "request_type": "Trash/Recycling",
    "request_reason": "Missed Trash Pick-Up",
    "date_created": "2023-11-28T15:48:18.000",
    "date_modified": "2023-11-28T15:48:19.000",
    "request_status": "Pending",
    "responsible_agency": "Department of Sanitation",
    "final_address": "2 W Blue Ridge Ct",
    "address_councildis": "E",
    "status": "Assigned to Contractor",
    "contractor": "Waste Pro",
    "rowid": "1052378",
    "final_x": "3714075.37893",
    "final_y": "567202.732772",
    "longitude": "-89.96386351067711",
    "latitude": "30.052580113710388",
    "geocoded_column": {
      "latitude": "30.052580113710388",
      "longitude": "-89.96386351067711"
    }
  },
  {
    "service_request": "2023-1052377",
    "request_type": "Traffic Signals/Signs/Striping/Streetlights",
    "request_reason": "Traffic Signal Malfunctioning/Damaged",
    "date_created": "2023-11-28T15:47:39.000",
    "date_modified": "2023-11-28T15:47:40.000",
    "request_status": "Pending",
    "responsible_agency": "Department of Public Works",
    "final_address": "BANKS ST & S CARROLLTON AVE",
    "address_councildis": "A",
    "status": "Pending",
    "rowid": "1052377",
    "final_x": "3670290.4",
    "final_y": "537463.38",
    "longitude": "-90.10326483012729",
    "latitude": "29.972173587658848",
    "geocoded_column": {
      "latitude": "29.972173587658848",
      "longitude": "-90.10326483012729"
    }
  },
  {
    "service_request": "2023-1052376",
    "request_type": "Abandoned Vehicles",
    "request_reason": "Abandoned/Junk Vehicles",
    "date_created": "2023-11-28T15:45:42.000",
    "date_modified": "2023-11-28T15:45:42.000",
    "request_status": "Pending",
    "responsible_agency": "Department of Public Works",
    "final_address": "9700 W Rockton Cir",
    "address_councildis": "E",
    "status": "Pending",
    "rowid": "1052376",
    "final_x": "3708358.1018",
    "final_y": "562562.587616",
    "longitude": "-89.98210697739734",
    "latitude": "30.04000821777938",
    "geocoded_column": {
      "latitude": "30.04000821777938",
      "longitude": "-89.98210697739734"
    }
  },
  {
    "service_request": "2023-1052375",
    "request_type": "Trash/Recycling",
    "request_reason": "Repair Trash Cart",
    "date_created": "2023-11-28T15:33:13.000",
    "date_modified": "2023-11-28T15:33:56.000",
    "request_status": "Pending",
    "responsible_agency": "Department of Sanitation",
    "final_address": "2533 Eads St",
    "address_councildis": "D",
    "status": "Assigned to Contractor",
    "contractor": "IV Waste",
    "rowid": "1052375",
    "final_x": "3687881.2303",
    "final_y": "542025.713868",
    "longitude": "-90.04754850060861",
    "latitude": "29.984187426401302",
    "geocoded_column": {
      "latitude": "29.984187426401302",
      "longitude": "-90.04754850060861"
    }
  },
  {
    "service_request": "2023-1052374",
    "request_type": "Trash/Recycling",
    "request_reason": "Replace Recycling Cart",
    "date_created": "2023-11-28T15:33:01.000",
    "date_modified": "2023-11-28T15:33:02.000",
    "request_status": "Pending",
    "responsible_agency": "Department of Sanitation",
    "final_address": "3125 Camp St",
    "address_councildis": "B",
    "status": "Pending",
    "rowid": "1052374",
    "final_x": "3675706.63534",
    "final_y": "520420.451576",
    "longitude": "-90.08674500112309",
    "latitude": "29.925150201000054",
    "geocoded_column": {
      "latitude": "29.925150201000054",
      "longitude": "-90.08674500112309"
    }
  },
  {
    "service_request": "2023-1052373",
    "request_type": "Trash/Recycling",
    "request_reason": "Replace Trash Cart",
    "date_created": "2023-11-28T15:32:29.000",
    "date_modified": "2023-11-28T15:33:33.000",
    "request_status": "Pending",
    "responsible_agency": "Department of Sanitation",
    "final_address": "3125 Camp St",
    "address_councildis": "B",
    "status": "Assigned to Contractor",
    "contractor": "Richards Disposal",
    "rowid": "1052373",
    "final_x": "3675706.63534",
    "final_y": "520420.451576",
    "longitude": "-90.08674500112309",
    "latitude": "29.925150201000054",
    "geocoded_column": {
      "latitude": "29.925150201000054",
      "longitude": "-90.08674500112309"
    }
  },
  {
    "service_request": "2023-1052372",
    "request_type": "Trash/Recycling",
    "request_reason": "Request a Large Item Pick Up",
    "date_created": "2023-11-28T15:31:53.000",
    "date_modified": "2023-11-28T15:31:54.000",
    "request_status": "Pending",
    "responsible_agency": "Department of Sanitation",
    "final_address": "6 Grand Teton Ct",
    "address_councildis": "C",
    "status": "Assigned to Contractor",
    "contractor": "Richards Disposal",
    "rowid": "1052372",
    "final_x": "3699160.89373",
    "final_y": "516518.533493",
    "longitude": "-90.01284980762651",
    "latitude": "29.913698801482454",
    "geocoded_column": {
      "latitude": "29.913698801482454",
      "longitude": "-90.01284980762651"
    }
  },
  {
    "service_request": "2023-1052371",
    "request_type": "Trash/Recycling",
    "request_reason": "Request a Large Item Pick Up",
    "date_created": "2023-11-28T15:26:00.000",
    "date_modified": "2023-11-28T15:26:01.000",
    "request_status": "Pending",
    "responsible_agency": "Department of Sanitation",
    "final_address": "616 Fats Domino Ave",
    "address_councildis": "E",
    "status": "Assigned to Contractor",
    "contractor": "Waste Pro",
    "rowid": "1052371",
    "final_x": "3697498.90231",
    "final_y": "532124.949955",
    "longitude": "-90.0175298981997",
    "latitude": "29.956663619494044",
    "geocoded_column": {
      "latitude": "29.956663619494044",
      "longitude": "-90.0175298981997"
    }
  },
  {
    "service_request": "2023-1052370",
    "request_type": "Roads/Drainage",
    "request_reason": "Pothole",
    "date_created": "2023-11-28T15:24:31.000",
    "date_modified": "2023-11-28T15:24:31.000",
    "request_status": "Pending",
    "responsible_agency": "Department of Public Works",
    "final_address": "1301 Constantinople St",
    "address_councildis": "B",
    "status": "Pending",
    "rowid": "1052370",
    "final_x": "3672430.66305",
    "final_y": "520250.7726",
    "longitude": "-90.09709199725775",
    "latitude": "29.924781230435865",
    "geocoded_column": {
      "latitude": "29.924781230435865",
      "longitude": "-90.09709199725775"
    }
  },
  {
    "service_request": "2023-1052369",
    "request_type": "Abandoned Vehicles",
    "request_reason": "Abandoned/Junk Vehicles",
    "date_created": "2023-11-28T15:20:27.000",
    "date_modified": "2023-11-28T15:21:54.000",
    "request_status": "Pending",
    "responsible_agency": "Department of Public Works",
    "final_address": "N CLAIBORNE AV OVERPASS & ST FERDINAND ST",
    "address_councildis": "D",
    "status": "Pending",
    "rowid": "1052369",
    "final_x": "3688196.41",
    "final_y": "538184.28",
    "longitude": "-90.0466892362908",
    "latitude": "29.973615114346856",
    "geocoded_column": {
      "latitude": "29.973615114346856",
      "longitude": "-90.0466892362908"
    }
  },
  {
    "service_request": "2023-1052368",
    "request_type": "Roads/Drainage",
    "request_reason": "Pothole",
    "date_created": "2023-11-28T15:16:27.000",
    "date_modified": "2023-11-28T15:16:27.000",
    "request_status": "Pending",
    "responsible_agency": "Department of Public Works",
    "final_address": "1312 Milan St",
    "address_councildis": "B",
    "status": "Pending",
    "rowid": "1052368",
    "final_x": "3671625.82823",
    "final_y": "520286.919608",
    "longitude": "-90.09963137110304",
    "latitude": "29.92490447494246",
    "geocoded_column": {
      "latitude": "29.92490447494246",
      "longitude": "-90.09963137110304"
    }
  },
  {
    "service_request": "2023-1052367",
    "request_type": "Roads/Drainage",
    "request_reason": "Damaged Sidewalk",
    "date_created": "2023-11-28T15:10:46.000",
    "date_modified": "2023-11-28T15:37:20.000",
    "request_status": "Pending",
    "responsible_agency": "Department of Public Works",
    "final_address": "2226 Pauline St",
    "address_councildis": "D",
    "rowid": "1052367",
    "final_x": "3692253.58998",
    "final_y": "539824.73473",
    "longitude": "-90.0338170904808",
    "latitude": "29.977999889956138",
    "geocoded_column": {
      "latitude": "29.977999889956138",
      "longitude": "-90.0338170904808"
    }
  },
  {
    "service_request": "2023-1052366",
    "request_type": "Property Maintenance",
    "request_reason": "Property Maintenance",
    "date_created": "2023-11-28T15:10:41.000",
    "date_modified": "2023-11-28T15:10:42.000",
    "request_status": "Pending",
    "responsible_agency": "Department of Code Enforcement",
    "final_address": "1237 Alvar St",
    "address_councildis": "D",
    "status": "Pending",
    "rowid": "1052366",
    "final_x": "3691693.51644",
    "final_y": "536038.377991",
    "longitude": "-90.03572141921141",
    "latitude": "29.96760620472039",
    "geocoded_column": {
      "latitude": "29.96760620472039",
      "longitude": "-90.03572141921141"
    }
  },
  {
    "service_request": "2023-1052365",
    "request_type": "Roads/Drainage",
    "request_reason": "Pothole",
    "date_created": "2023-11-28T15:09:49.000",
    "date_modified": "2023-11-28T15:09:49.000",
    "request_status": "Pending",
    "responsible_agency": "Department of Public Works",
    "final_address": "1015 Peniston St",
    "address_councildis": "B",
    "status": "Pending",
    "rowid": "1052365",
    "final_x": "3673297.29384",
    "final_y": "519566.473592",
    "longitude": "-90.09437968280942",
    "latitude": "29.922873889520673",
    "geocoded_column": {
      "latitude": "29.922873889520673",
      "longitude": "-90.09437968280942"
    }
  },
  {
    "service_request": "2023-1052363",
    "request_type": "Property Maintenance",
    "request_reason": "Property Maintenance",
    "date_created": "2023-11-28T15:05:22.000",
    "date_modified": "2023-11-28T15:05:22.000",
    "request_status": "Pending",
    "responsible_agency": "Department of Code Enforcement",
    "final_address": "3240 Laurel St",
    "address_councildis": "B",
    "status": "Pending",
    "rowid": "1052363",
    "final_x": "3675817.8027",
    "final_y": "519138.161207",
    "longitude": "-90.08643812864207",
    "latitude": "29.92162099003982",
    "geocoded_column": {
      "latitude": "29.92162099003982",
      "longitude": "-90.08643812864207"
    }
  },
  {
    "service_request": "2023-1052362",
    "request_type": "Trash/Recycling",
    "request_reason": "Illegal Dumping",
    "date_created": "2023-11-28T15:04:41.000",
    "date_modified": "2023-11-28T15:04:41.000",
    "request_status": "Pending",
    "responsible_agency": "Department of Sanitation",
    "final_address": "5839 W Deer Park Blvd",
    "address_councildis": "E",
    "status": "Pending",
    "rowid": "1052362",
    "final_x": "3712231.04882",
    "final_y": "560978.660254",
    "longitude": "-89.9699269289526",
    "latitude": "30.035526903350867",
    "geocoded_column": {
      "latitude": "30.035526903350867",
      "longitude": "-89.9699269289526"
    }
  },
  {
    "service_request": "2023-1052361",
    "request_type": "Trash/Recycling",
    "request_reason": "Illegal Dumping",
    "date_created": "2023-11-28T14:59:44.000",
    "date_modified": "2023-11-28T14:59:45.000",
    "request_status": "Pending",
    "responsible_agency": "Department of Sanitation",
    "final_address": "LAKE WILLOW DR & HUNTINGTON PARK DR & CROWDER BLVD",
    "address_councildis": "E",
    "status": "Pending",
    "rowid": "1052361",
    "final_x": "3704312.8",
    "final_y": "559687.28",
    "longitude": "-89.9949974442887",
    "latitude": "30.032232797519963",
    "geocoded_column": {
      "latitude": "30.032232797519963",
      "longitude": "-89.9949974442887"
    }
  },
  {
    "service_request": "2023-1052360",
    "request_type": "Roads/Drainage",
    "request_reason": "Pothole",
    "date_created": "2023-11-28T14:57:52.000",
    "date_modified": "2023-11-28T14:57:53.000",
    "request_status": "Pending",
    "responsible_agency": "Department of Public Works",
    "final_address": "5308 Eads St",
    "address_councildis": "D",
    "status": "Pending",
    "rowid": "1052360",
    "final_x": "3686894.38121",
    "final_y": "552631.049494",
    "longitude": "-90.05029041934812",
    "latitude": "30.013378682415794",
    "geocoded_column": {
      "latitude": "30.013378682415794",
      "longitude": "-90.05029041934812"
    }
  },
  {
    "service_request": "2023-1052359",
    "request_type": "Trash/Recycling",
    "request_reason": "Repair Trash Cart",
    "date_created": "2023-11-28T14:52:03.000",
    "date_modified": "2023-11-28T14:52:04.000",
    "request_status": "Pending",
    "responsible_agency": "Department of Sanitation",
    "final_address": "8301 Lomond Rd",
    "address_councildis": "E",
    "status": "Assigned to Contractor",
    "contractor": "Waste Pro",
    "rowid": "1052359",
    "final_x": "3703054.73188",
    "final_y": "561832.818719",
    "longitude": "-89.99889403786482",
    "latitude": "30.038172533824554",
    "geocoded_column": {
      "latitude": "30.038172533824554",
      "longitude": "-89.99889403786482"
    }
  },
  {
    "service_request": "2023-1052358",
    "request_type": "Roads/Drainage",
    "request_reason": "Pothole",
    "date_created": "2023-11-28T14:50:18.000",
    "date_modified": "2023-11-28T14:50:18.000",
    "request_status": "Pending",
    "responsible_agency": "Department of Public Works",
    "final_address": "4901 Dryades St",
    "address_councildis": "B",
    "status": "Pending",
    "rowid": "1052358",
    "final_x": "3669061.19386",
    "final_y": "521866.93529",
    "longitude": "-90.1076737554389",
    "latitude": "29.929324692464",
    "geocoded_column": {
      "latitude": "29.929324692464",
      "longitude": "-90.1076737554389"
    }
  },
  {
    "service_request": "2023-1052357",
    "request_type": "Traffic Signals/Signs/Striping/Streetlights",
    "request_reason": "Street Light Outage/Malfunction",
    "date_created": "2023-11-28T14:49:45.000",
    "date_modified": "2023-11-28T14:49:46.000",
    "request_status": "Pending",
    "responsible_agency": "Department of Public Works",
    "final_address": "7501 Garnet St",
    "address_councildis": "D",
    "status": "Assigned to Contractor",
    "contractor": "Legacy Professional Services",
    "rowid": "1052357",
    "final_x": "3667479.9794",
    "final_y": "556446.589722",
    "longitude": "-90.11150135791937",
    "latitude": "30.024453526379755",
    "geocoded_column": {
      "latitude": "30.024453526379755",
      "longitude": "-90.11150135791937"
    }
  },
  {
    "service_request": "2023-1052356",
    "request_type": "Trash/Recycling",
    "request_reason": "Replace Trash Cart",
    "date_created": "2023-11-28T14:49:14.000",
    "date_modified": "2023-11-28T14:49:57.000",
    "request_status": "Pending",
    "responsible_agency": "Department of Sanitation",
    "final_address": "1016 Constantinople St",
    "address_councildis": "B",
    "status": "Assigned to Contractor",
    "contractor": "Richards Disposal",
    "rowid": "1052356",
    "final_x": "3672434.13255",
    "final_y": "519454.072247",
    "longitude": "-90.09710817816554",
    "latitude": "29.922590456339442",
    "geocoded_column": {
      "latitude": "29.922590456339442",
      "longitude": "-90.09710817816554"
    }
  },
  {
    "service_request": "2023-1052355",
    "request_type": "Trash/Recycling",
    "request_reason": "Request a Large Item Pick Up",
    "date_created": "2023-11-28T14:45:58.000",
    "date_modified": "2023-11-28T14:45:59.000",
    "request_status": "Pending",
    "responsible_agency": "Department of Sanitation",
    "final_address": "2217 Freret St",
    "address_councildis": "B",
    "status": "Assigned to Contractor",
    "contractor": "Richards Disposal",
    "rowid": "1052355",
    "final_x": "3675474.18337",
    "final_y": "526233.644926",
    "longitude": "-90.08727922544195",
    "latitude": "29.941141540770733",
    "geocoded_column": {
      "latitude": "29.941141540770733",
      "longitude": "-90.08727922544195"
    }
  },
  {
    "service_request": "2023-1052354",
    "request_type": "Trash/Recycling",
    "request_reason": "Replace Trash Cart",
    "date_created": "2023-11-28T14:45:57.000",
    "date_modified": "2023-11-28T14:45:57.000",
    "request_status": "Pending",
    "responsible_agency": "Department of Sanitation",
    "final_address": "1016 Constantinople St",
    "address_councildis": "B",
    "status": "Assigned to Contractor",
    "contractor": "Richards Disposal",
    "rowid": "1052354",
    "final_x": "3672434.13255",
    "final_y": "519454.072247",
    "longitude": "-90.09710817816554",
    "latitude": "29.922590456339442",
    "geocoded_column": {
      "latitude": "29.922590456339442",
      "longitude": "-90.09710817816554"
    }
  },
  {
    "service_request": "2023-1052353",
    "request_type": "Property Maintenance",
    "request_reason": "Property Maintenance",
    "date_created": "2023-11-28T14:42:43.000",
    "date_modified": "2023-11-28T14:42:43.000",
    "request_status": "Pending",
    "responsible_agency": "Department of Code Enforcement",
    "final_address": "80 Gordon Plaza Dr",
    "address_councildis": "D",
    "status": "Pending",
    "rowid": "1052353",
    "final_x": "3689778.4527",
    "final_y": "544565.171535",
    "longitude": "-90.04146562012482",
    "latitude": "29.9911113491025",
    "geocoded_column": {
      "latitude": "29.9911113491025",
      "longitude": "-90.04146562012482"
    }
  },
  {
    "service_request": "2023-1052352",
    "request_type": "Roads/Drainage",
    "request_reason": "Man hole cover issue",
    "date_created": "2023-11-28T14:38:33.000",
    "date_modified": "2023-11-28T14:38:33.000",
    "request_status": "Pending",
    "responsible_agency": "Department of Public Works",
    "final_address": "6054 Pasteur Blvd",
    "address_councildis": "D",
    "status": "Pending",
    "rowid": "1052352",
    "final_x": "3682597.31221",
    "final_y": "555407.843033",
    "longitude": "-90.06376967143503",
    "latitude": "30.02114545181012",
    "geocoded_column": {
      "latitude": "30.02114545181012",
      "longitude": "-90.06376967143503"
    }
  },
  {
    "service_request": "2023-1052351",
    "request_type": "Roads/Drainage",
    "request_reason": "Pothole",
    "date_created": "2023-11-28T14:36:27.000",
    "date_modified": "2023-11-28T14:36:28.000",
    "request_status": "Pending",
    "responsible_agency": "Department of Public Works",
    "final_address": "5800 BLK Morrison Rd",
    "address_councildis": "D",
    "status": "Pending",
    "rowid": "1052351",
    "final_x": "3694893.9691",
    "final_y": "557270.86228",
    "longitude": "-90.02484866314967",
    "latitude": "30.025887696210873",
    "geocoded_column": {
      "latitude": "30.025887696210873",
      "longitude": "-90.02484866314967"
    }
  },
  {
    "service_request": "2023-1052350",
    "request_type": "Traffic Signals/Signs/Striping/Streetlights",
    "request_reason": "Street Light Outage/Malfunction",
    "date_created": "2023-11-28T14:33:12.000",
    "date_modified": "2023-11-28T14:33:13.000",
    "request_status": "Pending",
    "responsible_agency": "Department of Public Works",
    "final_address": "4823 Euphrosine St",
    "address_councildis": "B",
    "status": "Assigned to Contractor",
    "contractor": "Legacy Professional Services",
    "rowid": "1052350",
    "final_x": "3669704.41671",
    "final_y": "533573.782085",
    "longitude": "-90.10524712622657",
    "latitude": "29.96149577551451",
    "geocoded_column": {
      "latitude": "29.96149577551451",
      "longitude": "-90.10524712622657"
    }
  },
  {
    "service_request": "2023-1052349",
    "request_type": "Trash/Recycling",
    "request_reason": "Request a Large Item Pick Up",
    "date_created": "2023-11-28T14:30:51.000",
    "date_modified": "2023-11-28T14:30:51.000",
    "request_status": "Pending",
    "responsible_agency": "Department of Sanitation",
    "final_address": "2583 Valentine Ct",
    "address_councildis": "C",
    "status": "Assigned to Contractor",
    "contractor": "Richards Disposal",
    "rowid": "1052349",
    "final_x": "3699054.20183",
    "final_y": "521632.081785",
    "longitude": "-90.01300058116621",
    "latitude": "29.927762694545066",
    "geocoded_column": {
      "latitude": "29.927762694545066",
      "longitude": "-90.01300058116621"
    }
  },
  {
    "service_request": "2023-1052348",
    "request_type": "Trash/Recycling",
    "request_reason": "Replace Trash Cart",
    "date_created": "2023-11-28T14:25:02.000",
    "date_modified": "2023-11-28T14:25:02.000",
    "request_status": "Pending",
    "responsible_agency": "Department of Sanitation",
    "final_address": "818 Congress St",
    "address_councildis": "C",
    "status": "Assigned to Contractor",
    "contractor": "IV Waste",
    "rowid": "1052348",
    "final_x": "3690449.81014",
    "final_y": "534598.189701",
    "longitude": "-90.03970040664935",
    "latitude": "29.96368486048971",
    "geocoded_column": {
      "latitude": "29.96368486048971",
      "longitude": "-90.03970040664935"
    }
  },
  {
    "service_request": "2023-1052347",
    "request_type": "Trash/Recycling",
    "request_reason": "Request a Large Item Pick Up",
    "date_created": "2023-11-28T14:24:11.000",
    "date_modified": "2023-11-28T14:24:12.000",
    "request_status": "Pending",
    "responsible_agency": "Department of Sanitation",
    "final_address": "7639 Mackenzie St",
    "address_councildis": "E",
    "status": "Assigned to Contractor",
    "contractor": "Waste Pro",
    "rowid": "1052347",
    "final_x": "3711044.31761",
    "final_y": "566121.994531",
    "longitude": "-89.97348427365918",
    "latitude": "30.049707781215893",
    "geocoded_column": {
      "latitude": "30.049707781215893",
      "longitude": "-89.97348427365918"
    }
  },
  {
    "service_request": "2023-1052346",
    "request_type": "Safety & Permits",
    "request_reason": "Licenses & Permits",
    "date_created": "2023-11-28T14:23:33.000",
    "date_modified": "2023-11-28T14:23:33.000",
    "request_status": "Pending",
    "responsible_agency": "Safety and Permits",
    "final_address": "632 Gravier St",
    "address_councildis": "B",
    "status": "Pending",
    "rowid": "1052346",
    "final_x": "3681008.86434",
    "final_y": "529975.650241",
    "longitude": "-90.06967492938456",
    "latitude": "29.951264145658865",
    "geocoded_column": {
      "latitude": "29.951264145658865",
      "longitude": "-90.06967492938456"
    }
  },
  {
    "service_request": "2023-1052345",
    "request_type": "Abandoned Vehicles",
    "request_reason": "Abandoned/Junk Vehicles",
    "date_created": "2023-11-28T14:22:47.000",
    "date_modified": "2023-11-28T14:22:48.000",
    "request_status": "Pending",
    "responsible_agency": "Department of Public Works",
    "final_address": "2826 Palmyra St",
    "address_councildis": "B",
    "status": "Pending",
    "rowid": "1052345",
    "final_x": "3674185.40641",
    "final_y": "534898.379462",
    "longitude": "-90.0910515531379",
    "latitude": "29.96500515649646",
    "geocoded_column": {
      "latitude": "29.96500515649646",
      "longitude": "-90.0910515531379"
    }
  },
  {
    "service_request": "2023-1052344",
    "request_type": "Trash/Recycling",
    "request_reason": "Illegal Dumping",
    "date_created": "2023-11-28T14:20:20.000",
    "date_modified": "2023-11-28T14:20:21.000",
    "request_status": "Pending",
    "responsible_agency": "Department of Sanitation",
    "final_address": "4800 Dale St",
    "address_councildis": "E",
    "status": "Pending",
    "rowid": "1052344",
    "final_x": "3699398.05079",
    "final_y": "554725.290264",
    "longitude": "-90.0107092917688",
    "latitude": "30.018746151564567",
    "geocoded_column": {
      "latitude": "30.018746151564567",
      "longitude": "-90.0107092917688"
    }
  },
  {
    "service_request": "2023-1052340",
    "request_type": "Trash/Recycling",
    "request_reason": "Request a Large Item Pick Up",
    "date_created": "2023-11-28T14:17:34.000",
    "date_modified": "2023-11-28T14:17:35.000",
    "request_status": "Pending",
    "responsible_agency": "Department of Sanitation",
    "final_address": "5816 Marigny St",
    "address_councildis": "D",
    "status": "Assigned to Contractor",
    "contractor": "IV Waste",
    "rowid": "1052340",
    "final_x": "3683893.15113",
    "final_y": "554409.546968",
    "longitude": "-90.05971025205048",
    "latitude": "30.018360962680436",
    "geocoded_column": {
      "latitude": "30.018360962680436",
      "longitude": "-90.05971025205048"
    }
  },
  {
    "service_request": "2023-1052339",
    "request_type": "Traffic Signals/Signs/Striping/Streetlights",
    "request_reason": "Street Light Outage/Malfunction",
    "date_created": "2023-11-28T14:07:57.000",
    "date_modified": "2023-11-28T14:07:58.000",
    "request_status": "Pending",
    "responsible_agency": "Department of Public Works",
    "final_address": "4328 Rayne Dr",
    "address_councildis": "D",
    "status": "Assigned to Contractor",
    "contractor": "Legacy Professional Services",
    "rowid": "1052339",
    "final_x": "3679690.44546",
    "final_y": "548342.853906",
    "longitude": "-90.07320005139763",
    "latitude": "30.001807515968178",
    "geocoded_column": {
      "latitude": "30.001807515968178",
      "longitude": "-90.07320005139763"
    }
  },
  {
    "service_request": "2023-1052338",
    "request_type": "Trash/Recycling",
    "request_reason": "Repair Recycling Cart",
    "date_created": "2023-11-28T14:07:03.000",
    "date_modified": "2023-11-28T14:07:04.000",
    "request_status": "Pending",
    "responsible_agency": "Department of Sanitation",
    "final_address": "7821 Branch Dr",
    "address_councildis": "E",
    "status": "Pending",
    "rowid": "1052338",
    "final_x": "3714290.70283",
    "final_y": "569355.547814",
    "longitude": "-89.96310157155682",
    "latitude": "30.058492394055843",
    "geocoded_column": {
      "latitude": "30.058492394055843",
      "longitude": "-89.96310157155682"
    }
  },
  {
    "service_request": "2023-1052337",
    "request_type": "Roads/Drainage",
    "request_reason": "Pothole",
    "date_created": "2023-11-28T14:05:57.000",
    "date_modified": "2023-11-28T14:05:57.000",
    "request_status": "Pending",
    "responsible_agency": "Department of Public Works",
    "final_address": "114 N Bernadotte St",
    "address_councildis": "A",
    "status": "Pending",
    "rowid": "1052337",
    "final_x": "3669012.76174",
    "final_y": "540242.982475",
    "longitude": "-90.10720590275857",
    "latitude": "29.979854209395114",
    "geocoded_column": {
      "latitude": "29.979854209395114",
      "longitude": "-90.10720590275857"
    }
  },
  {
    "service_request": "2023-1052336",
    "request_type": "Trash/Recycling",
    "request_reason": "Request a Large Item Pick Up",
    "date_created": "2023-11-28T14:05:41.000",
    "date_modified": "2023-11-28T14:05:42.000",
    "request_status": "Pending",
    "responsible_agency": "Department of Sanitation",
    "final_address": "7555 Berg Rd",
    "address_councildis": "E",
    "status": "Assigned to Contractor",
    "contractor": "Waste Pro",
    "rowid": "1052336",
    "final_x": "3712270.40299",
    "final_y": "566322.394851",
    "longitude": "-89.96960158126966",
    "latitude": "30.05021873464588",
    "geocoded_column": {
      "latitude": "30.05021873464588",
      "longitude": "-89.96960158126966"
    }
  },
  {
    "service_request": "2023-1052335",
    "request_type": "Trash/Recycling",
    "request_reason": "Order Trash Cart",
    "date_created": "2023-11-28T14:04:15.000",
    "date_modified": "2023-11-28T14:04:16.000",
    "request_status": "Pending",
    "responsible_agency": "Department of Sanitation",
    "final_address": "2133 Peniston St",
    "address_councildis": "B",
    "status": "Assigned to Contractor",
    "contractor": "Richards Disposal",
    "rowid": "1052335",
    "final_x": "3672430.0171",
    "final_y": "523142.193147",
    "longitude": "-90.09699555507706",
    "latitude": "29.932731726114685",
    "geocoded_column": {
      "latitude": "29.932731726114685",
      "longitude": "-90.09699555507706"
    }
  },
  {
    "service_request": "2023-1052333",
    "request_type": "Roads/Drainage",
    "request_reason": "Pothole",
    "date_created": "2023-11-28T14:01:00.000",
    "date_modified": "2023-11-28T14:01:00.000",
    "request_status": "Pending",
    "responsible_agency": "Department of Public Works",
    "final_address": "1660 Robert St",
    "address_councildis": "B",
    "status": "Pending",
    "rowid": "1052333",
    "final_x": "3668683.23905",
    "final_y": "521388.005817",
    "longitude": "-90.1088830476268",
    "latitude": "29.928018900042137",
    "geocoded_column": {
      "latitude": "29.928018900042137",
      "longitude": "-90.1088830476268"
    }
  },
  {
    "service_request": "2023-1052334",
    "request_type": "Roads/Drainage",
    "request_reason": "Pothole",
    "date_created": "2023-11-28T14:01:00.000",
    "date_modified": "2023-11-28T14:01:00.000",
    "request_status": "Pending",
    "responsible_agency": "Department of Public Works",
    "final_address": "1660 Robert St",
    "address_councildis": "B",
    "status": "Pending",
    "rowid": "1052334",
    "final_x": "3668683.23905",
    "final_y": "521388.005817",
    "longitude": "-90.1088830476268",
    "latitude": "29.928018900042137",
    "geocoded_column": {
      "latitude": "29.928018900042137",
      "longitude": "-90.1088830476268"
    }
  },
  {
    "service_request": "2023-1052332",
    "request_type": "Trash/Recycling",
    "request_reason": "Order Recycling Cart",
    "date_created": "2023-11-28T14:00:36.000",
    "date_modified": "2023-11-28T14:00:37.000",
    "request_status": "Pending",
    "responsible_agency": "Department of Sanitation",
    "final_address": "4626 Orleans Ave",
    "address_councildis": "A",
    "status": "Pending",
    "rowid": "1052332",
    "final_x": "3670602.33396",
    "final_y": "541575.692876",
    "longitude": "-90.10214013979962",
    "latitude": "29.983471843314177",
    "geocoded_column": {
      "latitude": "29.983471843314177",
      "longitude": "-90.10214013979962"
    }
  },
  {
    "service_request": "2023-1052331",
    "request_type": "Trash/Recycling",
    "request_reason": "Dead Animal Pick Up",
    "date_created": "2023-11-28T13:52:32.000",
    "date_modified": "2023-11-28T13:52:33.000",
    "request_status": "Pending",
    "responsible_agency": "Department of Sanitation",
    "final_address": "1469 Magazine St",
    "address_councildis": "B",
    "status": "Assigned to Contractor",
    "contractor": "Richards Disposal",
    "rowid": "1052331",
    "final_x": "3680183.89717",
    "final_y": "523949.718652",
    "longitude": "-90.07248913320434",
    "latitude": "29.93471983249766",
    "geocoded_column": {
      "latitude": "29.93471983249766",
      "longitude": "-90.07248913320434"
    }
  },
  {
    "service_request": "2023-1052330",
    "request_type": "Trash/Recycling",
    "request_reason": "Missed Trash Pick-Up",
    "date_created": "2023-11-28T13:52:02.000",
    "date_modified": "2023-11-28T13:52:02.000",
    "request_status": "Pending",
    "responsible_agency": "Department of Sanitation",
    "final_address": "7643 Berg Rd",
    "address_councildis": "E",
    "status": "Assigned to Contractor",
    "contractor": "Waste Pro",
    "rowid": "1052330",
    "final_x": "3711921.94117",
    "final_y": "566843.545188",
    "longitude": "-89.97068334393195",
    "latitude": "30.051663085225176",
    "geocoded_column": {
      "latitude": "30.051663085225176",
      "longitude": "-89.97068334393195"
    }
  },
  {
    "service_request": "2023-1052329",
    "request_type": "Property Maintenance",
    "request_reason": "Property Maintenance",
    "date_created": "2023-11-28T13:51:34.000",
    "date_modified": "2023-11-28T13:51:35.000",
    "request_status": "Pending",
    "responsible_agency": "Department of Code Enforcement",
    "final_address": "4965 Camelia St",
    "address_councildis": "E",
    "status": "Pending",
    "rowid": "1052329",
    "final_x": "3701471.6474",
    "final_y": "555508.503129",
    "longitude": "-90.00412880647332",
    "latitude": "30.0208337113944",
    "geocoded_column": {
      "latitude": "30.0208337113944",
      "longitude": "-90.00412880647332"
    }
  },
  {
    "service_request": "2023-1052328",
    "request_type": "Trash/Recycling",
    "request_reason": "Request a Large Item Pick Up",
    "date_created": "2023-11-28T13:46:40.000",
    "date_modified": "2023-11-28T13:46:41.000",
    "request_status": "Pending",
    "responsible_agency": "Department of Sanitation",
    "final_address": "3945 Tall Pines Dr",
    "address_councildis": "C",
    "status": "Assigned to Contractor",
    "contractor": "Richards Disposal",
    "rowid": "1052328",
    "final_x": "3704791.32087",
    "final_y": "512879.643569",
    "longitude": "-89.99521265894751",
    "latitude": "29.903513483443987",
    "geocoded_column": {
      "latitude": "29.903513483443987",
      "longitude": "-89.99521265894751"
    }
  },
  {
    "service_request": "2023-1052327",
    "request_type": "Trash/Recycling",
    "request_reason": "Missed Trash Pick-Up",
    "date_created": "2023-11-28T13:46:16.000",
    "date_modified": "2023-11-28T13:46:17.000",
    "request_status": "Pending",
    "responsible_agency": "Department of Sanitation",
    "final_address": "4433 Carondelet St",
    "address_councildis": "B",
    "status": "Assigned to Contractor",
    "contractor": "Richards Disposal",
    "rowid": "1052327",
    "final_x": "3670525.05492",
    "final_y": "521267.905529",
    "longitude": "-90.10307291268585",
    "latitude": "29.92763441579646",
    "geocoded_column": {
      "latitude": "29.92763441579646",
      "longitude": "-90.10307291268585"
    }
  },
  {
    "service_request": "2023-1052326",
    "request_type": "Trash/Recycling",
    "request_reason": "Request a Large Item Pick Up",
    "date_created": "2023-11-28T13:44:19.000",
    "date_modified": "2023-11-28T13:44:20.000",
    "request_status": "Pending",
    "responsible_agency": "Department of Sanitation",
    "final_address": "4635 Gabriel Dr",
    "address_councildis": "E",
    "status": "Assigned to Contractor",
    "contractor": "Waste Pro",
    "rowid": "1052326",
    "final_x": "3709018.18168",
    "final_y": "555052.828569",
    "longitude": "-89.9803011815635",
    "latitude": "30.019337917460263",
    "geocoded_column": {
      "latitude": "30.019337917460263",
      "longitude": "-89.9803011815635"
    }
  },
  {
    "service_request": "2023-1052325",
    "request_type": "Trash/Recycling",
    "request_reason": "Missed Trash Pick-Up",
    "date_created": "2023-11-28T13:40:37.000",
    "date_modified": "2023-11-28T13:40:37.000",
    "request_status": "Pending",
    "responsible_agency": "Department of Sanitation",
    "final_address": "3000 BLK Socrates St",
    "address_councildis": "C",
    "status": "Assigned to Contractor",
    "contractor": "Richards Disposal",
    "rowid": "1052325",
    "final_x": "3696167.14339",
    "final_y": "526248.906936",
    "longitude": "-90.02194749348276",
    "latitude": "29.94054853507227",
    "geocoded_column": {
      "latitude": "29.94054853507227",
      "longitude": "-90.02194749348276"
    }
  },
  {
    "service_request": "2023-1052324",
    "request_type": "Trash/Recycling",
    "request_reason": "Request a Large Item Pick Up",
    "date_created": "2023-11-28T13:38:51.000",
    "date_modified": "2023-11-28T13:38:51.000",
    "request_status": "Pending",
    "responsible_agency": "Department of Sanitation",
    "final_address": "11200 Morrison Rd",
    "address_councildis": "E",
    "status": "Assigned to Contractor",
    "contractor": "Waste Pro",
    "rowid": "1052324",
    "final_x": "3711852.75493",
    "final_y": "565315.630818",
    "longitude": "-89.97095943603192",
    "latitude": "30.047464202046733",
    "geocoded_column": {
      "latitude": "30.047464202046733",
      "longitude": "-89.97095943603192"
    }
  },
  {
    "service_request": "2023-1052323",
    "request_type": "Roads/Drainage",
    "request_reason": "Pothole",
    "date_created": "2023-11-28T13:32:01.000",
    "date_modified": "2023-11-28T13:32:01.000",
    "request_status": "Pending",
    "responsible_agency": "Department of Public Works",
    "final_address": "320 Jane Aly",
    "address_councildis": "B",
    "status": "Pending",
    "rowid": "1052323",
    "final_x": "3674577.89992",
    "final_y": "534321.685253",
    "longitude": "-90.08983184400043",
    "latitude": "29.963407735177842",
    "geocoded_column": {
      "latitude": "29.963407735177842",
      "longitude": "-90.08983184400043"
    }
  },
  {
    "service_request": "2023-1052322",
    "request_type": "Trash/Recycling",
    "request_reason": "Request a Large Item Pick Up",
    "date_created": "2023-11-28T13:30:45.000",
    "date_modified": "2023-11-28T13:30:46.000",
    "request_status": "Pending",
    "responsible_agency": "Department of Sanitation",
    "final_address": "5230 Glouster Rd",
    "address_councildis": "E",
    "status": "Assigned to Contractor",
    "contractor": "Waste Pro",
    "rowid": "1052322",
    "final_x": "3707642.80696",
    "final_y": "557490.603547",
    "longitude": "-89.984556194015",
    "latitude": "30.026085433647097",
    "geocoded_column": {
      "latitude": "30.026085433647097",
      "longitude": "-89.984556194015"
    }
  },
  {
    "service_request": "2023-1052321",
    "request_type": "Roads/Drainage",
    "request_reason": "Catch Basin - Clogged",
    "date_created": "2023-11-28T13:29:19.000",
    "date_modified": "2023-11-28T15:43:49.000",
    "case_close_date": "2023-11-28T09:43:49.000",
    "request_status": "Closed",
    "responsible_agency": "Department of Public Works",
    "final_address": "1814 Toledano St",
    "address_councildis": "B",
    "status": "Resolved",
    "rowid": "1052321",
    "final_x": "3674188.10228",
    "final_y": "522502.83673",
    "longitude": "-90.09146728826734",
    "latitude": "29.930921426594136",
    "geocoded_column": {
      "latitude": "29.930921426594136",
      "longitude": "-90.09146728826734"
    }
  },
  {
    "service_request": "2023-1052320",
    "request_type": "Trash/Recycling",
    "request_reason": "Replace Trash Cart",
    "date_created": "2023-11-28T13:29:07.000",
    "date_modified": "2023-11-28T13:29:08.000",
    "request_status": "Pending",
    "responsible_agency": "Department of Sanitation",
    "final_address": "9546 Palm St",
    "address_councildis": "A",
    "status": "Assigned to Contractor",
    "contractor": "Richards Disposal",
    "rowid": "1052320",
    "final_x": "3663738.99482",
    "final_y": "538261.276681",
    "longitude": "-90.12392876453995",
    "latitude": "29.97455929567518",
    "geocoded_column": {
      "latitude": "29.97455929567518",
      "longitude": "-90.12392876453995"
    }
  },
  {
    "service_request": "2023-1052319",
    "request_type": "Parks & Parkways",
    "request_reason": "Request Tree Service (Right of Way/Public Property)",
    "date_created": "2023-11-28T13:27:13.000",
    "date_modified": "2023-11-28T13:27:14.000",
    "request_status": "Pending",
    "responsible_agency": "Department of Parks & Parkway",
    "final_address": "3901 Constance St",
    "address_councildis": "B",
    "status": "Pending",
    "rowid": "1052319",
    "final_x": "3673112.46132",
    "final_y": "518652.151863",
    "longitude": "-90.09499431913332",
    "latitude": "29.920365291021263",
    "geocoded_column": {
      "latitude": "29.920365291021263",
      "longitude": "-90.09499431913332"
    }
  },
  {
    "service_request": "2023-1052318",
    "request_type": "Abandoned Vehicles",
    "request_reason": "Abandoned/Junk Vehicles",
    "date_created": "2023-11-28T13:25:53.000",
    "date_modified": "2023-11-28T13:25:53.000",
    "request_status": "Pending",
    "responsible_agency": "Department of Public Works",
    "final_address": "N CLAIBORNE AVE & CONTI ST",
    "address_councildis": "B",
    "status": "Pending",
    "rowid": "1052318",
    "final_x": "3679045.8",
    "final_y": "533763.38",
    "longitude": "-90.07574205521765",
    "latitude": "29.961738506173695",
    "geocoded_column": {
      "latitude": "29.961738506173695",
      "longitude": "-90.07574205521765"
    }
  },
  {
    "service_request": "2023-1052317",
    "request_type": "Trash/Recycling",
    "request_reason": "Order Trash Cart",
    "date_created": "2023-11-28T13:22:11.000",
    "date_modified": "2023-11-28T13:22:12.000",
    "request_status": "Pending",
    "responsible_agency": "Department of Sanitation",
    "final_address": "1323 Napoleon Ave",
    "address_councildis": "B",
    "status": "Assigned to Contractor",
    "contractor": "Richards Disposal",
    "rowid": "1052317",
    "final_x": "3671022.76103",
    "final_y": "520270.04012",
    "longitude": "-90.10153563406797",
    "latitude": "29.924875901872994",
    "geocoded_column": {
      "latitude": "29.924875901872994",
      "longitude": "-90.10153563406797"
    }
  },
  {
    "service_request": "2023-1052316",
    "request_type": "Trash/Recycling",
    "request_reason": "Illegal Dumping",
    "date_created": "2023-11-28T13:21:56.000",
    "date_modified": "2023-11-28T13:21:56.000",
    "request_status": "Pending",
    "responsible_agency": "Department of Sanitation",
    "final_address": "N CLAIBORNE AVE & URSULINES AVE",
    "address_councildis": "D",
    "status": "Pending",
    "rowid": "1052316",
    "final_x": "3680724.68",
    "final_y": "535739.58",
    "longitude": "-90.07037164369352",
    "latitude": "29.967121608050693",
    "geocoded_column": {
      "latitude": "29.967121608050693",
      "longitude": "-90.07037164369352"
    }
  },
  {
    "service_request": "2023-1052315",
    "request_type": "Trash/Recycling",
    "request_reason": "Order Recycling Cart",
    "date_created": "2023-11-28T13:21:46.000",
    "date_modified": "2023-11-28T13:21:46.000",
    "request_status": "Pending",
    "responsible_agency": "Department of Sanitation",
    "final_address": "1323 Napoleon Ave",
    "address_councildis": "B",
    "status": "Pending",
    "rowid": "1052315",
    "final_x": "3671022.76103",
    "final_y": "520270.04012",
    "longitude": "-90.10153563406797",
    "latitude": "29.924875901872994",
    "geocoded_column": {
      "latitude": "29.924875901872994",
      "longitude": "-90.10153563406797"
    }
  },
  {
    "service_request": "2023-1052314",
    "request_type": "Trash/Recycling",
    "request_reason": "Order Recycling Cart",
    "date_created": "2023-11-28T13:20:43.000",
    "date_modified": "2023-11-28T13:20:44.000",
    "request_status": "Pending",
    "responsible_agency": "Department of Sanitation",
    "final_address": "1321 Napoleon Ave",
    "address_councildis": "B",
    "status": "Pending",
    "rowid": "1052314",
    "final_x": "3671023.31835",
    "final_y": "520251.073592",
    "longitude": "-90.10153451841299",
    "latitude": "29.924823733498815",
    "geocoded_column": {
      "latitude": "29.924823733498815",
      "longitude": "-90.10153451841299"
    }
  },
  {
    "service_request": "2023-1052313",
    "request_type": "Trash/Recycling",
    "request_reason": "Order Trash Cart",
    "date_created": "2023-11-28T13:20:12.000",
    "date_modified": "2023-11-28T13:20:13.000",
    "request_status": "Pending",
    "responsible_agency": "Department of Sanitation",
    "final_address": "1321 Napoleon Ave",
    "address_councildis": "B",
    "status": "Assigned to Contractor",
    "contractor": "Richards Disposal",
    "rowid": "1052313",
    "final_x": "3671023.31835",
    "final_y": "520251.073592",
    "longitude": "-90.10153451841299",
    "latitude": "29.924823733498815",
    "geocoded_column": {
      "latitude": "29.924823733498815",
      "longitude": "-90.10153451841299"
    }
  },
  {
    "service_request": "2023-1052312",
    "request_type": "Trash/Recycling",
    "request_reason": "Illegal Dumping",
    "date_created": "2023-11-28T13:18:50.000",
    "date_modified": "2023-11-28T13:18:51.000",
    "request_status": "Pending",
    "responsible_agency": "Department of Sanitation",
    "final_address": "1300 N Miro St",
    "address_councildis": "D",
    "status": "Pending",
    "rowid": "1052312",
    "final_x": "3679481.76373",
    "final_y": "537674.059336",
    "longitude": "-90.07422965293097",
    "latitude": "29.972478373431592",
    "geocoded_column": {
      "latitude": "29.972478373431592",
      "longitude": "-90.07422965293097"
    }
  },
  {
    "service_request": "2023-1052311",
    "request_type": "Trash/Recycling",
    "request_reason": "Request a Large Item Pick Up",
    "date_created": "2023-11-28T13:16:03.000",
    "date_modified": "2023-11-28T13:16:04.000",
    "request_status": "Pending",
    "responsible_agency": "Department of Sanitation",
    "final_address": "7531 Forest Glen Rd",
    "address_councildis": "E",
    "status": "Assigned to Contractor",
    "contractor": "Waste Pro",
    "rowid": "1052311",
    "final_x": "3709954.4764",
    "final_y": "564593.308897",
    "longitude": "-89.97698601044796",
    "latitude": "30.04554002949481",
    "geocoded_column": {
      "latitude": "30.04554002949481",
      "longitude": "-89.97698601044796"
    }
  },
  {
    "service_request": "2023-1052310",
    "request_type": "Roads/Drainage",
    "request_reason": "Street Subsidence (Sinking)",
    "date_created": "2023-11-28T13:14:16.000",
    "date_modified": "2023-11-28T13:14:16.000",
    "request_status": "Pending",
    "responsible_agency": "Department of Public Works",
    "final_address": "3734 Toledano St",
    "address_councildis": "B",
    "status": "Pending",
    "rowid": "1052310",
    "final_x": "3671370.03188",
    "final_y": "529061.451776",
    "longitude": "-90.10014073920289",
    "latitude": "29.949039167785745",
    "geocoded_column": {
      "latitude": "29.949039167785745",
      "longitude": "-90.10014073920289"
    }
  },
  {
    "service_request": "2023-1052309",
    "request_type": "Trash/Recycling",
    "request_reason": "Repair Trash Cart",
    "date_created": "2023-11-28T13:10:27.000",
    "date_modified": "2023-11-28T13:10:27.000",
    "request_status": "Pending",
    "responsible_agency": "Department of Sanitation",
    "final_address": "6422 Avenue B",
    "address_councildis": "A",
    "status": "Assigned to Contractor",
    "contractor": "IV Waste",
    "rowid": "1052309",
    "final_x": "3665590.81818",
    "final_y": "550869.846869",
    "longitude": "-90.11765775312324",
    "latitude": "30.00917469639459",
    "geocoded_column": {
      "latitude": "30.00917469639459",
      "longitude": "-90.11765775312324"
    }
  },
  {
    "service_request": "2023-1052308",
    "request_type": "Trash/Recycling",
    "request_reason": "Missed Trash Pick-Up",
    "date_created": "2023-11-28T13:07:50.000",
    "date_modified": "2023-11-28T13:07:50.000",
    "request_status": "Pending",
    "responsible_agency": "Department of Sanitation",
    "final_address": "7643 Berg Rd",
    "address_councildis": "E",
    "status": "Assigned to Contractor",
    "contractor": "Waste Pro",
    "rowid": "1052308",
    "final_x": "3711921.94117",
    "final_y": "566843.545188",
    "longitude": "-89.97068334393195",
    "latitude": "30.051663085225176",
    "geocoded_column": {
      "latitude": "30.051663085225176",
      "longitude": "-89.97068334393195"
    }
  },
  {
    "service_request": "2023-1052307",
    "request_type": "Trash/Recycling",
    "request_reason": "Replace Trash Cart",
    "date_created": "2023-11-28T12:56:08.000",
    "date_modified": "2023-11-28T12:56:09.000",
    "request_status": "Pending",
    "responsible_agency": "Department of Sanitation",
    "final_address": "4828 Banks St",
    "address_councildis": "A",
    "status": "Assigned to Contractor",
    "contractor": "Richards Disposal",
    "rowid": "1052307",
    "final_x": "3667868.47028",
    "final_y": "539207.787274",
    "longitude": "-90.1108549400924",
    "latitude": "29.977041390429218",
    "geocoded_column": {
      "latitude": "29.977041390429218",
      "longitude": "-90.1108549400924"
    }
  },
  {
    "service_request": "2023-1052306",
    "request_type": "Trash/Recycling",
    "request_reason": "Repair Recycling Cart",
    "date_created": "2023-11-28T12:55:47.000",
    "date_modified": "2023-11-28T12:55:47.000",
    "request_status": "Pending",
    "responsible_agency": "Department of Sanitation",
    "final_address": "1531 Fern St",
    "address_councildis": "A",
    "status": "Pending",
    "rowid": "1052306",
    "final_x": "3663437.3017",
    "final_y": "528780.422144",
    "longitude": "-90.12519729715491",
    "latitude": "29.94849879497353",
    "geocoded_column": {
      "latitude": "29.94849879497353",
      "longitude": "-90.12519729715491"
    }
  },
  {
    "service_request": "2023-1052305",
    "request_type": "Trash/Recycling",
    "request_reason": "Missed Trash Pick-Up",
    "date_created": "2023-11-28T12:54:34.000",
    "date_modified": "2023-11-28T12:54:35.000",
    "request_status": "Pending",
    "responsible_agency": "Department of Sanitation",
    "final_address": "11200 Morrison Rd",
    "address_councildis": "E",
    "status": "Assigned to Contractor",
    "contractor": "Waste Pro",
    "rowid": "1052305",
    "final_x": "3711852.75493",
    "final_y": "565315.630818",
    "longitude": "-89.97095943603192",
    "latitude": "30.047464202046733",
    "geocoded_column": {
      "latitude": "30.047464202046733",
      "longitude": "-89.97095943603192"
    }
  },
  {
    "service_request": "2023-1052304",
    "request_type": "Trash/Recycling",
    "request_reason": "Repair Trash Cart",
    "date_created": "2023-11-28T12:44:54.000",
    "date_modified": "2023-11-28T12:44:55.000",
    "request_status": "Pending",
    "responsible_agency": "Department of Sanitation",
    "final_address": "1632 Lizardi St",
    "address_councildis": "E",
    "status": "Assigned to Contractor",
    "contractor": "Waste Pro",
    "rowid": "1052304",
    "final_x": "3697065.15562",
    "final_y": "536307.314503",
    "longitude": "-90.01874800827764",
    "latitude": "29.968177325574526",
    "geocoded_column": {
      "latitude": "29.968177325574526",
      "longitude": "-90.01874800827764"
    }
  },
  {
    "service_request": "2023-1052303",
    "request_type": "Abandoned Vehicles",
    "request_reason": "Abandoned/Junk Vehicles",
    "date_created": "2023-11-28T12:40:54.000",
    "date_modified": "2023-11-28T12:40:54.000",
    "request_status": "Pending",
    "responsible_agency": "Department of Public Works",
    "final_address": "3534 Palmyra St",
    "address_councildis": "B",
    "status": "Pending",
    "rowid": "1052303",
    "final_x": "3672121.00769",
    "final_y": "536508.713351",
    "longitude": "-90.09751596926472",
    "latitude": "29.969494413886093",
    "geocoded_column": {
      "latitude": "29.969494413886093",
      "longitude": "-90.09751596926472"
    }
  },
  {
    "service_request": "2023-1052302",
    "request_type": "Trash/Recycling",
    "request_reason": "Replace Trash Cart",
    "date_created": "2023-11-28T12:38:30.000",
    "date_modified": "2023-11-28T12:38:31.000",
    "request_status": "Pending",
    "responsible_agency": "Department of Sanitation",
    "final_address": "1213 S Telemachus St",
    "address_councildis": "B",
    "status": "Assigned to Contractor",
    "contractor": "Richards Disposal",
    "rowid": "1052302",
    "final_x": "3669183.38836",
    "final_y": "532819.976964",
    "longitude": "-90.10691792777352",
    "latitude": "29.959438405392415",
    "geocoded_column": {
      "latitude": "29.959438405392415",
      "longitude": "-90.10691792777352"
    }
  },
  {
    "service_request": "2023-1052301",
    "request_type": "Trash/Recycling",
    "request_reason": "Request a Large Item Pick Up",
    "date_created": "2023-11-28T12:33:19.000",
    "date_modified": "2023-11-28T12:33:20.000",
    "request_status": "Pending",
    "responsible_agency": "Department of Sanitation",
    "final_address": "2332 Jackson Ave",
    "address_councildis": "B",
    "status": "Assigned to Contractor",
    "contractor": "Richards Disposal",
    "rowid": "1052301",
    "final_x": "3675610.4171",
    "final_y": "526249.801342",
    "longitude": "-90.08684855488887",
    "latitude": "29.941181891304748",
    "geocoded_column": {
      "latitude": "29.941181891304748",
      "longitude": "-90.08684855488887"
    }
  },
  {
    "service_request": "2023-1052300",
    "request_type": "Abandoned Vehicles",
    "request_reason": "Abandoned/Junk Vehicles",
    "date_created": "2023-11-28T12:31:11.000",
    "date_modified": "2023-11-28T12:31:12.000",
    "request_status": "Pending",
    "responsible_agency": "Department of Public Works",
    "final_address": "2235 Chartres St",
    "address_councildis": "C",
    "status": "Pending",
    "rowid": "1052300",
    "final_x": "3685476.43708",
    "final_y": "534568.367429",
    "longitude": "-90.05540683697222",
    "latitude": "29.963756311417814",
    "geocoded_column": {
      "latitude": "29.963756311417814",
      "longitude": "-90.05540683697222"
    }
  },
  {
    "service_request": "2023-1052299",
    "request_type": "Trash/Recycling",
    "request_reason": "Missed Trash Pick-Up",
    "date_created": "2023-11-28T12:31:07.000",
    "date_modified": "2023-11-28T12:46:07.000",
    "case_close_date": "2023-11-28T06:46:07.000",
    "request_status": "Closed",
    "responsible_agency": "Department of Sanitation",
    "final_address": "532 Warrington Dr",
    "address_councildis": "D",
    "status": "Invalid Request",
    "contractor": "IV Waste",
    "contractor_action": "Invalid Pick-Up",
    "rowid": "1052299",
    "final_x": "3681100.18344",
    "final_y": "548933.890259",
    "longitude": "-90.06872593556636",
    "latitude": "30.003389949981834",
    "geocoded_column": {
      "latitude": "30.003389949981834",
      "longitude": "-90.06872593556636"
    }
  },
  {
    "service_request": "2023-1052297",
    "request_type": "Trash/Recycling",
    "request_reason": "Request a Large Item Pick Up",
    "date_created": "2023-11-28T12:21:59.000",
    "date_modified": "2023-11-28T12:21:59.000",
    "request_status": "Pending",
    "responsible_agency": "Department of Sanitation",
    "final_address": "1210 Valmont St",
    "address_councildis": "B",
    "status": "Assigned to Contractor",
    "contractor": "Richards Disposal",
    "rowid": "1052297",
    "final_x": "3667598.10452",
    "final_y": "519810.39564",
    "longitude": "-90.11236164744905",
    "latitude": "29.923712811731768",
    "geocoded_column": {
      "latitude": "29.923712811731768",
      "longitude": "-90.11236164744905"
    }
  },
  {
    "service_request": "2023-1052296",
    "request_type": "Trash/Recycling",
    "request_reason": "Request a Large Item Pick Up",
    "date_created": "2023-11-28T12:19:28.000",
    "date_modified": "2023-11-28T12:19:52.000",
    "request_status": "Pending",
    "responsible_agency": "Department of Sanitation",
    "final_address": "11000 Kinneil Rd",
    "address_councildis": "E",
    "status": "Assigned to Contractor",
    "contractor": "Waste Pro",
    "rowid": "1052296",
    "final_x": "3711572.8981",
    "final_y": "564303.666785",
    "longitude": "-89.97188193107488",
    "latitude": "30.04469085535284",
    "geocoded_column": {
      "latitude": "30.04469085535284",
      "longitude": "-89.97188193107488"
    }
  },
  {
    "service_request": "2023-1052295",
    "request_type": "Trash/Recycling",
    "request_reason": "Replace Trash Cart",
    "date_created": "2023-11-28T12:10:06.000",
    "date_modified": "2023-11-28T12:10:07.000",
    "request_status": "Pending",
    "responsible_agency": "Department of Sanitation",
    "final_address": "2301 Loyola Ave",
    "address_councildis": "B",
    "status": "Assigned to Contractor",
    "contractor": "Richards Disposal",
    "rowid": "1052295",
    "final_x": "3675921.99419",
    "final_y": "525134.912701",
    "longitude": "-90.08590316662502",
    "latitude": "29.938106990233003",
    "geocoded_column": {
      "latitude": "29.938106990233003",
      "longitude": "-90.08590316662502"
    }
  },
  {
    "service_request": "2023-1052294",
    "request_type": "Trash/Recycling",
    "request_reason": "Missed Trash Pick-Up",
    "date_created": "2023-11-28T12:09:37.000",
    "date_modified": "2023-11-28T12:09:38.000",
    "request_status": "Pending",
    "responsible_agency": "Department of Sanitation",
    "final_address": "7701 Briarwood Dr",
    "address_councildis": "E",
    "status": "Assigned to Contractor",
    "contractor": "Waste Pro",
    "rowid": "1052294",
    "final_x": "3717305.42501",
    "final_y": "571219.882216",
    "longitude": "-89.95350148139627",
    "latitude": "30.063519068160694",
    "geocoded_column": {
      "latitude": "30.063519068160694",
      "longitude": "-89.95350148139627"
    }
  },
  {
    "service_request": "2023-1052293",
    "request_type": "Trash/Recycling",
    "request_reason": "Request a Large Item Pick Up",
    "date_created": "2023-11-28T12:09:14.000",
    "date_modified": "2023-11-28T12:09:15.000",
    "request_status": "Pending",
    "responsible_agency": "Department of Sanitation",
    "final_address": "8120 Burthe St",
    "address_councildis": "A",
    "status": "Assigned to Contractor",
    "contractor": "Richards Disposal",
    "rowid": "1052293",
    "final_x": "3661112.54829",
    "final_y": "527677.742271",
    "longitude": "-90.13257404092307",
    "latitude": "29.945533970943654",
    "geocoded_column": {
      "latitude": "29.945533970943654",
      "longitude": "-90.13257404092307"
    }
  },
  {
    "service_request": "2023-1052292",
    "request_type": "Traffic Signals/Signs/Striping/Streetlights",
    "request_reason": "Street Light Outage/Malfunction",
    "date_created": "2023-11-28T12:06:18.000",
    "date_modified": "2023-11-28T12:06:19.000",
    "request_status": "Pending",
    "responsible_agency": "Department of Public Works",
    "final_address": "1600 BLK Farragut St",
    "address_councildis": "C",
    "status": "Assigned to Contractor",
    "contractor": "Legacy Professional Services",
    "rowid": "1052292",
    "final_x": "3692294.40442",
    "final_y": "525054.587474",
    "longitude": "-90.03421707864946",
    "latitude": "29.937385868985793",
    "geocoded_column": {
      "latitude": "29.937385868985793",
      "longitude": "-90.03421707864946"
    }
  },
  {
    "service_request": "2023-1052291",
    "request_type": "Trash/Recycling",
    "request_reason": "Repair Trash Cart",
    "date_created": "2023-11-28T12:00:49.000",
    "date_modified": "2023-11-28T12:00:50.000",
    "request_status": "Pending",
    "responsible_agency": "Department of Sanitation",
    "final_address": "2518 Robert St",
    "address_councildis": "B",
    "status": "Assigned to Contractor",
    "contractor": "Richards Disposal",
    "rowid": "1052291",
    "final_x": "3668791.31226",
    "final_y": "524763.254588",
    "longitude": "-90.1084279831942",
    "latitude": "29.937296577804705",
    "geocoded_column": {
      "latitude": "29.937296577804705",
      "longitude": "-90.1084279831942"
    }
  },
  {
    "service_request": "2023-1052290",
    "request_type": "Trash/Recycling",
    "request_reason": "Request a Large Item Pick Up",
    "date_created": "2023-11-28T12:00:30.000",
    "date_modified": "2023-11-28T12:00:30.000",
    "request_status": "Pending",
    "responsible_agency": "Department of Sanitation",
    "final_address": "9208 Forshey St",
    "address_councildis": "A",
    "status": "Assigned to Contractor",
    "contractor": "Richards Disposal",
    "rowid": "1052290",
    "final_x": "3664052.13236",
    "final_y": "536564.957511",
    "longitude": "-90.1229963850851",
    "latitude": "29.969885888411625",
    "geocoded_column": {
      "latitude": "29.969885888411625",
      "longitude": "-90.1229963850851"
    }
  },
  {
    "service_request": "2023-1052289",
    "request_type": "Trash/Recycling",
    "request_reason": "Request a Large Item Pick Up",
    "date_created": "2023-11-28T11:53:56.000",
    "date_modified": "2023-11-28T11:53:56.000",
    "request_status": "Pending",
    "responsible_agency": "Department of Sanitation",
    "final_address": "4743 Charlmark Dr",
    "address_councildis": "E",
    "status": "Assigned to Contractor",
    "contractor": "Waste Pro",
    "rowid": "1052289",
    "final_x": "3711512.81662",
    "final_y": "556041.107417",
    "longitude": "-89.97238197222306",
    "latitude": "30.021974064808084",
    "geocoded_column": {
      "latitude": "30.021974064808084",
      "longitude": "-89.97238197222306"
    }
  },
  {
    "service_request": "2023-1052288",
    "request_type": "Trash/Recycling",
    "request_reason": "Request a Large Item Pick Up",
    "date_created": "2023-11-28T11:50:03.000",
    "date_modified": "2023-11-28T11:50:03.000",
    "request_status": "Pending",
    "responsible_agency": "Department of Sanitation",
    "final_address": "5631 Holley Ln",
    "address_councildis": "E",
    "status": "Assigned to Contractor",
    "contractor": "Waste Pro",
    "rowid": "1052288",
    "final_x": "3703380.6618",
    "final_y": "556672.768538",
    "longitude": "-89.9980540534838",
    "latitude": "30.023973963657713",
    "geocoded_column": {
      "latitude": "30.023973963657713",
      "longitude": "-89.9980540534838"
    }
  },
  {
    "service_request": "2023-1052287",
    "request_type": "Trash/Recycling",
    "request_reason": "Request a Large Item Pick Up",
    "date_created": "2023-11-28T11:48:13.000",
    "date_modified": "2023-11-28T11:48:14.000",
    "request_status": "Pending",
    "responsible_agency": "Department of Sanitation",
    "final_address": "7900 Hickman St",
    "address_councildis": "E",
    "status": "Assigned to Contractor",
    "contractor": "Waste Pro",
    "rowid": "1052287",
    "final_x": "3705663.61406",
    "final_y": "564034.321057",
    "longitude": "-89.9905678354305",
    "latitude": "30.044141994273073",
    "geocoded_column": {
      "latitude": "30.044141994273073",
      "longitude": "-89.9905678354305"
    }
  },
  {
    "service_request": "2023-1052286",
    "request_type": "Property Maintenance",
    "request_reason": "Property Maintenance",
    "date_created": "2023-11-28T11:47:23.000",
    "date_modified": "2023-11-28T11:47:24.000",
    "request_status": "Pending",
    "responsible_agency": "Department of Code Enforcement",
    "final_address": "3904 Royal St",
    "address_councildis": "C",
    "status": "Pending",
    "rowid": "1052286",
    "final_x": "3691192.1144",
    "final_y": "533831.105669",
    "longitude": "-90.03738369046775",
    "latitude": "29.961552583593477",
    "geocoded_column": {
      "latitude": "29.961552583593477",
      "longitude": "-90.03738369046775"
    }
  },
  {
    "service_request": "2023-1052285",
    "request_type": "Trash/Recycling",
    "request_reason": "Order Trash Cart",
    "date_created": "2023-11-28T11:44:22.000",
    "date_modified": "2023-11-28T11:44:24.000",
    "request_status": "Pending",
    "responsible_agency": "Department of Sanitation",
    "final_address": "5221 Perrier St",
    "address_councildis": "B",
    "status": "Assigned to Contractor",
    "contractor": "Richards Disposal",
    "rowid": "1052285",
    "final_x": "3667865.06849",
    "final_y": "519963.94156",
    "longitude": "-90.11151376862263",
    "latitude": "29.92412718979766",
    "geocoded_column": {
      "latitude": "29.92412718979766",
      "longitude": "-90.11151376862263"
    }
  },