[
  {
    "service_request": "2026-1294832",
    "request_type": "Trash/Recycling",
    "request_reason": "Repair Trash Cart",
    "date_created": "2026-06-27T23:27:54.000",
    "date_modified": "2026-06-27T23:27:57.000",
    "request_status": "Pending",
    "responsible_agency": "Department of Sanitation",
    "final_address": "4316 Orleans Ave",
    "address_councildis": "A",
    "status": "Assigned to Contractor",
    "contractor": "IV Waste",
    "rowid": "1294832",
    "final_x": "3671537.51886",
    "final_y": "540861.655755",
    "longitude": "-90.09921061847055",
    "latitude": "29.981480822129765",
    "geocoded_column": {
      "latitude": "29.981480822129765",
      "longitude": "-90.09921061847055"
    }
  },
  {
    "service_request": "2026-1294831",
    "request_type": "Streetlights",
    "request_reason": "Streetlight Outage/Malfunction",
    "date_created": "2026-06-27T23:10:59.000",
    "date_modified": "2026-06-27T23:11:06.000",
    "request_status": "Pending",
    "responsible_agency": "Department of Public Works",
    "final_address": "3508 Camphor St",
    "address_councildis": "A",
    "status": "Pending",
    "rowid": "1294831",
    "final_x": "3663671.00979",
    "final_y": "538044.094985",
    "longitude": "-90.12415071709988",
    "latitude": "29.97396409096055",
    "geocoded_column": {
      "latitude": "29.97396409096055",
      "longitude": "-90.12415071709988"
    }
  },
  {
    "service_request": "2026-1294830",
    "request_type": "General Services",
    "request_reason": "General Service Request",
    "date_created": "2026-06-27T22:39:47.000",
    "date_modified": "2026-06-27T22:39:49.000",
    "request_status": "Pending",
    "responsible_agency": "Orleans Parish Communication District",
    "final_address": "3024 Ursulines Ave",
    "address_councildis": "A",
    "status": "Pending",
    "rowid": "1294830",
    "final_x": "3676300.8644",
    "final_y": "539082.899082",
    "longitude": "-90.08422700234851",
    "latitude": "29.97644792659096",
    "geocoded_column": {
      "latitude": "29.97644792659096",
      "longitude": "-90.08422700234851"
    }
  },
  {
    "service_request": "2026-1294829",
    "request_type": "Trash/Recycling",
    "request_reason": "Request a Large Item Pick Up",
    "date_created": "2026-06-27T22:22:04.000",
    "date_modified": "2026-06-27T22:22:08.000",
    "request_status": "Pending",
    "responsible_agency": "Department of Sanitation",
    "final_address": "3816 Gentilly Blvd",
    "address_councildis": "D",
    "status": "Assigned to Contractor",
    "contractor": "IV Waste",
    "rowid": "1294829",
    "final_x": "3687959.42243",
    "final_y": "548746.398867",
    "longitude": "-90.0470632361221",
    "latitude": "30.00266447997564",
    "geocoded_column": {
      "latitude": "30.00266447997564",
      "longitude": "-90.0470632361221"
    }
  },
  {
    "service_request": "2026-1294828",
    "request_type": "Abandoned Vehicles",
    "request_reason": "Abandoned/Junk Vehicles",
    "date_created": "2026-06-27T21:58:22.000",
    "date_modified": "2026-06-27T21:58:25.000",
    "request_status": "Pending",
    "responsible_agency": "Department of Public Works",
    "final_address": "826 Harrison Ave Ste B",
    "address_councildis": "A",
    "status": "Pending",
    "rowid": "1294828",
    "final_x": "3669561.56532",
    "final_y": "549098.518547",
    "longitude": "-90.10517276219603",
    "latitude": "30.004187730002727",
    "geocoded_column": {
      "latitude": "30.004187730002727",
      "longitude": "-90.10517276219603"
    }
  },
  {
    "service_request": "2026-1294827",
    "request_type": "Streetlights",
    "request_reason": "Streetlight Outage/Malfunction",
    "date_created": "2026-06-27T21:19:26.000",
    "date_modified": "2026-06-27T21:19:28.000",
    "request_status": "Pending",
    "responsible_agency": "Department of Public Works",
    "final_address": "893 Pontalba St",
    "address_councildis": "A",
    "status": "Pending",
    "rowid": "1294827",
    "final_x": "3669506.40014",
    "final_y": "544387.432847",
    "longitude": "-90.10550652051232",
    "latitude": "29.991235500645708",
    "geocoded_column": {
      "latitude": "29.991235500645708",
      "longitude": "-90.10550652051232"
    }
  },
  {
    "service_request": "2026-1294826",
    "request_type": "Trash/Recycling",
    "request_reason": "Damaged Caused By Contractor",
    "date_created": "2026-06-27T21:10:27.000",
    "date_modified": "2026-06-27T21:10:30.000",
    "request_status": "Pending",
    "responsible_agency": "Department of Sanitation",
    "final_address": "4380 Trieste St",
    "address_councildis": "E",
    "status": "Assigned to Contractor",
    "contractor": "Waste Pro",
    "rowid": "1294826",
    "final_x": "3760148.34518",
    "final_y": "573932.925482",
    "longitude": "-89.81796258505224",
    "latitude": "30.069490509122602",
    "geocoded_column": {
      "latitude": "30.069490509122602",
      "longitude": "-89.81796258505224"
    }
  },
  {
    "service_request": "2026-1294825",
    "request_type": "Roads and Streets",
    "request_reason": "Pothole",
    "date_created": "2026-06-27T21:08:07.000",
    "date_modified": "2026-06-27T21:08:09.000",
    "request_status": "Pending",
    "responsible_agency": "Department of Public Works",
    "final_address": "624 Eliza St",
    "address_councildis": "C",
    "status": "Pending",
    "rowid": "1294825",
    "final_x": "3687391.50902",
    "final_y": "530004.746305",
    "longitude": "-90.04952071139542",
    "latitude": "29.95114905984249",
    "geocoded_column": {
      "latitude": "29.95114905984249",
      "longitude": "-90.04952071139542"
    }
  },
  {
    "service_request": "2026-1294824",
    "request_type": "Utility Poles",
    "request_reason": "Wires Sagging/Hanging Low",
    "date_created": "2026-06-27T20:48:29.000",
    "date_modified": "2026-06-27T20:48:32.000",
    "request_status": "Pending",
    "responsible_agency": "Utility Company Collective",
    "final_address": "1735 Duels St",
    "address_councildis": "D",
    "status": "Pending",
    "rowid": "1294824",
    "final_x": "3681023.3037",
    "final_y": "542316.607629",
    "longitude": "-90.06919944256464",
    "latitude": "29.98519709937293",
    "geocoded_column": {
      "latitude": "29.98519709937293",
      "longitude": "-90.06919944256464"
    }
  },
  {
    "service_request": "2026-1294823",
    "request_type": "Trash/Recycling",
    "request_reason": "Return Trash Cart",
    "date_created": "2026-06-27T20:37:01.000",
    "date_modified": "2026-06-27T20:37:04.000",
    "request_status": "Pending",
    "responsible_agency": "Department of Sanitation",
    "final_address": "4830 Chestnut St",
    "address_councildis": "B",
    "status": "Assigned to Contractor",
    "contractor": "IV Waste",
    "rowid": "1294823",
    "final_x": "3669267.22401",
    "final_y": "519310.819703",
    "longitude": "-90.10710970759307",
    "latitude": "29.922290126045183",
    "geocoded_column": {
      "latitude": "29.922290126045183",
      "longitude": "-90.10710970759307"
    }
  },
  {
    "service_request": "2026-1294822",
    "request_type": "Trash/Recycling",
    "request_reason": "Order Recycling Cart",
    "date_created": "2026-06-27T20:12:23.000",
    "date_modified": "2026-06-27T20:12:24.000",
    "request_status": "Pending",
    "responsible_agency": "Department of Sanitation",
    "final_address": "3010 Bienville Ave",
    "address_councildis": "B",
    "status": "Pending",
    "rowid": "1294822",
    "final_x": "3674696.94651",
    "final_y": "536516.938439",
    "longitude": "-90.0893806478862",
    "latitude": "29.969440387249954",
    "geocoded_column": {
      "latitude": "29.969440387249954",
      "longitude": "-90.0893806478862"
    }
  },
  {
    "service_request": "2026-1294821",
    "request_type": "Abandoned Vehicles",
    "request_reason": "Abandoned/Junk Vehicles",
    "date_created": "2026-06-27T20:06:10.000",
    "date_modified": "2026-06-27T20:06:13.000",
    "request_status": "Pending",
    "responsible_agency": "Department of Public Works",
    "final_address": "7500 BLK Lucerne St",
    "address_councildis": "E",
    "status": "Pending",
    "rowid": "1294821",
    "final_x": "3711217.57392",
    "final_y": "565462.33343",
    "longitude": "-89.97296143406338",
    "latitude": "30.047888325146893",
    "geocoded_column": {
      "latitude": "30.047888325146893",
      "longitude": "-89.97296143406338"
    }
  },
  {
    "service_request": "2026-1294820",
    "request_type": "Parks & Grass Service",
    "request_reason": "Request Grass Cutting Service (City Owned Property)",
    "date_created": "2026-06-27T19:55:39.000",
    "date_modified": "2026-06-27T19:55:44.000",
    "request_status": "Pending",
    "responsible_agency": "Department of Parks & Parkways",
    "final_address": "926 Solomon Pl",
    "address_councildis": "A",
    "status": "Pending",
    "rowid": "1294820",
    "final_x": "3672565.40801",
    "final_y": "541324.549772",
    "longitude": "-90.09594827445268",
    "latitude": "29.98272314126774",
    "geocoded_column": {
      "latitude": "29.98272314126774",
      "longitude": "-90.09594827445268"
    }
  },
  {
    "service_request": "2026-1294819",
    "request_type": "Trash/Recycling",
    "request_reason": "Request a Large Item Pick Up",
    "date_created": "2026-06-27T19:43:55.000",
    "date_modified": "2026-06-27T19:43:56.000",
    "request_status": "Pending",
    "responsible_agency": "Department of Sanitation",
    "final_address": "1315 Constantinople St",
    "address_councildis": "B",
    "status": "Assigned to Contractor",
    "contractor": "IV Waste",
    "rowid": "1294819",
    "final_x": "3672426.60827",
    "final_y": "520316.733368",
    "longitude": "-90.0971025504627",
    "latitude": "29.92496272171367",
    "geocoded_column": {
      "latitude": "29.92496272171367",
      "longitude": "-90.0971025504627"
    }
  },
  {
    "service_request": "2026-1294818",
    "request_type": "Abandoned Vehicles",
    "request_reason": "Abandoned/Junk Vehicles",
    "date_created": "2026-06-27T19:42:17.000",
    "date_modified": "2026-06-27T19:42:19.000",
    "request_status": "Pending",
    "responsible_agency": "Department of Public Works",
    "final_address": "7500 BLK Lucerne St",
    "address_councildis": "E",
    "status": "Pending",
    "rowid": "1294818",
    "final_x": "3711217.57392",
    "final_y": "565462.33343",
    "longitude": "-89.97296143406338",
    "latitude": "30.047888325146893",
    "geocoded_column": {
      "latitude": "30.047888325146893",
      "longitude": "-89.97296143406338"
    }
  },
  {
    "service_request": "2026-1294817",
    "request_type": "Mosquito, Termite & Rodent Control",
    "request_reason": "Mosquito Complaint",
    "date_created": "2026-06-27T19:41:48.000",
    "date_modified": "2026-06-27T19:41:49.000",
    "request_status": "Pending",
    "responsible_agency": "Mosquito, Termite & Rodent Control Board",
    "final_address": "1608 Tricou St",
    "address_councildis": "E",
    "status": "Pending",
    "rowid": "1294817",
    "final_x": "3700835.60586",
    "final_y": "534916.41415",
    "longitude": "-90.00689169935356",
    "latitude": "29.964233369249754",
    "geocoded_column": {
      "latitude": "29.964233369249754",
      "longitude": "-90.00689169935356"
    }
  },
  {
    "service_request": "2026-1294816",
    "request_type": "Trash/Recycling",
    "request_reason": "Replace Trash Cart",
    "date_created": "2026-06-27T19:36:18.000",
    "date_modified": "2026-06-27T19:36:20.000",
    "request_status": "Pending",
    "responsible_agency": "Department of Sanitation",
    "final_address": "2621 Annette St",
    "address_councildis": "D",
    "status": "Assigned to Contractor",
    "contractor": "IV Waste",
    "rowid": "1294816",
    "final_x": "3682716.11938",
    "final_y": "541889.487948",
    "longitude": "-90.06386750101927",
    "latitude": "29.983971209974605",
    "geocoded_column": {
      "latitude": "29.983971209974605",
      "longitude": "-90.06386750101927"
    }
  },
  {
    "service_request": "2026-1294815",
    "request_type": "Abandoned Vehicles",
    "request_reason": "Abandoned/Junk Vehicles",
    "date_created": "2026-06-27T19:26:54.000",
    "date_modified": "2026-06-27T19:26:55.000",
    "request_status": "Pending",
    "responsible_agency": "Department of Public Works",
    "final_address": "20400 BLK Old Spanish Trl",
    "address_councildis": "E",
    "status": "Pending",
    "rowid": "1294815",
    "final_x": "3761570.06573",
    "final_y": "572385.186382",
    "longitude": "-89.81353318898478",
    "latitude": "30.065183165172105",
    "geocoded_column": {
      "latitude": "30.065183165172105",
      "longitude": "-89.81353318898478"
    }
  },
  {
    "service_request": "2026-1294814",
    "request_type": "Trash/Recycling",
    "request_reason": "Request a Large Item Pick Up",
    "date_created": "2026-06-27T19:24:07.000",
    "date_modified": "2026-06-27T19:24:10.000",
    "request_status": "Pending",
    "responsible_agency": "Department of Sanitation",
    "final_address": "455 Topaz St",
    "address_councildis": "D",
    "status": "Assigned to Contractor",
    "contractor": "IV Waste",
    "rowid": "1294814",
    "final_x": "3668100.81313",
    "final_y": "556590.00233",
    "longitude": "-90.10953478661105",
    "latitude": "30.02482964250907",
    "geocoded_column": {
      "latitude": "30.02482964250907",
      "longitude": "-90.10953478661105"
    }
  },
  {
    "service_request": "2026-1294813",
    "request_type": "Trash/Recycling",
    "request_reason": "MIssed Recycling Pick-Up",
    "date_created": "2026-06-27T19:07:35.000",
    "date_modified": "2026-06-27T19:07:36.000",
    "request_status": "Pending",
    "responsible_agency": "Department of Sanitation",
    "final_address": "2120 Philip St",
    "address_councildis": "B",
    "status": "Assigned to Contractor",
    "contractor": "IV Waste",
    "rowid": "1294813",
    "final_x": "3676027.93307",
    "final_y": "524969.019901",
    "longitude": "-90.08557441098043",
    "latitude": "29.937647667773895",
    "geocoded_column": {
      "latitude": "29.937647667773895",
      "longitude": "-90.08557441098043"
    }
  },
  {
    "service_request": "2026-1294812",
    "request_type": "Trash/Recycling",
    "request_reason": "Order Recycling Cart",
    "date_created": "2026-06-27T18:49:05.000",
    "date_modified": "2026-06-27T18:49:08.000",
    "request_status": "Pending",
    "responsible_agency": "Department of Sanitation",
    "final_address": "2807 Audubon St",
    "address_councildis": "B",
    "status": "Pending",
    "rowid": "1294812",
    "final_x": "3667599.2377",
    "final_y": "531131.864898",
    "longitude": "-90.1119771398837",
    "latitude": "29.954843178182404",
    "geocoded_column": {
      "latitude": "29.954843178182404",
      "longitude": "-90.1119771398837"
    }
  },
  {
    "service_request": "2026-1294811",
    "request_type": "Trash/Recycling",
    "request_reason": "Request a Large Item Pick Up",
    "date_created": "2026-06-27T18:46:04.000",
    "date_modified": "2026-06-27T18:46:06.000",
    "request_status": "Pending",
    "responsible_agency": "Department of Sanitation",
    "final_address": "6219 Craigie Rd",
    "address_councildis": "E",
    "status": "Assigned to Contractor",
    "contractor": "Waste Pro",
    "rowid": "1294811",
    "final_x": "3696176.07197",
    "final_y": "558978.179164",
    "longitude": "-90.02073560742771",
    "latitude": "30.030541846644436",
    "geocoded_column": {
      "latitude": "30.030541846644436",
      "longitude": "-90.02073560742771"
    }
  },
  {
    "service_request": "2026-1294810",
    "request_type": "Abandoned Vehicles",
    "request_reason": "Abandoned/Junk Vehicles",
    "date_created": "2026-06-27T18:19:51.000",
    "date_modified": "2026-06-27T18:19:53.000",
    "request_status": "Pending",
    "responsible_agency": "Department of Public Works",
    "final_address": "1701 St Thomas St",
    "address_councildis": "B",
    "status": "Pending",
    "rowid": "1294810",
    "final_x": "3681317.88616",
    "final_y": "522003.649722",
    "longitude": "-90.06897694345304",
    "latitude": "29.929334426274345",
    "geocoded_column": {
      "latitude": "29.929334426274345",
      "longitude": "-90.06897694345304"
    }
  },
  {
    "service_request": "2026-1294809",
    "request_type": "Roads and Streets",
    "request_reason": "Sidewalk Damaged or Missing",
    "date_created": "2026-06-27T18:04:24.000",
    "date_modified": "2026-06-27T18:04:26.000",
    "request_status": "Pending",
    "responsible_agency": "Department of Public Works",
    "final_address": "10123 Airwood St",
    "address_councildis": "E",
    "status": "Pending",
    "rowid": "1294809",
    "final_x": "3713004.14686",
    "final_y": "556241.700058",
    "longitude": "-89.96766224542881",
    "latitude": "30.022476827086155",
    "geocoded_column": {
      "latitude": "30.022476827086155",
      "longitude": "-89.96766224542881"
    }
  },
  {
    "service_request": "2026-1294808",
    "request_type": "Property Maintenance",
    "request_reason": "Property Maintenance",
    "date_created": "2026-06-27T17:34:16.000",
    "date_modified": "2026-06-27T17:34:19.000",
    "request_status": "Pending",
    "responsible_agency": "Department of Code Enforcement",
    "final_address": "7721 N Coronet Ct",
    "address_councildis": "E",
    "status": "Pending",
    "rowid": "1294808",
    "final_x": "3702527.38634",
    "final_y": "557614.604507",
    "longitude": "-90.00071560942095",
    "latitude": "30.02659096224969",
    "geocoded_column": {
      "latitude": "30.02659096224969",
      "longitude": "-90.00071560942095"
    }
  },
  {
    "service_request": "2026-1294807",
    "request_type": "Mosquito, Termite & Rodent Control",
    "request_reason": "Termite Complaint",
    "date_created": "2026-06-27T17:04:34.000",
    "date_modified": "2026-06-27T17:04:36.000",
    "request_status": "Pending",
    "responsible_agency": "Mosquito, Termite & Rodent Control Board",
    "final_address": "5720 St Bernard Ave",
    "address_councildis": "D",
    "status": "Pending",
    "rowid": "1294807",
    "final_x": "3676758.17115",
    "final_y": "553475.906711",
    "longitude": "-90.08228637592075",
    "latitude": "30.016009922989028",
    "geocoded_column": {
      "latitude": "30.016009922989028",
      "longitude": "-90.08228637592075"
    }
  },
  {
    "service_request": "2026-1294806",
    "request_type": "Mosquito, Termite & Rodent Control",
    "request_reason": "Mosquito Complaint",
    "date_created": "2026-06-27T17:01:12.000",
    "date_modified": "2026-06-27T17:01:15.000",
    "request_status": "Pending",
    "responsible_agency": "Mosquito, Termite & Rodent Control Board",
    "final_address": "5720 St Bernard Ave",
    "address_councildis": "D",
    "status": "Pending",
    "rowid": "1294806",
    "final_x": "3676758.17115",
    "final_y": "553475.906711",
    "longitude": "-90.08228637592075",
    "latitude": "30.016009922989028",
    "geocoded_column": {
      "latitude": "30.016009922989028",
      "longitude": "-90.08228637592075"
    }
  },
  {
    "service_request": "2026-1294805",
    "request_type": "Mosquito, Termite & Rodent Control",
    "request_reason": "Termite Complaint",
    "date_created": "2026-06-27T16:59:22.000",
    "date_modified": "2026-06-27T16:59:23.000",
    "request_status": "Pending",
    "responsible_agency": "Mosquito, Termite & Rodent Control Board",
    "final_address": "4826 Camp St",
    "address_councildis": "B",
    "status": "Pending",
    "rowid": "1294805",
    "final_x": "3669335.38106",
    "final_y": "518932.110455",
    "longitude": "-90.10690735816345",
    "latitude": "29.92124678977141",
    "geocoded_column": {
      "latitude": "29.92124678977141",
      "longitude": "-90.10690735816345"
    }
  },
  {
    "service_request": "2026-1294804",
    "request_type": "Mosquito, Termite & Rodent Control",
    "request_reason": "Mosquito Complaint",
    "date_created": "2026-06-27T16:58:07.000",
    "date_modified": "2026-06-27T16:58:10.000",
    "request_status": "Pending",
    "responsible_agency": "Mosquito, Termite & Rodent Control Board",
    "final_address": "4826 Camp St",
    "address_councildis": "B",
    "status": "Pending",
    "rowid": "1294804",
    "final_x": "3669335.38106",
    "final_y": "518932.110455",
    "longitude": "-90.10690735816345",
    "latitude": "29.92124678977141",
    "geocoded_column": {
      "latitude": "29.92124678977141",
      "longitude": "-90.10690735816345"
    }
  },
  {
    "service_request": "2026-1294803",
    "request_type": "Streetlights",
    "request_reason": "Streetlight Outage/Malfunction",
    "date_created": "2026-06-27T16:53:58.000",
    "date_modified": "2026-06-27T16:53:59.000",
    "request_status": "Pending",
    "responsible_agency": "Department of Public Works",
    "final_address": "10 Veterans Blvd",
    "address_councildis": "A",
    "status": "Pending",
    "rowid": "1294803",
    "final_x": "3666244.22503",
    "final_y": "547220.510545",
    "longitude": "-90.11571592849909",
    "latitude": "29.99912120731801",
    "geocoded_column": {
      "latitude": "29.99912120731801",
      "longitude": "-90.11571592849909"
    }
  },
  {
    "service_request": "2026-1294802",
    "request_type": "Abandoned Vehicles",
    "request_reason": "Abandoned/Junk Vehicles",
    "date_created": "2026-06-27T16:44:22.000",
    "date_modified": "2026-06-27T16:44:24.000",
    "request_status": "Pending",
    "responsible_agency": "Department of Public Works",
    "final_address": "101 West Robert E Lee Blvd",
    "address_councildis": "D",
    "status": "Pending",
    "rowid": "1294802",
    "final_x": "3666734.08109",
    "final_y": "555016.436761",
    "longitude": "-90.11390636608914",
    "latitude": "30.02054296132822",
    "geocoded_column": {
      "latitude": "30.02054296132822",
      "longitude": "-90.11390636608914"
    }
  },
  {
    "service_request": "2026-1294801",
    "request_type": "Street and Traffic Signs",
    "request_reason": "Street Name Sign Damaged or Missing",
    "date_created": "2026-06-27T16:32:06.000",
    "date_modified": "2026-06-27T16:32:08.000",
    "request_status": "Pending",
    "responsible_agency": "Department of Public Works",
    "final_address": "LAKESHORE PKWY & GARNET ST",
    "address_councildis": "D",
    "status": "Pending",
    "rowid": "1294801",
    "final_x": "3667328.8",
    "final_y": "556804.68",
    "longitude": "-90.11196699896368",
    "latitude": "30.025442578842654",
    "geocoded_column": {
      "latitude": "30.025442578842654",
      "longitude": "-90.11196699896368"
    }
  },
  {
    "service_request": "2026-1294800",
    "request_type": "Street and Traffic Signs",
    "request_reason": "Street Name Sign Damaged or Missing",
    "date_created": "2026-06-27T16:29:41.000",
    "date_modified": "2026-06-27T16:29:42.000",
    "request_status": "Pending",
    "responsible_agency": "Department of Public Works",
    "final_address": "WEST END BLVD & CHAPELLE ST",
    "address_councildis": "A",
    "status": "Pending",
    "rowid": "1294800",
    "final_x": "3666743.5",
    "final_y": "552737.08",
    "longitude": "-90.11395324824491",
    "latitude": "30.01427525760423",
    "geocoded_column": {
      "latitude": "30.01427525760423",
      "longitude": "-90.11395324824491"
    }
  },
  {
    "service_request": "2026-1294799",
    "request_type": "Property Maintenance",
    "request_reason": "Property Maintenance",
    "date_created": "2026-06-27T16:25:39.000",
    "date_modified": "2026-06-27T16:25:42.000",
    "request_status": "Pending",
    "responsible_agency": "Department of Code Enforcement",
    "final_address": "1806 Mercedes Blvd",
    "address_councildis": "C",
    "status": "Pending",
    "rowid": "1294799",
    "final_x": "3698213.42474",
    "final_y": "524247.876668",
    "longitude": "-90.0155597347059",
    "latitude": "29.934981842074546",
    "geocoded_column": {
      "latitude": "29.934981842074546",
      "longitude": "-90.0155597347059"
    }
  },
  {
    "service_request": "2026-1294798",
    "request_type": "Property Maintenance",
    "request_reason": "Property Maintenance",
    "date_created": "2026-06-27T16:22:55.000",
    "date_modified": "2026-06-27T16:22:57.000",
    "request_status": "Pending",
    "responsible_agency": "Department of Code Enforcement",
    "final_address": "12150 S Interstate 10 Service Rd",
    "address_councildis": "E",
    "status": "Pending",
    "rowid": "1294798",
    "final_x": "3715649.55538",
    "final_y": "565056.46013",
    "longitude": "-89.95896941195382",
    "latitude": "30.04662691592126",
    "geocoded_column": {
      "latitude": "30.04662691592126",
      "longitude": "-89.95896941195382"
    }
  },
  {
    "service_request": "2026-1294797",
    "request_type": "Street and Traffic Signs",
    "request_reason": "Street Name Sign Damaged or Missing",
    "date_created": "2026-06-27T16:21:43.000",
    "date_modified": "2026-06-27T16:21:45.000",
    "request_status": "Pending",
    "responsible_agency": "Department of Public Works",
    "final_address": "WEST END BLVD & CRYSTAL ST",
    "address_councildis": "D",
    "status": "Pending",
    "rowid": "1294797",
    "final_x": "3667090.8",
    "final_y": "556127.18",
    "longitude": "-90.11274185172893",
    "latitude": "30.023586668150784",
    "geocoded_column": {
      "latitude": "30.023586668150784",
      "longitude": "-90.11274185172893"
    }
  },
  {
    "service_request": "2026-1294796",
    "request_type": "Streetlights",
    "request_reason": "Streetlight Knocked Down/Leaning",
    "date_created": "2026-06-27T16:19:09.000",
    "date_modified": "2026-06-27T16:19:12.000",
    "request_status": "Pending",
    "responsible_agency": "Department of Public Works",
    "final_address": "CAMEO ST & SAPPHIRE ST",
    "address_councildis": "D",
    "status": "Pending",
    "rowid": "1294796",
    "final_x": "3667543.5",
    "final_y": "555229.28",
    "longitude": "-90.11134166456019",
    "latitude": "30.02110449456024",
    "geocoded_column": {
      "latitude": "30.02110449456024",
      "longitude": "-90.11134166456019"
    }
  },
  {
    "service_request": "2026-1294795",
    "request_type": "Streetlights",
    "request_reason": "Streetlight Outage/Malfunction",
    "date_created": "2026-06-27T16:13:02.000",
    "date_modified": "2026-06-27T16:13:03.000",
    "request_status": "Pending",
    "responsible_agency": "Department of Public Works",
    "final_address": "215 Crystal St",
    "address_councildis": "D",
    "status": "Pending",
    "rowid": "1294795",
    "final_x": "3667247.93428",
    "final_y": "556194.804634",
    "longitude": "-90.11224306057866",
    "latitude": "30.02376800843378",
    "geocoded_column": {
      "latitude": "30.02376800843378",
      "longitude": "-90.11224306057866"
    }
  },
  {
    "service_request": "2026-1294794",
    "request_type": "Homeless Related Request",
    "request_reason": "Homeless Encampment Complaint",
    "date_created": "2026-06-27T16:10:50.000",
    "date_modified": "2026-06-27T16:10:51.000",
    "request_status": "Pending",
    "responsible_agency": "Office Of Homeless Services And Strategy",
    "final_address": "3200 Burgundy St",
    "address_councildis": "C",
    "status": "Pending",
    "rowid": "1294794",
    "final_x": "3689378.80156",
    "final_y": "535040.50471",
    "longitude": "-90.04306680465533",
    "latitude": "29.96493427631387",
    "geocoded_column": {
      "latitude": "29.96493427631387",
      "longitude": "-90.04306680465533"
    }
  },
  {
    "service_request": "2026-1294793",
    "request_type": "General Services",
    "request_reason": "General Service Request",
    "date_created": "2026-06-27T16:10:23.000",
    "date_modified": "2026-06-27T16:10:25.000",
    "request_status": "Pending",
    "responsible_agency": "Orleans Parish Communication District",
    "final_address": "2000 N Claiborne Ave",
    "address_councildis": "C",
    "status": "Pending",
    "rowid": "1294793",
    "final_x": "3684154.58722",
    "final_y": "537937.480585",
    "longitude": "-90.05946282100365",
    "latitude": "29.97306067568629",
    "geocoded_column": {
      "latitude": "29.97306067568629",
      "longitude": "-90.05946282100365"
    }
  },
  {
    "service_request": "2026-1294792",
    "request_type": "Streetlights",
    "request_reason": "Streetlight Outage/Malfunction",
    "date_created": "2026-06-27T16:03:01.000",
    "date_modified": "2026-06-27T16:03:04.000",
    "request_status": "Pending",
    "responsible_agency": "Department of Public Works",
    "final_address": "WEST END BLVD & CRYSTAL ST",
    "address_councildis": "D",
    "status": "Pending",
    "rowid": "1294792",
    "final_x": "3667090.8",
    "final_y": "556127.18",
    "longitude": "-90.11274185172893",
    "latitude": "30.023586668150784",
    "geocoded_column": {
      "latitude": "30.023586668150784",
      "longitude": "-90.11274185172893"
    }
  },
  {
    "service_request": "2026-1294791",
    "request_type": "Streetlights",
    "request_reason": "Streetlight Outage/Malfunction",
    "date_created": "2026-06-27T16:01:08.000",
    "date_modified": "2026-06-27T16:01:10.000",
    "request_status": "Pending",
    "responsible_agency": "Department of Public Works",
    "final_address": "WEST END BLVD & CRYSTAL ST",
    "address_councildis": "D",
    "status": "Pending",
    "rowid": "1294791",
    "final_x": "3667090.8",
    "final_y": "556127.18",
    "longitude": "-90.11274185172893",
    "latitude": "30.023586668150784",
    "geocoded_column": {
      "latitude": "30.023586668150784",
      "longitude": "-90.11274185172893"
    }
  },
  {
    "service_request": "2026-1294790",
    "request_type": "Streetlights",
    "request_reason": "Streetlight Outage/Malfunction",
    "date_created": "2026-06-27T15:59:31.000",
    "date_modified": "2026-06-27T15:59:33.000",
    "request_status": "Pending",
    "responsible_agency": "Department of Public Works",
    "final_address": "WEST END BLVD & JEWEL ST",
    "address_councildis": "D",
    "status": "Pending",
    "rowid": "1294790",
    "final_x": "3667066.5",
    "final_y": "555845.58",
    "longitude": "-90.1128281128501",
    "latitude": "30.02281307987026",
    "geocoded_column": {
      "latitude": "30.02281307987026",
      "longitude": "-90.1128281128501"
    }
  },
  {
    "service_request": "2026-1294789",
    "request_type": "Health Related Request",
    "request_reason": "Noise Ordinance Complaint",
    "date_created": "2026-06-27T15:58:08.000",
    "date_modified": "2026-06-27T15:58:10.000",
    "request_status": "Pending",
    "responsible_agency": "Health Department",
    "final_address": "6516 Colbert St",
    "address_councildis": "A",
    "status": "Pending",
    "rowid": "1294789",
    "final_x": "3667643.76762",
    "final_y": "550967.579221",
    "longitude": "-90.11116847354774",
    "latitude": "30.00938337726421",
    "geocoded_column": {
      "latitude": "30.00938337726421",
      "longitude": "-90.11116847354774"
    }
  },
  {
    "service_request": "2026-1294788",
    "request_type": "Streetlights",
    "request_reason": "Streetlight Outage/Malfunction",
    "date_created": "2026-06-27T15:57:43.000",
    "date_modified": "2026-06-27T15:57:45.000",
    "request_status": "Pending",
    "responsible_agency": "Department of Public Works",
    "final_address": "WEST END BLVD & JEWEL ST",
    "address_councildis": "D",
    "status": "Pending",
    "rowid": "1294788",
    "final_x": "3667066.5",
    "final_y": "555845.58",
    "longitude": "-90.1128281128501",
    "latitude": "30.02281307987026",
    "geocoded_column": {
      "latitude": "30.02281307987026",
      "longitude": "-90.1128281128501"
    }
  },
  {
    "service_request": "2026-1294787",
    "request_type": "Roads and Streets",
    "request_reason": "Pothole",
    "date_created": "2026-06-27T15:54:00.000",
    "date_modified": "2026-06-27T15:54:01.000",
    "request_status": "Pending",
    "responsible_agency": "Department of Public Works",
    "final_address": "6013 Benjamin St",
    "address_councildis": "A",
    "status": "Pending",
    "rowid": "1294787",
    "final_x": "3665399.81447",
    "final_y": "522260.31225",
    "longitude": "-90.11921893129065",
    "latitude": "29.930513536021515",
    "geocoded_column": {
      "latitude": "29.930513536021515",
      "longitude": "-90.11921893129065"
    }
  },
  {
    "service_request": "2026-1294786",
    "request_type": "Street and Traffic Signs",
    "request_reason": "Crosswalk Signage Damaged or Missing",
    "date_created": "2026-06-27T15:53:49.000",
    "date_modified": "2026-06-27T15:53:52.000",
    "request_status": "Pending",
    "responsible_agency": "Department of Public Works",
    "final_address": "7610 Read Blvd",
    "address_councildis": "E",
    "status": "Pending",
    "rowid": "1294786",
    "final_x": "3708432.53572",
    "final_y": "564488.882529",
    "longitude": "-89.98179993983888",
    "latitude": "30.045302346455646",
    "geocoded_column": {
      "latitude": "30.045302346455646",
      "longitude": "-89.98179993983888"
    }
  },
  {
    "service_request": "2026-1294785",
    "request_type": "Health Related Request",
    "request_reason": "Noise Ordinance Complaint",
    "date_created": "2026-06-27T15:52:34.000",
    "date_modified": "2026-06-27T15:52:37.000",
    "request_status": "Pending",
    "responsible_agency": "Health Department",
    "final_address": "6516 Colbert St",
    "address_councildis": "A",
    "status": "Pending",
    "rowid": "1294785",
    "final_x": "3667643.76762",
    "final_y": "550967.579221",
    "longitude": "-90.11116847354774",
    "latitude": "30.00938337726421",
    "geocoded_column": {
      "latitude": "30.00938337726421",
      "longitude": "-90.11116847354774"
    }
  },
  {
    "service_request": "2026-1294784",
    "request_type": "Trash/Recycling",
    "request_reason": "Request a Large Item Pick Up",
    "date_created": "2026-06-27T15:44:09.000",
    "date_modified": "2026-06-27T15:44:10.000",
    "request_status": "Pending",
    "responsible_agency": "Department of Sanitation",
    "final_address": "11400 BLK Lincoln Beach Blvd",
    "address_councildis": "E",
    "status": "Assigned to Contractor",
    "contractor": "Waste Pro",
    "rowid": "1294784",
    "final_x": "3710950.91763",
    "final_y": "567977.477678",
    "longitude": "-89.97370988673332",
    "latitude": "30.054812654547067",
    "geocoded_column": {
      "latitude": "30.054812654547067",
      "longitude": "-89.97370988673332"
    }
  },
  {
    "service_request": "2026-1294783",
    "request_type": "Trash/Recycling",
    "request_reason": "Request a Large Item Pick Up",
    "date_created": "2026-06-27T15:43:14.000",
    "date_modified": "2026-06-27T15:43:16.000",
    "request_status": "Pending",
    "responsible_agency": "Department of Sanitation",
    "final_address": "7114 W Laverne St",
    "address_councildis": "D",
    "status": "Assigned to Contractor",
    "contractor": "Waste Pro",
    "rowid": "1294783",
    "final_x": "3695824.96688",
    "final_y": "556735.50217",
    "longitude": "-90.02192620845734",
    "latitude": "30.024386393907353",
    "geocoded_column": {
      "latitude": "30.024386393907353",
      "longitude": "-90.02192620845734"
    }
  },
  {
    "service_request": "2026-1294782",
    "request_type": "Parks & Grass Service",
    "request_reason": "Request Grass Cutting Service (City Owned Property)",
    "date_created": "2026-06-27T15:39:15.000",
    "date_modified": "2026-06-27T15:39:18.000",
    "request_status": "Pending",
    "responsible_agency": "Department of Parks & Parkways",
    "final_address": "City Park Avenue & North Carrollton Avenue",
    "address_councildis": "A",
    "status": "Pending",
    "rowid": "1294782",
    "final_x": "3673991.8795",
    "final_y": "541427.838604",
    "longitude": "-90.09143921897976",
    "latitude": "29.98296471627648",
    "geocoded_column": {
      "latitude": "29.98296471627648",
      "longitude": "-90.09143921897976"
    }
  },
  {
    "service_request": "2026-1294781",
    "request_type": "Trash/Recycling",
    "request_reason": "Request a Large Item Pick Up",
    "date_created": "2026-06-27T15:23:54.000",
    "date_modified": "2026-06-27T15:24:01.000",
    "request_status": "Pending",
    "responsible_agency": "Department of Sanitation",
    "final_address": "3913 N Rampart St",
    "address_councildis": "C",
    "status": "Assigned to Contractor",
    "contractor": "IV Waste",
    "rowid": "1294781",
    "final_x": "3691506.60822",
    "final_y": "534948.49735",
    "longitude": "-90.03635063610045",
    "latitude": "29.964615234977725",
    "geocoded_column": {
      "latitude": "29.964615234977725",
      "longitude": "-90.03635063610045"
    }
  },
  {
    "service_request": "2026-1294780",
    "request_type": "Trash/Recycling",
    "request_reason": "Replace Trash Cart",
    "date_created": "2026-06-27T15:02:37.000",
    "date_modified": "2026-06-27T15:02:53.000",
    "request_status": "Pending",
    "responsible_agency": "Department of Sanitation",
    "final_address": "1120 N Johnson St",
    "address_councildis": "C",
    "status": "Assigned to Contractor",
    "contractor": "IV Waste",
    "rowid": "1294780",
    "final_x": "3679689.67528",
    "final_y": "536797.361096",
    "longitude": "-90.07360347114572",
    "latitude": "29.970061471022927",
    "geocoded_column": {
      "latitude": "29.970061471022927",
      "longitude": "-90.07360347114572"
    }
  },
  {
    "service_request": "2026-1294779",
    "request_type": "General Services",
    "request_reason": "General Service Request",
    "date_created": "2026-06-27T14:54:44.000",
    "date_modified": "2026-06-27T14:54:47.000",
    "request_status": "Pending",
    "responsible_agency": "Orleans Parish Communication District",
    "final_address": "3919 Hamburg St",
    "address_councildis": "D",
    "status": "Pending",
    "rowid": "1294779",
    "final_x": "3679220.85506",
    "final_y": "546771.938001",
    "longitude": "-90.07473804758718",
    "latitude": "29.997502246419543",
    "geocoded_column": {
      "latitude": "29.997502246419543",
      "longitude": "-90.07473804758718"
    }
  },
  {
    "service_request": "2026-1294778",
    "request_type": "Trash/Recycling",
    "request_reason": "Replace Recycling Cart",
    "date_created": "2026-06-27T14:50:40.000",
    "date_modified": "2026-06-27T14:50:42.000",
    "request_status": "Pending",
    "responsible_agency": "Department of Sanitation",
    "final_address": "1796 Rosiere St",
    "address_councildis": "D",
    "status": "Pending",
    "rowid": "1294778",
    "final_x": "3678845.84437",
    "final_y": "542152.420557",
    "longitude": "-90.07608281295612",
    "latitude": "29.984811516072906",
    "geocoded_column": {
      "latitude": "29.984811516072906",
      "longitude": "-90.07608281295612"
    }
  },
  {
    "service_request": "2026-1294777",
    "request_type": "Trash/Recycling",
    "request_reason": "Request a Large Item Pick Up",
    "date_created": "2026-06-27T14:49:08.000",
    "date_modified": "2026-06-27T14:49:10.000",
    "request_status": "Pending",
    "responsible_agency": "Department of Sanitation",
    "final_address": "3232 Banks St",
    "address_councildis": "B",
    "status": "Assigned to Contractor",
    "contractor": "IV Waste",
    "rowid": "1294777",
    "final_x": "3672901.57646",
    "final_y": "535372.316806",
    "longitude": "-90.09508964619403",
    "latitude": "29.966346534662755",
    "geocoded_column": {
      "latitude": "29.966346534662755",
      "longitude": "-90.09508964619403"
    }
  },
  {
    "service_request": "2026-1294776",
    "request_type": "Abandoned Vehicles",
    "request_reason": "Abandoned/Junk Vehicles",
    "date_created": "2026-06-27T14:43:29.000",
    "date_modified": "2026-06-27T14:43:30.000",
    "request_status": "Pending",
    "responsible_agency": "Department of Public Works",
    "final_address": "4703 Rosemont Pl",
    "address_councildis": "E",
    "status": "Pending",
    "rowid": "1294776",
    "final_x": "3702795.81828",
    "final_y": "554648.91292",
    "longitude": "-89.99997644837131",
    "latitude": "30.018427865368288",
    "geocoded_column": {
      "latitude": "30.018427865368288",
      "longitude": "-89.99997644837131"
    }
  },
  {
    "service_request": "2026-1294775",
    "request_type": "Trash/Recycling",
    "request_reason": "MIssed Recycling Pick-Up",
    "date_created": "2026-06-27T14:36:32.000",
    "date_modified": "2026-06-27T14:36:34.000",
    "request_status": "Pending",
    "responsible_agency": "Department of Sanitation",
    "final_address": "2000 Rev. John Raphael, Jr. Way",
    "address_councildis": "B",
    "status": "Assigned to Contractor",
    "contractor": "IV Waste",
    "rowid": "1294775",
    "final_x": "3676346.4516",
    "final_y": "526419.610366",
    "longitude": "-90.08451891129943",
    "latitude": "29.94162677349786",
    "geocoded_column": {
      "latitude": "29.94162677349786",
      "longitude": "-90.08451891129943"
    }
  },
  {
    "service_request": "2026-1294774",
    "request_type": "General Services",
    "request_reason": "General Service Request",
    "date_created": "2026-06-27T14:29:22.000",
    "date_modified": "2026-06-27T14:29:26.000",
    "request_status": "Pending",
    "responsible_agency": "Orleans Parish Communication District",
    "final_address": "6573 Dwyer Rd",
    "address_councildis": "E",
    "status": "Pending",
    "rowid": "1294774",
    "final_x": "3698982.7978",
    "final_y": "555564.942489",
    "longitude": "-90.01199074129764",
    "latitude": "30.02106804868984",
    "geocoded_column": {
      "latitude": "30.02106804868984",
      "longitude": "-90.01199074129764"
    }
  },
  {
    "service_request": "2026-1294773",
    "request_type": "Trash/Recycling",
    "request_reason": "Request a Large Item Pick Up",
    "date_created": "2026-06-27T14:25:33.000",
    "date_modified": "2026-06-27T14:25:37.000",
    "request_status": "Pending",
    "responsible_agency": "Department of Sanitation",
    "final_address": "6965 Louis Xiv St",
    "address_councildis": "A",
    "status": "Assigned to Contractor",
    "contractor": "IV Waste",
    "rowid": "1294773",
    "final_x": "3668768.36718",
    "final_y": "553862.612759",
    "longitude": "-90.10751761541775",
    "latitude": "30.017310669806967",
    "geocoded_column": {
      "latitude": "30.017310669806967",
      "longitude": "-90.10751761541775"
    }
  },
  {
    "service_request": "2026-1294772",
    "request_type": "Tree Service",
    "request_reason": "Tree Trim",
    "date_created": "2026-06-27T14:24:50.000",
    "date_modified": "2026-06-27T14:24:52.000",
    "request_status": "Pending",
    "responsible_agency": "Department of Parks & Parkways",
    "final_address": "925 State St",
    "address_councildis": "A",
    "status": "Pending",
    "rowid": "1294772",
    "final_x": "3664935.58196",
    "final_y": "519709.537208",
    "longitude": "-90.12076966297988",
    "latitude": "29.923513225320615",
    "geocoded_column": {
      "latitude": "29.923513225320615",
      "longitude": "-90.12076966297988"
    }
  },
  {
    "service_request": "2026-1294771",
    "request_type": "Roads and Streets",
    "request_reason": "Street Subsidence (Sinking)",
    "date_created": "2026-06-27T14:23:55.000",
    "date_modified": "2026-06-27T14:23:57.000",
    "request_status": "Pending",
    "responsible_agency": "Sewerage & Water Board",
    "final_address": "6013 Benjamin St",
    "address_councildis": "A",
    "status": "Pending",
    "rowid": "1294771",
    "final_x": "3665399.81447",
    "final_y": "522260.31225",
    "longitude": "-90.11921893129065",
    "latitude": "29.930513536021515",
    "geocoded_column": {
      "latitude": "29.930513536021515",
      "longitude": "-90.11921893129065"
    }
  },
  {
    "service_request": "2026-1294770",
    "request_type": "Property Maintenance",
    "request_reason": "Property Maintenance",
    "date_created": "2026-06-27T14:20:51.000",
    "date_modified": "2026-06-27T14:20:52.000",
    "request_status": "Pending",
    "responsible_agency": "Department of Code Enforcement",
    "final_address": "2806 Second St",
    "address_councildis": "B",
    "status": "Pending",
    "rowid": "1294770",
    "final_x": "3674282.16686",
    "final_y": "526621.220414",
    "longitude": "-90.09102938196736",
    "latitude": "29.942242835555128",
    "geocoded_column": {
      "latitude": "29.942242835555128",
      "longitude": "-90.09102938196736"
    }
  },
  {
    "service_request": "2026-1294769",
    "request_type": "General Services",
    "request_reason": "General Service Request",
    "date_created": "2026-06-27T14:02:33.000",
    "date_modified": "2026-06-27T14:02:34.000",
    "request_status": "Pending",
    "responsible_agency": "Orleans Parish Communication District",
    "final_address": "4801 Sandalwood St",
    "address_councildis": "E",
    "status": "Pending",
    "rowid": "1294769",
    "final_x": "3712279.91237",
    "final_y": "556413.622682",
    "longitude": "-89.96994416551371",
    "latitude": "30.02297326096767",
    "geocoded_column": {
      "latitude": "30.02297326096767",
      "longitude": "-89.96994416551371"
    }
  },
  {
    "service_request": "2026-1294768",
    "request_type": "Abandoned Vehicles",
    "request_reason": "Abandoned/Junk Vehicles",
    "date_created": "2026-06-27T13:58:32.000",
    "date_modified": "2026-06-27T13:58:34.000",
    "request_status": "Pending",
    "responsible_agency": "Department of Public Works",
    "final_address": "2217 Laurel St Unit 3",
    "address_councildis": "B",
    "status": "Pending",
    "rowid": "1294768",
    "final_x": "3679119.10568",
    "final_y": "521430.822905",
    "longitude": "-90.0759379245916",
    "latitude": "29.927825869419898",
    "geocoded_column": {
      "latitude": "29.927825869419898",
      "longitude": "-90.0759379245916"
    }
  },
  {
    "service_request": "2026-1294766",
    "request_type": "Trash/Recycling",
    "request_reason": "Request a Large Item Pick Up",
    "date_created": "2026-06-27T13:52:03.000",
    "date_modified": "2026-06-27T13:52:04.000",
    "request_status": "Pending",
    "responsible_agency": "Department of Sanitation",
    "final_address": "7650 Dune Dr",
    "address_councildis": "E",
    "status": "Assigned to Contractor",
    "contractor": "Waste Pro",
    "rowid": "1294766",
    "final_x": "3715216.52395",
    "final_y": "569131.348262",
    "longitude": "-89.96018366745973",
    "latitude": "30.05784546359534",
    "geocoded_column": {
      "latitude": "30.05784546359534",
      "longitude": "-89.96018366745973"
    }
  },
  {
    "service_request": "2026-1294767",
    "request_type": "Roads and Streets",
    "request_reason": "Pothole",
    "date_created": "2026-06-27T13:52:03.000",
    "date_modified": "2026-06-27T13:52:04.000",
    "request_status": "Pending",
    "responsible_agency": "Department of Public Works",
    "final_address": "2354 St Thomas St",
    "address_councildis": "B",
    "status": "Pending",
    "rowid": "1294767",
    "final_x": "3679307.83592",
    "final_y": "520085.819768",
    "longitude": "-90.07538876020611",
    "latitude": "29.924121853633277",
    "geocoded_column": {
      "latitude": "29.924121853633277",
      "longitude": "-90.07538876020611"
    }
  },
  {
    "service_request": "2026-1294765",
    "request_type": "Property Maintenance",
    "request_reason": "Property Maintenance",
    "date_created": "2026-06-27T13:50:14.000",
    "date_modified": "2026-06-27T13:50:16.000",
    "request_status": "Pending",
    "responsible_agency": "Department of Code Enforcement",
    "final_address": "7020 Coventry St, New Orleans, Louisiana, 70126",
    "address_councildis": "E",
    "status": "Pending",
    "rowid": "1294765",
    "final_x": "3699204.89834",
    "final_y": "559653.361117",
    "longitude": "-90.01113990681763",
    "latitude": "30.032302587157528",
    "geocoded_column": {
      "latitude": "30.032302587157528",
      "longitude": "-90.01113990681763"
    }
  },
  {
    "service_request": "2026-1294764",
    "request_type": "Abandoned Vehicles",
    "request_reason": "Abandoned/Junk Vehicles",
    "date_created": "2026-06-27T13:49:24.000",
    "date_modified": "2026-06-27T13:49:26.000",
    "request_status": "Pending",
    "responsible_agency": "Department of Public Works",
    "final_address": "9800 BLK Hammond St",
    "address_councildis": "E",
    "status": "Pending",
    "rowid": "1294764",
    "final_x": "3711824.27349",
    "final_y": "556303.485606",
    "longitude": "-89.97138800410639",
    "latitude": "30.02268532643297",
    "geocoded_column": {
      "latitude": "30.02268532643297",
      "longitude": "-89.97138800410639"
    }
  },
  {
    "service_request": "2026-1294763",
    "request_type": "Roads and Streets",
    "request_reason": "Street Subsidence (Sinking)",
    "date_created": "2026-06-27T13:49:22.000",
    "date_modified": "2026-06-27T13:49:24.000",
    "request_status": "Pending",
    "responsible_agency": "Sewerage & Water Board",
    "final_address": "711 Polk St",
    "address_councildis": "A",
    "status": "Pending",
    "rowid": "1294763",
    "final_x": "3668783.4299",
    "final_y": "547305.822225",
    "longitude": "-90.10769161962286",
    "latitude": "29.999281347746734",
    "geocoded_column": {
      "latitude": "29.999281347746734",
      "longitude": "-90.10769161962286"
    }
  },
  {
    "service_request": "2026-1294762",
    "request_type": "Property Maintenance",
    "request_reason": "Property Maintenance",
    "date_created": "2026-06-27T13:48:43.000",
    "date_modified": "2026-06-27T13:48:44.000",
    "request_status": "Pending",
    "responsible_agency": "Department of Code Enforcement",
    "final_address": "6940 Salem Dr",
    "address_councildis": "E",
    "status": "Pending",
    "rowid": "1294762",
    "final_x": "3706778.07895",
    "final_y": "560478.755166",
    "longitude": "-89.9871776744944",
    "latitude": "30.034329638948023",
    "geocoded_column": {
      "latitude": "30.034329638948023",
      "longitude": "-89.9871776744944"
    }
  },
  {
    "service_request": "2026-1294761",
    "request_type": "Abandoned Vehicles",
    "request_reason": "Abandoned/Junk Vehicles",
    "date_created": "2026-06-27T13:39:35.000",
    "date_modified": "2026-06-27T13:39:38.000",
    "request_status": "Pending",
    "responsible_agency": "Department of Public Works",
    "final_address": "3440 Timber Wolf Ln",
    "address_councildis": "C",
    "status": "Pending",
    "rowid": "1294761",
    "final_x": "3704611.95114",
    "final_y": "511361.220976",
    "longitude": "-89.99583468135039",
    "latitude": "29.899344095272802",
    "geocoded_column": {
      "latitude": "29.899344095272802",
      "longitude": "-89.99583468135039"
    }
  },
  {
    "service_request": "2026-1294760",
    "request_type": "Drainage",
    "request_reason": "Catch Basin Not Draining",
    "date_created": "2026-06-27T13:36:10.000",
    "date_modified": "2026-06-27T13:36:12.000",
    "request_status": "Pending",
    "responsible_agency": "Sewerage & Water Board",
    "final_address": "2900 Somerset Dr",
    "address_councildis": "C",
    "status": "Pending",
    "rowid": "1294760",
    "final_x": "3702833.12964",
    "final_y": "520330.009656",
    "longitude": "-90.00111927946436",
    "latitude": "29.924062174993523",
    "geocoded_column": {
      "latitude": "29.924062174993523",
      "longitude": "-90.00111927946436"
    }
  },
  {
    "service_request": "2026-1294759",
    "request_type": "Trash/Recycling",
    "request_reason": "Missed Trash Pick-Up",
    "date_created": "2026-06-27T13:34:04.000",
    "date_modified": "2026-06-27T13:34:07.000",
    "request_status": "Pending",
    "responsible_agency": "Department of Sanitation",
    "final_address": "1717 Robert C. Blakes, Sr. Dr",
    "address_councildis": "B",
    "status": "Assigned to Contractor",
    "contractor": "IV Waste",
    "rowid": "1294759",
    "final_x": "3678363.86222",
    "final_y": "525150.654525",
    "longitude": "-90.07819342361847",
    "latitude": "29.938076952979912",
    "geocoded_column": {
      "latitude": "29.938076952979912",
      "longitude": "-90.07819342361847"
    }
  },
  {
    "service_request": "2026-1294758",
    "request_type": "Trash/Recycling",
    "request_reason": "Request a Large Item Pick Up",
    "date_created": "2026-06-27T13:32:37.000",
    "date_modified": "2026-06-27T13:32:39.000",
    "request_status": "Pending",
    "responsible_agency": "Department of Sanitation",
    "final_address": "3248 Castiglione St",
    "address_councildis": "A",
    "status": "Assigned to Contractor",
    "contractor": "IV Waste",
    "rowid": "1294758",
    "final_x": "3677836.29646",
    "final_y": "542749.111373",
    "longitude": "-90.0792509124915",
    "latitude": "29.986482627621857",
    "geocoded_column": {
      "latitude": "29.986482627621857",
      "longitude": "-90.0792509124915"
    }
  },
  {
    "service_request": "2026-1294757",
    "request_type": "Trash/Recycling",
    "request_reason": "Missed Trash Pick-Up",
    "date_created": "2026-06-27T13:31:57.000",
    "date_modified": "2026-06-27T13:31:59.000",
    "request_status": "Pending",
    "responsible_agency": "Department of Sanitation",
    "final_address": "2233 Carondelet St",
    "address_councildis": "B",
    "status": "Assigned to Contractor",
    "contractor": "IV Waste",
    "rowid": "1294757",
    "final_x": "3677127.36456",
    "final_y": "523863.518012",
    "longitude": "-90.08214153128586",
    "latitude": "29.93457493492334",
    "geocoded_column": {
      "latitude": "29.93457493492334",
      "longitude": "-90.08214153128586"
    }
  },
  {
    "service_request": "2026-1294756",
    "request_type": "Trash/Recycling",
    "request_reason": "Request a Large Item Pick Up",
    "date_created": "2026-06-27T13:25:43.000",
    "date_modified": "2026-06-27T13:25:45.000",
    "request_status": "Pending",
    "responsible_agency": "Department of Sanitation",
    "final_address": "5415 Burgundy St",
    "address_councildis": "E",
    "status": "Assigned to Contractor",
    "contractor": "Waste Pro",
    "rowid": "1294756",
    "final_x": "3697082.16797",
    "final_y": "533198.77082",
    "longitude": "-90.01880690380933",
    "latitude": "29.959629399258237",
    "geocoded_column": {
      "latitude": "29.959629399258237",
      "longitude": "-90.01880690380933"
    }
  },
  {
    "service_request": "2026-1294755",
    "request_type": "Trash/Recycling",
    "request_reason": "Order Recycling Cart",
    "date_created": "2026-06-27T13:15:53.000",
    "date_modified": "2026-06-27T13:15:56.000",
    "request_status": "Pending",
    "responsible_agency": "Department of Sanitation",
    "final_address": "3027 Allen St",
    "address_councildis": "D",
    "status": "Pending",
    "rowid": "1294755",
    "final_x": "3682216.38818",
    "final_y": "543706.405646",
    "longitude": "-90.06538241729272",
    "latitude": "29.988982308064404",
    "geocoded_column": {
      "latitude": "29.988982308064404",
      "longitude": "-90.06538241729272"
    }
  },
  {
    "service_request": "2026-1294754",
    "request_type": "Trash/Recycling",
    "request_reason": "Order Trash Cart",
    "date_created": "2026-06-27T13:12:21.000",
    "date_modified": "2026-06-27T13:12:27.000",
    "request_status": "Pending",
    "responsible_agency": "Department of Sanitation",
    "final_address": "3027 Allen St",
    "address_councildis": "D",
    "status": "Assigned to Contractor",
    "contractor": "IV Waste",
    "rowid": "1294754",
    "final_x": "3682216.38818",
    "final_y": "543706.405646",
    "longitude": "-90.06538241729272",
    "latitude": "29.988982308064404",
    "geocoded_column": {
      "latitude": "29.988982308064404",
      "longitude": "-90.06538241729272"
    }
  },
  {
    "service_request": "2026-1294753",
    "request_type": "Roads and Streets",
    "request_reason": "Pothole",
    "date_created": "2026-06-27T13:11:42.000",
    "date_modified": "2026-06-27T13:11:44.000",
    "request_status": "Pending",
    "responsible_agency": "Department of Public Works",
    "final_address": "5824 Marshal Foch St",
    "address_councildis": "A",
    "status": "Pending",
    "rowid": "1294753",
    "final_x": "3669627.32212",
    "final_y": "546058.939472",
    "longitude": "-90.10506795738348",
    "latitude": "29.995828004686874",
    "geocoded_column": {
      "latitude": "29.995828004686874",
      "longitude": "-90.10506795738348"
    }
  },
  {
    "service_request": "2026-1294752",
    "request_type": "Trash/Recycling",
    "request_reason": "Order Recycling Cart",
    "date_created": "2026-06-27T13:05:24.000",
    "date_modified": "2026-06-27T13:05:25.000",
    "request_status": "Pending",
    "responsible_agency": "Department of Sanitation",
    "final_address": "1504 Piety St",
    "address_councildis": "D",
    "status": "Pending",
    "rowid": "1294752",
    "final_x": "3690192.30985",
    "final_y": "537349.859336",
    "longitude": "-90.04041551535113",
    "latitude": "29.971258977004357",
    "geocoded_column": {
      "latitude": "29.971258977004357",
      "longitude": "-90.04041551535113"
    }
  },
  {
    "service_request": "2026-1294751",
    "request_type": "Property Maintenance",
    "request_reason": "Property Maintenance",
    "date_created": "2026-06-27T13:04:40.000",
    "date_modified": "2026-06-27T13:04:41.000",
    "request_status": "Pending",
    "responsible_agency": "Department of Code Enforcement",
    "final_address": "5927 W Deer Park Blvd",
    "address_councildis": "E",
    "status": "Pending",
    "rowid": "1294751",
    "final_x": "3711973.27787",
    "final_y": "561355.11011",
    "longitude": "-89.97072737469131",
    "latitude": "30.036570421157716",
    "geocoded_column": {
      "latitude": "30.036570421157716",
      "longitude": "-89.97072737469131"
    }
  },
  {
    "service_request": "2026-1294750",
    "request_type": "Property Maintenance",
    "request_reason": "Property Maintenance",
    "date_created": "2026-06-27T13:04:39.000",
    "date_modified": "2026-06-27T13:04:41.000",
    "request_status": "Pending",
    "responsible_agency": "Department of Code Enforcement",
    "final_address": "1936 St Louis St",
    "address_councildis": "B",
    "status": "Pending",
    "rowid": "1294750",
    "final_x": "3678446.1348",
    "final_y": "534576.446341",
    "longitude": "-90.07760756330917",
    "latitude": "29.963992245905747",
    "geocoded_column": {
      "latitude": "29.963992245905747",
      "longitude": "-90.07760756330917"
    }
  },
  {
    "service_request": "2026-1294749",
    "request_type": "Roads and Streets",
    "request_reason": "Push-up/Pavement Expansion",
    "date_created": "2026-06-27T13:01:41.000",
    "date_modified": "2026-06-27T13:01:43.000",
    "request_status": "Pending",
    "responsible_agency": "Department of Public Works",
    "final_address": "700 Broadway St",
    "address_councildis": "A",
    "status": "Pending",
    "rowid": "1294749",
    "final_x": "3663192.34362",
    "final_y": "525129.367293",
    "longitude": "-90.12609219260058",
    "latitude": "29.938466660381366",
    "geocoded_column": {
      "latitude": "29.938466660381366",
      "longitude": "-90.12609219260058"
    }
  },
  {
    "service_request": "2026-1294748",
    "request_type": "Trash/Recycling",
    "request_reason": "Request a Large Item Pick Up",
    "date_created": "2026-06-27T12:57:45.000",
    "date_modified": "2026-06-27T12:57:46.000",
    "request_status": "Pending",
    "responsible_agency": "Department of Sanitation",
    "final_address": "1110 Marigny St",
    "address_councildis": "C",
    "status": "Assigned to Contractor",
    "contractor": "IV Waste",
    "rowid": "1294748",
    "final_x": "3685377.2006",
    "final_y": "536512.459655",
    "longitude": "-90.05565175905825",
    "latitude": "29.969104934082246",
    "geocoded_column": {
      "latitude": "29.969104934082246",
      "longitude": "-90.05565175905825"
    }
  },
  {
    "service_request": "2026-1294747",
    "request_type": "Trash/Recycling",
    "request_reason": "Request a Large Item Pick Up",
    "date_created": "2026-06-27T12:57:39.000",
    "date_modified": "2026-06-27T12:57:41.000",
    "request_status": "Pending",
    "responsible_agency": "Department of Sanitation",
    "final_address": "940 Turquoise St",
    "address_councildis": "D",
    "status": "Assigned to Contractor",
    "contractor": "IV Waste",
    "rowid": "1294747",
    "final_x": "3671012.50555",
    "final_y": "555032.347545",
    "longitude": "-90.10038725660307",
    "latitude": "30.020460820123127",
    "geocoded_column": {
      "latitude": "30.020460820123127",
      "longitude": "-90.10038725660307"
    }
  },
  {
    "service_request": "2026-1294746",
    "request_type": "Trash/Recycling",
    "request_reason": "Request a Large Item Pick Up",
    "date_created": "2026-06-27T12:54:42.000",
    "date_modified": "2026-06-27T12:54:44.000",
    "request_status": "Pending",
    "responsible_agency": "Department of Sanitation",
    "final_address": "7300 General Haig St",
    "address_councildis": "D",
    "status": "Assigned to Contractor",
    "contractor": "IV Waste",
    "rowid": "1294746",
    "final_x": "3671179.8834",
    "final_y": "555171.839961",
    "longitude": "-90.09985364741961",
    "latitude": "30.020839421217318",
    "geocoded_column": {
      "latitude": "30.020839421217318",
      "longitude": "-90.09985364741961"
    }
  },
  {
    "service_request": "2026-1294745",
    "request_type": "New Orleans Recreation Development Commission (NORDC)",
    "request_reason": "Facilities and Parks Maintenance/Clean Up",
    "date_created": "2026-06-27T12:54:35.000",
    "date_modified": "2026-06-27T12:54:38.000",
    "request_status": "Pending",
    "responsible_agency": "New Orleans Recreation Development Commission",
    "final_address": "3301 Royal St",
    "address_councildis": "C",
    "status": "Pending",
    "rowid": "1294745",
    "final_x": "3689507.60585",
    "final_y": "534299.647045",
    "longitude": "-90.04268640237082",
    "latitude": "29.962893187662416",
    "geocoded_column": {
      "latitude": "29.962893187662416",
      "longitude": "-90.04268640237082"
    }
  },
  {
    "service_request": "2026-1294744",
    "request_type": "Roads and Streets",
    "request_reason": "Pothole",
    "date_created": "2026-06-27T12:51:07.000",
    "date_modified": "2026-06-27T12:51:09.000",
    "request_status": "Pending",
    "responsible_agency": "Department of Public Works",
    "final_address": "6000 BLK Elysian Fields Ave",
    "address_councildis": "D",
    "status": "Pending",
    "rowid": "1294744",
    "final_x": "3683554.72931",
    "final_y": "555148.092247",
    "longitude": "-90.06075362210146",
    "latitude": "30.020402029891976",
    "geocoded_column": {
      "latitude": "30.020402029891976",
      "longitude": "-90.06075362210146"
    }
  },
  {
    "service_request": "2026-1294743",
    "request_type": "Abandoned Vehicles",
    "request_reason": "Abandoned/Junk Vehicles",
    "date_created": "2026-06-27T12:51:04.000",
    "date_modified": "2026-06-27T12:51:06.000",
    "request_status": "Pending",
    "responsible_agency": "Department of Public Works",
    "final_address": "1936 St Louis St",
    "address_councildis": "B",
    "status": "Pending",
    "rowid": "1294743",
    "final_x": "3678446.1348",
    "final_y": "534576.446341",
    "longitude": "-90.07760756330917",
    "latitude": "29.963992245905747",
    "geocoded_column": {
      "latitude": "29.963992245905747",
      "longitude": "-90.07760756330917"
    }
  },
  {
    "service_request": "2026-1294742",
    "request_type": "Trash/Recycling",
    "request_reason": "Request a Large Item Pick Up",
    "date_created": "2026-06-27T12:50:30.000",
    "date_modified": "2026-06-27T12:50:32.000",
    "request_status": "Pending",
    "responsible_agency": "Department of Sanitation",
    "final_address": "950 Turquoise St",
    "address_councildis": "D",
    "status": "Assigned to Contractor",
    "contractor": "IV Waste",
    "rowid": "1294742",
    "final_x": "3671087.3442",
    "final_y": "555025.940889",
    "longitude": "-90.10015100644446",
    "latitude": "30.02044098967123",
    "geocoded_column": {
      "latitude": "30.02044098967123",
      "longitude": "-90.10015100644446"
    }
  },
  {
    "service_request": "2026-1294741",
    "request_type": "Drainage",
    "request_reason": "Illegal Dumping (Sewer Odor)",
    "date_created": "2026-06-27T12:44:38.000",
    "date_modified": "2026-06-27T12:44:40.000",
    "request_status": "Pending",
    "responsible_agency": "Sewerage & Water Board",
    "final_address": "2336 Robert St",
    "address_councildis": "B",
    "status": "Pending",
    "rowid": "1294741",
    "final_x": "3668771.05959",
    "final_y": "524197.766332",
    "longitude": "-90.10851100579977",
    "latitude": "29.935742262187567",
    "geocoded_column": {
      "latitude": "29.935742262187567",
      "longitude": "-90.10851100579977"
    }
  },
  {
    "service_request": "2026-1294740",
    "request_type": "Trash/Recycling",
    "request_reason": "Replace Trash Cart",
    "date_created": "2026-06-27T12:44:18.000",
    "date_modified": "2026-06-27T12:44:20.000",
    "request_status": "Pending",
    "responsible_agency": "Department of Sanitation",
    "final_address": "611 English Turn Dr",
    "address_councildis": "C",
    "status": "Assigned to Contractor",
    "contractor": "Richards Disposal",
    "rowid": "1294740",
    "final_x": "3717795.89458",
    "final_y": "515191.396211",
    "longitude": "-89.95408295757662",
    "latitude": "29.909445995111355",
    "geocoded_column": {
      "latitude": "29.909445995111355",
      "longitude": "-89.95408295757662"
    }
  },
  {
    "service_request": "2026-1294739",
    "request_type": "Trash/Recycling",
    "request_reason": "Request a Large Item Pick Up",
    "date_created": "2026-06-27T12:42:29.000",
    "date_modified": "2026-06-27T12:42:31.000",
    "request_status": "Pending",
    "responsible_agency": "Department of Sanitation",
    "final_address": "4811 Camp St",
    "address_councildis": "B",
    "status": "Assigned to Contractor",
    "contractor": "IV Waste",
    "rowid": "1294739",
    "final_x": "3669441.14753",
    "final_y": "519038.285431",
    "longitude": "-90.10656991117234",
    "latitude": "29.921535624150064",
    "geocoded_column": {
      "latitude": "29.921535624150064",
      "longitude": "-90.10656991117234"
    }
  },
  {
    "service_request": "2026-1294738",
    "request_type": "Roads and Streets",
    "request_reason": "Pothole",
    "date_created": "2026-06-27T12:38:20.000",
    "date_modified": "2026-06-27T12:38:22.000",
    "request_status": "Pending",
    "responsible_agency": "Department of Public Works",
    "final_address": "520 Royal St",
    "address_councildis": "C",
    "status": "Pending",
    "rowid": "1294738",
    "final_x": "3682235.7405",
    "final_y": "531999.850627",
    "longitude": "-90.06573035805727",
    "latitude": "29.956792749551518",
    "geocoded_column": {
      "latitude": "29.956792749551518",
      "longitude": "-90.06573035805727"
    }
  },
  {
    "service_request": "2026-1294737",
    "request_type": "Roads and Streets",
    "request_reason": "Pothole",
    "date_created": "2026-06-27T12:34:40.000",
    "date_modified": "2026-06-27T12:34:41.000",
    "request_status": "Pending",
    "responsible_agency": "Department of Public Works",
    "final_address": "520 Royal St",
    "address_councildis": "C",
    "status": "Pending",
    "rowid": "1294737",
    "final_x": "3682235.7405",
    "final_y": "531999.850627",
    "longitude": "-90.06573035805727",
    "latitude": "29.956792749551518",
    "geocoded_column": {
      "latitude": "29.956792749551518",
      "longitude": "-90.06573035805727"
    }
  },
  {
    "service_request": "2026-1294736",
    "request_type": "Trash/Recycling",
    "request_reason": "Request a Large Item Pick Up",
    "date_created": "2026-06-27T12:34:28.000",
    "date_modified": "2026-06-27T12:34:31.000",
    "request_status": "Pending",
    "responsible_agency": "Department of Sanitation",
    "final_address": "4027 Piedmont Dr",
    "address_councildis": "D",
    "status": "Assigned to Contractor",
    "contractor": "IV Waste",
    "rowid": "1294736",
    "final_x": "3685281.09359",
    "final_y": "547434.150417",
    "longitude": "-90.05557064622866",
    "latitude": "29.999138667983942",
    "geocoded_column": {
      "latitude": "29.999138667983942",
      "longitude": "-90.05557064622866"
    }
  },
  {
    "service_request": "2026-1294735",
    "request_type": "Abandoned Vehicles",
    "request_reason": "Abandoned/Junk Vehicles",
    "date_created": "2026-06-27T12:29:47.000",
    "date_modified": "2026-06-27T12:29:48.000",
    "request_status": "Pending",
    "responsible_agency": "Department of Public Works",
    "final_address": "1936 St Louis St",
    "address_councildis": "B",
    "status": "Pending",
    "rowid": "1294735",
    "final_x": "3678446.1348",
    "final_y": "534576.446341",
    "longitude": "-90.07760756330917",
    "latitude": "29.963992245905747",
    "geocoded_column": {
      "latitude": "29.963992245905747",
      "longitude": "-90.07760756330917"
    }
  },
  {
    "service_request": "2026-1294734",
    "request_type": "Trash/Recycling",
    "request_reason": "Replace Recycling Cart",
    "date_created": "2026-06-27T12:20:09.000",
    "date_modified": "2026-06-27T12:20:11.000",
    "request_status": "Pending",
    "responsible_agency": "Department of Sanitation",
    "final_address": "1004 Nashville Ave",
    "address_councildis": "A",
    "status": "Pending",
    "rowid": "1294734",
    "final_x": "3665624.38036",
    "final_y": "519741.183096",
    "longitude": "-90.11859431469335",
    "latitude": "29.923580180981503",
    "geocoded_column": {
      "latitude": "29.923580180981503",
      "longitude": "-90.11859431469335"
    }
  },
  {
    "service_request": "2026-1294733",
    "request_type": "Trash/Recycling",
    "request_reason": "Order Recycling Cart",
    "date_created": "2026-06-27T12:16:48.000",
    "date_modified": "2026-06-27T12:16:50.000",
    "request_status": "Pending",
    "responsible_agency": "Department of Sanitation",
    "final_address": "3908 Canal St",
    "address_councildis": "A",
    "status": "Pending",
    "rowid": "1294733",
    "final_x": "3671646.34279",
    "final_y": "537815.233737",
    "longitude": "-90.0989705550953",
    "latitude": "29.973100972531128",
    "geocoded_column": {
      "latitude": "29.973100972531128",
      "longitude": "-90.0989705550953"
    }
  },
  {
    "service_request": "2026-1294732",
    "request_type": "Trash/Recycling",
    "request_reason": "Request a Large Item Pick Up",
    "date_created": "2026-06-27T12:03:36.000",
    "date_modified": "2026-06-27T12:03:39.000",
    "request_status": "Pending",
    "responsible_agency": "Department of Sanitation",
    "final_address": "118 Portage Pl",
    "address_councildis": "D",
    "status": "Assigned to Contractor",
    "contractor": "IV Waste",
    "rowid": "1294732",
    "final_x": "3677876.97346",
    "final_y": "544547.896335",
    "longitude": "-90.07906023576476",
    "latitude": "29.991427433655765",
    "geocoded_column": {
      "latitude": "29.991427433655765",
      "longitude": "-90.07906023576476"
    }
  },
  {
    "service_request": "2026-1294731",
    "request_type": "Trash/Recycling",
    "request_reason": "Request a Large Item Pick Up",
    "date_created": "2026-06-27T12:01:59.000",
    "date_modified": "2026-06-27T12:02:01.000",
    "request_status": "Pending",
    "responsible_agency": "Department of Sanitation",
    "final_address": "3430 Franklin Ave",
    "address_councildis": "D",
    "status": "Assigned to Contractor",
    "contractor": "IV Waste",
    "rowid": "1294731",
    "final_x": "3687113.74735",
    "final_y": "545728.565456",
    "longitude": "-90.04984162010189",
    "latitude": "29.994392603544135",
    "geocoded_column": {
      "latitude": "29.994392603544135",
      "longitude": "-90.04984162010189"
    }
  },
  {
    "service_request": "2026-1294730",
    "request_type": "Trash/Recycling",
    "request_reason": "Request a Large Item Pick Up",
    "date_created": "2026-06-27T11:56:02.000",
    "date_modified": "2026-06-27T11:56:03.000",
    "request_status": "Pending",
    "responsible_agency": "Department of Sanitation",
    "final_address": "118 Portage Pl",
    "address_councildis": "D",
    "status": "Assigned to Contractor",
    "contractor": "IV Waste",
    "rowid": "1294730",
    "final_x": "3677876.97346",
    "final_y": "544547.896335",
    "longitude": "-90.07906023576476",
    "latitude": "29.991427433655765",
    "geocoded_column": {
      "latitude": "29.991427433655765",
      "longitude": "-90.07906023576476"
    }
  },
  {
    "service_request": "2026-1294729",
    "request_type": "Trash/Recycling",
    "request_reason": "Repair Trash Cart",
    "date_created": "2026-06-27T11:55:30.000",
    "date_modified": "2026-06-27T11:55:33.000",
    "request_status": "Pending",
    "responsible_agency": "Department of Sanitation",
    "final_address": "3115 Bienville Ave",
    "address_councildis": "B",
    "status": "Assigned to Contractor",
    "contractor": "IV Waste",
    "rowid": "1294729",
    "final_x": "3674471.2747",
    "final_y": "536838.597512",
    "longitude": "-90.09008231696193",
    "latitude": "29.97033157529894",
    "geocoded_column": {
      "latitude": "29.97033157529894",
      "longitude": "-90.09008231696193"
    }
  },
  {
    "service_request": "2026-1294728",
    "request_type": "Roads and Streets",
    "request_reason": "Road Shoulder Damage",
    "date_created": "2026-06-27T11:24:31.000",
    "date_modified": "2026-06-27T11:24:33.000",
    "request_status": "Pending",
    "responsible_agency": "Department of Public Works",
    "final_address": "5353 Perrier St",
    "address_councildis": "B",
    "status": "Pending",
    "rowid": "1294728",
    "final_x": "3667230.41421",
    "final_y": "520102.297272",
    "longitude": "-90.11351250634239",
    "latitude": "29.924526217147832",
    "geocoded_column": {
      "latitude": "29.924526217147832",
      "longitude": "-90.11351250634239"
    }
  },
  {
    "service_request": "2026-1294727",
    "request_type": "Trash/Recycling",
    "request_reason": "Replace Trash Cart",
    "date_created": "2026-06-27T11:16:51.000",
    "date_modified": "2026-06-27T11:16:52.000",
    "request_status": "Pending",
    "responsible_agency": "Department of Sanitation",
    "final_address": "1440 Louisiana Ave",
    "address_councildis": "B",
    "status": "Assigned to Contractor",
    "contractor": "IV Waste",
    "rowid": "1294727",
    "final_x": "3674433.87438",
    "final_y": "520871.912377",
    "longitude": "-90.0907472515505",
    "latitude": "29.926429585258482",
    "geocoded_column": {
      "latitude": "29.926429585258482",
      "longitude": "-90.0907472515505"
    }
  },
  {
    "service_request": "2026-1294726",
    "request_type": "Trash/Recycling",
    "request_reason": "Request a Large Item Pick Up",
    "date_created": "2026-06-27T11:16:16.000",
    "date_modified": "2026-06-27T11:16:18.000",
    "request_status": "Pending",
    "responsible_agency": "Department of Sanitation",
    "final_address": "2514 Audubon St",
    "address_councildis": "A",
    "status": "Assigned to Contractor",
    "contractor": "IV Waste",
    "rowid": "1294726",
    "final_x": "3667076.18017",
    "final_y": "530369.826562",
    "longitude": "-90.11365437526892",
    "latitude": "29.952763141456803",
    "geocoded_column": {
      "latitude": "29.952763141456803",
      "longitude": "-90.11365437526892"
    }
  },
  {
    "service_request": "2026-1294725",
    "request_type": "Property Maintenance",
    "request_reason": "Property Maintenance",
    "date_created": "2026-06-27T11:08:34.000",
    "date_modified": "2026-06-27T11:08:35.000",
    "request_status": "Pending",
    "responsible_agency": "Department of Code Enforcement",
    "final_address": "2212 Seventh St",
    "address_councildis": "B",
    "status": "Pending",
    "rowid": "1294725",
    "final_x": "3673958.77057",
    "final_y": "523980.17254",
    "longitude": "-90.09214073962535",
    "latitude": "29.934990453144014",
    "geocoded_column": {
      "latitude": "29.934990453144014",
      "longitude": "-90.09214073962535"
    }
  },
  {
    "service_request": "2026-1294724",
    "request_type": "Roads and Streets",
    "request_reason": "Street Subsidence (Sinking)",
    "date_created": "2026-06-27T10:47:43.000",
    "date_modified": "2026-06-27T10:47:45.000",
    "request_status": "Pending",
    "responsible_agency": "Sewerage & Water Board",
    "final_address": "6116 Memphis St",
    "address_councildis": "A",
    "status": "Pending",
    "rowid": "1294724",
    "final_x": "3669169.06887",
    "final_y": "548027.54037",
    "longitude": "-90.10644896060661",
    "latitude": "30.00125447443248",
    "geocoded_column": {
      "latitude": "30.00125447443248",
      "longitude": "-90.10644896060661"
    }
  },
  {
    "service_request": "2026-1294723",
    "request_type": "Trash/Recycling",
    "request_reason": "Replace Trash Cart",
    "date_created": "2026-06-27T10:43:23.000",
    "date_modified": "2026-06-27T10:43:25.000",
    "request_status": "Pending",
    "responsible_agency": "Department of Sanitation",
    "final_address": "5922 Marshal Foch St",
    "address_councildis": "A",
    "status": "Assigned to Contractor",
    "contractor": "IV Waste",
    "rowid": "1294723",
    "final_x": "3669687.36385",
    "final_y": "546714.013649",
    "longitude": "-90.10485610438451",
    "latitude": "29.997627462283",
    "geocoded_column": {
      "latitude": "29.997627462283",
      "longitude": "-90.10485610438451"
    }
  },
  {
    "service_request": "2026-1294722",
    "request_type": "Tree Service",
    "request_reason": "Tree Trim",
    "date_created": "2026-06-27T10:28:57.000",
    "date_modified": "2026-06-27T10:28:58.000",
    "request_status": "Pending",
    "responsible_agency": "Department of Parks & Parkways",
    "final_address": "2 Park Timbers Dr",
    "address_councildis": "C",
    "status": "Pending",
    "rowid": "1294722",
    "final_x": "3699406.97348",
    "final_y": "518414.406966",
    "longitude": "-90.0120041022768",
    "latitude": "29.9189040089332",
    "geocoded_column": {
      "latitude": "29.9189040089332",
      "longitude": "-90.0120041022768"
    }
  },
  {
    "service_request": "2026-1294721",
    "request_type": "Streetlights",
    "request_reason": "Streetlight Outage/Malfunction",
    "date_created": "2026-06-27T10:26:02.000",
    "date_modified": "2026-06-27T10:26:05.000",
    "request_status": "Pending",
    "responsible_agency": "Department of Public Works",
    "final_address": "0 BLK Audubon Blvd",
    "address_councildis": "A",
    "status": "Pending",
    "rowid": "1294721",
    "final_x": "3665769.80622",
    "final_y": "527561.184495",
    "longitude": "-90.1178734101763",
    "latitude": "29.945078455935082",
    "geocoded_column": {
      "latitude": "29.945078455935082",
      "longitude": "-90.1178734101763"
    }
  },
  {
    "service_request": "2026-1294720",
    "request_type": "Roads and Streets",
    "request_reason": "Pothole",
    "date_created": "2026-06-27T10:21:21.000",
    "date_modified": "2026-06-27T10:21:23.000",
    "request_status": "Pending",
    "responsible_agency": "Department of Public Works",
    "final_address": "1 English Turn Prkwy",
    "address_councildis": "C",
    "status": "Pending",
    "rowid": "1294720",
    "final_x": "3713690.71429",
    "final_y": "516301.512564",
    "longitude": "-89.96699773956271",
    "latitude": "29.912633659868995",
    "geocoded_column": {
      "latitude": "29.912633659868995",
      "longitude": "-89.96699773956271"
    }
  },
  {
    "service_request": "2026-1294719",
    "request_type": "Property Maintenance",
    "request_reason": "Property Maintenance",
    "date_created": "2026-06-27T10:19:42.000",
    "date_modified": "2026-06-27T10:19:44.000",
    "request_status": "Pending",
    "responsible_agency": "Department of Code Enforcement",
    "final_address": "2659 Mithra St",
    "address_councildis": "D",
    "status": "Pending",
    "rowid": "1294719",
    "final_x": "3687133.26025",
    "final_y": "552990.938711",
    "longitude": "-90.04952294971515",
    "latitude": "30.014360888497432",
    "geocoded_column": {
      "latitude": "30.014360888497432",
      "longitude": "-90.04952294971515"
    }
  },
  {
    "service_request": "2026-1294718",
    "request_type": "Trash/Recycling",
    "request_reason": "Missed Trash Pick-Up",
    "date_created": "2026-06-27T10:13:15.000",
    "date_modified": "2026-06-27T11:53:54.000",
    "case_close_date": "2026-06-27T06:53:52.000",
    "request_status": "Closed",
    "responsible_agency": "Department of Sanitation",
    "final_address": "3629 Constance St",
    "address_councildis": "B",
    "status": "Invalid Request",
    "contractor": "IV Waste",
    "contractor_action": "Invalid",
    "rowid": "1294718",
    "final_x": "3674039.9716",
    "final_y": "518942.501751",
    "longitude": "-90.09205667341986",
    "latitude": "29.92113606536863",
    "geocoded_column": {
      "latitude": "29.92113606536863",
      "longitude": "-90.09205667341986"
    }
  },
  {
    "service_request": "2026-1294717",
    "request_type": "Trash/Recycling",
    "request_reason": "Replace Trash Cart",
    "date_created": "2026-06-27T09:50:06.000",
    "date_modified": "2026-06-27T09:50:26.000",
    "request_status": "Pending",
    "responsible_agency": "Department of Sanitation",
    "final_address": "3257 Derby Pl",
    "address_councildis": "A",
    "status": "Assigned to Contractor",
    "contractor": "IV Waste",
    "rowid": "1294717",
    "final_x": "3677449.44552",
    "final_y": "542954.603277",
    "longitude": "-90.08046573153854",
    "latitude": "29.98705929503425",
    "geocoded_column": {
      "latitude": "29.98705929503425",
      "longitude": "-90.08046573153854"
    }
  },
  {
    "service_request": "2026-1294716",
    "request_type": "Trash/Recycling",
    "request_reason": "Repair Trash Cart",
    "date_created": "2026-06-27T09:47:36.000",
    "date_modified": "2026-06-27T09:47:37.000",
    "request_status": "Pending",
    "responsible_agency": "Department of Sanitation",
    "final_address": "2801 Dumaine St",
    "address_councildis": "C",
    "status": "Assigned to Contractor",
    "contractor": "IV Waste",
    "rowid": "1294716",
    "final_x": "3676700.90869",
    "final_y": "537913.070729",
    "longitude": "-90.08300385621058",
    "latitude": "29.973219302231545",
    "geocoded_column": {
      "latitude": "29.973219302231545",
      "longitude": "-90.08300385621058"
    }
  },
  {
    "service_request": "2026-1294715",
    "request_type": "Trash/Recycling",
    "request_reason": "Missed Trash Pick-Up",
    "date_created": "2026-06-27T09:40:27.000",
    "date_modified": "2026-06-27T11:10:46.000",
    "case_close_date": "2026-06-27T06:10:44.000",
    "request_status": "Closed",
    "responsible_agency": "Department of Sanitation",
    "final_address": "1619 Prytania St",
    "address_councildis": "B",
    "status": "Invalid Request",
    "contractor": "IV Waste",
    "contractor_action": "Invalid",
    "rowid": "1294715",
    "final_x": "3679349.60232",
    "final_y": "524876.731196",
    "longitude": "-90.07509085100672",
    "latitude": "29.937294027526207",
    "geocoded_column": {
      "latitude": "29.937294027526207",
      "longitude": "-90.07509085100672"
    }
  },
  {
    "service_request": "2026-1294714",
    "request_type": "Abandoned Vehicles",
    "request_reason": "Abandoned/Junk Vehicles",
    "date_created": "2026-06-27T09:31:57.000",
    "date_modified": "2026-06-27T09:32:00.000",
    "request_status": "Pending",
    "responsible_agency": "Department of Public Works",
    "final_address": "1126 N Robertson St",
    "address_councildis": "C",
    "status": "Pending",
    "rowid": "1294714",
    "final_x": "3681144.11957",
    "final_y": "535707.994375",
    "longitude": "-90.06904815162282",
    "latitude": "29.967022039752607",
    "geocoded_column": {
      "latitude": "29.967022039752607",
      "longitude": "-90.06904815162282"
    }
  },
  {
    "service_request": "2026-1294713",
    "request_type": "Trash/Recycling",
    "request_reason": "Request a Large Item Pick Up",
    "date_created": "2026-06-27T09:30:45.000",
    "date_modified": "2026-06-27T09:30:47.000",
    "request_status": "Pending",
    "responsible_agency": "Department of Sanitation",
    "final_address": "2723 Paris Ave",
    "address_councildis": "D",
    "status": "Assigned to Contractor",
    "contractor": "IV Waste",
    "rowid": "1294713",
    "final_x": "3680013.79784",
    "final_y": "542438.059661",
    "longitude": "-90.0723838252374",
    "latitude": "29.985561634903977",
    "geocoded_column": {
      "latitude": "29.985561634903977",
      "longitude": "-90.0723838252374"
    }
  },
  {
    "service_request": "2026-1294712",
    "request_type": "Abandoned Vehicles",
    "request_reason": "Abandoned/Junk Vehicles",
    "date_created": "2026-06-27T09:27:02.000",
    "date_modified": "2026-06-27T09:27:08.000",
    "request_status": "Pending",
    "responsible_agency": "Department of Public Works",
    "final_address": "5400 BLK S Claiborne Ave",
    "address_councildis": "B",
    "status": "Pending",
    "rowid": "1294712",
    "final_x": "3668279.95901",
    "final_y": "526449.139803",
    "longitude": "-90.10998553870277",
    "latitude": "29.941947239736635",
    "geocoded_column": {
      "latitude": "29.941947239736635",
      "longitude": "-90.10998553870277"
    }
  },
  {
    "service_request": "2026-1294711",
    "request_type": "General Services",
    "request_reason": "General Service Request",
    "date_created": "2026-06-27T08:53:41.000",
    "date_modified": "2026-06-27T08:53:43.000",
    "request_status": "Pending",
    "responsible_agency": "Orleans Parish Communication District",
    "final_address": "7642 Scottwood Dr",
    "address_councildis": "E",
    "status": "Pending",
    "rowid": "1294711",
    "final_x": "3717167.30168",
    "final_y": "570752.440807",
    "longitude": "-89.95395588008977",
    "latitude": "30.062238371575393",
    "geocoded_column": {
      "latitude": "30.062238371575393",
      "longitude": "-89.95395588008977"
    }
  },
  {
    "service_request": "2026-1294710",
    "request_type": "Streetlights",
    "request_reason": "Streetlight Outage/Malfunction",
    "date_created": "2026-06-27T08:49:29.000",
    "date_modified": "2026-06-27T08:49:31.000",
    "request_status": "Pending",
    "responsible_agency": "Department of Public Works",
    "final_address": "2627 S Carrollton Ave",
    "address_councildis": "A",
    "status": "Pending",
    "rowid": "1294710",
    "final_x": "3665659.66439",
    "final_y": "532120.207107",
    "longitude": "-90.11806849960414",
    "latitude": "29.957617500741083",
    "geocoded_column": {
      "latitude": "29.957617500741083",
      "longitude": "-90.11806849960414"
    }
  },
  {
    "service_request": "2026-1294709",
    "request_type": "Property Maintenance",
    "request_reason": "Property Maintenance",
    "date_created": "2026-06-27T08:42:39.000",
    "date_modified": "2026-06-27T08:42:42.000",
    "request_status": "Pending",
    "responsible_agency": "Department of Code Enforcement",
    "final_address": "2023 Frenchmen St",
    "address_councildis": "D",
    "status": "Pending",
    "rowid": "1294709",
    "final_x": "3684351.25065",
    "final_y": "539788.695818",
    "longitude": "-90.05877668782594",
    "latitude": "29.9781448576079",
    "geocoded_column": {
      "latitude": "29.9781448576079",
      "longitude": "-90.05877668782594"
    }
  },
  {
    "service_request": "2026-1294708",
    "request_type": "Trash/Recycling",
    "request_reason": "Damaged Caused By Contractor",
    "date_created": "2026-06-27T08:40:30.000",
    "date_modified": "2026-06-27T08:40:31.000",
    "request_status": "Pending",
    "responsible_agency": "Department of Sanitation",
    "final_address": "7642 Scottwood Dr",
    "address_councildis": "E",
    "status": "Assigned to Contractor",
    "contractor": "Waste Pro",
    "rowid": "1294708",
    "final_x": "3717167.30168",
    "final_y": "570752.440807",
    "longitude": "-89.95395588008977",
    "latitude": "30.062238371575393",
    "geocoded_column": {
      "latitude": "30.062238371575393",
      "longitude": "-89.95395588008977"
    }
  },
  {
    "service_request": "2026-1294707",
    "request_type": "Property Maintenance",
    "request_reason": "Property Maintenance",
    "date_created": "2026-06-27T08:23:40.000",
    "date_modified": "2026-06-27T08:23:42.000",
    "request_status": "Pending",
    "responsible_agency": "Department of Code Enforcement",
    "final_address": "6377 Argonne Blvd",
    "address_councildis": "A",
    "status": "Pending",
    "rowid": "1294707",
    "final_x": "3670485.57703",
    "final_y": "549771.473108",
    "longitude": "-90.1022307922117",
    "latitude": "30.006010854776566",
    "geocoded_column": {
      "latitude": "30.006010854776566",
      "longitude": "-90.1022307922117"
    }
  },
  {
    "service_request": "2026-1294706",
    "request_type": "Abandoned Vehicles",
    "request_reason": "Abandoned/Junk Vehicles",
    "date_created": "2026-06-27T08:02:34.000",
    "date_modified": "2026-06-27T08:02:35.000",
    "request_status": "Pending",
    "responsible_agency": "Department of Public Works",
    "final_address": "602 Upperline St",
    "address_councildis": "B",
    "status": "Pending",
    "rowid": "1294706",
    "final_x": "3668839.18209",
    "final_y": "517578.173494",
    "longitude": "-90.10851932655356",
    "latitude": "29.91753848423545",
    "geocoded_column": {
      "latitude": "29.91753848423545",
      "longitude": "-90.10851932655356"
    }
  },
  {
    "service_request": "2026-1294705",
    "request_type": "Trash/Recycling",
    "request_reason": "Order Second Trash Cart",
    "date_created": "2026-06-27T07:54:54.000",
    "date_modified": "2026-06-27T07:54:57.000",
    "request_status": "Pending",
    "responsible_agency": "Department of Sanitation",
    "final_address": "28 Arbor Cir",
    "address_councildis": "C",
    "status": "Assigned to Contractor",
    "contractor": "Richards Disposal",
    "rowid": "1294705",
    "final_x": "3716738.44556",
    "final_y": "517379.443829",
    "longitude": "-89.9573374913314",
    "latitude": "29.91549730809788",
    "geocoded_column": {
      "latitude": "29.91549730809788",
      "longitude": "-89.9573374913314"
    }
  },
  {
    "service_request": "2026-1294704",
    "request_type": "Streetlights",
    "request_reason": "Streetlight Outage/Malfunction",
    "date_created": "2026-06-27T05:17:50.000",
    "date_modified": "2026-06-27T05:17:52.000",
    "request_status": "Pending",
    "responsible_agency": "Department of Public Works",
    "final_address": "4238 Iberville St",
    "address_councildis": "A",
    "status": "Pending",
    "rowid": "1294704",
    "final_x": "3670563.48372",
    "final_y": "539229.686026",
    "longitude": "-90.10234245538484",
    "latitude": "29.97702226940237",
    "geocoded_column": {
      "latitude": "29.97702226940237",
      "longitude": "-90.10234245538484"
    }
  },
  {
    "service_request": "2026-1294703",
    "request_type": "Trash/Recycling",
    "request_reason": "Request a Large Item Pick Up",
    "date_created": "2026-06-27T01:25:02.000",
    "date_modified": "2026-06-27T01:25:04.000",
    "request_status": "Pending",
    "responsible_agency": "Department of Sanitation",
    "final_address": "3210 Second St",
    "address_councildis": "B",
    "status": "Assigned to Contractor",
    "contractor": "IV Waste",
    "rowid": "1294703",
    "final_x": "3673447.73",
    "final_y": "527903.957375",
    "longitude": "-90.09362007105325",
    "latitude": "29.945794790821747",
    "geocoded_column": {
      "latitude": "29.945794790821747",
      "longitude": "-90.09362007105325"
    }
  },
  {
    "service_request": "2026-1294702",
    "request_type": "Trash/Recycling",
    "request_reason": "Order Recycling Cart",
    "date_created": "2026-06-27T01:23:04.000",
    "date_modified": "2026-06-27T01:23:07.000",
    "request_status": "Pending",
    "responsible_agency": "Department of Sanitation",
    "final_address": "0 BLK Audubon Blvd",
    "address_councildis": "A",
    "status": "Pending",
    "rowid": "1294702",
    "final_x": "3665769.80622",
    "final_y": "527561.184495",
    "longitude": "-90.1178734101763",
    "latitude": "29.945078455935082",
    "geocoded_column": {
      "latitude": "29.945078455935082",
      "longitude": "-90.1178734101763"
    }
  },
  {
    "service_request": "2026-1294701",
    "request_type": "Health Related Request",
    "request_reason": "Noise Ordinance Complaint",
    "date_created": "2026-06-27T00:49:17.000",
    "date_modified": "2026-06-27T00:49:20.000",
    "request_status": "Pending",
    "responsible_agency": "Health Department",
    "final_address": "834 Bartholomew St",
    "address_councildis": "C",
    "status": "Pending",
    "rowid": "1294701",
    "final_x": "3691544.80483",
    "final_y": "534420.765509",
    "longitude": "-90.03624887949627",
    "latitude": "29.963162968696874",
    "geocoded_column": {
      "latitude": "29.963162968696874",
      "longitude": "-90.03624887949627"
    }
  },
  {
    "service_request": "2026-1294700",
    "request_type": "Abandoned Vehicles",
    "request_reason": "Abandoned/Junk Vehicles",
    "date_created": "2026-06-27T00:27:52.000",
    "date_modified": "2026-06-27T00:27:54.000",
    "request_status": "Pending",
    "responsible_agency": "Department of Public Works",
    "final_address": "2219 N Prieur St",
    "address_councildis": "D",
    "status": "Pending",
    "rowid": "1294700",
    "final_x": "3685005.59439",
    "final_y": "539308.730698",
    "longitude": "-90.05672692951735",
    "latitude": "29.976805092301305",
    "geocoded_column": {
      "latitude": "29.976805092301305",
      "longitude": "-90.05672692951735"
    }
  },
  {
    "service_request": "2026-1294699",
    "request_type": "Trash/Recycling",
    "request_reason": "Replace Recycling Cart",
    "date_created": "2026-06-26T22:43:29.000",
    "date_modified": "2026-06-26T22:43:31.000",
    "request_status": "Pending",
    "responsible_agency": "Department of Sanitation",
    "final_address": "4929 Laurel St",
    "address_councildis": "B",
    "status": "Pending",
    "rowid": "1294699",
    "final_x": "3668717.98138",
    "final_y": "517931.414134",
    "longitude": "-90.1088899757413",
    "latitude": "29.918513346563053",
    "geocoded_column": {
      "latitude": "29.918513346563053",
      "longitude": "-90.1088899757413"
    }
  },
  {
    "service_request": "2026-1294698",
    "request_type": "Drainage",
    "request_reason": "Illegal Dumping (Sewer Odor)",
    "date_created": "2026-06-26T22:35:06.000",
    "date_modified": "2026-06-26T22:35:08.000",
    "request_status": "Pending",
    "responsible_agency": "Sewerage & Water Board",
    "final_address": "1829 Thalia St",
    "address_councildis": "B",
    "status": "Pending",
    "rowid": "1294698",
    "final_x": "3678413.75758",
    "final_y": "526451.241982",
    "longitude": "-90.07799091483696",
    "latitude": "29.94165163556379",
    "geocoded_column": {
      "latitude": "29.94165163556379",
      "longitude": "-90.07799091483696"
    }
  },
  {
    "service_request": "2026-1294697",
    "request_type": "Healthy Homes",
    "request_reason": "Healthy Homes",
    "date_created": "2026-06-26T22:33:41.000",
    "date_modified": "2026-06-26T22:33:42.000",
    "request_status": "Pending",
    "responsible_agency": "Department of Code Enforcement",
    "final_address": "4731 Banks St",
    "address_councildis": "A",
    "status": "Pending",
    "rowid": "1294697",
    "final_x": "3668224.23809",
    "final_y": "539092.403658",
    "longitude": "-90.1097351986732",
    "latitude": "29.976713682841627",
    "geocoded_column": {
      "latitude": "29.976713682841627",
      "longitude": "-90.1097351986732"
    }
  },
  {
    "service_request": "2026-1294696",
    "request_type": "Drainage",
    "request_reason": "Illegal Dumping (Sewer Odor)",
    "date_created": "2026-06-26T22:32:09.000",
    "date_modified": "2026-06-26T22:32:10.000",
    "request_status": "Pending",
    "responsible_agency": "Sewerage & Water Board",
    "final_address": "1829 Thalia St",
    "address_councildis": "B",
    "status": "Pending",
    "rowid": "1294696",
    "final_x": "3678413.75758",
    "final_y": "526451.241982",
    "longitude": "-90.07799091483696",
    "latitude": "29.94165163556379",
    "geocoded_column": {
      "latitude": "29.94165163556379",
      "longitude": "-90.07799091483696"
    }
  },
  {
    "service_request": "2026-1294695",
    "request_type": "Trash/Recycling",
    "request_reason": "Order Trash Cart",
    "date_created": "2026-06-26T22:24:28.000",
    "date_modified": "2026-06-26T22:24:35.000",
    "request_status": "Pending",
    "responsible_agency": "Department of Sanitation",
    "final_address": "1827 Thalia St",
    "address_councildis": "B",
    "status": "Assigned to Contractor",
    "contractor": "IV Waste",
    "rowid": "1294695",
    "final_x": "3678421.74619",
    "final_y": "526446.88115",
    "longitude": "-90.07796584401683",
    "latitude": "29.941639404066",
    "geocoded_column": {
      "latitude": "29.941639404066",
      "longitude": "-90.07796584401683"
    }
  },
  {
    "service_request": "2026-1294694",
    "request_type": "Streetlights",
    "request_reason": "Streetlight Outage/Malfunction",
    "date_created": "2026-06-26T22:13:28.000",
    "date_modified": "2026-06-26T22:13:30.000",
    "request_status": "Pending",
    "responsible_agency": "Department of Public Works",
    "final_address": "1201 Riviera Ave",
    "address_councildis": "D",
    "status": "Pending",
    "rowid": "1294694",
    "final_x": "3676821.97435",
    "final_y": "550909.154965",
    "longitude": "-90.0821733380724",
    "latitude": "30.008950360000725",
    "geocoded_column": {
      "latitude": "30.008950360000725",
      "longitude": "-90.0821733380724"
    }
  },
  {
    "service_request": "2026-1294693",
    "request_type": "Trash/Recycling",
    "request_reason": "Request a Large Item Pick Up",
    "date_created": "2026-06-26T21:59:29.000",
    "date_modified": "2026-06-26T21:59:31.000",
    "request_status": "Pending",
    "responsible_agency": "Department of Sanitation",
    "final_address": "12930 Mcraven Ct",
    "address_councildis": "E",
    "status": "Assigned to Contractor",
    "contractor": "Waste Pro",
    "rowid": "1294693",
    "final_x": "3716487.34981",
    "final_y": "568210.974437",
    "longitude": "-89.95620174883621",
    "latitude": "30.055272879584454",
    "geocoded_column": {
      "latitude": "30.055272879584454",
      "longitude": "-89.95620174883621"
    }
  },