[
  {
    "service_request": "2022-918175",
    "request_type": "Property Maintenance",
    "request_reason": "Property Maintenance",
    "date_created": "2022-09-10T23:47:25.000",
    "date_modified": "2022-09-10T23:47:25.000",
    "request_status": "Pending",
    "responsible_agency": "Department of Code Enforcement",
    "final_address": "5116 N Rocheblave St",
    "address_councildis": "E",
    "status": "Pending",
    "rowid": "918175",
    "final_x": "3697748.31459",
    "final_y": "538995.469898",
    "longitude": "-90.01649301459541",
    "latitude": "29.97554721842125",
    "geocoded_column": {
      "latitude": "29.97554721842125",
      "longitude": "-90.01649301459541"
    }
  },
  {
    "service_request": "2022-918174",
    "request_type": "Trash/Recycling",
    "request_reason": "Request a Large Item Pick Up",
    "date_created": "2022-09-10T22:57:50.000",
    "date_modified": "2022-09-10T22:57:51.000",
    "request_status": "Pending",
    "responsible_agency": "Department of Sanitation",
    "final_address": "3753 Gentilly Blvd",
    "address_councildis": "D",
    "status": "Assigned to Contractor",
    "contractor": "Metro Disposal",
    "rowid": "918174",
    "final_x": "3687493.31702",
    "final_y": "549019.750931",
    "longitude": "-90.04852603854562",
    "latitude": "30.003430477536895",
    "geocoded_column": {
      "latitude": "30.003430477536895",
      "longitude": "-90.04852603854562"
    }
  },
  {
    "service_request": "2022-918173",
    "request_type": "Roads/Drainage",
    "request_reason": "Pothole",
    "date_created": "2022-09-10T22:39:00.000",
    "date_modified": "2022-09-10T22:39:00.000",
    "request_status": "Pending",
    "responsible_agency": "Department of Public Works",
    "final_address": "8112 Forshey St",
    "address_councildis": "A",
    "status": "Pending",
    "rowid": "918173",
    "final_x": "3666885.43783",
    "final_y": "533973.996485",
    "longitude": "-90.11413556710153",
    "latitude": "29.962679008191735",
    "geocoded_column": {
      "latitude": "29.962679008191735",
      "longitude": "-90.11413556710153"
    }
  },
  {
    "service_request": "2022-918172",
    "request_type": "Trash/Recycling",
    "request_reason": "MIssed Recycling Pick-Up",
    "date_created": "2022-09-10T22:34:04.000",
    "date_modified": "2022-09-10T22:34:05.000",
    "request_status": "Pending",
    "responsible_agency": "Department of Sanitation",
    "final_address": "8326 Forshey St",
    "address_councildis": "A",
    "status": "Assigned to Contractor",
    "contractor": "Richards Disposal",
    "rowid": "918172",
    "final_x": "3666260.05569",
    "final_y": "534545.125189",
    "longitude": "-90.11609128909129",
    "latitude": "29.964267705827456",
    "geocoded_column": {
      "latitude": "29.964267705827456",
      "longitude": "-90.11609128909129"
    }
  },
  {
    "service_request": "2022-918171",
    "request_type": "Trash/Recycling",
    "request_reason": "Missed Trash Pick-Up",
    "date_created": "2022-09-10T22:18:44.000",
    "date_modified": "2022-09-10T22:18:45.000",
    "request_status": "Pending",
    "responsible_agency": "Department of Sanitation",
    "final_address": "5510 Norgate Dr",
    "address_councildis": "E",
    "status": "Assigned to Contractor",
    "contractor": "Metro Disposal",
    "rowid": "918171",
    "final_x": "3707075.24305",
    "final_y": "557924.446427",
    "longitude": "-89.98633349383792",
    "latitude": "30.02729668968575",
    "geocoded_column": {
      "latitude": "30.02729668968575",
      "longitude": "-89.98633349383792"
    }
  },
  {
    "service_request": "2022-918170",
    "request_type": "Trash/Recycling",
    "request_reason": "MIssed Recycling Pick-Up",
    "date_created": "2022-09-10T22:16:23.000",
    "date_modified": "2022-09-10T22:16:23.000",
    "request_status": "Pending",
    "responsible_agency": "Department of Sanitation",
    "final_address": "8237 Apricot St",
    "address_councildis": "A",
    "status": "Assigned to Contractor",
    "contractor": "Richards Disposal",
    "rowid": "918170",
    "final_x": "3665372.41389",
    "final_y": "533087.166724",
    "longitude": "-90.11894319578644",
    "latitude": "29.960284697163896",
    "geocoded_column": {
      "latitude": "29.960284697163896",
      "longitude": "-90.11894319578644"
    }
  },
  {
    "service_request": "2022-918169",
    "request_type": "Trash/Recycling",
    "request_reason": "Missed Trash Pick-Up",
    "date_created": "2022-09-10T22:15:12.000",
    "date_modified": "2022-09-10T22:15:13.000",
    "request_status": "Pending",
    "responsible_agency": "Department of Sanitation",
    "final_address": "8237 Apricot St",
    "address_councildis": "A",
    "status": "Assigned to Contractor",
    "contractor": "Richards Disposal",
    "rowid": "918169",
    "final_x": "3665372.41389",
    "final_y": "533087.166724",
    "longitude": "-90.11894319578644",
    "latitude": "29.960284697163896",
    "geocoded_column": {
      "latitude": "29.960284697163896",
      "longitude": "-90.11894319578644"
    }
  },
  {
    "service_request": "2022-918168",
    "request_type": "Trash/Recycling",
    "request_reason": "Request a Large Item Pick Up",
    "date_created": "2022-09-10T21:49:02.000",
    "date_modified": "2022-09-10T21:49:02.000",
    "request_status": "Pending",
    "responsible_agency": "Department of Sanitation",
    "final_address": "4118 Macarthur Blvd",
    "address_councildis": "C",
    "status": "Assigned to Contractor",
    "contractor": "Richards Disposal",
    "rowid": "918168",
    "final_x": "3699035.58064",
    "final_y": "520515.382456",
    "longitude": "-90.01309998010663",
    "latitude": "29.92469274463393",
    "geocoded_column": {
      "latitude": "29.92469274463393",
      "longitude": "-90.01309998010663"
    }
  },
  {
    "service_request": "2022-918167",
    "request_type": "Trash/Recycling",
    "request_reason": "Request a Large Item Pick Up",
    "date_created": "2022-09-10T21:09:28.000",
    "date_modified": "2022-09-10T21:09:28.000",
    "request_status": "Pending",
    "responsible_agency": "Department of Sanitation",
    "final_address": "125 Elmira Ave",
    "address_councildis": "C",
    "status": "Assigned to Contractor",
    "contractor": "Richards Disposal",
    "rowid": "918167",
    "final_x": "3688223.13417",
    "final_y": "531187.79725",
    "longitude": "-90.04685292052304",
    "latitude": "29.95437639680666",
    "geocoded_column": {
      "latitude": "29.95437639680666",
      "longitude": "-90.04685292052304"
    }
  },
  {
    "service_request": "2022-918166",
    "request_type": "Trash/Recycling",
    "request_reason": "Order Recycling Cart",
    "date_created": "2022-09-10T20:55:25.000",
    "date_modified": "2022-09-10T20:55:25.000",
    "request_status": "Pending",
    "responsible_agency": "Department of Sanitation",
    "final_address": "1737 Valence St",
    "address_councildis": "B",
    "status": "Pending",
    "rowid": "918166",
    "final_x": "3669767.04423",
    "final_y": "521439.048185",
    "longitude": "-90.1054599868431",
    "latitude": "29.92812736015009",
    "geocoded_column": {
      "latitude": "29.92812736015009",
      "longitude": "-90.1054599868431"
    }
  },
  {
    "service_request": "2022-918165",
    "request_type": "Trash/Recycling",
    "request_reason": "Request a Large Item Pick Up",
    "date_created": "2022-09-10T20:40:00.000",
    "date_modified": "2022-09-10T20:40:01.000",
    "request_status": "Pending",
    "responsible_agency": "Department of Sanitation",
    "final_address": "DANNEEL ST & CONSTANTINOPLE ST",
    "address_councildis": "B",
    "status": "Assigned to Contractor",
    "contractor": "Richards Disposal",
    "rowid": "918165",
    "final_x": "3672168.5",
    "final_y": "522438.88",
    "longitude": "-90.09784508548837",
    "latitude": "29.930805597990105",
    "geocoded_column": {
      "latitude": "29.930805597990105",
      "longitude": "-90.09784508548837"
    }
  },
  {
    "service_request": "2022-918164",
    "request_type": "Traffic Signals/Signs/Striping/Streetlights",
    "request_reason": "Street Light Outage/Malfunction",
    "date_created": "2022-09-10T20:11:49.000",
    "date_modified": "2022-09-10T20:11:50.000",
    "request_status": "Pending",
    "responsible_agency": "Department of Public Works",
    "final_address": "6525 Wuerpel St",
    "address_councildis": "A",
    "status": "Pending",
    "contractor": "Legacy Professional Services",
    "rowid": "918164",
    "final_x": "3667136.30721",
    "final_y": "551047.491669",
    "longitude": "-90.11276903292497",
    "latitude": "30.009617981618486",
    "geocoded_column": {
      "latitude": "30.009617981618486",
      "longitude": "-90.11276903292497"
    }
  },
  {
    "service_request": "2022-918163",
    "request_type": "Trash/Recycling",
    "request_reason": "MIssed Recycling Pick-Up",
    "date_created": "2022-09-10T20:09:17.000",
    "date_modified": "2022-09-10T20:09:17.000",
    "request_status": "Pending",
    "responsible_agency": "Department of Sanitation",
    "final_address": "3108 College Ct",
    "address_councildis": "B",
    "status": "Assigned to Contractor",
    "contractor": "Richards Disposal",
    "rowid": "918163",
    "final_x": "3668438.72218",
    "final_y": "531824.666499",
    "longitude": "-90.10930299017294",
    "latitude": "29.956723524055274",
    "geocoded_column": {
      "latitude": "29.956723524055274",
      "longitude": "-90.10930299017294"
    }
  },
  {
    "service_request": "2022-918162",
    "request_type": "Trash/Recycling",
    "request_reason": "Repair Trash Cart",
    "date_created": "2022-09-10T20:08:15.000",
    "date_modified": "2022-09-10T20:08:16.000",
    "request_status": "Pending",
    "responsible_agency": "Department of Sanitation",
    "final_address": "1132 Jena St",
    "address_councildis": "B",
    "status": "Assigned to Contractor",
    "contractor": "Richards Disposal",
    "rowid": "918162",
    "final_x": "3670474.96398",
    "final_y": "519734.175032",
    "longitude": "-90.10328301250803",
    "latitude": "29.923418624726903",
    "geocoded_column": {
      "latitude": "29.923418624726903",
      "longitude": "-90.10328301250803"
    }
  },
  {
    "service_request": "2022-918161",
    "request_type": "Trash/Recycling",
    "request_reason": "Missed Trash Pick-Up",
    "date_created": "2022-09-10T20:06:52.000",
    "date_modified": "2022-09-10T20:06:53.000",
    "request_status": "Pending",
    "responsible_agency": "Department of Sanitation",
    "final_address": "4420 Pauger St",
    "address_councildis": "D",
    "status": "Assigned to Contractor",
    "contractor": "Metro Disposal",
    "rowid": "918161",
    "final_x": "3682803.378",
    "final_y": "548937.690195",
    "longitude": "-90.06334515098254",
    "latitude": "30.00334860257981",
    "geocoded_column": {
      "latitude": "30.00334860257981",
      "longitude": "-90.06334515098254"
    }
  },
  {
    "service_request": "2022-918160",
    "request_type": "Trash/Recycling",
    "request_reason": "Request a Large Item Pick Up",
    "date_created": "2022-09-10T20:06:13.000",
    "date_modified": "2022-09-10T20:06:14.000",
    "request_status": "Pending",
    "responsible_agency": "Department of Sanitation",
    "final_address": "1132 Jena St",
    "address_councildis": "B",
    "status": "Assigned to Contractor",
    "contractor": "Richards Disposal",
    "rowid": "918160",
    "final_x": "3670474.96398",
    "final_y": "519734.175032",
    "longitude": "-90.10328301250803",
    "latitude": "29.923418624726903",
    "geocoded_column": {
      "latitude": "29.923418624726903",
      "longitude": "-90.10328301250803"
    }
  },
  {
    "service_request": "2022-918159",
    "request_type": "Traffic Signals/Signs/Striping/Streetlights",
    "request_reason": "Street Light Outage/Malfunction",
    "date_created": "2022-09-10T20:03:46.000",
    "date_modified": "2022-09-10T20:03:47.000",
    "request_status": "Pending",
    "responsible_agency": "Department of Public Works",
    "final_address": "2103 General Pershing St",
    "address_councildis": "B",
    "status": "Pending",
    "contractor": "Legacy Professional Services",
    "rowid": "918159",
    "final_x": "3671150.17012",
    "final_y": "522750.006842",
    "longitude": "-90.10104925414099",
    "latitude": "29.931691248963595",
    "geocoded_column": {
      "latitude": "29.931691248963595",
      "longitude": "-90.10104925414099"
    }
  },
  {
    "service_request": "2022-918158",
    "request_type": "Trash/Recycling",
    "request_reason": "Missed Trash Pick-Up",
    "date_created": "2022-09-10T19:48:08.000",
    "date_modified": "2022-09-10T19:48:09.000",
    "request_status": "Pending",
    "responsible_agency": "Department of Sanitation",
    "final_address": "1317 Tupelo St",
    "address_councildis": "E",
    "status": "Assigned to Contractor",
    "contractor": "Metro Disposal",
    "rowid": "918158",
    "final_x": "3699916.48356",
    "final_y": "534147.555845",
    "longitude": "-90.00982223668973",
    "latitude": "29.962148508041984",
    "geocoded_column": {
      "latitude": "29.962148508041984",
      "longitude": "-90.00982223668973"
    }
  },
  {
    "service_request": "2022-918157",
    "request_type": "Trash/Recycling",
    "request_reason": "Missed Trash Pick-Up",
    "date_created": "2022-09-10T19:44:34.000",
    "date_modified": "2022-09-10T19:44:35.000",
    "request_status": "Pending",
    "responsible_agency": "Department of Sanitation",
    "final_address": "2318 Winthrop St",
    "address_councildis": "E",
    "status": "Assigned to Contractor",
    "contractor": "Metro Disposal",
    "rowid": "918157",
    "final_x": "3700406.62122",
    "final_y": "538123.950473",
    "longitude": "-90.00812924139349",
    "latitude": "29.973066585920034",
    "geocoded_column": {
      "latitude": "29.973066585920034",
      "longitude": "-90.00812924139349"
    }
  },
  {
    "service_request": "2022-918156",
    "request_type": "Health Related Questions",
    "request_reason": "Noise Ordinance Complaint",
    "date_created": "2022-09-10T19:31:36.000",
    "date_modified": "2022-09-10T19:31:36.000",
    "request_status": "Pending",
    "responsible_agency": "Health Department",
    "final_address": "5723 Eads St. 70122",
    "status": "Pending",
    "rowid": "918156",
    "longitude": "0.0",
    "latitude": "0.0",
    "geocoded_column": {
      "latitude": "0.0",
      "longitude": "0.0"
    }
  },
  {
    "service_request": "2022-918155",
    "request_type": "Trash/Recycling",
    "request_reason": "Request a Large Item Pick Up",
    "date_created": "2022-09-10T19:22:24.000",
    "date_modified": "2022-09-10T19:22:25.000",
    "request_status": "Pending",
    "responsible_agency": "Department of Sanitation",
    "final_address": "1818 Short St",
    "address_councildis": "A",
    "status": "Assigned to Contractor",
    "contractor": "Richards Disposal",
    "rowid": "918155",
    "final_x": "3663792.67418",
    "final_y": "529765.502593",
    "longitude": "-90.12404240689021",
    "latitude": "29.95119714097648",
    "geocoded_column": {
      "latitude": "29.95119714097648",
      "longitude": "-90.12404240689021"
    }
  },
  {
    "service_request": "2022-918154",
    "request_type": "Trash/Recycling",
    "request_reason": "Missed Trash Pick-Up",
    "date_created": "2022-09-10T19:09:10.000",
    "date_modified": "2022-09-10T19:09:10.000",
    "request_status": "Pending",
    "responsible_agency": "Department of Sanitation",
    "final_address": "5502 Wingate Dr",
    "address_councildis": "D",
    "status": "Assigned to Contractor",
    "contractor": "Metro Disposal",
    "rowid": "918154",
    "final_x": "3681309.00604",
    "final_y": "552893.960279",
    "longitude": "-90.06792807376151",
    "latitude": "30.014272376010112",
    "geocoded_column": {
      "latitude": "30.014272376010112",
      "longitude": "-90.06792807376151"
    }
  },
  {
    "service_request": "2022-918152",
    "request_type": "Property Maintenance",
    "request_reason": "Property Maintenance",
    "date_created": "2022-09-10T18:53:00.000",
    "date_modified": "2022-09-10T18:53:00.000",
    "request_status": "Pending",
    "responsible_agency": "Department of Code Enforcement",
    "final_address": "3534 Clematis St",
    "address_councildis": "D",
    "status": "Pending",
    "rowid": "918152",
    "final_x": "3686323.88284",
    "final_y": "545972.36776",
    "longitude": "-90.05232808500647",
    "latitude": "29.995087276287666",
    "geocoded_column": {
      "latitude": "29.995087276287666",
      "longitude": "-90.05232808500647"
    }
  },
  {
    "service_request": "2022-918151",
    "request_type": "Trash/Recycling",
    "request_reason": "Missed Trash Pick-Up",
    "date_created": "2022-09-10T18:18:21.000",
    "date_modified": "2022-09-10T18:18:22.000",
    "request_status": "Pending",
    "responsible_agency": "Department of Sanitation",
    "final_address": "4122 Pitt St, New Orleans, Louisiana, 70115",
    "address_councildis": "B",
    "status": "Assigned to Contractor",
    "contractor": "Richards Disposal",
    "rowid": "918151",
    "final_x": "3671788.52763",
    "final_y": "520624.779384",
    "longitude": "-90.09910629347112",
    "latitude": "29.925828663500653",
    "geocoded_column": {
      "latitude": "29.925828663500653",
      "longitude": "-90.09910629347112"
    }
  },
  {
    "service_request": "2022-918150",
    "request_type": "Traffic Signals/Signs/Striping/Streetlights",
    "request_reason": "Request for Stop Sign",
    "date_created": "2022-09-10T18:16:29.000",
    "date_modified": "2022-09-10T18:16:29.000",
    "request_status": "Pending",
    "responsible_agency": "Department of Public Works",
    "final_address": "42 Fontainebleau Dr",
    "address_councildis": "A",
    "status": "Pending",
    "rowid": "918150",
    "final_x": "3666175.31181",
    "final_y": "531237.202818",
    "longitude": "-90.116469840786",
    "latitude": "29.95517447984439",
    "geocoded_column": {
      "latitude": "29.95517447984439",
      "longitude": "-90.116469840786"
    }
  },
  {
    "service_request": "2022-918149",
    "request_type": "Trash/Recycling",
    "request_reason": "Request a Large Item Pick Up",
    "date_created": "2022-09-10T18:13:02.000",
    "date_modified": "2022-09-10T18:13:03.000",
    "request_status": "Pending",
    "responsible_agency": "Department of Sanitation",
    "final_address": "1005 Clouet St",
    "address_councildis": "C",
    "status": "Assigned to Contractor",
    "contractor": "Metro Disposal",
    "rowid": "918149",
    "final_x": "3688936.39228",
    "final_y": "535620.49831",
    "longitude": "-90.04444329940375",
    "latitude": "29.966542746709735",
    "geocoded_column": {
      "latitude": "29.966542746709735",
      "longitude": "-90.04444329940375"
    }
  },
  {
    "service_request": "2022-918148",
    "request_type": "Roads/Drainage",
    "request_reason": "Leaking Hydrant",
    "date_created": "2022-09-10T18:11:17.000",
    "date_modified": "2022-09-10T18:11:17.000",
    "request_status": "Pending",
    "responsible_agency": "Department of Public Works",
    "final_address": "2832 Ramsey Dr",
    "address_councildis": "C",
    "status": "Pending",
    "rowid": "918148",
    "final_x": "3703268.01969",
    "final_y": "520273.622392",
    "longitude": "-89.99974856756317",
    "latitude": "29.923893219338932",
    "geocoded_column": {
      "latitude": "29.923893219338932",
      "longitude": "-89.99974856756317"
    }
  },
  {
    "service_request": "2022-918147",
    "request_type": "Health Related Questions",
    "request_reason": "Noise Ordinance Complaint",
    "date_created": "2022-09-10T18:09:11.000",
    "date_modified": "2022-09-10T18:09:11.000",
    "request_status": "Pending",
    "responsible_agency": "Health Department",
    "final_address": "550 Baronne St, New Orleans, Louisiana, 70113",
    "address_councildis": "B",
    "status": "Pending",
    "rowid": "918147",
    "final_x": "3679871.27515",
    "final_y": "529133.143296",
    "longitude": "-90.07329612681656",
    "latitude": "29.948981981496516",
    "geocoded_column": {
      "latitude": "29.948981981496516",
      "longitude": "-90.07329612681656"
    }
  },
  {
    "service_request": "2022-918146",
    "request_type": "Roads/Drainage",
    "request_reason": "Street Flooding / Drainage",
    "date_created": "2022-09-10T17:57:02.000",
    "date_modified": "2022-09-10T17:57:02.000",
    "request_status": "Pending",
    "responsible_agency": "Department of Public Works",
    "final_address": "5710 Bancroft Dr",
    "address_councildis": "D",
    "status": "Pending",
    "rowid": "918146",
    "final_x": "3676393.89077",
    "final_y": "553395.999511",
    "longitude": "-90.0834400950692",
    "latitude": "30.0158011379473",
    "geocoded_column": {
      "latitude": "30.0158011379473",
      "longitude": "-90.0834400950692"
    }
  },
  {
    "service_request": "2022-918145",
    "request_type": "Trash/Recycling",
    "request_reason": "Replace Trash Cart",
    "date_created": "2022-09-10T17:52:17.000",
    "date_modified": "2022-09-10T17:52:18.000",
    "request_status": "Pending",
    "responsible_agency": "Department of Sanitation",
    "final_address": "731 Navarre St",
    "address_councildis": "A",
    "status": "Assigned to Contractor",
    "contractor": "Metro Disposal",
    "rowid": "918145",
    "final_x": "3668541.77972",
    "final_y": "543879.349774",
    "longitude": "-90.10857070000549",
    "latitude": "29.989866832382187",
    "geocoded_column": {
      "latitude": "29.989866832382187",
      "longitude": "-90.10857070000549"
    }
  },
  {
    "service_request": "2022-918144",
    "request_type": "Trash/Recycling",
    "request_reason": "Missed Trash Pick-Up",
    "date_created": "2022-09-10T17:38:49.000",
    "date_modified": "2022-09-10T17:38:50.000",
    "request_status": "Pending",
    "responsible_agency": "Department of Sanitation",
    "final_address": "5316 Wickfield Dr",
    "address_councildis": "D",
    "status": "Assigned to Contractor",
    "contractor": "Metro Disposal",
    "rowid": "918144",
    "final_x": "3681087.29307",
    "final_y": "552512.96367",
    "longitude": "-90.06864186183476",
    "latitude": "30.01323150401495",
    "geocoded_column": {
      "latitude": "30.01323150401495",
      "longitude": "-90.06864186183476"
    }
  },
  {
    "service_request": "2022-918143",
    "request_type": "Trash/Recycling",
    "request_reason": "Request a Large Item Pick Up",
    "date_created": "2022-09-10T17:29:01.000",
    "date_modified": "2022-09-10T17:29:01.000",
    "request_status": "Pending",
    "responsible_agency": "Department of Sanitation",
    "final_address": "6961 Ridgefield Dr",
    "address_councildis": "E",
    "status": "Assigned to Contractor",
    "contractor": "Metro Disposal",
    "rowid": "918143",
    "final_x": "3719749.99993",
    "final_y": "569230.000038",
    "longitude": "-89.94585029538064",
    "latitude": "30.057966554295884",
    "geocoded_column": {
      "latitude": "30.057966554295884",
      "longitude": "-89.94585029538064"
    }
  },
  {
    "service_request": "2022-918141",
    "request_type": "Trash/Recycling",
    "request_reason": "Order Trash Cart",
    "date_created": "2022-09-10T17:12:04.000",
    "date_modified": "2022-09-10T17:12:04.000",
    "request_status": "Pending",
    "responsible_agency": "Department of Sanitation",
    "final_address": "3103 Banks St",
    "address_councildis": "B",
    "status": "Assigned to Contractor",
    "contractor": "Richards Disposal",
    "rowid": "918141",
    "final_x": "3673350.72456",
    "final_y": "535185.996422",
    "longitude": "-90.09367760722988",
    "latitude": "29.96582086266371",
    "geocoded_column": {
      "latitude": "29.96582086266371",
      "longitude": "-90.09367760722988"
    }
  },
  {
    "service_request": "2022-918140",
    "request_type": "Trash/Recycling",
    "request_reason": "Missed Trash Pick-Up",
    "date_created": "2022-09-10T17:09:55.000",
    "date_modified": "2022-09-10T17:09:56.000",
    "request_status": "Pending",
    "responsible_agency": "Department of Sanitation",
    "final_address": "8324 Belfast St",
    "address_councildis": "A",
    "status": "Assigned to Contractor",
    "contractor": "Richards Disposal",
    "rowid": "918140",
    "final_x": "3664896.42733",
    "final_y": "532949.099396",
    "longitude": "-90.12045088343926",
    "latitude": "29.959918919634397",
    "geocoded_column": {
      "latitude": "29.959918919634397",
      "longitude": "-90.12045088343926"
    }
  },
  {
    "service_request": "2022-918139",
    "request_type": "Trash/Recycling",
    "request_reason": "Missed Trash Pick-Up",
    "date_created": "2022-09-10T17:03:05.000",
    "date_modified": "2022-09-10T17:03:06.000",
    "request_status": "Pending",
    "responsible_agency": "Department of Sanitation",
    "final_address": "9308 Palmetto St, New Orleans, Louisiana, 70118",
    "address_councildis": "A",
    "status": "Assigned to Contractor",
    "contractor": "Richards Disposal",
    "rowid": "918139",
    "final_x": "3664846.50208",
    "final_y": "538020.969161",
    "longitude": "-90.12043900596296",
    "latitude": "29.973866341472863",
    "geocoded_column": {
      "latitude": "29.973866341472863",
      "longitude": "-90.12043900596296"
    }
  },
  {
    "service_request": "2022-918138",
    "request_type": "Health Related Questions",
    "request_reason": "Noise Ordinance Complaint",
    "date_created": "2022-09-10T16:50:21.000",
    "date_modified": "2022-09-10T16:50:21.000",
    "request_status": "Pending",
    "responsible_agency": "Health Department",
    "final_address": "550 Baronne St, New Orleans, Louisiana, 70113",
    "address_councildis": "B",
    "status": "Pending",
    "rowid": "918138",
    "final_x": "3679871.27515",
    "final_y": "529133.143296",
    "longitude": "-90.07329612681656",
    "latitude": "29.948981981496516",
    "geocoded_column": {
      "latitude": "29.948981981496516",
      "longitude": "-90.07329612681656"
    }
  },
  {
    "service_request": "2022-918136",
    "request_type": "Health Related Questions",
    "request_reason": "Noise Ordinance Complaint",
    "date_created": "2022-09-10T16:41:08.000",
    "date_modified": "2022-09-10T16:41:08.000",
    "request_status": "Pending",
    "responsible_agency": "Health Department",
    "final_address": "550 Baronne St",
    "address_councildis": "B",
    "status": "Pending",
    "rowid": "918136",
    "final_x": "3679871.27515",
    "final_y": "529133.143296",
    "longitude": "-90.07329612681656",
    "latitude": "29.948981981496516",
    "geocoded_column": {
      "latitude": "29.948981981496516",
      "longitude": "-90.07329612681656"
    }
  },
  {
    "service_request": "2022-918135",
    "request_type": "Trash/Recycling",
    "request_reason": "Order Recycling Cart",
    "date_created": "2022-09-10T16:36:15.000",
    "date_modified": "2022-09-10T16:41:52.000",
    "request_status": "Pending",
    "responsible_agency": "Department of Sanitation",
    "final_address": "New Orleans,LA",
    "status": "Pending",
    "rowid": "918135",
    "longitude": "0.0",
    "latitude": "0.0",
    "geocoded_column": {
      "latitude": "0.0",
      "longitude": "0.0"
    }
  },
  {
    "service_request": "2022-918134",
    "request_type": "Trash/Recycling",
    "request_reason": "Missed Trash Pick-Up",
    "date_created": "2022-09-10T16:21:56.000",
    "date_modified": "2022-09-10T16:21:57.000",
    "request_status": "Pending",
    "responsible_agency": "Department of Sanitation",
    "final_address": "5329 Douglass St",
    "address_councildis": "E",
    "status": "Assigned to Contractor",
    "contractor": "Metro Disposal",
    "rowid": "918134",
    "final_x": "3696478.01936",
    "final_y": "531902.595587",
    "longitude": "-90.0207615423317",
    "latitude": "29.956084418340833",
    "geocoded_column": {
      "latitude": "29.956084418340833",
      "longitude": "-90.0207615423317"
    }
  },
  {
    "service_request": "2022-918133",
    "request_type": "Trash/Recycling",
    "request_reason": "Request a Large Item Pick Up",
    "date_created": "2022-09-10T16:21:35.000",
    "date_modified": "2022-09-10T16:21:36.000",
    "request_status": "Pending",
    "responsible_agency": "Department of Sanitation",
    "final_address": "3520 Post Oak Ave",
    "address_councildis": "C",
    "status": "Assigned to Contractor",
    "contractor": "Richards Disposal",
    "rowid": "918133",
    "final_x": "3703326.58628",
    "final_y": "514789.783283",
    "longitude": "-89.99976516036541",
    "latitude": "29.90881267099874",
    "geocoded_column": {
      "latitude": "29.90881267099874",
      "longitude": "-89.99976516036541"
    }
  },
  {
    "service_request": "2022-918132",
    "request_type": "Roads/Drainage",
    "request_reason": "Catch Basin - Clogged",
    "date_created": "2022-09-10T16:14:09.000",
    "date_modified": "2022-09-10T16:14:09.000",
    "request_status": "Pending",
    "responsible_agency": "Department of Public Works",
    "final_address": "1001 Elysian Fields Ave Ste B",
    "address_councildis": "C",
    "status": "Pending",
    "rowid": "918132",
    "final_x": "3685168.11055",
    "final_y": "536009.676871",
    "longitude": "-90.05632977478125",
    "latitude": "29.96772886510019",
    "geocoded_column": {
      "latitude": "29.96772886510019",
      "longitude": "-90.05632977478125"
    }
  },
  {
    "service_request": "2022-918131",
    "request_type": "Parks & Parkways",
    "request_reason": "Request Tree Service (Right of Way/Public Property)",
    "date_created": "2022-09-10T15:51:30.000",
    "date_modified": "2022-09-10T15:51:30.000",
    "request_status": "Pending",
    "responsible_agency": "Department of Parks & Parkway",
    "final_address": "7512 Jeannette St",
    "address_councildis": "A",
    "status": "Pending",
    "rowid": "918131",
    "final_x": "3664156.42471",
    "final_y": "527711.569279",
    "longitude": "-90.12296236350203",
    "latitude": "29.94553892528619",
    "geocoded_column": {
      "latitude": "29.94553892528619",
      "longitude": "-90.12296236350203"
    }
  },
  {
    "service_request": "2022-918130",
    "request_type": "Trash/Recycling",
    "request_reason": "Missed Trash Pick-Up",
    "date_created": "2022-09-10T15:47:58.000",
    "date_modified": "2022-09-10T15:47:59.000",
    "request_status": "Pending",
    "responsible_agency": "Department of Sanitation",
    "final_address": "6032 Warrington Dr, New Orleans, Louisiana, 70122",
    "address_councildis": "D",
    "status": "Assigned to Contractor",
    "contractor": "Metro Disposal",
    "rowid": "918130",
    "final_x": "3680621.57467",
    "final_y": "554904.085016",
    "longitude": "-90.07002999229974",
    "latitude": "30.019820344600177",
    "geocoded_column": {
      "latitude": "30.019820344600177",
      "longitude": "-90.07002999229974"
    }
  },
  {
    "service_request": "2022-918129",
    "request_type": "Traffic Signals/Signs/Striping/Streetlights",
    "request_reason": "Traffic Signal Malfunctioning/Damaged",
    "date_created": "2022-09-10T15:42:03.000",
    "date_modified": "2022-09-10T15:42:03.000",
    "request_status": "Pending",
    "responsible_agency": "Department of Public Works",
    "final_address": "Esplanade Ave & N Claiborne Ave, New Orleans, Louisiana, 70116",
    "address_councildis": "D",
    "status": "Pending",
    "rowid": "918129",
    "final_x": "3681231.3",
    "final_y": "536639.18",
    "longitude": "-90.06874038104324",
    "latitude": "29.969579834804723",
    "geocoded_column": {
      "latitude": "29.969579834804723",
      "longitude": "-90.06874038104324"
    }
  },
  {
    "service_request": "2022-918128",
    "request_type": "Trash/Recycling",
    "request_reason": "Missed Trash Pick-Up",
    "date_created": "2022-09-10T15:09:26.000",
    "date_modified": "2022-09-10T15:09:27.000",
    "request_status": "Pending",
    "responsible_agency": "Department of Sanitation",
    "final_address": "5525 Wingate Dr",
    "address_councildis": "D",
    "status": "Assigned to Contractor",
    "contractor": "Metro Disposal",
    "rowid": "918128",
    "final_x": "3681405.44981",
    "final_y": "553553.342167",
    "longitude": "-90.0676003467951",
    "latitude": "30.016082507680363",
    "geocoded_column": {
      "latitude": "30.016082507680363",
      "longitude": "-90.0676003467951"
    }
  },
  {
    "service_request": "2022-918127",
    "request_type": "Property Maintenance",
    "request_reason": "Property Maintenance",
    "date_created": "2022-09-10T15:02:38.000",
    "date_modified": "2022-09-10T15:02:38.000",
    "request_status": "Pending",
    "responsible_agency": "Department of Code Enforcement",
    "final_address": "1417 Melpomene St",
    "address_councildis": "B",
    "status": "Pending",
    "rowid": "918127",
    "final_x": "3679879.34683",
    "final_y": "525157.513149",
    "longitude": "-90.07340866693698",
    "latitude": "29.938050079212893",
    "geocoded_column": {
      "latitude": "29.938050079212893",
      "longitude": "-90.07340866693698"
    }
  },
  {
    "service_request": "2022-918126",
    "request_type": "Trash/Recycling",
    "request_reason": "Replace Trash Cart",
    "date_created": "2022-09-10T15:01:46.000",
    "date_modified": "2022-09-10T15:01:46.000",
    "request_status": "Pending",
    "responsible_agency": "Department of Sanitation",
    "final_address": "4700 BLK Cardenas Dr",
    "address_councildis": "E",
    "status": "Assigned to Contractor",
    "contractor": "Metro Disposal",
    "rowid": "918126",
    "final_x": "3713656.81051",
    "final_y": "556605.719909",
    "longitude": "-89.96558627729587",
    "latitude": "30.023456333057702",
    "geocoded_column": {
      "latitude": "30.023456333057702",
      "longitude": "-89.96558627729587"
    }
  },
  {
    "service_request": "2022-918125",
    "request_type": "Trash/Recycling",
    "request_reason": "Missed Trash Pick-Up",
    "date_created": "2022-09-10T14:50:58.000",
    "date_modified": "2022-09-10T14:50:58.000",
    "request_status": "Pending",
    "responsible_agency": "Department of Sanitation",
    "final_address": "4420 Pauger St",
    "address_councildis": "D",
    "status": "Assigned to Contractor",
    "contractor": "Metro Disposal",
    "rowid": "918125",
    "final_x": "3682803.378",
    "final_y": "548937.690195",
    "longitude": "-90.06334515098254",
    "latitude": "30.00334860257981",
    "geocoded_column": {
      "latitude": "30.00334860257981",
      "longitude": "-90.06334515098254"
    }
  },
  {
    "service_request": "2022-918124",
    "request_type": "Abandoned Vehicles",
    "request_reason": "Vehicle Blocking Your Driveway",
    "date_created": "2022-09-10T14:39:17.000",
    "date_modified": "2022-09-10T14:39:17.000",
    "request_status": "Pending",
    "responsible_agency": "Department of Public Works",
    "final_address": "4068 Tulane Ave",
    "address_councildis": "A",
    "status": "Pending",
    "rowid": "918124",
    "final_x": "3669355.07086",
    "final_y": "536128.353543",
    "longitude": "-90.10626391643623",
    "latitude": "29.968530287658712",
    "geocoded_column": {
      "latitude": "29.968530287658712",
      "longitude": "-90.10626391643623"
    }
  },
  {
    "service_request": "2022-918123",
    "request_type": "Abandoned Vehicles",
    "request_reason": "Abandoned/Junk Vehicles",
    "date_created": "2022-09-10T14:34:13.000",
    "date_modified": "2022-09-10T14:34:13.000",
    "request_status": "Pending",
    "responsible_agency": "Department of Public Works",
    "final_address": "1301 St Louis St",
    "address_councildis": "C",
    "status": "Pending",
    "rowid": "918123",
    "final_x": "3680505.55867",
    "final_y": "533120.217412",
    "longitude": "-90.0711547485563",
    "latitude": "29.959925894188984",
    "geocoded_column": {
      "latitude": "29.959925894188984",
      "longitude": "-90.0711547485563"
    }
  },
  {
    "service_request": "2022-918122",
    "request_type": "Trash/Recycling",
    "request_reason": "Missed Trash Pick-Up",
    "date_created": "2022-09-10T14:18:56.000",
    "date_modified": "2022-09-10T14:18:57.000",
    "request_status": "Pending",
    "responsible_agency": "Department of Sanitation",
    "final_address": "3041 N Rampart St",
    "address_councildis": "C",
    "status": "Assigned to Contractor",
    "contractor": "Metro Disposal",
    "rowid": "918122",
    "final_x": "3688667.44156",
    "final_y": "535659.31463",
    "longitude": "-90.04529126254668",
    "latitude": "29.9666577937416",
    "geocoded_column": {
      "latitude": "29.9666577937416",
      "longitude": "-90.04529126254668"
    }
  },
  {
    "service_request": "2022-918121",
    "request_type": "Property Maintenance",
    "request_reason": "Property Maintenance",
    "date_created": "2022-09-10T14:06:27.000",
    "date_modified": "2022-09-10T14:06:27.000",
    "request_status": "Pending",
    "responsible_agency": "Department of Code Enforcement",
    "final_address": "520 Whitney Ave",
    "address_councildis": "C",
    "status": "Pending",
    "rowid": "918121",
    "final_x": "3690317.83728",
    "final_y": "529618.149313",
    "longitude": "-90.04029462935715",
    "latitude": "29.949995574008152",
    "geocoded_column": {
      "latitude": "29.949995574008152",
      "longitude": "-90.04029462935715"
    }
  },
  {
    "service_request": "2022-918119",
    "request_type": "Roads/Drainage",
    "request_reason": "Street Subsidence (Sinking)",
    "date_created": "2022-09-10T13:52:44.000",
    "date_modified": "2022-09-10T13:52:44.000",
    "request_status": "Pending",
    "responsible_agency": "Department of Public Works",
    "final_address": "838 Lowerline St, New Orleans, Louisiana, 70118",
    "address_councildis": "A",
    "status": "Pending",
    "rowid": "918119",
    "final_x": "3663022.56295",
    "final_y": "525903.512253",
    "longitude": "-90.12660247056289",
    "latitude": "29.94060023034744",
    "geocoded_column": {
      "latitude": "29.94060023034744",
      "longitude": "-90.12660247056289"
    }
  },
  {
    "service_request": "2022-918118",
    "request_type": "Roads/Drainage",
    "request_reason": "Catch Basin - Clogged",
    "date_created": "2022-09-10T13:50:05.000",
    "date_modified": "2022-09-10T13:50:05.000",
    "request_status": "Pending",
    "responsible_agency": "Department of Public Works",
    "final_address": "5700 Bancroft Dr",
    "address_councildis": "D",
    "status": "Pending",
    "rowid": "918118",
    "final_x": "3676414.73595",
    "final_y": "553331.029591",
    "longitude": "-90.08337647292232",
    "latitude": "30.015621868788298",
    "geocoded_column": {
      "latitude": "30.015621868788298",
      "longitude": "-90.08337647292232"
    }
  },
  {
    "service_request": "2022-918117",
    "request_type": "Roads/Drainage",
    "request_reason": "Pothole",
    "date_created": "2022-09-10T13:46:38.000",
    "date_modified": "2022-09-10T13:46:38.000",
    "request_status": "Pending",
    "responsible_agency": "Department of Public Works",
    "final_address": "838 Lowerline St",
    "address_councildis": "A",
    "status": "Pending",
    "rowid": "918117",
    "final_x": "3663022.56295",
    "final_y": "525903.512253",
    "longitude": "-90.12660247056289",
    "latitude": "29.94060023034744",
    "geocoded_column": {
      "latitude": "29.94060023034744",
      "longitude": "-90.12660247056289"
    }
  },
  {
    "service_request": "2022-918116",
    "request_type": "Traffic Signals/Signs/Striping/Streetlights",
    "request_reason": "Street Light Outage/Malfunction",
    "date_created": "2022-09-10T13:37:17.000",
    "date_modified": "2022-09-10T13:37:17.000",
    "request_status": "Pending",
    "responsible_agency": "Department of Public Works",
    "final_address": "4036 Vincennes Pl",
    "address_councildis": "B",
    "status": "Pending",
    "contractor": "Legacy Professional Services",
    "rowid": "918116",
    "final_x": "3668447.2281",
    "final_y": "530448.084866",
    "longitude": "-90.10932256462821",
    "latitude": "29.95293812635065",
    "geocoded_column": {
      "latitude": "29.95293812635065",
      "longitude": "-90.10932256462821"
    }
  },
  {
    "service_request": "2022-918115",
    "request_type": "Trash/Recycling",
    "request_reason": "Illegal Dumping",
    "date_created": "2022-09-10T13:28:42.000",
    "date_modified": "2022-09-10T13:28:42.000",
    "request_status": "Pending",
    "responsible_agency": "Department of Sanitation",
    "final_address": "3601 Forest Park Ln",
    "address_councildis": "C",
    "status": "Pending",
    "rowid": "918115",
    "final_x": "3702941.29425",
    "final_y": "511402.819888",
    "longitude": "-90.00110548233576",
    "latitude": "29.899511993939825",
    "geocoded_column": {
      "latitude": "29.899511993939825",
      "longitude": "-90.00110548233576"
    }
  },
  {
    "service_request": "2022-918114",
    "request_type": "Trash/Recycling",
    "request_reason": "Replace Trash Cart",
    "date_created": "2022-09-10T13:26:53.000",
    "date_modified": "2022-09-10T13:26:53.000",
    "request_status": "Pending",
    "responsible_agency": "Department of Sanitation",
    "final_address": "4121 DHemecourt St",
    "address_councildis": "A",
    "status": "Assigned to Contractor",
    "contractor": "Richards Disposal",
    "rowid": "918114",
    "final_x": "3669613.19591",
    "final_y": "537024.514568",
    "longitude": "-90.10541841324134",
    "latitude": "29.97098682718067",
    "geocoded_column": {
      "latitude": "29.97098682718067",
      "longitude": "-90.10541841324134"
    }
  },
  {
    "service_request": "2022-918113",
    "request_type": "Property Maintenance",
    "request_reason": "Property Maintenance",
    "date_created": "2022-09-10T13:24:34.000",
    "date_modified": "2022-09-10T13:24:34.000",
    "request_status": "Pending",
    "responsible_agency": "Department of Code Enforcement",
    "final_address": "5335 Timber Haven Ln",
    "address_councildis": "C",
    "status": "Pending",
    "rowid": "918113",
    "final_x": "3703940.28215",
    "final_y": "511290.8188",
    "longitude": "-89.99795695044016",
    "latitude": "29.899172053888627",
    "geocoded_column": {
      "latitude": "29.899172053888627",
      "longitude": "-89.99795695044016"
    }
  },
  {
    "service_request": "2022-918112",
    "request_type": "Property Maintenance",
    "request_reason": "Property Maintenance",
    "date_created": "2022-09-10T13:16:05.000",
    "date_modified": "2022-09-10T13:16:05.000",
    "request_status": "Pending",
    "responsible_agency": "Department of Code Enforcement",
    "final_address": "2513 Amelia St",
    "address_councildis": "B",
    "status": "Pending",
    "rowid": "918112",
    "final_x": "3672363.03271",
    "final_y": "524411.833404",
    "longitude": "-90.09716377858985",
    "latitude": "29.936224813041658",
    "geocoded_column": {
      "latitude": "29.936224813041658",
      "longitude": "-90.09716377858985"
    }
  },
  {
    "service_request": "2022-918111",
    "request_type": "Trash/Recycling",
    "request_reason": "Request a Large Item Pick Up",
    "date_created": "2022-09-10T13:05:57.000",
    "date_modified": "2022-09-10T13:05:58.000",
    "request_status": "Pending",
    "responsible_agency": "Department of Sanitation",
    "final_address": "4223 Eden St",
    "address_councildis": "B",
    "status": "Assigned to Contractor",
    "contractor": "Richards Disposal",
    "rowid": "918111",
    "final_x": "3670355.29543",
    "final_y": "530424.39181",
    "longitude": "-90.10329851663387",
    "latitude": "29.952816795574023",
    "geocoded_column": {
      "latitude": "29.952816795574023",
      "longitude": "-90.10329851663387"
    }
  },
  {
    "service_request": "2022-918110",
    "request_type": "Trash/Recycling",
    "request_reason": "MIssed Recycling Pick-Up",
    "date_created": "2022-09-10T13:01:51.000",
    "date_modified": "2022-09-10T13:01:52.000",
    "request_status": "Pending",
    "responsible_agency": "Department of Sanitation",
    "final_address": "2329 General Meyer Ave",
    "address_councildis": "C",
    "status": "Assigned to Contractor",
    "contractor": "Richards Disposal",
    "rowid": "918110",
    "final_x": "3692652.05296",
    "final_y": "527621.965631",
    "longitude": "-90.03299598049206",
    "latitude": "29.944434123735533",
    "geocoded_column": {
      "latitude": "29.944434123735533",
      "longitude": "-90.03299598049206"
    }
  },
  {
    "service_request": "2022-918109",
    "request_type": "Trash/Recycling",
    "request_reason": "Missed Trash Pick-Up",
    "date_created": "2022-09-10T12:54:24.000",
    "date_modified": "2022-09-10T12:54:25.000",
    "request_status": "Pending",
    "responsible_agency": "Department of Sanitation",
    "final_address": "1138 Josephine St, New Orleans, Louisiana, 70130",
    "address_councildis": "B",
    "status": "Assigned to Contractor",
    "contractor": "Richards Disposal",
    "rowid": "918109",
    "final_x": "3678939.07432",
    "final_y": "522549.966266",
    "longitude": "-90.0764674893942",
    "latitude": "29.930908578442235",
    "geocoded_column": {
      "latitude": "29.930908578442235",
      "longitude": "-90.0764674893942"
    }
  },
  {
    "service_request": "2022-918108",
    "request_type": "Trash/Recycling",
    "request_reason": "Missed Trash Pick-Up",
    "date_created": "2022-09-10T12:39:38.000",
    "date_modified": "2022-09-10T12:39:39.000",
    "request_status": "Pending",
    "responsible_agency": "Department of Sanitation",
    "final_address": "4432 Frenchmen St",
    "address_councildis": "D",
    "status": "Assigned to Contractor",
    "contractor": "Metro Disposal",
    "rowid": "918108",
    "final_x": "3683492.45065",
    "final_y": "549048.967955",
    "longitude": "-90.06116436367711",
    "latitude": "30.003633558471197",
    "geocoded_column": {
      "latitude": "30.003633558471197",
      "longitude": "-90.06116436367711"
    }
  },
  {
    "service_request": "2022-918107",
    "request_type": "Roads/Drainage",
    "request_reason": "Street Subsidence (Sinking)",
    "date_created": "2022-09-10T12:30:55.000",
    "date_modified": "2022-09-10T12:30:55.000",
    "request_status": "Pending",
    "responsible_agency": "Department of Public Works",
    "final_address": "1828 Lesseps St",
    "address_councildis": "D",
    "status": "Pending",
    "rowid": "918107",
    "final_x": "3693380.46781",
    "final_y": "537957.027785",
    "longitude": "-90.03032510879974",
    "latitude": "29.97282917363317",
    "geocoded_column": {
      "latitude": "29.97282917363317",
      "longitude": "-90.03032510879974"
    }
  },
  {
    "service_request": "2022-918106",
    "request_type": "Property Maintenance",
    "request_reason": "Property Maintenance",
    "date_created": "2022-09-10T12:29:37.000",
    "date_modified": "2022-09-10T12:29:37.000",
    "request_status": "Pending",
    "responsible_agency": "Department of Code Enforcement",
    "final_address": "5927 Selma St",
    "address_councildis": "D",
    "status": "Pending",
    "rowid": "918106",
    "final_x": "3696339.29424",
    "final_y": "552464.757974",
    "longitude": "-90.02045565447266",
    "latitude": "30.012627264281395",
    "geocoded_column": {
      "latitude": "30.012627264281395",
      "longitude": "-90.02045565447266"
    }
  },
  {
    "service_request": "2022-918105",
    "request_type": "Trash/Recycling",
    "request_reason": "Repair Trash Cart",
    "date_created": "2022-09-10T12:28:48.000",
    "date_modified": "2022-09-10T12:28:49.000",
    "request_status": "Pending",
    "responsible_agency": "Department of Sanitation",
    "final_address": "3411 Chartres St",
    "address_councildis": "C",
    "status": "Assigned to Contractor",
    "contractor": "Metro Disposal",
    "rowid": "918105",
    "final_x": "3689838.52092",
    "final_y": "533859.997381",
    "longitude": "-90.04165706827186",
    "latitude": "29.96167405133938",
    "geocoded_column": {
      "latitude": "29.96167405133938",
      "longitude": "-90.04165706827186"
    }
  },
  {
    "service_request": "2022-918104",
    "request_type": "Trash/Recycling",
    "request_reason": "Replace Trash Cart",
    "date_created": "2022-09-10T12:23:05.000",
    "date_modified": "2022-09-10T12:23:05.000",
    "request_status": "Pending",
    "responsible_agency": "Department of Sanitation",
    "final_address": "4943 Bundy Rd",
    "address_councildis": "E",
    "status": "Assigned to Contractor",
    "contractor": "Metro Disposal",
    "rowid": "918104",
    "final_x": "3709315.45553",
    "final_y": "556918.074202",
    "longitude": "-89.97929226193166",
    "latitude": "30.02445695928416",
    "geocoded_column": {
      "latitude": "30.02445695928416",
      "longitude": "-89.97929226193166"
    }
  },
  {
    "service_request": "2022-918103",
    "request_type": "Trash/Recycling",
    "request_reason": "Missed Trash Pick-Up",
    "date_created": "2022-09-10T12:20:40.000",
    "date_modified": "2022-09-10T12:20:41.000",
    "request_status": "Pending",
    "responsible_agency": "Department of Sanitation",
    "final_address": "1818 Short St",
    "address_councildis": "A",
    "status": "Assigned to Contractor",
    "contractor": "Richards Disposal",
    "rowid": "918103",
    "final_x": "3663792.67418",
    "final_y": "529765.502593",
    "longitude": "-90.12404240689021",
    "latitude": "29.95119714097648",
    "geocoded_column": {
      "latitude": "29.95119714097648",
      "longitude": "-90.12404240689021"
    }
  },
  {
    "service_request": "2022-918102",
    "request_type": "Safety & Permits",
    "request_reason": "Construction permit",
    "date_created": "2022-09-10T12:04:23.000",
    "date_modified": "2022-09-10T12:04:23.000",
    "request_status": "Pending",
    "responsible_agency": "Department of Code Enforcement",
    "final_address": "1347 Coliseum St",
    "address_councildis": "B",
    "status": "Pending",
    "rowid": "918102",
    "final_x": "3679935.75829",
    "final_y": "524906.077052",
    "longitude": "-90.07323930060726",
    "latitude": "29.93735700750877",
    "geocoded_column": {
      "latitude": "29.93735700750877",
      "longitude": "-90.07323930060726"
    }
  },
  {
    "service_request": "2022-918101",
    "request_type": "Trash/Recycling",
    "request_reason": "Replace Trash Cart",
    "date_created": "2022-09-10T12:04:13.000",
    "date_modified": "2022-09-10T12:04:13.000",
    "request_status": "Pending",
    "responsible_agency": "Department of Sanitation",
    "final_address": "10317 Willow Dr",
    "address_councildis": "C",
    "status": "Assigned to Contractor",
    "contractor": "Richards Disposal",
    "rowid": "918101",
    "final_x": "3722314.98086",
    "final_y": "517240.380021",
    "longitude": "-89.93974143589126",
    "latitude": "29.914929619592506",
    "geocoded_column": {
      "latitude": "29.914929619592506",
      "longitude": "-89.93974143589126"
    }
  },
  {
    "service_request": "2022-918100",
    "request_type": "Trash/Recycling",
    "request_reason": "Missed Trash Pick-Up",
    "date_created": "2022-09-10T11:57:24.000",
    "date_modified": "2022-09-10T11:57:25.000",
    "request_status": "Pending",
    "responsible_agency": "Department of Sanitation",
    "final_address": "508 Millaudon St",
    "address_councildis": "A",
    "status": "Assigned to Contractor",
    "contractor": "Richards Disposal",
    "rowid": "918100",
    "final_x": "3662156.72192",
    "final_y": "525044.984253",
    "longitude": "-90.12936457079851",
    "latitude": "29.93826459526661",
    "geocoded_column": {
      "latitude": "29.93826459526661",
      "longitude": "-90.12936457079851"
    }
  },
  {
    "service_request": "2022-918099",
    "request_type": "Safety & Permits",
    "request_reason": "Licenses & Permits",
    "date_created": "2022-09-10T11:50:57.000",
    "date_modified": "2022-09-10T11:50:57.000",
    "request_status": "Pending",
    "responsible_agency": "Safety and Permits",
    "final_address": "5919 West End Blvd",
    "address_councildis": "A",
    "status": "Pending",
    "rowid": "918099",
    "final_x": "3666518.69415",
    "final_y": "547315.600017",
    "longitude": "-90.11484567719323",
    "latitude": "29.99937464808035",
    "geocoded_column": {
      "latitude": "29.99937464808035",
      "longitude": "-90.11484567719323"
    }
  },
  {
    "service_request": "2022-918098",
    "request_type": "Trash/Recycling",
    "request_reason": "MIssed Recycling Pick-Up",
    "date_created": "2022-09-10T11:47:47.000",
    "date_modified": "2022-09-10T11:47:47.000",
    "request_status": "Pending",
    "responsible_agency": "Department of Sanitation",
    "final_address": "3121 Dauphine St",
    "address_councildis": "C",
    "status": "Assigned to Contractor",
    "contractor": "Metro Disposal",
    "rowid": "918098",
    "final_x": "3688882.27196",
    "final_y": "534846.402118",
    "longitude": "-90.04464170379923",
    "latitude": "29.964415926277262",
    "geocoded_column": {
      "latitude": "29.964415926277262",
      "longitude": "-90.04464170379923"
    }
  },
  {
    "service_request": "2022-918097",
    "request_type": "Trash/Recycling",
    "request_reason": "Missed Trash Pick-Up",
    "date_created": "2022-09-10T11:47:12.000",
    "date_modified": "2022-09-10T11:47:12.000",
    "case_close_date": "2021-08-01T19:00:00.000",
    "request_status": "Pending",
    "responsible_agency": "Department of Sanitation",
    "final_address": "5000 Elysian Fields Ave",
    "address_councildis": "D",
    "status": "Assigned to Contractor",
    "contractor": "Metro Disposal",
    "rowid": "918097",
    "final_x": "3683712.97833",
    "final_y": "551164.280533",
    "longitude": "-90.0603934428987",
    "latitude": "30.009443169079155",
    "geocoded_column": {
      "latitude": "30.009443169079155",
      "longitude": "-90.0603934428987"
    }
  },
  {
    "service_request": "2022-918096",
    "request_type": "Roads/Drainage",
    "request_reason": "Damaged Sidewalk",
    "date_created": "2022-09-10T11:43:54.000",
    "date_modified": "2022-09-10T11:43:54.000",
    "request_status": "Pending",
    "responsible_agency": "Department of Public Works",
    "final_address": "6068 Canal Blvd",
    "address_councildis": "A",
    "status": "Pending",
    "rowid": "918096",
    "final_x": "3668403.33185",
    "final_y": "547897.583826",
    "longitude": "-90.10887238651094",
    "latitude": "30.000919661027034",
    "geocoded_column": {
      "latitude": "30.000919661027034",
      "longitude": "-90.10887238651094"
    }
  },
  {
    "service_request": "2022-918095",
    "request_type": "Property Maintenance",
    "request_reason": "Property Maintenance",
    "date_created": "2022-09-10T11:35:44.000",
    "date_modified": "2022-09-10T11:35:44.000",
    "request_status": "Pending",
    "responsible_agency": "Department of Code Enforcement",
    "final_address": "3940 Paris Ave",
    "address_councildis": "D",
    "status": "Pending",
    "rowid": "918095",
    "final_x": "3679470.15855",
    "final_y": "546931.536337",
    "longitude": "-90.0739449642346",
    "latitude": "29.997933553423078",
    "geocoded_column": {
      "latitude": "29.997933553423078",
      "longitude": "-90.0739449642346"
    }
  },
  {
    "service_request": "2022-918094",
    "request_type": "Trash/Recycling",
    "request_reason": "Missed Trash Pick-Up",
    "date_created": "2022-09-10T11:27:55.000",
    "date_modified": "2022-09-10T11:27:56.000",
    "request_status": "Pending",
    "responsible_agency": "Department of Sanitation",
    "final_address": "3428 Elysian Fields Ave",
    "address_councildis": "D",
    "status": "Assigned to Contractor",
    "contractor": "Metro Disposal",
    "rowid": "918094",
    "final_x": "3684164.23535",
    "final_y": "545410.05544",
    "longitude": "-90.05916992242264",
    "latitude": "29.99360732879696",
    "geocoded_column": {
      "latitude": "29.99360732879696",
      "longitude": "-90.05916992242264"
    }
  },
  {
    "service_request": "2022-918093",
    "request_type": "Abandoned Vehicles",
    "request_reason": "Abandoned/Junk Vehicles",
    "date_created": "2022-09-10T11:27:25.000",
    "date_modified": "2022-09-10T11:27:25.000",
    "request_status": "Pending",
    "responsible_agency": "Department of Public Works",
    "final_address": "1912 Eagle St",
    "address_councildis": "A",
    "status": "Pending",
    "rowid": "918093",
    "final_x": "3661821.97606",
    "final_y": "531969.673475",
    "longitude": "-90.13019184856428",
    "latitude": "29.957314941089855",
    "geocoded_column": {
      "latitude": "29.957314941089855",
      "longitude": "-90.13019184856428"
    }
  },
  {
    "service_request": "2022-918092",
    "request_type": "Abandoned Vehicles",
    "request_reason": "Abandoned/Junk Vehicles",
    "date_created": "2022-09-10T11:23:45.000",
    "date_modified": "2022-09-10T11:23:45.000",
    "request_status": "Pending",
    "responsible_agency": "Department of Public Works",
    "final_address": "1219 Eagle St",
    "address_councildis": "A",
    "status": "Pending",
    "rowid": "918092",
    "final_x": "3660273.33331",
    "final_y": "530143.817537",
    "longitude": "-90.13514231045784",
    "latitude": "29.952339045465894",
    "geocoded_column": {
      "latitude": "29.952339045465894",
      "longitude": "-90.13514231045784"
    }
  },
  {
    "service_request": "2022-918091",
    "request_type": "Abandoned Vehicles",
    "request_reason": "Abandoned/Junk Vehicles",
    "date_created": "2022-09-10T11:21:07.000",
    "date_modified": "2022-09-10T11:21:07.000",
    "request_status": "Pending",
    "responsible_agency": "Department of Public Works",
    "final_address": "1219 Eagle St",
    "address_councildis": "A",
    "status": "Pending",
    "rowid": "918091",
    "final_x": "3660273.33331",
    "final_y": "530143.817537",
    "longitude": "-90.13514231045784",
    "latitude": "29.952339045465894",
    "geocoded_column": {
      "latitude": "29.952339045465894",
      "longitude": "-90.13514231045784"
    }
  },
  {
    "service_request": "2022-918090",
    "request_type": "Trash/Recycling",
    "request_reason": "Missed Trash Pick-Up",
    "date_created": "2022-09-10T11:13:09.000",
    "date_modified": "2022-09-10T11:13:10.000",
    "request_status": "Pending",
    "responsible_agency": "Department of Sanitation",
    "final_address": "2060 Mirabeau Ave",
    "address_councildis": "D",
    "status": "Assigned to Contractor",
    "contractor": "Metro Disposal",
    "rowid": "918090",
    "final_x": "3682928.00898",
    "final_y": "550549.8253",
    "longitude": "-90.06289495497816",
    "latitude": "30.00777759411963",
    "geocoded_column": {
      "latitude": "30.00777759411963",
      "longitude": "-90.06289495497816"
    }
  },
  {
    "service_request": "2022-918089",
    "request_type": "Trash/Recycling",
    "request_reason": "Order Trash Cart",
    "date_created": "2022-09-10T11:07:55.000",
    "date_modified": "2022-09-10T11:07:55.000",
    "request_status": "Pending",
    "responsible_agency": "Department of Sanitation",
    "final_address": "835 Reynes St",
    "address_councildis": "E",
    "status": "Assigned to Contractor",
    "contractor": "Metro Disposal",
    "rowid": "918089",
    "final_x": "3695739.57469",
    "final_y": "533315.693572",
    "longitude": "-90.02304226183884",
    "latitude": "29.959993178698973",
    "geocoded_column": {
      "latitude": "29.959993178698973",
      "longitude": "-90.02304226183884"
    }
  },
  {
    "service_request": "2022-918088",
    "request_type": "Trash/Recycling",
    "request_reason": "Missed Trash Pick-Up",
    "date_created": "2022-09-10T11:06:05.000",
    "date_modified": "2022-09-10T11:06:06.000",
    "request_status": "Pending",
    "responsible_agency": "Department of Sanitation",
    "final_address": "11318 Hayne Blvd, New Orleans, Louisiana, 70128",
    "address_councildis": "E",
    "status": "Assigned to Contractor",
    "contractor": "Metro Disposal",
    "rowid": "918088",
    "final_x": "3710557.97733",
    "final_y": "567657.591972",
    "longitude": "-89.97496386070794",
    "latitude": "30.05394591311336",
    "geocoded_column": {
      "latitude": "30.05394591311336",
      "longitude": "-89.97496386070794"
    }
  },
  {
    "service_request": "2022-918087",
    "request_type": "Trash/Recycling",
    "request_reason": "Request a Large Item Pick Up",
    "date_created": "2022-09-10T10:57:47.000",
    "date_modified": "2022-09-10T10:57:48.000",
    "request_status": "Pending",
    "responsible_agency": "Department of Sanitation",
    "final_address": "38 Vivian Ct",
    "address_councildis": "C",
    "status": "Assigned to Contractor",
    "contractor": "Richards Disposal",
    "rowid": "918087",
    "final_x": "3702168.44266",
    "final_y": "521008.574969",
    "longitude": "-90.00319258063631",
    "latitude": "29.925949227839972",
    "geocoded_column": {
      "latitude": "29.925949227839972",
      "longitude": "-90.00319258063631"
    }
  },
  {
    "service_request": "2022-918086",
    "request_type": "Traffic Signals/Signs/Striping/Streetlights",
    "request_reason": "Traffic Signal Malfunctioning/Damaged",
    "date_created": "2022-09-10T10:48:49.000",
    "date_modified": "2022-09-10T10:48:50.000",
    "request_status": "Pending",
    "responsible_agency": "Department of Public Works",
    "final_address": "ST CLAUDE AVE & FRANKLIN AVE",
    "address_councildis": "C",
    "status": "Pending",
    "rowid": "918086",
    "final_x": "3687068.7",
    "final_y": "536547.68",
    "longitude": "-90.05030865196827",
    "latitude": "29.96914980739771",
    "geocoded_column": {
      "latitude": "29.96914980739771",
      "longitude": "-90.05030865196827"
    }
  },
  {
    "service_request": "2022-918085",
    "request_type": "Trash/Recycling",
    "request_reason": "Replace Trash Cart",
    "date_created": "2022-09-10T10:48:05.000",
    "date_modified": "2022-09-10T10:48:06.000",
    "request_status": "Pending",
    "responsible_agency": "Department of Sanitation",
    "final_address": "4417 Baudin St",
    "address_councildis": "A",
    "status": "Assigned to Contractor",
    "contractor": "Richards Disposal",
    "rowid": "918085",
    "final_x": "3668902.35476",
    "final_y": "538034.982473",
    "longitude": "-90.10762921285551",
    "latitude": "29.97378620169764",
    "geocoded_column": {
      "latitude": "29.97378620169764",
      "longitude": "-90.10762921285551"
    }
  },
  {
    "service_request": "2022-918084",
    "request_type": "Trash/Recycling",
    "request_reason": "Replace Trash Cart",
    "date_created": "2022-09-10T10:42:36.000",
    "date_modified": "2022-09-10T10:42:37.000",
    "request_status": "Pending",
    "responsible_agency": "Department of Sanitation",
    "final_address": "6019 Charlotte Dr",
    "address_councildis": "D",
    "status": "Assigned to Contractor",
    "contractor": "Metro Disposal",
    "rowid": "918084",
    "final_x": "3679970.27023",
    "final_y": "554642.173208",
    "longitude": "-90.07209701216085",
    "latitude": "30.01911991074156",
    "geocoded_column": {
      "latitude": "30.01911991074156",
      "longitude": "-90.07209701216085"
    }
  },
  {
    "service_request": "2022-918083",
    "request_type": "Trash/Recycling",
    "request_reason": "Missed Trash Pick-Up",
    "date_created": "2022-09-10T10:29:05.000",
    "date_modified": "2022-09-10T10:29:06.000",
    "request_status": "Pending",
    "responsible_agency": "Department of Sanitation",
    "final_address": "6057 Vermillion Blvd, New Orleans, Louisiana, 70122",
    "address_councildis": "D",
    "status": "Assigned to Contractor",
    "contractor": "Metro Disposal",
    "rowid": "918083",
    "final_x": "3683162.4788",
    "final_y": "555559.282201",
    "longitude": "-90.06197859705208",
    "latitude": "30.021544623787406",
    "geocoded_column": {
      "latitude": "30.021544623787406",
      "longitude": "-90.06197859705208"
    }
  },
  {
    "service_request": "2022-918082",
    "request_type": "Trash/Recycling",
    "request_reason": "Missed Trash Pick-Up",
    "date_created": "2022-09-10T10:27:47.000",
    "date_modified": "2022-09-10T10:27:47.000",
    "request_status": "Pending",
    "responsible_agency": "Department of Sanitation",
    "final_address": "6315 Brighton Pl",
    "address_councildis": "C",
    "status": "Assigned to Contractor",
    "contractor": "Richards Disposal",
    "rowid": "918082",
    "final_x": "3707581.13937",
    "final_y": "519991.63884",
    "longitude": "-89.98614418647907",
    "latitude": "29.92297913032742",
    "geocoded_column": {
      "latitude": "29.92297913032742",
      "longitude": "-89.98614418647907"
    }
  },
  {
    "service_request": "2022-918081",
    "request_type": "Health Related Questions",
    "request_reason": "Request Information on the Health Marketplace",
    "date_created": "2022-09-10T10:26:26.000",
    "date_modified": "2022-09-10T10:26:26.000",
    "request_status": "Pending",
    "responsible_agency": "Health Department",
    "final_address": "947 Taft Pl",
    "address_councildis": "A",
    "status": "Pending",
    "rowid": "918081",
    "final_x": "3673844.84526",
    "final_y": "540456.977675",
    "longitude": "-90.09193685074368",
    "latitude": "29.980299562788836",
    "geocoded_column": {
      "latitude": "29.980299562788836",
      "longitude": "-90.09193685074368"
    }
  },
  {
    "service_request": "2022-918080",
    "request_type": "Trash/Recycling",
    "request_reason": "Request a Large Item Pick Up",
    "date_created": "2022-09-10T10:16:44.000",
    "date_modified": "2022-09-10T10:16:45.000",
    "request_status": "Pending",
    "responsible_agency": "Department of Sanitation",
    "final_address": "2459 Royal St",
    "address_councildis": "C",
    "status": "Assigned to Contractor",
    "contractor": "Metro Disposal",
    "rowid": "918080",
    "final_x": "3686396.84649",
    "final_y": "534994.811654",
    "longitude": "-90.05248522791058",
    "latitude": "29.964900627640272",
    "geocoded_column": {
      "latitude": "29.964900627640272",
      "longitude": "-90.05248522791058"
    }
  },
  {
    "service_request": "2022-918079",
    "request_type": "Trash/Recycling",
    "request_reason": "Repair Trash Cart",
    "date_created": "2022-09-10T10:05:38.000",
    "date_modified": "2022-09-10T10:05:39.000",
    "request_status": "Pending",
    "responsible_agency": "Department of Sanitation",
    "final_address": "3302 Chestnut St",
    "address_councildis": "B",
    "status": "Assigned to Contractor",
    "contractor": "Richards Disposal",
    "rowid": "918079",
    "final_x": "3675076.38113",
    "final_y": "520422.892088",
    "longitude": "-90.08873443079378",
    "latitude": "29.925175750251604",
    "geocoded_column": {
      "latitude": "29.925175750251604",
      "longitude": "-90.08873443079378"
    }
  },
  {
    "service_request": "2022-918078",
    "request_type": "Trash/Recycling",
    "request_reason": "Repair Trash Cart",
    "date_created": "2022-09-10T10:04:23.000",
    "date_modified": "2022-09-10T10:04:23.000",
    "request_status": "Pending",
    "responsible_agency": "Department of Sanitation",
    "final_address": "3300 Chestnut St",
    "address_councildis": "B",
    "status": "Assigned to Contractor",
    "contractor": "Richards Disposal",
    "rowid": "918078",
    "final_x": "3675090.84219",
    "final_y": "520428.677432",
    "longitude": "-90.08868858341386",
    "latitude": "29.925191226170174",
    "geocoded_column": {
      "latitude": "29.925191226170174",
      "longitude": "-90.08868858341386"
    }
  },
  {
    "service_request": "2022-918077",
    "request_type": "Property Maintenance",
    "request_reason": "Property Maintenance",
    "date_created": "2022-09-10T10:04:05.000",
    "date_modified": "2022-09-10T10:04:06.000",
    "request_status": "Pending",
    "responsible_agency": "Department of Code Enforcement",
    "final_address": "6951 Coventry St",
    "address_councildis": "E",
    "status": "Pending",
    "rowid": "918077",
    "final_x": "3699073.77117",
    "final_y": "559861.865053",
    "longitude": "-90.01154667496932",
    "latitude": "30.032880052228247",
    "geocoded_column": {
      "latitude": "30.032880052228247",
      "longitude": "-90.01154667496932"
    }
  },
  {
    "service_request": "2022-918076",
    "request_type": "Trash/Recycling",
    "request_reason": "Illegal Dumping",
    "date_created": "2022-09-10T10:00:57.000",
    "date_modified": "2022-09-10T10:02:08.000",
    "request_status": "Pending",
    "responsible_agency": "Department of Sanitation",
    "final_address": "Clouet St & Marais St, New Orleans, Louisiana, 70117",
    "address_councildis": "C",
    "rowid": "918076",
    "final_x": "3689090.3",
    "final_y": "536352.18",
    "longitude": "-90.04393126052182",
    "latitude": "29.96854985398698",
    "geocoded_column": {
      "latitude": "29.96854985398698",
      "longitude": "-90.04393126052182"
    }
  },
  {
    "service_request": "2022-918075",
    "request_type": "Trash/Recycling",
    "request_reason": "Missed Trash Pick-Up",
    "date_created": "2022-09-10T09:59:06.000",
    "date_modified": "2022-09-10T09:59:07.000",
    "request_status": "Pending",
    "responsible_agency": "Department of Sanitation",
    "final_address": "6009 Wickfield Dr",
    "address_councildis": "D",
    "status": "Assigned to Contractor",
    "contractor": "Metro Disposal",
    "rowid": "918075",
    "final_x": "3681060.28072",
    "final_y": "554720.2214",
    "longitude": "-90.06865023590653",
    "latitude": "30.01930148005926",
    "geocoded_column": {
      "latitude": "30.01930148005926",
      "longitude": "-90.06865023590653"
    }
  },
  {
    "service_request": "2022-918074",
    "request_type": "Roads/Drainage",
    "request_reason": "Leaking Hydrant",
    "date_created": "2022-09-10T09:58:31.000",
    "date_modified": "2022-09-10T09:58:31.000",
    "request_status": "Pending",
    "responsible_agency": "Department of Public Works",
    "final_address": "1413 Moss St, New Orleans, Louisiana, 70119",
    "address_councildis": "A",
    "status": "Pending",
    "rowid": "918074",
    "final_x": "3674339.2267",
    "final_y": "540786.984843",
    "longitude": "-90.09036407524184",
    "latitude": "29.981192232599877",
    "geocoded_column": {
      "latitude": "29.981192232599877",
      "longitude": "-90.09036407524184"
    }
  },
  {
    "service_request": "2022-918073",
    "request_type": "Roads/Drainage",
    "request_reason": "Street Flooding / Drainage",
    "date_created": "2022-09-10T09:55:17.000",
    "date_modified": "2022-09-10T09:55:17.000",
    "request_status": "Pending",
    "responsible_agency": "Department of Public Works",
    "final_address": "2829 Joseph St",
    "address_councildis": "A",
    "status": "Pending",
    "rowid": "918073",
    "final_x": "3667855.82426",
    "final_y": "526363.739774",
    "longitude": "-90.11132750173452",
    "latitude": "29.94172486157745",
    "geocoded_column": {
      "latitude": "29.94172486157745",
      "longitude": "-90.11132750173452"
    }
  },
  {
    "service_request": "2022-918071",
    "request_type": "Trash/Recycling",
    "request_reason": "Missed Trash Pick-Up",
    "date_created": "2022-09-10T09:50:55.000",
    "date_modified": "2022-09-10T09:50:56.000",
    "request_status": "Pending",
    "responsible_agency": "Department of Sanitation",
    "final_address": "8219 Spruce St",
    "address_councildis": "A",
    "status": "Assigned to Contractor",
    "contractor": "Richards Disposal",
    "rowid": "918071",
    "final_x": "3663496.08807",
    "final_y": "530832.389378",
    "longitude": "-90.12494335708516",
    "latitude": "29.95413933812538",
    "geocoded_column": {
      "latitude": "29.95413933812538",
      "longitude": "-90.12494335708516"
    }
  },
  {
    "service_request": "2022-918070",
    "request_type": "Traffic Signals/Signs/Striping/Streetlights",
    "request_reason": "Traffic Signal Malfunctioning/Damaged",
    "date_created": "2022-09-10T09:27:50.000",
    "date_modified": "2022-09-10T09:27:50.000",
    "request_status": "Pending",
    "responsible_agency": "Department of Public Works",
    "final_address": "CHEF MENTEUR HWY & CROWDER BLVD",
    "address_councildis": "E",
    "status": "Pending",
    "rowid": "918070",
    "final_x": "3706634.1",
    "final_y": "553211.78",
    "longitude": "-89.98790231067488",
    "latitude": "30.01435293570407",
    "geocoded_column": {
      "latitude": "30.01435293570407",
      "longitude": "-89.98790231067488"
    }
  },
  {
    "service_request": "2022-918069",
    "request_type": "Trash/Recycling",
    "request_reason": "Missed Trash Pick-Up",
    "date_created": "2022-09-10T09:27:19.000",
    "date_modified": "2022-09-10T09:27:20.000",
    "request_status": "Pending",
    "responsible_agency": "Department of Sanitation",
    "final_address": "1020 Aurora Dr",
    "address_councildis": "C",
    "status": "Assigned to Contractor",
    "contractor": "Richards Disposal",
    "rowid": "918069",
    "final_x": "3706836.70308",
    "final_y": "517910.234294",
    "longitude": "-89.98857116993406",
    "latitude": "29.917280037438264",
    "geocoded_column": {
      "latitude": "29.917280037438264",
      "longitude": "-89.98857116993406"
    }
  },
  {
    "service_request": "2022-918068",
    "request_type": "Trash/Recycling",
    "request_reason": "Missed Trash Pick-Up",
    "date_created": "2022-09-10T09:27:01.000",
    "date_modified": "2022-09-10T09:27:01.000",
    "request_status": "Pending",
    "responsible_agency": "Department of Sanitation",
    "final_address": "4527 Annette St",
    "address_councildis": "D",
    "status": "Assigned to Contractor",
    "contractor": "Metro Disposal",
    "rowid": "918068",
    "final_x": "3682133.01052",
    "final_y": "549273.805011",
    "longitude": "-90.06545119437396",
    "latitude": "30.004293210413252",
    "geocoded_column": {
      "latitude": "30.004293210413252",
      "longitude": "-90.06545119437396"
    }
  },
  {
    "service_request": "2022-918067",
    "request_type": "Property Maintenance",
    "request_reason": "Property Maintenance",
    "date_created": "2022-09-10T09:25:46.000",
    "date_modified": "2022-09-10T09:25:46.000",
    "request_status": "Pending",
    "responsible_agency": "Department of Code Enforcement",
    "final_address": "2019 Dumaine St",
    "address_councildis": "D",
    "status": "Pending",
    "rowid": "918067",
    "final_x": "3679248.85019",
    "final_y": "535969.814343",
    "longitude": "-90.07502434120687",
    "latitude": "29.96779931941338",
    "geocoded_column": {
      "latitude": "29.96779931941338",
      "longitude": "-90.07502434120687"
    }
  },
  {
    "service_request": "2022-918066",
    "request_type": "Trash/Recycling",
    "request_reason": "Missed Trash Pick-Up",
    "date_created": "2022-09-10T09:23:51.000",
    "date_modified": "2022-09-10T09:23:51.000",
    "case_close_date": "2021-08-10T19:00:00.000",
    "request_status": "Pending",
    "responsible_agency": "Department of Sanitation",
    "final_address": "1522 Pauline St",
    "address_councildis": "D",
    "status": "Assigned to Contractor",
    "contractor": "Metro Disposal",
    "rowid": "918066",
    "final_x": "3691588.45699",
    "final_y": "537123.234888",
    "longitude": "-90.03601440901177",
    "latitude": "29.97059244929909",
    "geocoded_column": {
      "latitude": "29.97059244929909",
      "longitude": "-90.03601440901177"
    }
  },
  {
    "service_request": "2022-918065",
    "request_type": "Roads/Drainage",
    "request_reason": "Street Flooding / Drainage",
    "date_created": "2022-09-10T09:22:21.000",
    "date_modified": "2022-09-10T09:22:21.000",
    "request_status": "Pending",
    "responsible_agency": "Department of Public Works",
    "final_address": "1551 Leda St",
    "address_councildis": "A",
    "status": "Pending",
    "rowid": "918065",
    "final_x": "3675719.53723",
    "final_y": "541894.085196",
    "longitude": "-90.08596635898144",
    "latitude": "29.984195133447834",
    "geocoded_column": {
      "latitude": "29.984195133447834",
      "longitude": "-90.08596635898144"
    }
  },
  {
    "service_request": "2022-918063",
    "request_type": "Trash/Recycling",
    "request_reason": "Missed Trash Pick-Up",
    "date_created": "2022-09-10T09:07:04.000",
    "date_modified": "2022-09-10T09:07:05.000",
    "request_status": "Pending",
    "responsible_agency": "Department of Sanitation",
    "final_address": "3312 St Anthony Ave",
    "address_councildis": "D",
    "status": "Assigned to Contractor",
    "contractor": "Metro Disposal",
    "rowid": "918063",
    "final_x": "3682734.96853",
    "final_y": "544788.145231",
    "longitude": "-90.06370651920578",
    "latitude": "29.991940920051857",
    "geocoded_column": {
      "latitude": "29.991940920051857",
      "longitude": "-90.06370651920578"
    }
  },
  {
    "service_request": "2022-918062",
    "request_type": "Trash/Recycling",
    "request_reason": "Missed Trash Pick-Up",
    "date_created": "2022-09-10T08:58:44.000",
    "date_modified": "2022-09-10T08:58:45.000",
    "case_close_date": "2021-11-08T18:00:00.000",
    "request_status": "Pending",
    "responsible_agency": "Department of Sanitation",
    "final_address": "4805 St Anthony Ave",
    "address_councildis": "D",
    "status": "Assigned to Contractor",
    "contractor": "Metro Disposal",
    "rowid": "918062",
    "final_x": "3682461.24002",
    "final_y": "550285.064148",
    "longitude": "-90.06437887768594",
    "latitude": "30.007063818332895",
    "geocoded_column": {
      "latitude": "30.007063818332895",
      "longitude": "-90.06437887768594"
    }
  },
  {
    "service_request": "2022-918061",
    "request_type": "Trash/Recycling",
    "request_reason": "Missed Trash Pick-Up",
    "date_created": "2022-09-10T08:57:37.000",
    "date_modified": "2022-09-10T08:57:38.000",
    "request_status": "Pending",
    "responsible_agency": "Department of Sanitation",
    "final_address": "6051 Brighton Pl",
    "address_councildis": "C",
    "status": "Assigned to Contractor",
    "contractor": "Richards Disposal",
    "rowid": "918061",
    "final_x": "3706410.11275",
    "final_y": "520022.518904",
    "longitude": "-89.9898394880825",
    "latitude": "29.923101845243632",
    "geocoded_column": {
      "latitude": "29.923101845243632",
      "longitude": "-89.9898394880825"
    }
  },
  {
    "service_request": "2022-918060",
    "request_type": "Roads/Drainage",
    "request_reason": "Pothole",
    "date_created": "2022-09-10T08:52:32.000",
    "date_modified": "2022-09-10T08:52:32.000",
    "request_status": "Pending",
    "responsible_agency": "Department of Public Works",
    "final_address": "1215 Royal St",
    "address_councildis": "C",
    "status": "Pending",
    "rowid": "918060",
    "final_x": "3683707.43388",
    "final_y": "534015.109637",
    "longitude": "-90.06101256668195",
    "latitude": "29.962289172820757",
    "geocoded_column": {
      "latitude": "29.962289172820757",
      "longitude": "-90.06101256668195"
    }
  },
  {
    "service_request": "2022-918059",
    "request_type": "Trash/Recycling",
    "request_reason": "Start Trash Service",
    "date_created": "2022-09-10T08:52:06.000",
    "date_modified": "2022-09-10T08:52:07.000",
    "request_status": "Pending",
    "responsible_agency": "Department of Sanitation",
    "final_address": "1519 Desire St",
    "address_councildis": "D",
    "status": "Assigned to Contractor",
    "contractor": "Metro Disposal",
    "rowid": "918059",
    "final_x": "3690625.30089",
    "final_y": "537344.724232",
    "longitude": "-90.03904825754735",
    "latitude": "29.971231416228914",
    "geocoded_column": {
      "latitude": "29.971231416228914",
      "longitude": "-90.03904825754735"
    }
  },
  {
    "service_request": "2022-918058",
    "request_type": "Roads/Drainage",
    "request_reason": "Pothole",
    "date_created": "2022-09-10T08:45:00.000",
    "date_modified": "2022-09-10T08:45:00.000",
    "request_status": "Pending",
    "responsible_agency": "Department of Public Works",
    "final_address": "1215 Royal St",
    "address_councildis": "C",
    "status": "Pending",
    "rowid": "918058",
    "final_x": "3683707.43388",
    "final_y": "534015.109637",
    "longitude": "-90.06101256668195",
    "latitude": "29.962289172820757",
    "geocoded_column": {
      "latitude": "29.962289172820757",
      "longitude": "-90.06101256668195"
    }
  },
  {
    "service_request": "2022-918057",
    "request_type": "Roads/Drainage",
    "request_reason": "Pothole",
    "date_created": "2022-09-10T08:40:21.000",
    "date_modified": "2022-09-10T08:40:21.000",
    "request_status": "Pending",
    "responsible_agency": "Department of Public Works",
    "final_address": "1215 Royal St",
    "address_councildis": "C",
    "status": "Pending",
    "rowid": "918057",
    "final_x": "3683707.43388",
    "final_y": "534015.109637",
    "longitude": "-90.06101256668195",
    "latitude": "29.962289172820757",
    "geocoded_column": {
      "latitude": "29.962289172820757",
      "longitude": "-90.06101256668195"
    }
  },
  {
    "service_request": "2022-918056",
    "request_type": "Trash/Recycling",
    "request_reason": "Missed Trash Pick-Up",
    "date_created": "2022-09-10T08:32:33.000",
    "date_modified": "2022-09-10T08:32:34.000",
    "request_status": "Pending",
    "responsible_agency": "Department of Sanitation",
    "final_address": "6014 Vermillion Blvd, New Orleans, Louisiana, 70122",
    "address_councildis": "D",
    "status": "Assigned to Contractor",
    "contractor": "Metro Disposal",
    "rowid": "918056",
    "final_x": "3682985.34498",
    "final_y": "554932.352664",
    "longitude": "-90.06256026077457",
    "latitude": "30.019826200564356",
    "geocoded_column": {
      "latitude": "30.019826200564356",
      "longitude": "-90.06256026077457"
    }
  },
  {
    "service_request": "2022-918055",
    "request_type": "Traffic Signals/Signs/Striping/Streetlights",
    "request_reason": "Street Light Outage/Malfunction",
    "date_created": "2022-09-10T08:28:26.000",
    "date_modified": "2022-09-10T08:28:26.000",
    "request_status": "Pending",
    "responsible_agency": "Department of Public Works",
    "final_address": "1221 N Gayoso St",
    "address_councildis": "A",
    "status": "Pending",
    "contractor": "Legacy Professional Services",
    "rowid": "918055",
    "final_x": "3676597.97665",
    "final_y": "539539.146954",
    "longitude": "-90.08327291077468",
    "latitude": "29.977693542364946",
    "geocoded_column": {
      "latitude": "29.977693542364946",
      "longitude": "-90.08327291077468"
    }
  },
  {
    "service_request": "2022-918054",
    "request_type": "Trash/Recycling",
    "request_reason": "MIssed Recycling Pick-Up",
    "date_created": "2022-09-10T08:26:42.000",
    "date_modified": "2022-09-10T08:26:43.000",
    "request_status": "Pending",
    "responsible_agency": "Department of Sanitation",
    "final_address": "8919 Apple St",
    "address_councildis": "A",
    "status": "Assigned to Contractor",
    "contractor": "Richards Disposal",
    "rowid": "918054",
    "final_x": "3663166.35411",
    "final_y": "534142.148613",
    "longitude": "-90.12587439990666",
    "latitude": "29.963249656672247",
    "geocoded_column": {
      "latitude": "29.963249656672247",
      "longitude": "-90.12587439990666"
    }
  },
  {
    "service_request": "2022-918053",
    "request_type": "Trash/Recycling",
    "request_reason": "Order Recycling Cart",
    "date_created": "2022-09-10T08:25:23.000",
    "date_modified": "2022-09-10T08:25:23.000",
    "request_status": "Pending",
    "responsible_agency": "Department of Sanitation",
    "final_address": "2009 Robert St",
    "address_councildis": "B",
    "status": "Pending",
    "rowid": "918053",
    "final_x": "3668865.00865",
    "final_y": "522935.834875",
    "longitude": "-90.10825700062618",
    "latitude": "29.932269593613825",
    "geocoded_column": {
      "latitude": "29.932269593613825",
      "longitude": "-90.10825700062618"
    }
  },
  {
    "service_request": "2022-918052",
    "request_type": "Trash/Recycling",
    "request_reason": "Missed Trash Pick-Up",
    "date_created": "2022-09-10T08:25:07.000",
    "date_modified": "2022-09-10T08:25:07.000",
    "request_status": "Pending",
    "responsible_agency": "Department of Sanitation",
    "final_address": "1514 Nashville Ave",
    "address_councildis": "A",
    "status": "Assigned to Contractor",
    "contractor": "Richards Disposal",
    "rowid": "918052",
    "final_x": "3666072.36781",
    "final_y": "521798.699898",
    "longitude": "-90.11711124074353",
    "latitude": "29.929224636267374",
    "geocoded_column": {
      "latitude": "29.929224636267374",
      "longitude": "-90.11711124074353"
    }
  },
  {
    "service_request": "2022-918051",
    "request_type": "Trash/Recycling",
    "request_reason": "Missed Trash Pick-Up",
    "date_created": "2022-09-10T08:24:57.000",
    "date_modified": "2022-09-10T08:24:58.000",
    "request_status": "Pending",
    "responsible_agency": "Department of Sanitation",
    "final_address": "322 Millaudon St",
    "address_councildis": "A",
    "status": "Assigned to Contractor",
    "contractor": "Richards Disposal",
    "rowid": "918051",
    "final_x": "3661564.29152",
    "final_y": "524309.184444",
    "longitude": "-90.13125930946391",
    "latitude": "29.93625848128017",
    "geocoded_column": {
      "latitude": "29.93625848128017",
      "longitude": "-90.13125930946391"
    }
  },
  {
    "service_request": "2022-918050",
    "request_type": "Trash/Recycling",
    "request_reason": "Missed Trash Pick-Up",
    "date_created": "2022-09-10T08:07:50.000",
    "date_modified": "2022-09-10T08:07:51.000",
    "request_status": "Pending",
    "responsible_agency": "Department of Sanitation",
    "final_address": "5319 Pasteur Blvd, New Orleans, Louisiana, 70122",
    "address_councildis": "D",
    "status": "Assigned to Contractor",
    "contractor": "Metro Disposal",
    "rowid": "918050",
    "final_x": "3683016.51663",
    "final_y": "552383.24527",
    "longitude": "-90.06255109449584",
    "latitude": "30.012816135629862",
    "geocoded_column": {
      "latitude": "30.012816135629862",
      "longitude": "-90.06255109449584"
    }
  },
  {
    "service_request": "2022-918049",
    "request_type": "Trash/Recycling",
    "request_reason": "Order Trash Cart",
    "date_created": "2022-09-10T07:52:58.000",
    "date_modified": "2022-09-10T07:52:59.000",
    "request_status": "Pending",
    "responsible_agency": "Department of Sanitation",
    "final_address": "4755 Read Blvd",
    "address_councildis": "E",
    "status": "Assigned to Contractor",
    "contractor": "Metro Disposal",
    "rowid": "918049",
    "final_x": "3712853.03499",
    "final_y": "556344.475866",
    "longitude": "-89.96813584855832",
    "latitude": "30.022764371352192",
    "geocoded_column": {
      "latitude": "30.022764371352192",
      "longitude": "-89.96813584855832"
    }
  },
  {
    "service_request": "2022-918048",
    "request_type": "Trash/Recycling",
    "request_reason": "Missed Trash Pick-Up",
    "date_created": "2022-09-10T07:51:59.000",
    "date_modified": "2022-09-10T07:52:00.000",
    "request_status": "Pending",
    "responsible_agency": "Department of Sanitation",
    "final_address": "2827 Sullen Pl",
    "address_councildis": "C",
    "status": "Assigned to Contractor",
    "contractor": "Richards Disposal",
    "rowid": "918048",
    "final_x": "3707794.77656",
    "final_y": "520110.729016",
    "longitude": "-89.98546540093162",
    "latitude": "29.92329967836897",
    "geocoded_column": {
      "latitude": "29.92329967836897",
      "longitude": "-89.98546540093162"
    }
  },
  {
    "service_request": "2022-918047",
    "request_type": "Trash/Recycling",
    "request_reason": "Missed Trash Pick-Up",
    "date_created": "2022-09-10T07:39:02.000",
    "date_modified": "2022-09-10T07:39:02.000",
    "request_status": "Pending",
    "responsible_agency": "Department of Sanitation",
    "final_address": "1811 Louisa St",
    "address_councildis": "D",
    "status": "Assigned to Contractor",
    "contractor": "Metro Disposal",
    "rowid": "918047",
    "final_x": "3690282.8655",
    "final_y": "538608.570697",
    "longitude": "-90.04008466328578",
    "latitude": "29.974717178602628",
    "geocoded_column": {
      "latitude": "29.974717178602628",
      "longitude": "-90.04008466328578"
    }
  },
  {
    "service_request": "2022-918046",
    "request_type": "Trash/Recycling",
    "request_reason": "Missed Trash Pick-Up",
    "date_created": "2022-09-10T07:37:26.000",
    "date_modified": "2022-09-10T07:37:26.000",
    "request_status": "Pending",
    "responsible_agency": "Department of Sanitation",
    "final_address": "2500 Gentilly Blvd",
    "address_councildis": "D",
    "status": "Assigned to Contractor",
    "contractor": "Metro Disposal",
    "rowid": "918046",
    "final_x": "3681737.48245",
    "final_y": "545064.885519",
    "longitude": "-90.06684770726106",
    "latitude": "29.99273221053106",
    "geocoded_column": {
      "latitude": "29.99273221053106",
      "longitude": "-90.06684770726106"
    }
  },
  {
    "service_request": "2022-918045",
    "request_type": "Trash/Recycling",
    "request_reason": "Missed Trash Pick-Up",
    "date_created": "2022-09-10T07:36:04.000",
    "date_modified": "2022-09-10T07:36:05.000",
    "request_status": "Pending",
    "responsible_agency": "Department of Sanitation",
    "final_address": "3610 Toulouse St",
    "address_councildis": "A",
    "status": "Assigned to Contractor",
    "contractor": "Richards Disposal",
    "rowid": "918045",
    "final_x": "3673587.23425",
    "final_y": "538656.986185",
    "longitude": "-90.09281204620233",
    "latitude": "29.97535787212825",
    "geocoded_column": {
      "latitude": "29.97535787212825",
      "longitude": "-90.09281204620233"
    }
  },
  {
    "service_request": "2022-918044",
    "request_type": "Trash/Recycling",
    "request_reason": "MIssed Recycling Pick-Up",
    "date_created": "2022-09-10T07:34:43.000",
    "date_modified": "2022-09-10T07:34:44.000",
    "request_status": "Pending",
    "responsible_agency": "Department of Sanitation",
    "final_address": "1302 Cambronne St",
    "address_councildis": "A",
    "status": "Assigned to Contractor",
    "contractor": "Richards Disposal",
    "rowid": "918044",
    "final_x": "3661403.47296",
    "final_y": "529423.127105",
    "longitude": "-90.13159769667418",
    "latitude": "29.950324834956152",
    "geocoded_column": {
      "latitude": "29.950324834956152",
      "longitude": "-90.13159769667418"
    }
  },
  {
    "service_request": "2022-918043",
    "request_type": "Abandoned Vehicles",
    "request_reason": "Abandoned/Junk Vehicles",
    "date_created": "2022-09-10T07:24:55.000",
    "date_modified": "2022-09-10T07:24:55.000",
    "request_status": "Pending",
    "responsible_agency": "Department of Public Works",
    "final_address": "4507 Touro St",
    "address_councildis": "D",
    "status": "Pending",
    "rowid": "918043",
    "final_x": "3683233.56156",
    "final_y": "549217.888211",
    "longitude": "-90.0619763146818",
    "latitude": "30.004105929151763",
    "geocoded_column": {
      "latitude": "30.004105929151763",
      "longitude": "-90.0619763146818"
    }
  },
  {
    "service_request": "2022-918042",
    "request_type": "Trash/Recycling",
    "request_reason": "Missed Trash Pick-Up",
    "date_created": "2022-09-10T07:23:31.000",
    "date_modified": "2022-09-10T07:23:32.000",
    "request_status": "Pending",
    "responsible_agency": "Department of Sanitation",
    "final_address": "4507 Touro St",
    "address_councildis": "D",
    "status": "Assigned to Contractor",
    "contractor": "Metro Disposal",
    "rowid": "918042",
    "final_x": "3683233.56156",
    "final_y": "549217.888211",
    "longitude": "-90.0619763146818",
    "latitude": "30.004105929151763",
    "geocoded_column": {
      "latitude": "30.004105929151763",
      "longitude": "-90.0619763146818"
    }
  },
  {
    "service_request": "2022-918041",
    "request_type": "Abandoned Vehicles",
    "request_reason": "Abandoned/Junk Vehicles",
    "date_created": "2022-09-10T07:21:36.000",
    "date_modified": "2022-09-10T07:21:36.000",
    "request_status": "Pending",
    "responsible_agency": "Department of Public Works",
    "final_address": "4507 Touro St",
    "address_councildis": "D",
    "status": "Pending",
    "rowid": "918041",
    "final_x": "3683233.56156",
    "final_y": "549217.888211",
    "longitude": "-90.0619763146818",
    "latitude": "30.004105929151763",
    "geocoded_column": {
      "latitude": "30.004105929151763",
      "longitude": "-90.0619763146818"
    }
  },
  {
    "service_request": "2022-918040",
    "request_type": "Trash/Recycling",
    "request_reason": "Repair Trash Cart",
    "date_created": "2022-09-10T06:46:53.000",
    "date_modified": "2022-09-10T06:46:54.000",
    "request_status": "Pending",
    "responsible_agency": "Department of Sanitation",
    "final_address": "316 Spencer Ave",
    "address_councildis": "A",
    "status": "Assigned to Contractor",
    "contractor": "Metro Disposal",
    "rowid": "918040",
    "final_x": "3665263.07687",
    "final_y": "553593.835863",
    "longitude": "-90.11860196906964",
    "latitude": "30.016674271916123",
    "geocoded_column": {
      "latitude": "30.016674271916123",
      "longitude": "-90.11860196906964"
    }
  },
  {
    "service_request": "2022-918039",
    "request_type": "Trash/Recycling",
    "request_reason": "Missed Trash Pick-Up",
    "date_created": "2022-09-10T06:29:10.000",
    "date_modified": "2022-09-10T06:29:10.000",
    "request_status": "Pending",
    "responsible_agency": "Department of Sanitation",
    "final_address": "5627 Pratt Dr",
    "address_councildis": "D",
    "status": "Assigned to Contractor",
    "contractor": "Metro Disposal",
    "rowid": "918039",
    "final_x": "3680411.77071",
    "final_y": "553290.876311",
    "longitude": "-90.07074907017432",
    "latitude": "30.01539096577846",
    "geocoded_column": {
      "latitude": "30.01539096577846",
      "longitude": "-90.07074907017432"
    }
  },
  {
    "service_request": "2022-918038",
    "request_type": "Trash/Recycling",
    "request_reason": "Missed Trash Pick-Up",
    "date_created": "2022-09-10T06:20:35.000",
    "date_modified": "2022-09-10T06:20:35.000",
    "request_status": "Pending",
    "responsible_agency": "Department of Sanitation",
    "final_address": "1326 Frankfort St",
    "address_councildis": "D",
    "status": "Assigned to Contractor",
    "contractor": "Metro Disposal",
    "rowid": "918038",
    "final_x": "3677442.3147",
    "final_y": "555754.167001",
    "longitude": "-90.08004605221223",
    "latitude": "30.022253758124553",
    "geocoded_column": {
      "latitude": "30.022253758124553",
      "longitude": "-90.08004605221223"
    }
  },
  {
    "service_request": "2022-918037",
    "request_type": "Traffic Signals/Signs/Striping/Streetlights",
    "request_reason": "Street Light Outage/Malfunction",
    "date_created": "2022-09-10T05:48:22.000",
    "date_modified": "2022-09-10T05:48:23.000",
    "request_status": "Pending",
    "responsible_agency": "Department of Public Works",
    "final_address": "CITY PARK AVE & CANAL ST",
    "address_councildis": "A",
    "status": "Pending",
    "contractor": "Legacy Professional Services",
    "rowid": "918037",
    "final_x": "3667670.2",
    "final_y": "540924.48",
    "longitude": "-90.1114233253949",
    "latitude": "29.98176753161088",
    "geocoded_column": {
      "latitude": "29.98176753161088",
      "longitude": "-90.1114233253949"
    }
  },
  {
    "service_request": "2022-918036",
    "request_type": "Trash/Recycling",
    "request_reason": "Start Trash Service",
    "date_created": "2022-09-09T23:36:30.000",
    "date_modified": "2022-09-09T23:36:30.000",
    "request_status": "Pending",
    "responsible_agency": "Department of Sanitation",
    "final_address": "9114 Palmetto St",
    "address_councildis": "A",
    "status": "Assigned to Contractor",
    "contractor": "Richards Disposal",
    "rowid": "918036",
    "final_x": "3665366.6738",
    "final_y": "537564.697864",
    "longitude": "-90.1188114556186",
    "latitude": "29.972596597037573",
    "geocoded_column": {
      "latitude": "29.972596597037573",
      "longitude": "-90.1188114556186"
    }
  },
  {
    "service_request": "2022-918035",
    "request_type": "Roads/Drainage",
    "request_reason": "Unpermitted work in ROW",
    "date_created": "2022-09-09T23:06:07.000",
    "date_modified": "2022-09-09T23:06:07.000",
    "request_status": "Pending",
    "responsible_agency": "Department of Public Works",
    "final_address": "2141 Allen St",
    "address_councildis": "D",
    "status": "Pending",
    "rowid": "918035",
    "final_x": "3682488.83176",
    "final_y": "540145.567115",
    "longitude": "-90.06464638548226",
    "latitude": "29.979182960327",
    "geocoded_column": {
      "latitude": "29.979182960327",
      "longitude": "-90.06464638548226"
    }
  },
  {
    "service_request": "2022-918034",
    "request_type": "Trash/Recycling",
    "request_reason": "MIssed Recycling Pick-Up",
    "date_created": "2022-09-09T21:33:18.000",
    "date_modified": "2022-09-09T21:33:19.000",
    "request_status": "Pending",
    "responsible_agency": "Department of Sanitation",
    "final_address": "208 Hillary St",
    "address_councildis": "A",
    "status": "Assigned to Contractor",
    "contractor": "Richards Disposal",
    "rowid": "918034",
    "final_x": "3660791.92806",
    "final_y": "524467.190908",
    "longitude": "-90.13369247583448",
    "latitude": "29.936715206414828",
    "geocoded_column": {
      "latitude": "29.936715206414828",
      "longitude": "-90.13369247583448"
    }
  },
  {
    "service_request": "2022-918033",
    "request_type": "Trash/Recycling",
    "request_reason": "Missed Trash Pick-Up",
    "date_created": "2022-09-09T21:18:32.000",
    "date_modified": "2022-09-09T21:18:33.000",
    "request_status": "Pending",
    "responsible_agency": "Department of Sanitation",
    "final_address": "5525 Wickfield Dr",
    "address_councildis": "D",
    "status": "Assigned to Contractor",
    "contractor": "Metro Disposal",
    "rowid": "918033",
    "final_x": "3681157.84821",
    "final_y": "553533.398359",
    "longitude": "-90.06838335361276",
    "latitude": "30.01603518763719",
    "geocoded_column": {
      "latitude": "30.01603518763719",
      "longitude": "-90.06838335361276"
    }
  },
  {
    "service_request": "2022-918032",
    "request_type": "Mosquito, Termite & Rodent Control",
    "request_reason": "Mosquito Complaint",
    "date_created": "2022-09-09T21:08:11.000",
    "date_modified": "2022-09-09T21:08:11.000",
    "request_status": "Pending",
    "responsible_agency": "Mosquito, Termite & Rodent Control Board",
    "final_address": "1512 Monroe St",
    "address_councildis": "A",
    "status": "Pending",
    "rowid": "918032",
    "final_x": "3661157.06842",
    "final_y": "530709.243714",
    "longitude": "-90.13233315354378",
    "latitude": "29.953868346051877",
    "geocoded_column": {
      "latitude": "29.953868346051877",
      "longitude": "-90.13233315354378"
    }
  },