[
  {
    "service_request": "2023-1037788",
    "request_type": "Traffic Signals/Signs/Striping/Streetlights",
    "request_reason": "Additional signage",
    "date_created": "2023-09-24T02:00:29.000",
    "date_modified": "2023-09-24T02:00:29.000",
    "request_status": "Pending",
    "responsible_agency": "Department of Public Works",
    "final_address": "1500 BLK Esplanade Ave",
    "address_councildis": "C",
    "status": "Pending",
    "rowid": "1037788",
    "final_x": "3681464.07503",
    "final_y": "536453.588954",
    "longitude": "-90.06801173036015",
    "latitude": "29.969062457447766",
    "geocoded_column": {
      "latitude": "29.969062457447766",
      "longitude": "-90.06801173036015"
    }
  },
  {
    "service_request": "2023-1037787",
    "request_type": "Traffic Signals/Signs/Striping/Streetlights",
    "request_reason": "Street Light Outage/Malfunction",
    "date_created": "2023-09-24T01:11:24.000",
    "date_modified": "2023-09-24T01:11:25.000",
    "request_status": "Pending",
    "responsible_agency": "Department of Public Works",
    "final_address": "1100 BLK Melpomene St",
    "address_councildis": "B",
    "status": "Assigned to Contractor",
    "contractor": "Legacy Professional Services",
    "rowid": "1037787",
    "final_x": "3680261.29659",
    "final_y": "524932.722888",
    "longitude": "-90.07221062915013",
    "latitude": "29.937420426949323",
    "geocoded_column": {
      "latitude": "29.937420426949323",
      "longitude": "-90.07221062915013"
    }
  },
  {
    "service_request": "2023-1037786",
    "request_type": "Trash/Recycling",
    "request_reason": "Request a Large Item Pick Up",
    "date_created": "2023-09-23T23:34:45.000",
    "date_modified": "2023-09-23T23:34:46.000",
    "request_status": "Pending",
    "responsible_agency": "Department of Sanitation",
    "final_address": "2536 General Pershing St",
    "address_councildis": "B",
    "status": "Assigned to Contractor",
    "contractor": "Richards Disposal",
    "rowid": "1037786",
    "final_x": "3670855.98151",
    "final_y": "524361.055548",
    "longitude": "-90.10192331952312",
    "latitude": "29.936129809999056",
    "geocoded_column": {
      "latitude": "29.936129809999056",
      "longitude": "-90.10192331952312"
    }
  },
  {
    "service_request": "2023-1037785",
    "request_type": "Traffic Signals/Signs/Striping/Streetlights",
    "request_reason": "Street Light Outage/Malfunction",
    "date_created": "2023-09-23T22:47:59.000",
    "date_modified": "2023-09-23T22:48:00.000",
    "request_status": "Pending",
    "responsible_agency": "Department of Public Works",
    "final_address": "8200 Palm St",
    "address_councildis": "A",
    "status": "Assigned to Contractor",
    "contractor": "Legacy Professional Services",
    "rowid": "1037785",
    "final_x": "3667251.6322",
    "final_y": "534985.66151",
    "longitude": "-90.11294514425823",
    "latitude": "29.96545003364824",
    "geocoded_column": {
      "latitude": "29.96545003364824",
      "longitude": "-90.11294514425823"
    }
  },
  {
    "service_request": "2023-1037784",
    "request_type": "Trash/Recycling",
    "request_reason": "Order Recycling Cart",
    "date_created": "2023-09-23T22:42:08.000",
    "date_modified": "2023-09-23T22:42:08.000",
    "request_status": "Pending",
    "responsible_agency": "Department of Sanitation",
    "final_address": "2527 St Ann St",
    "address_councildis": "D",
    "status": "Pending",
    "rowid": "1037784",
    "final_x": "3677581.39234",
    "final_y": "536780.41236",
    "longitude": "-90.08026222990229",
    "latitude": "29.970078431829428",
    "geocoded_column": {
      "latitude": "29.970078431829428",
      "longitude": "-90.08026222990229"
    }
  },
  {
    "service_request": "2023-1037783",
    "request_type": "Abandoned Vehicles",
    "request_reason": "Abandoned/Junk Vehicles",
    "date_created": "2023-09-23T22:38:51.000",
    "date_modified": "2023-09-23T22:38:51.000",
    "request_status": "Pending",
    "responsible_agency": "Department of Public Works",
    "final_address": "217 N Prieur St",
    "address_councildis": "B",
    "status": "Pending",
    "rowid": "1037783",
    "final_x": "3677800.92373",
    "final_y": "533987.327749",
    "longitude": "-90.07966543638403",
    "latitude": "29.962391796172422",
    "geocoded_column": {
      "latitude": "29.962391796172422",
      "longitude": "-90.07966543638403"
    }
  },
  {
    "service_request": "2023-1037782",
    "request_type": "Roads/Drainage",
    "request_reason": "Street Subsidence (Sinking)",
    "date_created": "2023-09-23T22:18:15.000",
    "date_modified": "2023-09-23T22:18:15.000",
    "request_status": "Pending",
    "responsible_agency": "Department of Public Works",
    "final_address": "1420 Valence St",
    "address_councildis": "B",
    "status": "Pending",
    "rowid": "1037782",
    "final_x": "3669700.59668",
    "final_y": "520355.41356",
    "longitude": "-90.10570639693285",
    "latitude": "29.925149667961925",
    "geocoded_column": {
      "latitude": "29.925149667961925",
      "longitude": "-90.10570639693285"
    }
  },
  {
    "service_request": "2023-1037781",
    "request_type": "Health Related Request",
    "request_reason": "Noise Ordinance Complaint",
    "date_created": "2023-09-23T22:04:09.000",
    "date_modified": "2023-09-23T22:04:09.000",
    "request_status": "Pending",
    "responsible_agency": "Health Department",
    "final_address": "600 BLK N Broad St",
    "address_councildis": "D",
    "status": "Pending",
    "rowid": "1037781",
    "final_x": "3676564.70556",
    "final_y": "536704.491011",
    "longitude": "-90.08347564771769",
    "latitude": "29.969900206357256",
    "geocoded_column": {
      "latitude": "29.969900206357256",
      "longitude": "-90.08347564771769"
    }
  },
  {
    "service_request": "2023-1037780",
    "request_type": "Abandoned Vehicles",
    "request_reason": "Abandoned/Junk Vehicles",
    "date_created": "2023-09-23T21:48:38.000",
    "date_modified": "2023-09-23T21:48:38.000",
    "request_status": "Pending",
    "responsible_agency": "Department of Public Works",
    "final_address": "ANNETTE ST & TREASURE ST",
    "address_councildis": "D",
    "status": "Pending",
    "rowid": "1037780",
    "final_x": "3682528.4",
    "final_y": "543888.08",
    "longitude": "-90.06439051155014",
    "latitude": "29.98947235114993",
    "geocoded_column": {
      "latitude": "29.98947235114993",
      "longitude": "-90.06439051155014"
    }
  },
  {
    "service_request": "2023-1037779",
    "request_type": "Traffic Signals/Signs/Striping/Streetlights",
    "request_reason": "Street Light Outage/Malfunction",
    "date_created": "2023-09-23T20:25:56.000",
    "date_modified": "2023-09-23T20:25:57.000",
    "request_status": "Pending",
    "responsible_agency": "Department of Public Works",
    "final_address": "800 BLK Foucher St",
    "address_councildis": "B",
    "status": "Assigned to Contractor",
    "contractor": "Legacy Professional Services",
    "rowid": "1037779",
    "final_x": "3674461.17466",
    "final_y": "518432.091204",
    "longitude": "-90.09074459343779",
    "latitude": "29.91972004678556",
    "geocoded_column": {
      "latitude": "29.91972004678556",
      "longitude": "-90.09074459343779"
    }
  },
  {
    "service_request": "2023-1037778",
    "request_type": "Abandoned Vehicles",
    "request_reason": "Vehicle Blocking Your Driveway",
    "date_created": "2023-09-23T19:40:22.000",
    "date_modified": "2023-09-23T19:40:22.000",
    "request_status": "Pending",
    "responsible_agency": "Department of Public Works",
    "final_address": "300 BLK N Johnson St",
    "address_councildis": "B",
    "status": "Pending",
    "rowid": "1037778",
    "final_x": "3677851.93396",
    "final_y": "534438.190098",
    "longitude": "-90.07948877365374",
    "latitude": "29.963629980117368",
    "geocoded_column": {
      "latitude": "29.963629980117368",
      "longitude": "-90.07948877365374"
    }
  },
  {
    "service_request": "2023-1037777",
    "request_type": "Traffic Signals/Signs/Striping/Streetlights",
    "request_reason": "Street Light Outage/Malfunction",
    "date_created": "2023-09-23T19:29:21.000",
    "date_modified": "2023-09-23T19:29:22.000",
    "request_status": "Pending",
    "responsible_agency": "Department of Public Works",
    "final_address": "331 Eliza St",
    "address_councildis": "C",
    "status": "Assigned to Contractor",
    "contractor": "Legacy Professional Services",
    "rowid": "1037777",
    "final_x": "3686575.18332",
    "final_y": "529562.404289",
    "longitude": "-90.05211387305478",
    "latitude": "29.949957894077688",
    "geocoded_column": {
      "latitude": "29.949957894077688",
      "longitude": "-90.05211387305478"
    }
  },
  {
    "service_request": "2023-1037776",
    "request_type": "Roads/Drainage",
    "request_reason": "Road Shoulder Repair",
    "date_created": "2023-09-23T18:54:06.000",
    "date_modified": "2023-09-23T18:54:06.000",
    "request_status": "Pending",
    "responsible_agency": "Department of Public Works",
    "final_address": "1240 S Saratoga St",
    "address_councildis": "B",
    "status": "Pending",
    "rowid": "1037776",
    "final_x": "3677915.88661",
    "final_y": "527114.729535",
    "longitude": "-90.07953987344547",
    "latitude": "29.943490995249125",
    "geocoded_column": {
      "latitude": "29.943490995249125",
      "longitude": "-90.07953987344547"
    }
  },
  {
    "service_request": "2023-1037775",
    "request_type": "Roads/Drainage",
    "request_reason": "Accessibility Ramps, Curbs and Sidewalk Repair",
    "date_created": "2023-09-23T18:42:35.000",
    "date_modified": "2023-09-23T18:42:35.000",
    "request_status": "Pending",
    "responsible_agency": "Department of Public Works",
    "final_address": "1234 S Rampart St",
    "address_councildis": "B",
    "status": "Pending",
    "rowid": "1037775",
    "final_x": "3678139.48936",
    "final_y": "526995.107902",
    "longitude": "-90.07883803607582",
    "latitude": "29.94315534595521",
    "geocoded_column": {
      "latitude": "29.94315534595521",
      "longitude": "-90.07883803607582"
    }
  },
  {
    "service_request": "2023-1037774",
    "request_type": "Roads/Drainage",
    "request_reason": "Accessibility Ramps, Curbs and Sidewalk Repair",
    "date_created": "2023-09-23T18:37:29.000",
    "date_modified": "2023-09-23T18:37:29.000",
    "request_status": "Pending",
    "responsible_agency": "Department of Public Works",
    "final_address": "1238 Simon Bolivar Ave",
    "address_councildis": "B",
    "status": "Pending",
    "rowid": "1037774",
    "final_x": "3677726.68014",
    "final_y": "527245.673727",
    "longitude": "-90.08013272614134",
    "latitude": "29.943856739713727",
    "geocoded_column": {
      "latitude": "29.943856739713727",
      "longitude": "-90.08013272614134"
    }
  },
  {
    "service_request": "2023-1037773",
    "request_type": "Roads/Drainage",
    "request_reason": "Pothole",
    "date_created": "2023-09-23T18:34:20.000",
    "date_modified": "2023-09-23T18:34:20.000",
    "request_status": "Pending",
    "responsible_agency": "Department of Public Works",
    "final_address": "801 Henry Clay Ave",
    "address_councildis": "A",
    "status": "Pending",
    "rowid": "1037773",
    "final_x": "3663886.70208",
    "final_y": "519665.014968",
    "longitude": "-90.12408208507878",
    "latitude": "29.92342128167053",
    "geocoded_column": {
      "latitude": "29.92342128167053",
      "longitude": "-90.12408208507878"
    }
  },
  {
    "service_request": "2023-1037772",
    "request_type": "Trash/Recycling",
    "request_reason": "Illegal Dumping",
    "date_created": "2023-09-23T18:29:55.000",
    "date_modified": "2023-09-23T18:29:55.000",
    "request_status": "Pending",
    "responsible_agency": "Department of Sanitation",
    "final_address": "2000 Earhart Blvd",
    "address_councildis": "B",
    "status": "Pending",
    "rowid": "1037772",
    "final_x": "3678032.89794",
    "final_y": "527548.163711",
    "longitude": "-90.07915545960367",
    "latitude": "29.944679274323157",
    "geocoded_column": {
      "latitude": "29.944679274323157",
      "longitude": "-90.07915545960367"
    }
  },
  {
    "service_request": "2023-1037771",
    "request_type": "Trash/Recycling",
    "request_reason": "Request a Large Item Pick Up",
    "date_created": "2023-09-23T18:22:41.000",
    "date_modified": "2023-09-23T18:22:42.000",
    "request_status": "Pending",
    "responsible_agency": "Department of Sanitation",
    "final_address": "405 Andry St",
    "address_councildis": "E",
    "status": "Assigned to Contractor",
    "contractor": "Waste Pro",
    "rowid": "1037771",
    "final_x": "3696558.93578",
    "final_y": "531628.336131",
    "longitude": "-90.0205159594369",
    "latitude": "29.95532775245442",
    "geocoded_column": {
      "latitude": "29.95532775245442",
      "longitude": "-90.0205159594369"
    }
  },
  {
    "service_request": "2023-1037770",
    "request_type": "Mosquito, Termite & Rodent Control",
    "request_reason": "Non-Rodent Complaint (Mice, Possums, Snakes)",
    "date_created": "2023-09-23T18:17:17.000",
    "date_modified": "2023-09-23T18:17:17.000",
    "request_status": "Pending",
    "responsible_agency": "Mosquito, Termite & Rodent Control Board",
    "final_address": "500 BLK First St",
    "address_councildis": "B",
    "status": "Pending",
    "rowid": "1037770",
    "final_x": "3679143.31294",
    "final_y": "519888.655877",
    "longitude": "-90.07591493108947",
    "latitude": "29.923584682507133",
    "geocoded_column": {
      "latitude": "29.923584682507133",
      "longitude": "-90.07591493108947"
    }
  },
  {
    "service_request": "2023-1037769",
    "request_type": "Trash/Recycling",
    "request_reason": "MIssed Recycling Pick-Up",
    "date_created": "2023-09-23T18:02:41.000",
    "date_modified": "2023-09-23T18:02:42.000",
    "request_status": "Pending",
    "responsible_agency": "Department of Sanitation",
    "final_address": "7815 Sycamore St",
    "address_councildis": "A",
    "status": "Assigned to Contractor",
    "contractor": "Richards Disposal",
    "rowid": "1037769",
    "final_x": "3665087.44647",
    "final_y": "530334.149314",
    "longitude": "-90.11993512751049",
    "latitude": "29.952723098160835",
    "geocoded_column": {
      "latitude": "29.952723098160835",
      "longitude": "-90.11993512751049"
    }
  },
  {
    "service_request": "2023-1037768",
    "request_type": "EMS",
    "request_reason": "EMS Compliment",
    "date_created": "2023-09-23T17:55:39.000",
    "date_modified": "2023-09-23T17:55:40.000",
    "request_status": "Pending",
    "responsible_agency": "Emergency Medical Services",
    "final_address": "11325 Curran Rd",
    "address_councildis": "E",
    "status": "Pending",
    "rowid": "1037768",
    "final_x": "3711257.37259",
    "final_y": "566686.607075",
    "longitude": "-89.9727897048572",
    "latitude": "30.05125328291266",
    "geocoded_column": {
      "latitude": "30.05125328291266",
      "longitude": "-89.9727897048572"
    }
  },
  {
    "service_request": "2023-1037767",
    "request_type": "Parks & Parkways",
    "request_reason": "Request Grass Cutting Service (City Owned Property)",
    "date_created": "2023-09-23T17:42:35.000",
    "date_modified": "2023-09-23T17:42:35.000",
    "request_status": "Pending",
    "responsible_agency": "Department of Parks & Parkway",
    "final_address": "2300 Fats Domino Ave",
    "address_councildis": "E",
    "status": "Pending",
    "rowid": "1037767",
    "final_x": "3699192.72004",
    "final_y": "538305.073929",
    "longitude": "-90.0119563588932",
    "latitude": "29.97360315701651",
    "geocoded_column": {
      "latitude": "29.97360315701651",
      "longitude": "-90.0119563588932"
    }
  },
  {
    "service_request": "2023-1037766",
    "request_type": "Trash/Recycling",
    "request_reason": "Request a Large Item Pick Up",
    "date_created": "2023-09-23T17:24:57.000",
    "date_modified": "2023-09-23T17:24:58.000",
    "request_status": "Pending",
    "responsible_agency": "Department of Sanitation",
    "final_address": "7929 Freret St",
    "address_councildis": "A",
    "status": "Assigned to Contractor",
    "contractor": "Richards Disposal",
    "rowid": "1037766",
    "final_x": "3661926.85114",
    "final_y": "527522.518655",
    "longitude": "-90.13000815603785",
    "latitude": "29.9450836666227",
    "geocoded_column": {
      "latitude": "29.9450836666227",
      "longitude": "-90.13000815603785"
    }
  },
  {
    "service_request": "2023-1037764",
    "request_type": "Roads/Drainage",
    "request_reason": "Street Subsidence (Sinking)",
    "date_created": "2023-09-23T17:01:23.000",
    "date_modified": "2023-09-23T17:01:23.000",
    "request_status": "Pending",
    "responsible_agency": "Department of Public Works",
    "final_address": "4809 Clio St",
    "address_councildis": "B",
    "status": "Pending",
    "rowid": "1037764",
    "final_x": "3669364.0619",
    "final_y": "532928.559748",
    "longitude": "-90.10634372995506",
    "latitude": "29.959731653651744",
    "geocoded_column": {
      "latitude": "29.959731653651744",
      "longitude": "-90.10634372995506"
    }
  },
  {
    "service_request": "2023-1037763",
    "request_type": "Abandoned Vehicles",
    "request_reason": "Abandoned/Junk Vehicles",
    "date_created": "2023-09-23T16:57:22.000",
    "date_modified": "2023-09-23T16:57:22.000",
    "request_status": "Pending",
    "responsible_agency": "Department of Public Works",
    "final_address": "7005 Edinburgh St",
    "address_councildis": "B",
    "status": "Pending",
    "rowid": "1037763",
    "final_x": "3669151.8251",
    "final_y": "532990.016132",
    "longitude": "-90.10701185084126",
    "latitude": "29.959906885778885",
    "geocoded_column": {
      "latitude": "29.959906885778885",
      "longitude": "-90.10701185084126"
    }
  },
  {
    "service_request": "2023-1037762",
    "request_type": "Abandoned Vehicles",
    "request_reason": "Abandoned/Junk Vehicles",
    "date_created": "2023-09-23T16:55:00.000",
    "date_modified": "2023-09-23T16:55:00.000",
    "request_status": "Pending",
    "responsible_agency": "Department of Public Works",
    "final_address": "7005 Edinburgh St",
    "address_councildis": "B",
    "status": "Pending",
    "rowid": "1037762",
    "final_x": "3669151.8251",
    "final_y": "532990.016132",
    "longitude": "-90.10701185084126",
    "latitude": "29.959906885778885",
    "geocoded_column": {
      "latitude": "29.959906885778885",
      "longitude": "-90.10701185084126"
    }
  },
  {
    "service_request": "2023-1037761",
    "request_type": "Traffic Signals/Signs/Striping/Streetlights",
    "request_reason": "Street Light Outage/Malfunction",
    "date_created": "2023-09-23T16:41:04.000",
    "date_modified": "2023-09-23T16:41:05.000",
    "request_status": "Pending",
    "responsible_agency": "Department of Public Works",
    "final_address": "1567 Maura Pl",
    "address_councildis": "C",
    "status": "Assigned to Contractor",
    "contractor": "Legacy Professional Services",
    "rowid": "1037761",
    "final_x": "3699194.83517",
    "final_y": "525179.729725",
    "longitude": "-90.01242753696253",
    "latitude": "29.93751304349365",
    "geocoded_column": {
      "latitude": "29.93751304349365",
      "longitude": "-90.01242753696253"
    }
  },
  {
    "service_request": "2023-1037760",
    "request_type": "Traffic Signals/Signs/Striping/Streetlights",
    "request_reason": "Street Light Outage/Malfunction",
    "date_created": "2023-09-23T16:35:11.000",
    "date_modified": "2023-09-23T16:35:12.000",
    "request_status": "Pending",
    "responsible_agency": "Department of Public Works",
    "final_address": "2935 Danbury Dr",
    "address_councildis": "C",
    "status": "Assigned to Contractor",
    "contractor": "Legacy Professional Services",
    "rowid": "1037760",
    "final_x": "3703754.71454",
    "final_y": "519946.74188",
    "longitude": "-89.99822428154754",
    "latitude": "29.922978826983368",
    "geocoded_column": {
      "latitude": "29.922978826983368",
      "longitude": "-89.99822428154754"
    }
  },
  {
    "service_request": "2023-1037759",
    "request_type": "Property Maintenance",
    "request_reason": "Property Maintenance",
    "date_created": "2023-09-23T16:32:24.000",
    "date_modified": "2023-09-23T16:32:24.000",
    "request_status": "Pending",
    "responsible_agency": "Department of Code Enforcement",
    "final_address": "514 Josephine St",
    "address_councildis": "B",
    "status": "Pending",
    "rowid": "1037759",
    "final_x": "3680423.20194",
    "final_y": "520618.730808",
    "longitude": "-90.07184942425235",
    "latitude": "29.92555346826006",
    "geocoded_column": {
      "latitude": "29.92555346826006",
      "longitude": "-90.07184942425235"
    }
  },
  {
    "service_request": "2023-1037758",
    "request_type": "Roads/Drainage",
    "request_reason": "Pothole",
    "date_created": "2023-09-23T16:10:44.000",
    "date_modified": "2023-09-23T16:10:44.000",
    "request_status": "Pending",
    "responsible_agency": "Department of Public Works",
    "final_address": "6306 Prytania St",
    "address_councildis": "A",
    "status": "Pending",
    "rowid": "1037758",
    "final_x": "3664024.77812",
    "final_y": "521278.310777",
    "longitude": "-90.12359246301736",
    "latitude": "29.927853331549347",
    "geocoded_column": {
      "latitude": "29.927853331549347",
      "longitude": "-90.12359246301736"
    }
  },
  {
    "service_request": "2023-1037757",
    "request_type": "Roads/Drainage",
    "request_reason": "Damaged Sidewalk",
    "date_created": "2023-09-23T16:04:20.000",
    "date_modified": "2023-09-23T16:04:20.000",
    "request_status": "Pending",
    "responsible_agency": "Department of Public Works",
    "final_address": "5923 Pitt St",
    "address_councildis": "A",
    "status": "Pending",
    "rowid": "1037757",
    "final_x": "3665490.05639",
    "final_y": "521140.942649",
    "longitude": "-90.11897149996602",
    "latitude": "29.92743299392239",
    "geocoded_column": {
      "latitude": "29.92743299392239",
      "longitude": "-90.11897149996602"
    }
  },
  {
    "service_request": "2023-1037756",
    "request_type": "Roads/Drainage",
    "request_reason": "Pothole",
    "date_created": "2023-09-23T15:54:48.000",
    "date_modified": "2023-09-23T15:54:48.000",
    "request_status": "Pending",
    "responsible_agency": "Department of Public Works",
    "final_address": "5819 Perrier St",
    "address_councildis": "A",
    "status": "Pending",
    "rowid": "1037756",
    "final_x": "3665636.55476",
    "final_y": "520411.88588",
    "longitude": "-90.11853343866198",
    "latitude": "29.925424047740474",
    "geocoded_column": {
      "latitude": "29.925424047740474",
      "longitude": "-90.11853343866198"
    }
  },
  {
    "service_request": "2023-1037755",
    "request_type": "Roads/Drainage",
    "request_reason": "Street Subsidence (Sinking)",
    "date_created": "2023-09-23T15:31:52.000",
    "date_modified": "2023-09-23T15:31:52.000",
    "request_status": "Pending",
    "responsible_agency": "Department of Public Works",
    "final_address": "5717 Hurst St",
    "address_councildis": "A",
    "status": "Pending",
    "rowid": "1037755",
    "final_x": "3666238.39418",
    "final_y": "521686.968249",
    "longitude": "-90.11659087061466",
    "latitude": "29.928912562979253",
    "geocoded_column": {
      "latitude": "29.928912562979253",
      "longitude": "-90.11659087061466"
    }
  },
  {
    "service_request": "2023-1037754",
    "request_type": "Roads/Drainage",
    "request_reason": "Street Subsidence (Sinking)",
    "date_created": "2023-09-23T15:28:40.000",
    "date_modified": "2023-09-23T15:28:40.000",
    "request_status": "Pending",
    "responsible_agency": "Department of Public Works",
    "status": "Pending",
    "rowid": "1037754",
    "longitude": "0.0",
    "latitude": "0.0",
    "geocoded_column": {
      "latitude": "0.0",
      "longitude": "0.0"
    }
  },
  {
    "service_request": "2023-1037753",
    "request_type": "Trash/Recycling",
    "request_reason": "Order Trash Cart",
    "date_created": "2023-09-23T15:23:00.000",
    "date_modified": "2023-09-23T15:23:01.000",
    "request_status": "Pending",
    "responsible_agency": "Department of Sanitation",
    "final_address": "3626 Buchanan St",
    "address_councildis": "D",
    "status": "Assigned to Contractor",
    "contractor": "IV Waste",
    "rowid": "1037753",
    "final_x": "3677372.37883",
    "final_y": "545533.891024",
    "longitude": "-90.08062008835343",
    "latitude": "29.99415375133953",
    "geocoded_column": {
      "latitude": "29.99415375133953",
      "longitude": "-90.08062008835343"
    }
  },
  {
    "service_request": "2023-1037752",
    "request_type": "Trash/Recycling",
    "request_reason": "Order Trash Cart",
    "date_created": "2023-09-23T15:21:24.000",
    "date_modified": "2023-09-23T15:21:24.000",
    "request_status": "Pending",
    "responsible_agency": "Department of Sanitation",
    "final_address": "3624 Buchanan St",
    "address_councildis": "D",
    "status": "Assigned to Contractor",
    "contractor": "IV Waste",
    "rowid": "1037752",
    "final_x": "3677373.4205",
    "final_y": "545519.307728",
    "longitude": "-90.0806173014923",
    "latitude": "29.994113621081652",
    "geocoded_column": {
      "latitude": "29.994113621081652",
      "longitude": "-90.0806173014923"
    }
  },
  {
    "service_request": "2023-1037751",
    "request_type": "Trash/Recycling",
    "request_reason": "Missed Trash Pick-Up",
    "date_created": "2023-09-23T15:15:43.000",
    "date_modified": "2023-09-23T15:15:43.000",
    "request_status": "Pending",
    "responsible_agency": "Department of Sanitation",
    "final_address": "6554 Oakland Dr",
    "address_councildis": "A",
    "status": "Assigned to Contractor",
    "contractor": "Richards Disposal",
    "rowid": "1037751",
    "final_x": "3666570.83668",
    "final_y": "540400.276683",
    "longitude": "-90.11491325164026",
    "latitude": "29.98035833880614",
    "geocoded_column": {
      "latitude": "29.98035833880614",
      "longitude": "-90.11491325164026"
    }
  },
  {
    "service_request": "2023-1037750",
    "request_type": "Trash/Recycling",
    "request_reason": "Missed Trash Pick-Up",
    "date_created": "2023-09-23T15:14:46.000",
    "date_modified": "2023-09-23T15:14:47.000",
    "request_status": "Pending",
    "responsible_agency": "Department of Sanitation",
    "final_address": "6554 Oakland Dr",
    "address_councildis": "A",
    "status": "Assigned to Contractor",
    "contractor": "Richards Disposal",
    "rowid": "1037750",
    "final_x": "3666570.83668",
    "final_y": "540400.276683",
    "longitude": "-90.11491325164026",
    "latitude": "29.98035833880614",
    "geocoded_column": {
      "latitude": "29.98035833880614",
      "longitude": "-90.11491325164026"
    }
  },
  {
    "service_request": "2023-1037749",
    "request_type": "Trash/Recycling",
    "request_reason": "Request a Large Item Pick Up",
    "date_created": "2023-09-23T15:11:32.000",
    "date_modified": "2023-09-23T15:11:33.000",
    "request_status": "Pending",
    "responsible_agency": "Department of Sanitation",
    "final_address": "2800 St Ann St",
    "address_councildis": "A",
    "status": "Assigned to Contractor",
    "contractor": "Richards Disposal",
    "rowid": "1037749",
    "final_x": "3676430.1323",
    "final_y": "537554.225672",
    "longitude": "-90.08387138106754",
    "latitude": "29.972240722494263",
    "geocoded_column": {
      "latitude": "29.972240722494263",
      "longitude": "-90.08387138106754"
    }
  },
  {
    "service_request": "2023-1037748",
    "request_type": "Traffic Signals/Signs/Striping/Streetlights",
    "request_reason": "Street Light Outage/Malfunction",
    "date_created": "2023-09-23T14:55:47.000",
    "date_modified": "2023-09-23T14:55:48.000",
    "request_status": "Pending",
    "responsible_agency": "Department of Public Works",
    "final_address": "1400 BLK Interstate 10",
    "address_councildis": "E",
    "status": "Assigned to Contractor",
    "contractor": "Legacy Professional Services",
    "rowid": "1037748",
    "final_x": "3698464.62567",
    "final_y": "555019.67026",
    "longitude": "-90.01364785129545",
    "latitude": "30.01958517728074",
    "geocoded_column": {
      "latitude": "30.01958517728074",
      "longitude": "-90.01364785129545"
    }
  },
  {
    "service_request": "2023-1037747",
    "request_type": "Traffic Signals/Signs/Striping/Streetlights",
    "request_reason": "Street Light Outage/Malfunction",
    "date_created": "2023-09-23T14:53:25.000",
    "date_modified": "2023-09-23T14:53:26.000",
    "request_status": "Pending",
    "responsible_agency": "Department of Public Works",
    "final_address": "1300 BLK Interstate 10",
    "address_councildis": "E",
    "status": "Assigned to Contractor",
    "contractor": "Legacy Professional Services",
    "rowid": "1037747",
    "final_x": "3699327.11214",
    "final_y": "557437.803219",
    "longitude": "-90.01083451206995",
    "latitude": "30.026206777548893",
    "geocoded_column": {
      "latitude": "30.026206777548893",
      "longitude": "-90.01083451206995"
    }
  },
  {
    "service_request": "2023-1037745",
    "request_type": "Trash/Recycling",
    "request_reason": "Request a Large Item Pick Up",
    "date_created": "2023-09-23T14:34:46.000",
    "date_modified": "2023-09-23T14:34:46.000",
    "request_status": "Pending",
    "responsible_agency": "Department of Sanitation",
    "final_address": "8009 Vanderkloot Ave",
    "address_councildis": "E",
    "status": "Assigned to Contractor",
    "contractor": "Waste Pro",
    "rowid": "1037745",
    "final_x": "3705390.98705",
    "final_y": "564316.570273",
    "longitude": "-89.99141900491878",
    "latitude": "30.044926849203407",
    "geocoded_column": {
      "latitude": "30.044926849203407",
      "longitude": "-89.99141900491878"
    }
  },
  {
    "service_request": "2023-1037744",
    "request_type": "Trash/Recycling",
    "request_reason": "Dead Animal Pick Up",
    "date_created": "2023-09-23T14:29:26.000",
    "date_modified": "2023-09-23T14:29:27.000",
    "request_status": "Pending",
    "responsible_agency": "Department of Sanitation",
    "final_address": "1311 Ursulines Ave",
    "address_councildis": "C",
    "status": "Assigned to Contractor",
    "contractor": "Richards Disposal",
    "rowid": "1037744",
    "final_x": "3681633.93327",
    "final_y": "535076.034822",
    "longitude": "-90.06752336565486",
    "latitude": "29.96526949845662",
    "geocoded_column": {
      "latitude": "29.96526949845662",
      "longitude": "-90.06752336565486"
    }
  },
  {
    "service_request": "2023-1037743",
    "request_type": "Abandoned Vehicles",
    "request_reason": "Abandoned/Junk Vehicles",
    "date_created": "2023-09-23T14:19:06.000",
    "date_modified": "2023-09-23T14:19:06.000",
    "request_status": "Pending",
    "responsible_agency": "Department of Public Works",
    "final_address": "4160 Orleans Ave",
    "address_councildis": "A",
    "status": "Pending",
    "rowid": "1037743",
    "final_x": "3672171.21223",
    "final_y": "540327.509003",
    "longitude": "-90.09722731747877",
    "latitude": "29.97999331879271",
    "geocoded_column": {
      "latitude": "29.97999331879271",
      "longitude": "-90.09722731747877"
    }
  },
  {
    "service_request": "2023-1037742",
    "request_type": "Utility Poles",
    "request_reason": "Utility Pole Leaning",
    "date_created": "2023-09-23T14:16:03.000",
    "date_modified": "2023-09-23T14:16:05.000",
    "request_status": "Pending",
    "responsible_agency": "Utility Company Collective",
    "final_address": "218 Bellaire Dr",
    "address_councildis": "A",
    "status": "Pending",
    "rowid": "1037742",
    "final_x": "3663835.37549",
    "final_y": "540911.335051",
    "longitude": "-90.1235360025507",
    "latitude": "29.981843274788503",
    "geocoded_column": {
      "latitude": "29.981843274788503",
      "longitude": "-90.1235360025507"
    }
  },
  {
    "service_request": "2023-1037741",
    "request_type": "Trash/Recycling",
    "request_reason": "Start Trash Service",
    "date_created": "2023-09-23T14:02:37.000",
    "date_modified": "2023-09-23T14:02:38.000",
    "request_status": "Pending",
    "responsible_agency": "Department of Sanitation",
    "final_address": "7833 Green St",
    "address_councildis": "A",
    "status": "Assigned to Contractor",
    "contractor": "Richards Disposal",
    "rowid": "1037741",
    "final_x": "3663791.99463",
    "final_y": "529134.62912",
    "longitude": "-90.12406557511945",
    "latitude": "29.949462462180833",
    "geocoded_column": {
      "latitude": "29.949462462180833",
      "longitude": "-90.12406557511945"
    }
  },
  {
    "service_request": "2023-1037740",
    "request_type": "Roads/Drainage",
    "request_reason": "Pothole",
    "date_created": "2023-09-23T13:50:09.000",
    "date_modified": "2023-09-23T13:50:09.000",
    "request_status": "Pending",
    "responsible_agency": "Department of Public Works",
    "final_address": "6021 Coliseum St",
    "address_councildis": "A",
    "status": "Pending",
    "rowid": "1037740",
    "final_x": "3664837.14196",
    "final_y": "520295.634808",
    "longitude": "-90.12106082921962",
    "latitude": "29.925127673780054",
    "geocoded_column": {
      "latitude": "29.925127673780054",
      "longitude": "-90.12106082921962"
    }
  },
  {
    "service_request": "2023-1037739",
    "request_type": "Roads/Drainage",
    "request_reason": "Pothole",
    "date_created": "2023-09-23T13:48:00.000",
    "date_modified": "2023-09-23T13:48:00.000",
    "request_status": "Pending",
    "responsible_agency": "Department of Public Works",
    "final_address": "6070 Chestnut St",
    "address_councildis": "A",
    "status": "Pending",
    "rowid": "1037739",
    "final_x": "3664412.78983",
    "final_y": "519991.592952",
    "longitude": "-90.12241052146828",
    "latitude": "29.92430399204139",
    "geocoded_column": {
      "latitude": "29.92430399204139",
      "longitude": "-90.12241052146828"
    }
  },
  {
    "service_request": "2023-1037738",
    "request_type": "Roads/Drainage",
    "request_reason": "Pothole",
    "date_created": "2023-09-23T13:45:48.000",
    "date_modified": "2023-09-23T13:45:48.000",
    "request_status": "Pending",
    "responsible_agency": "Department of Public Works",
    "final_address": "5823 Perrier St",
    "address_councildis": "A",
    "status": "Pending",
    "rowid": "1037738",
    "final_x": "3665601.07367",
    "final_y": "520421.208184",
    "longitude": "-90.11864512991228",
    "latitude": "29.92545071542357",
    "geocoded_column": {
      "latitude": "29.92545071542357",
      "longitude": "-90.11864512991228"
    }
  },
  {
    "service_request": "2023-1037737",
    "request_type": "Roads/Drainage",
    "request_reason": "Pothole",
    "date_created": "2023-09-23T13:44:39.000",
    "date_modified": "2023-09-23T13:44:39.000",
    "request_status": "Pending",
    "responsible_agency": "Department of Public Works",
    "final_address": "1535 Eleonore St",
    "address_councildis": "A",
    "status": "Pending",
    "rowid": "1037737",
    "final_x": "3665918.4144",
    "final_y": "521978.285498",
    "longitude": "-90.11759122912662",
    "latitude": "29.929722932149655",
    "geocoded_column": {
      "latitude": "29.929722932149655",
      "longitude": "-90.11759122912662"
    }
  },
  {
    "service_request": "2023-1037736",
    "request_type": "Roads/Drainage",
    "request_reason": "Pothole",
    "date_created": "2023-09-23T13:43:57.000",
    "date_modified": "2023-09-23T13:43:57.000",
    "request_status": "Pending",
    "responsible_agency": "Department of Public Works",
    "final_address": "6021 Chestnut St",
    "address_councildis": "A",
    "status": "Pending",
    "rowid": "1037736",
    "final_x": "3664745.26426",
    "final_y": "519956.262904",
    "longitude": "-90.121362190079",
    "latitude": "29.92419718007877",
    "geocoded_column": {
      "latitude": "29.92419718007877",
      "longitude": "-90.121362190079"
    }
  },
  {
    "service_request": "2023-1037735",
    "request_type": "Property Maintenance",
    "request_reason": "Property Maintenance",
    "date_created": "2023-09-23T13:39:41.000",
    "date_modified": "2023-09-23T13:39:41.000",
    "request_status": "Pending",
    "responsible_agency": "Department of Code Enforcement",
    "final_address": "7020 Yorktown Dr",
    "address_councildis": "E",
    "status": "Pending",
    "rowid": "1037735",
    "final_x": "3706147.81329",
    "final_y": "560502.181534",
    "longitude": "-89.98916851462484",
    "latitude": "30.034414396719963",
    "geocoded_column": {
      "latitude": "30.034414396719963",
      "longitude": "-89.98916851462484"
    }
  },
  {
    "service_request": "2023-1037734",
    "request_type": "Abandoned Vehicles",
    "request_reason": "Abandoned/Junk Vehicles",
    "date_created": "2023-09-23T13:35:49.000",
    "date_modified": "2023-09-23T13:35:49.000",
    "request_status": "Pending",
    "responsible_agency": "Department of Public Works",
    "final_address": "8831 Middleboro Rd",
    "address_councildis": "E",
    "status": "Pending",
    "rowid": "1037734",
    "final_x": "3705974.07377",
    "final_y": "560818.115038",
    "longitude": "-89.98970584378415",
    "latitude": "30.035288692484748",
    "geocoded_column": {
      "latitude": "30.035288692484748",
      "longitude": "-89.98970584378415"
    }
  },
  {
    "service_request": "2023-1037733",
    "request_type": "Property Maintenance",
    "request_reason": "Property Maintenance",
    "date_created": "2023-09-23T13:31:06.000",
    "date_modified": "2023-09-23T13:31:06.000",
    "request_status": "Pending",
    "responsible_agency": "Department of Code Enforcement",
    "final_address": "3009 Robert St",
    "address_councildis": "B",
    "status": "Pending",
    "rowid": "1037733",
    "final_x": "3668951.27905",
    "final_y": "526434.865854",
    "longitude": "-90.10786651499177",
    "latitude": "29.94188826621667",
    "geocoded_column": {
      "latitude": "29.94188826621667",
      "longitude": "-90.10786651499177"
    }
  },
  {
    "service_request": "2023-1037732",
    "request_type": "Property Maintenance",
    "request_reason": "Property Maintenance",
    "date_created": "2023-09-23T13:27:34.000",
    "date_modified": "2023-09-23T13:27:34.000",
    "request_status": "Pending",
    "responsible_agency": "Department of Code Enforcement",
    "final_address": "3011 Robert St",
    "address_councildis": "B",
    "status": "Pending",
    "rowid": "1037732",
    "final_x": "3668949.46196",
    "final_y": "526449.765502",
    "longitude": "-90.10787174884175",
    "latitude": "29.941929288862852",
    "geocoded_column": {
      "latitude": "29.941929288862852",
      "longitude": "-90.10787174884175"
    }
  },
  {
    "service_request": "2023-1037731",
    "request_type": "Abandoned Vehicles",
    "request_reason": "Abandoned/Junk Vehicles",
    "date_created": "2023-09-23T13:10:16.000",
    "date_modified": "2023-09-23T13:10:16.000",
    "request_status": "Pending",
    "responsible_agency": "Department of Public Works",
    "final_address": "4900 Music St",
    "address_councildis": "D",
    "status": "Pending",
    "rowid": "1037731",
    "final_x": "3685543.25218",
    "final_y": "550878.063573",
    "longitude": "-90.05462107359982",
    "latitude": "30.008600141483797",
    "geocoded_column": {
      "latitude": "30.008600141483797",
      "longitude": "-90.05462107359982"
    }
  },
  {
    "service_request": "2023-1037730",
    "request_type": "Trash/Recycling",
    "request_reason": "Missed Trash Pick-Up",
    "date_created": "2023-09-23T12:58:31.000",
    "date_modified": "2023-09-23T12:58:31.000",
    "request_status": "Pending",
    "responsible_agency": "Department of Sanitation",
    "final_address": "6204 Delord St",
    "address_councildis": "A",
    "status": "Assigned to Contractor",
    "contractor": "Richards Disposal",
    "rowid": "1037730",
    "final_x": "3666478.50541",
    "final_y": "526238.534974",
    "longitude": "-90.11568019583902",
    "latitude": "29.941420905889096",
    "geocoded_column": {
      "latitude": "29.941420905889096",
      "longitude": "-90.11568019583902"
    }
  },
  {
    "service_request": "2023-1037729",
    "request_type": "Trash/Recycling",
    "request_reason": "Request a Large Item Pick Up",
    "date_created": "2023-09-23T12:33:08.000",
    "date_modified": "2023-09-23T12:33:09.000",
    "request_status": "Pending",
    "responsible_agency": "Department of Sanitation",
    "final_address": "816 Third St",
    "address_councildis": "B",
    "status": "Assigned to Contractor",
    "contractor": "Richards Disposal",
    "rowid": "1037729",
    "final_x": "3678066.05518",
    "final_y": "520357.310968",
    "longitude": "-90.07929924640788",
    "latitude": "29.924905793381352",
    "geocoded_column": {
      "latitude": "29.924905793381352",
      "longitude": "-90.07929924640788"
    }
  },
  {
    "service_request": "2023-1037728",
    "request_type": "Abandoned Vehicles",
    "request_reason": "Abandoned/Junk Vehicles",
    "date_created": "2023-09-23T12:16:15.000",
    "date_modified": "2023-09-23T12:16:15.000",
    "request_status": "Pending",
    "responsible_agency": "Department of Public Works",
    "final_address": "604 Tupelo St",
    "address_councildis": "E",
    "status": "Pending",
    "rowid": "1037728",
    "final_x": "3698786.3144",
    "final_y": "531636.061507",
    "longitude": "-90.01348247337211",
    "latitude": "29.955278636323474",
    "geocoded_column": {
      "latitude": "29.955278636323474",
      "longitude": "-90.01348247337211"
    }
  },
  {
    "service_request": "2023-1037727",
    "request_type": "Abandoned Vehicles",
    "request_reason": "Abandoned/Junk Vehicles",
    "date_created": "2023-09-23T12:16:02.000",
    "date_modified": "2023-09-23T12:16:02.000",
    "request_status": "Pending",
    "responsible_agency": "Department of Public Works",
    "final_address": "3236 Orleans Ave",
    "address_councildis": "A",
    "status": "Pending",
    "rowid": "1037727",
    "final_x": "3674733.44181",
    "final_y": "538476.729161",
    "longitude": "-90.08919819147968",
    "latitude": "29.97482805601622",
    "geocoded_column": {
      "latitude": "29.97482805601622",
      "longitude": "-90.08919819147968"
    }
  },
  {
    "service_request": "2023-1037726",
    "request_type": "Trash/Recycling",
    "request_reason": "Replace Trash Cart",
    "date_created": "2023-09-23T11:59:25.000",
    "date_modified": "2023-09-23T11:59:26.000",
    "request_status": "Pending",
    "responsible_agency": "Department of Sanitation",
    "final_address": "7416 Ebbtide Dr",
    "address_councildis": "E",
    "status": "Assigned to Contractor",
    "contractor": "Waste Pro",
    "rowid": "1037726",
    "final_x": "3702373.52714",
    "final_y": "560825.026654",
    "longitude": "-90.00108383511044",
    "latitude": "30.035423295570673",
    "geocoded_column": {
      "latitude": "30.035423295570673",
      "longitude": "-90.00108383511044"
    }
  },
  {
    "service_request": "2023-1037725",
    "request_type": "Trash/Recycling",
    "request_reason": "MIssed Recycling Pick-Up",
    "date_created": "2023-09-23T11:58:20.000",
    "date_modified": "2023-09-23T11:58:21.000",
    "request_status": "Pending",
    "responsible_agency": "Department of Sanitation",
    "status": "Assigned to Contractor",
    "rowid": "1037725",
    "longitude": "0.0",
    "latitude": "0.0",
    "geocoded_column": {
      "latitude": "0.0",
      "longitude": "0.0"
    }
  },
  {
    "service_request": "2023-1037724",
    "request_type": "Trash/Recycling",
    "request_reason": "Replace Trash Cart",
    "date_created": "2023-09-23T11:56:54.000",
    "date_modified": "2023-09-23T11:56:55.000",
    "request_status": "Pending",
    "responsible_agency": "Department of Sanitation",
    "final_address": "6724 Vicksburg St",
    "address_councildis": "A",
    "status": "Assigned to Contractor",
    "contractor": "IV Waste",
    "rowid": "1037724",
    "final_x": "3669231.95796",
    "final_y": "552201.143446",
    "longitude": "-90.10610907531861",
    "latitude": "30.01272857120559",
    "geocoded_column": {
      "latitude": "30.01272857120559",
      "longitude": "-90.10610907531861"
    }
  },
  {
    "service_request": "2023-1037722",
    "request_type": "Trash/Recycling",
    "request_reason": "Repair Recycling Cart",
    "date_created": "2023-09-23T11:18:17.000",
    "date_modified": "2023-09-23T11:18:17.000",
    "request_status": "Pending",
    "responsible_agency": "Department of Sanitation",
    "final_address": "4737 Loyola Ave",
    "address_councildis": "B",
    "status": "Pending",
    "rowid": "1037722",
    "final_x": "3669201.10868",
    "final_y": "522940.357563",
    "longitude": "-90.10719580875",
    "latitude": "29.93227214455398",
    "geocoded_column": {
      "latitude": "29.93227214455398",
      "longitude": "-90.10719580875"
    }
  },
  {
    "service_request": "2023-1037721",
    "request_type": "Trash/Recycling",
    "request_reason": "Request a Large Item Pick Up",
    "date_created": "2023-09-23T11:08:00.000",
    "date_modified": "2023-09-23T11:08:01.000",
    "request_status": "Pending",
    "responsible_agency": "Department of Sanitation",
    "final_address": "1467 Mithra St",
    "address_councildis": "D",
    "status": "Assigned to Contractor",
    "contractor": "IV Waste",
    "rowid": "1037721",
    "final_x": "3678045.46517",
    "final_y": "552222.308502",
    "longitude": "-90.07826248107278",
    "latitude": "30.0125242707525",
    "geocoded_column": {
      "latitude": "30.0125242707525",
      "longitude": "-90.07826248107278"
    }
  },
  {
    "service_request": "2023-1037720",
    "request_type": "Roads/Drainage",
    "request_reason": "Street Flooding / Drainage",
    "date_created": "2023-09-23T11:04:50.000",
    "date_modified": "2023-09-23T11:04:50.000",
    "request_status": "Pending",
    "responsible_agency": "Department of Public Works",
    "final_address": "2424 Royal St",
    "address_councildis": "C",
    "status": "Pending",
    "rowid": "1037720",
    "final_x": "3686109.60489",
    "final_y": "534922.923462",
    "longitude": "-90.05339485288546",
    "latitude": "29.964711785653222",
    "geocoded_column": {
      "latitude": "29.964711785653222",
      "longitude": "-90.05339485288546"
    }
  },
  {
    "service_request": "2023-1037719",
    "request_type": "Roads/Drainage",
    "request_reason": "Catch Basin - Clogged",
    "date_created": "2023-09-23T11:04:22.000",
    "date_modified": "2023-09-23T11:04:22.000",
    "request_status": "Pending",
    "responsible_agency": "Department of Public Works",
    "final_address": "2300 Pine St",
    "address_councildis": "A",
    "status": "Pending",
    "rowid": "1037719",
    "final_x": "3666289.72877",
    "final_y": "530261.562945",
    "longitude": "-90.11614127849762",
    "latitude": "29.95248844662631",
    "geocoded_column": {
      "latitude": "29.95248844662631",
      "longitude": "-90.11614127849762"
    }
  },
  {
    "service_request": "2023-1037718",
    "request_type": "Trash/Recycling",
    "request_reason": "Request a Large Item Pick Up",
    "date_created": "2023-09-23T10:43:56.000",
    "date_modified": "2023-09-23T10:43:57.000",
    "request_status": "Pending",
    "responsible_agency": "Department of Sanitation",
    "final_address": "317 Homer St",
    "address_councildis": "C",
    "status": "Assigned to Contractor",
    "contractor": "Richards Disposal",
    "rowid": "1037718",
    "final_x": "3686314.83881",
    "final_y": "528240.193152",
    "longitude": "-90.05298254903028",
    "latitude": "29.9463302652577",
    "geocoded_column": {
      "latitude": "29.9463302652577",
      "longitude": "-90.05298254903028"
    }
  },
  {
    "service_request": "2023-1037717",
    "request_type": "Roads/Drainage",
    "request_reason": "Pothole",
    "date_created": "2023-09-23T10:41:30.000",
    "date_modified": "2023-09-23T10:41:30.000",
    "request_status": "Pending",
    "responsible_agency": "Department of Public Works",
    "final_address": "8116 Hampson St",
    "address_councildis": "A",
    "status": "Pending",
    "rowid": "1037717",
    "final_x": "3660671.55181",
    "final_y": "527163.107839",
    "longitude": "-90.13398342514975",
    "latitude": "29.944131589717387",
    "geocoded_column": {
      "latitude": "29.944131589717387",
      "longitude": "-90.13398342514975"
    }
  },
  {
    "service_request": "2023-1037716",
    "request_type": "Roads/Drainage",
    "request_reason": "Debris in Roadway",
    "date_created": "2023-09-23T10:38:24.000",
    "date_modified": "2023-09-23T10:38:24.000",
    "request_status": "Pending",
    "responsible_agency": "Department of Public Works",
    "final_address": "4400 Florida Ave",
    "address_councildis": "D",
    "status": "Pending",
    "rowid": "1037716",
    "final_x": "3694620.65674",
    "final_y": "540967.269899",
    "longitude": "-90.02629993417054",
    "latitude": "29.981067423244426",
    "geocoded_column": {
      "latitude": "29.981067423244426",
      "longitude": "-90.02629993417054"
    }
  },
  {
    "service_request": "2023-1037715",
    "request_type": "Traffic Signals/Signs/Striping/Streetlights",
    "request_reason": "Street Light Outage/Malfunction",
    "date_created": "2023-09-23T10:32:36.000",
    "date_modified": "2023-09-23T10:32:37.000",
    "request_status": "Pending",
    "responsible_agency": "Department of Public Works",
    "final_address": "1591 Maura Pl",
    "address_councildis": "C",
    "status": "Assigned to Contractor",
    "contractor": "Legacy Professional Services",
    "rowid": "1037715",
    "final_x": "3699189.77821",
    "final_y": "524992.915325",
    "longitude": "-90.01245030087262",
    "latitude": "29.936999529077422",
    "geocoded_column": {
      "latitude": "29.936999529077422",
      "longitude": "-90.01245030087262"
    }
  },
  {
    "service_request": "2023-1037714",
    "request_type": "Trash/Recycling",
    "request_reason": "Replace Recycling Cart",
    "date_created": "2023-09-23T10:10:24.000",
    "date_modified": "2023-09-23T10:10:24.000",
    "request_status": "Pending",
    "responsible_agency": "Department of Sanitation",
    "final_address": "7821 Burthe St",
    "address_councildis": "A",
    "status": "Pending",
    "rowid": "1037714",
    "final_x": "3661985.36115",
    "final_y": "526986.518654",
    "longitude": "-90.12984119551295",
    "latitude": "29.943608147892675",
    "geocoded_column": {
      "latitude": "29.943608147892675",
      "longitude": "-90.12984119551295"
    }
  },
  {
    "service_request": "2023-1037713",
    "request_type": "Abandoned Vehicles",
    "request_reason": "Abandoned/Junk Vehicles",
    "date_created": "2023-09-23T10:08:58.000",
    "date_modified": "2023-09-23T10:08:58.000",
    "request_status": "Pending",
    "responsible_agency": "Department of Public Works",
    "final_address": "3633 Fourth St",
    "address_councildis": "B",
    "status": "Pending",
    "rowid": "1037713",
    "final_x": "3672171.74785",
    "final_y": "528828.549888",
    "longitude": "-90.09761729783078",
    "latitude": "29.94837501475076",
    "geocoded_column": {
      "latitude": "29.94837501475076",
      "longitude": "-90.09761729783078"
    }
  },
  {
    "service_request": "2023-1037712",
    "request_type": "Trash/Recycling",
    "request_reason": "Request a Large Item Pick Up",
    "date_created": "2023-09-23T10:05:37.000",
    "date_modified": "2023-09-23T10:05:38.000",
    "request_status": "Pending",
    "responsible_agency": "Department of Sanitation",
    "final_address": "1479 Mirabeau Ave",
    "address_councildis": "D",
    "status": "Assigned to Contractor",
    "contractor": "IV Waste",
    "rowid": "1037712",
    "final_x": "3678356.06741",
    "final_y": "550396.509972",
    "longitude": "-90.07734438032658",
    "latitude": "30.007494621283502",
    "geocoded_column": {
      "latitude": "30.007494621283502",
      "longitude": "-90.07734438032658"
    }
  },
  {
    "service_request": "2023-1037711",
    "request_type": "Trash/Recycling",
    "request_reason": "Start Trash Service",
    "date_created": "2023-09-23T09:34:44.000",
    "date_modified": "2023-09-23T09:34:45.000",
    "request_status": "Pending",
    "responsible_agency": "Department of Sanitation",
    "final_address": "1621 Port St",
    "address_councildis": "D",
    "status": "Assigned to Contractor",
    "contractor": "IV Waste",
    "rowid": "1037711",
    "final_x": "3687972.87599",
    "final_y": "538441.277961",
    "longitude": "-90.047386093505",
    "latitude": "29.9743286681381",
    "geocoded_column": {
      "latitude": "29.9743286681381",
      "longitude": "-90.047386093505"
    }
  },
  {
    "service_request": "2023-1037710",
    "request_type": "Trash/Recycling",
    "request_reason": "Request a Large Item Pick Up",
    "date_created": "2023-09-23T09:18:49.000",
    "date_modified": "2023-09-23T09:18:50.000",
    "request_status": "Pending",
    "responsible_agency": "Department of Sanitation",
    "final_address": "1819 Joliet St",
    "address_councildis": "A",
    "status": "Assigned to Contractor",
    "contractor": "Richards Disposal",
    "rowid": "1037710",
    "final_x": "3662454.79552",
    "final_y": "530986.484866",
    "longitude": "-90.12822623822095",
    "latitude": "29.954593204912403",
    "geocoded_column": {
      "latitude": "29.954593204912403",
      "longitude": "-90.12822623822095"
    }
  },
  {
    "service_request": "2023-1037709",
    "request_type": "Traffic Signals/Signs/Striping/Streetlights",
    "request_reason": "Street Light Outage/Malfunction",
    "date_created": "2023-09-23T09:17:24.000",
    "date_modified": "2023-09-23T09:17:25.000",
    "request_status": "Pending",
    "responsible_agency": "Department of Public Works",
    "final_address": "1591 Maura Pl",
    "address_councildis": "C",
    "status": "Assigned to Contractor",
    "contractor": "Legacy Professional Services",
    "rowid": "1037709",
    "final_x": "3699189.77821",
    "final_y": "524992.915325",
    "longitude": "-90.01245030087262",
    "latitude": "29.936999529077422",
    "geocoded_column": {
      "latitude": "29.936999529077422",
      "longitude": "-90.01245030087262"
    }
  },
  {
    "service_request": "2023-1037708",
    "request_type": "Mayor's Request",
    "request_reason": "Requests to the Mayor",
    "date_created": "2023-09-23T09:16:09.000",
    "date_modified": "2023-09-23T09:16:09.000",
    "request_status": "Pending",
    "responsible_agency": "Executive Office of the Mayor",
    "final_address": "4746 Marigny St",
    "address_councildis": "D",
    "status": "Pending",
    "rowid": "1037708",
    "final_x": "3684319.21615",
    "final_y": "550443.96642",
    "longitude": "-90.05850344880298",
    "latitude": "30.007444034390865",
    "geocoded_column": {
      "latitude": "30.007444034390865",
      "longitude": "-90.05850344880298"
    }
  },
  {
    "service_request": "2023-1037707",
    "request_type": "Property Maintenance",
    "request_reason": "Property Maintenance",
    "date_created": "2023-09-23T09:07:03.000",
    "date_modified": "2023-09-23T09:07:03.000",
    "request_status": "Pending",
    "responsible_agency": "Department of Code Enforcement",
    "final_address": "3161 Mansfield Ave",
    "address_councildis": "C",
    "status": "Pending",
    "rowid": "1037707",
    "final_x": "3709047.13707",
    "final_y": "518555.554103",
    "longitude": "-89.98157012289155",
    "latitude": "29.918982925399398",
    "geocoded_column": {
      "latitude": "29.918982925399398",
      "longitude": "-89.98157012289155"
    }
  },
  {
    "service_request": "2023-1037706",
    "request_type": "Trash/Recycling",
    "request_reason": "Replace Recycling Cart",
    "date_created": "2023-09-23T09:05:29.000",
    "date_modified": "2023-09-23T09:05:29.000",
    "request_status": "Pending",
    "responsible_agency": "Department of Sanitation",
    "final_address": "1020 Milan St",
    "address_councildis": "B",
    "status": "Pending",
    "rowid": "1037706",
    "final_x": "3671708.38395",
    "final_y": "519408.948407",
    "longitude": "-90.09940061456574",
    "latitude": "29.922487890081033",
    "geocoded_column": {
      "latitude": "29.922487890081033",
      "longitude": "-90.09940061456574"
    }
  },
  {
    "service_request": "2023-1037705",
    "request_type": "Property Maintenance",
    "request_reason": "Property Maintenance",
    "date_created": "2023-09-23T09:01:58.000",
    "date_modified": "2023-09-23T09:01:58.000",
    "request_status": "Pending",
    "responsible_agency": "Department of Code Enforcement",
    "final_address": "VERRET ST & OPELOUSAS AVE",
    "address_councildis": "C",
    "status": "Pending",
    "rowid": "1037705",
    "final_x": "3687080.6",
    "final_y": "529129.98",
    "longitude": "-90.05053332719066",
    "latitude": "29.94875332606362",
    "geocoded_column": {
      "latitude": "29.94875332606362",
      "longitude": "-90.05053332719066"
    }
  },
  {
    "service_request": "2023-1037704",
    "request_type": "Utility Poles",
    "request_reason": "Utility Pole Leaning",
    "date_created": "2023-09-23T09:00:43.000",
    "date_modified": "2023-09-23T09:00:47.000",
    "request_status": "Pending",
    "responsible_agency": "Utility Company Collective",
    "final_address": "282 Audubon St",
    "address_councildis": "A",
    "status": "Pending",
    "rowid": "1037704",
    "final_x": "3661390.95206",
    "final_y": "521894.457402",
    "longitude": "-90.1318864838228",
    "latitude": "29.929623739803247",
    "geocoded_column": {
      "latitude": "29.929623739803247",
      "longitude": "-90.1318864838228"
    }
  },
  {
    "service_request": "2023-1037703",
    "request_type": "Property Maintenance",
    "request_reason": "Property Maintenance",
    "date_created": "2023-09-23T09:00:33.000",
    "date_modified": "2023-09-23T09:00:33.000",
    "request_status": "Pending",
    "responsible_agency": "Department of Code Enforcement",
    "final_address": "3151 Mansfield Ave",
    "address_councildis": "C",
    "status": "Pending",
    "rowid": "1037703",
    "final_x": "3709052.01278",
    "final_y": "518604.194103",
    "longitude": "-89.98155292168204",
    "latitude": "29.91911651023944",
    "geocoded_column": {
      "latitude": "29.91911651023944",
      "longitude": "-89.98155292168204"
    }
  },
  {
    "service_request": "2023-1037702",
    "request_type": "Traffic Signals/Signs/Striping/Streetlights",
    "request_reason": "Street Light Outage/Malfunction",
    "date_created": "2023-09-23T08:55:45.000",
    "date_modified": "2023-09-23T08:55:45.000",
    "request_status": "Pending",
    "responsible_agency": "Department of Public Works",
    "final_address": "11100 BLK Interstate 10 Service Rd N",
    "address_councildis": "E",
    "status": "Assigned to Contractor",
    "contractor": "Legacy Professional Services",
    "rowid": "1037702",
    "final_x": "3713314.35746",
    "final_y": "563811.420721",
    "longitude": "-89.96639672866097",
    "latitude": "30.043280368955433",
    "geocoded_column": {
      "latitude": "30.043280368955433",
      "longitude": "-89.96639672866097"
    }
  },
  {
    "service_request": "2023-1037701",
    "request_type": "Abandoned Vehicles",
    "request_reason": "Abandoned/Junk Vehicles",
    "date_created": "2023-09-23T08:55:40.000",
    "date_modified": "2023-09-23T08:55:40.000",
    "request_status": "Pending",
    "responsible_agency": "Department of Public Works",
    "final_address": "3151 Mansfield Ave",
    "address_councildis": "C",
    "status": "Pending",
    "rowid": "1037701",
    "final_x": "3709052.01278",
    "final_y": "518604.194103",
    "longitude": "-89.98155292168204",
    "latitude": "29.91911651023944",
    "geocoded_column": {
      "latitude": "29.91911651023944",
      "longitude": "-89.98155292168204"
    }
  },
  {
    "service_request": "2023-1037700",
    "request_type": "Mosquito, Termite & Rodent Control",
    "request_reason": "Non-Rodent Complaint (Mice, Possums, Snakes)",
    "date_created": "2023-09-23T08:54:02.000",
    "date_modified": "2023-09-23T08:54:02.000",
    "request_status": "Pending",
    "responsible_agency": "Mosquito, Termite & Rodent Control Board",
    "final_address": "814 Navarre St",
    "address_councildis": "A",
    "status": "Pending",
    "rowid": "1037700",
    "final_x": "3668802.48903",
    "final_y": "543749.794702",
    "longitude": "-90.10775156478208",
    "latitude": "29.989502935341918",
    "geocoded_column": {
      "latitude": "29.989502935341918",
      "longitude": "-90.10775156478208"
    }
  },
  {
    "service_request": "2023-1037699",
    "request_type": "Roads/Drainage",
    "request_reason": "Unpermitted work in ROW",
    "date_created": "2023-09-23T08:53:05.000",
    "date_modified": "2023-09-23T08:53:05.000",
    "request_status": "Pending",
    "responsible_agency": "Department of Public Works",
    "final_address": "800 BLK Bourbon St",
    "address_councildis": "C",
    "status": "Pending",
    "rowid": "1037699",
    "final_x": "3682602.88049",
    "final_y": "533123.709131",
    "longitude": "-90.06453175222377",
    "latitude": "29.95987180412784",
    "geocoded_column": {
      "latitude": "29.95987180412784",
      "longitude": "-90.06453175222377"
    }
  },
  {
    "service_request": "2023-1037698",
    "request_type": "Abandoned Vehicles",
    "request_reason": "Abandoned/Junk Vehicles",
    "date_created": "2023-09-23T08:52:42.000",
    "date_modified": "2023-09-23T08:52:42.000",
    "request_status": "Pending",
    "responsible_agency": "Department of Public Works",
    "final_address": "3151 Mansfield Ave",
    "address_councildis": "C",
    "status": "Pending",
    "rowid": "1037698",
    "final_x": "3709052.01278",
    "final_y": "518604.194103",
    "longitude": "-89.98155292168204",
    "latitude": "29.91911651023944",
    "geocoded_column": {
      "latitude": "29.91911651023944",
      "longitude": "-89.98155292168204"
    }
  },
  {
    "service_request": "2023-1037697",
    "request_type": "Property Maintenance",
    "request_reason": "Property Maintenance",
    "date_created": "2023-09-23T08:48:31.000",
    "date_modified": "2023-09-23T08:48:31.000",
    "request_status": "Pending",
    "responsible_agency": "Department of Code Enforcement",
    "final_address": "3151 Mansfield Ave",
    "address_councildis": "C",
    "status": "Pending",
    "rowid": "1037697",
    "final_x": "3709052.01278",
    "final_y": "518604.194103",
    "longitude": "-89.98155292168204",
    "latitude": "29.91911651023944",
    "geocoded_column": {
      "latitude": "29.91911651023944",
      "longitude": "-89.98155292168204"
    }
  },
  {
    "service_request": "2023-1037696",
    "request_type": "Trash/Recycling",
    "request_reason": "Illegal Dumping",
    "date_created": "2023-09-23T08:42:36.000",
    "date_modified": "2023-09-23T08:42:36.000",
    "request_status": "Pending",
    "responsible_agency": "Department of Sanitation",
    "final_address": "910 Elmira Ave",
    "address_councildis": "C",
    "status": "Pending",
    "rowid": "1037696",
    "final_x": "3688180.68809",
    "final_y": "528215.52864",
    "longitude": "-90.04709230028473",
    "latitude": "29.94620498714214",
    "geocoded_column": {
      "latitude": "29.94620498714214",
      "longitude": "-90.04709230028473"
    }
  },
  {
    "service_request": "2023-1037695",
    "request_type": "Property Maintenance",
    "request_reason": "Property Maintenance",
    "date_created": "2023-09-23T08:26:11.000",
    "date_modified": "2023-09-23T08:26:11.000",
    "request_status": "Pending",
    "responsible_agency": "Department of Code Enforcement",
    "final_address": "1725 Delachaise St",
    "address_councildis": "B",
    "status": "Pending",
    "rowid": "1037695",
    "final_x": "3673621.01499",
    "final_y": "521958.910842",
    "longitude": "-90.0932760907818",
    "latitude": "29.929442693780985",
    "geocoded_column": {
      "latitude": "29.929442693780985",
      "longitude": "-90.0932760907818"
    }
  },
  {
    "service_request": "2023-1037694",
    "request_type": "Trash/Recycling",
    "request_reason": "Dead Animal Pick Up",
    "date_created": "2023-09-23T08:16:37.000",
    "date_modified": "2023-09-23T08:17:45.000",
    "request_status": "Pending",
    "responsible_agency": "Department of Sanitation",
    "final_address": "1300 BLK Ursulines Ave",
    "address_councildis": "C",
    "status": "Assigned to Contractor",
    "contractor": "Richards Disposal",
    "rowid": "1037694",
    "final_x": "3681581.47407",
    "final_y": "535071.444409",
    "longitude": "-90.06768918914284",
    "latitude": "29.965258469764017",
    "geocoded_column": {
      "latitude": "29.965258469764017",
      "longitude": "-90.06768918914284"
    }
  },
  {
    "service_request": "2023-1037693",
    "request_type": "Mosquito, Termite & Rodent Control",
    "request_reason": "Rodent Complaint (Rats)",
    "date_created": "2023-09-23T08:13:18.000",
    "date_modified": "2023-09-23T08:13:18.000",
    "request_status": "Pending",
    "responsible_agency": "Mosquito, Termite & Rodent Control Board",
    "final_address": "801 Chartres St",
    "address_councildis": "C",
    "status": "Pending",
    "rowid": "1037693",
    "final_x": "3683066.37173",
    "final_y": "532602.783684",
    "longitude": "-90.06308638696765",
    "latitude": "29.958425317010388",
    "geocoded_column": {
      "latitude": "29.958425317010388",
      "longitude": "-90.06308638696765"
    }
  },
  {
    "service_request": "2023-1037691",
    "request_type": "Abandoned Vehicles",
    "request_reason": "Abandoned/Junk Vehicles",
    "date_created": "2023-09-23T07:07:06.000",
    "date_modified": "2023-09-23T07:07:06.000",
    "request_status": "Pending",
    "responsible_agency": "Department of Public Works",
    "final_address": "1614 Painters St",
    "address_councildis": "D",
    "status": "Pending",
    "rowid": "1037691",
    "final_x": "3687362.49878",
    "final_y": "538498.587209",
    "longitude": "-90.04931177569073",
    "latitude": "29.974505069728085",
    "geocoded_column": {
      "latitude": "29.974505069728085",
      "longitude": "-90.04931177569073"
    }
  },
  {
    "service_request": "2023-1037690",
    "request_type": "Abandoned Vehicles",
    "request_reason": "Abandoned/Junk Vehicles",
    "date_created": "2023-09-23T07:03:59.000",
    "date_modified": "2023-09-23T07:03:59.000",
    "request_status": "Pending",
    "responsible_agency": "Department of Public Works",
    "final_address": "1500 BLK Franklin Ave",
    "address_councildis": "C",
    "status": "Pending",
    "rowid": "1037690",
    "final_x": "3687430.50634",
    "final_y": "537992.562254",
    "longitude": "-90.04911490342015",
    "latitude": "29.973111583184693",
    "geocoded_column": {
      "latitude": "29.973111583184693",
      "longitude": "-90.04911490342015"
    }
  },
  {
    "service_request": "2023-1037689",
    "request_type": "Abandoned Vehicles",
    "request_reason": "Abandoned/Junk Vehicles",
    "date_created": "2023-09-23T07:00:08.000",
    "date_modified": "2023-09-23T07:00:08.000",
    "request_status": "Pending",
    "responsible_agency": "Department of Public Works",
    "final_address": "1436 Franklin Ave",
    "address_councildis": "C",
    "status": "Pending",
    "rowid": "1037689",
    "final_x": "3687374.48815",
    "final_y": "537908.405897",
    "longitude": "-90.04929479785703",
    "latitude": "29.972881908934067",
    "geocoded_column": {
      "latitude": "29.972881908934067",
      "longitude": "-90.04929479785703"
    }
  },
  {
    "service_request": "2023-1037687",
    "request_type": "Traffic Signals/Signs/Striping/Streetlights",
    "request_reason": "Traffic Sign Missing/Damaged",
    "date_created": "2023-09-23T06:48:22.000",
    "date_modified": "2023-09-23T06:48:22.000",
    "request_status": "Pending",
    "responsible_agency": "Department of Public Works",
    "final_address": "5105 Dryades St",
    "address_councildis": "B",
    "status": "Pending",
    "rowid": "1037687",
    "final_x": "3668391.75988",
    "final_y": "521867.141178",
    "longitude": "-90.10978703256409",
    "latitude": "29.929344931124977",
    "geocoded_column": {
      "latitude": "29.929344931124977",
      "longitude": "-90.10978703256409"
    }
  },
  {
    "service_request": "2023-1037686",
    "request_type": "Trash/Recycling",
    "request_reason": "Replace Trash Cart",
    "date_created": "2023-09-23T06:04:58.000",
    "date_modified": "2023-09-23T06:04:59.000",
    "request_status": "Pending",
    "responsible_agency": "Department of Sanitation",
    "final_address": "5829 Oxford Pl",
    "address_councildis": "C",
    "status": "Assigned to Contractor",
    "contractor": "Richards Disposal",
    "rowid": "1037686",
    "final_x": "3705037.88657",
    "final_y": "519776.947704",
    "longitude": "-89.99418010274896",
    "latitude": "29.92247077863157",
    "geocoded_column": {
      "latitude": "29.92247077863157",
      "longitude": "-89.99418010274896"
    }
  },
  {
    "service_request": "2023-1037685",
    "request_type": "Trash/Recycling",
    "request_reason": "Replace Trash Cart",
    "date_created": "2023-09-23T06:02:13.000",
    "date_modified": "2023-09-23T06:02:14.000",
    "request_status": "Pending",
    "responsible_agency": "Department of Sanitation",
    "final_address": "5828 Oxford Pl",
    "address_councildis": "C",
    "status": "Assigned to Contractor",
    "contractor": "Richards Disposal",
    "rowid": "1037685",
    "final_x": "3705058.03415",
    "final_y": "519886.57836",
    "longitude": "-89.99411246088523",
    "latitude": "29.92277157740025",
    "geocoded_column": {
      "latitude": "29.92277157740025",
      "longitude": "-89.99411246088523"
    }
  },
  {
    "service_request": "2023-1037684",
    "request_type": "Roads/Drainage",
    "request_reason": "Street Subsidence (Sinking)",
    "date_created": "2023-09-23T05:14:14.000",
    "date_modified": "2023-09-23T05:14:14.000",
    "request_status": "Pending",
    "responsible_agency": "Department of Public Works",
    "final_address": "3939 Sullen Pl",
    "address_councildis": "C",
    "status": "Pending",
    "rowid": "1037684",
    "final_x": "3707463.35659",
    "final_y": "516355.632757",
    "longitude": "-89.9866508694353",
    "latitude": "29.91298518509362",
    "geocoded_column": {
      "latitude": "29.91298518509362",
      "longitude": "-89.9866508694353"
    }
  },
  {
    "service_request": "2023-1037682",
    "request_type": "Tax and Revenue",
    "request_reason": "Occupational License Tax",
    "date_created": "2023-09-23T02:32:36.000",
    "date_modified": "2023-09-23T02:32:36.000",
    "request_status": "Pending",
    "responsible_agency": "Bureau of Revenue",
    "final_address": "1139 St Bernard Ave",
    "address_councildis": "C",
    "status": "Pending",
    "rowid": "1037682",
    "final_x": "3683182.77832",
    "final_y": "536033.897031",
    "longitude": "-90.06259865177628",
    "latitude": "29.967856151484312",
    "geocoded_column": {
      "latitude": "29.967856151484312",
      "longitude": "-90.06259865177628"
    }
  },
  {
    "service_request": "2023-1037681",
    "request_type": "Safety & Permits",
    "request_reason": "Licenses & Permits",
    "date_created": "2023-09-23T02:31:47.000",
    "date_modified": "2023-09-23T02:31:47.000",
    "request_status": "Pending",
    "responsible_agency": "Safety and Permits",
    "final_address": "1139 St Bernard Ave",
    "address_councildis": "C",
    "status": "Pending",
    "rowid": "1037681",
    "final_x": "3683182.77832",
    "final_y": "536033.897031",
    "longitude": "-90.06259865177628",
    "latitude": "29.967856151484312",
    "geocoded_column": {
      "latitude": "29.967856151484312",
      "longitude": "-90.06259865177628"
    }
  },
  {
    "service_request": "2023-1037680",
    "request_type": "Health Related Request",
    "request_reason": "Noise Ordinance Complaint",
    "date_created": "2023-09-23T02:30:59.000",
    "date_modified": "2023-09-23T02:30:59.000",
    "request_status": "Pending",
    "responsible_agency": "Health Department",
    "final_address": "1139 St Bernard Ave",
    "address_councildis": "C",
    "status": "Pending",
    "rowid": "1037680",
    "final_x": "3683182.77832",
    "final_y": "536033.897031",
    "longitude": "-90.06259865177628",
    "latitude": "29.967856151484312",
    "geocoded_column": {
      "latitude": "29.967856151484312",
      "longitude": "-90.06259865177628"
    }
  },
  {
    "service_request": "2023-1037679",
    "request_type": "Traffic Signals/Signs/Striping/Streetlights",
    "request_reason": "Street Light Outage/Malfunction",
    "date_created": "2023-09-23T02:28:58.000",
    "date_modified": "2023-09-23T02:28:59.000",
    "request_status": "Pending",
    "responsible_agency": "Department of Public Works",
    "final_address": "4841 St Bernard Ave",
    "address_councildis": "D",
    "status": "Assigned to Contractor",
    "contractor": "Legacy Professional Services",
    "rowid": "1037679",
    "final_x": "3676815.21294",
    "final_y": "550048.715412",
    "longitude": "-90.08222438119026",
    "latitude": "30.006584660859755",
    "geocoded_column": {
      "latitude": "30.006584660859755",
      "longitude": "-90.08222438119026"
    }
  },
  {
    "service_request": "2023-1037678",
    "request_type": "Traffic Signals/Signs/Striping/Streetlights",
    "request_reason": "Street Light Outage/Malfunction",
    "date_created": "2023-09-23T02:26:34.000",
    "date_modified": "2023-09-23T02:26:35.000",
    "request_status": "Pending",
    "responsible_agency": "Department of Public Works",
    "final_address": "WISNER BLVD & MIRABEAU AVE",
    "address_councildis": "A",
    "status": "Assigned to Contractor",
    "contractor": "Legacy Professional Services",
    "rowid": "1037678",
    "final_x": "3675538.7",
    "final_y": "550047.38",
    "longitude": "-90.08625726432264",
    "latitude": "30.00661925133259",
    "geocoded_column": {
      "latitude": "30.00661925133259",
      "longitude": "-90.08625726432264"
    }
  },
  {
    "service_request": "2023-1037676",
    "request_type": "Roads/Drainage",
    "request_reason": "Pothole",
    "date_created": "2023-09-23T01:13:39.000",
    "date_modified": "2023-09-23T01:13:39.000",
    "request_status": "Pending",
    "responsible_agency": "Department of Public Works",
    "final_address": "5823 Perrier St",
    "address_councildis": "A",
    "status": "Pending",
    "rowid": "1037676",
    "final_x": "3665601.07367",
    "final_y": "520421.208184",
    "longitude": "-90.11864512991228",
    "latitude": "29.92545071542357",
    "geocoded_column": {
      "latitude": "29.92545071542357",
      "longitude": "-90.11864512991228"
    }
  },
  {
    "service_request": "2023-1037675",
    "request_type": "Parks & Parkways",
    "request_reason": "Request Tree Service (Right of Way/Public Property)",
    "date_created": "2023-09-23T00:19:59.000",
    "date_modified": "2023-09-23T00:19:59.000",
    "request_status": "Pending",
    "responsible_agency": "Department of Parks & Parkway",
    "final_address": "6125 Pratt Dr",
    "address_councildis": "D",
    "status": "Pending",
    "rowid": "1037675",
    "final_x": "3680255.90651",
    "final_y": "555209.354649",
    "longitude": "-90.07117476034962",
    "latitude": "30.02067080497346",
    "geocoded_column": {
      "latitude": "30.02067080497346",
      "longitude": "-90.07117476034962"
    }
  },
  {
    "service_request": "2023-1037674",
    "request_type": "Roads/Drainage",
    "request_reason": "Pothole",
    "date_created": "2023-09-23T00:07:05.000",
    "date_modified": "2023-09-23T00:07:05.000",
    "request_status": "Pending",
    "responsible_agency": "Department of Public Works",
    "final_address": "1430 Webster St",
    "address_councildis": "A",
    "status": "Pending",
    "rowid": "1037674",
    "final_x": "3664809.49536",
    "final_y": "521665.727865",
    "longitude": "-90.12110234564213",
    "latitude": "29.928895802564302",
    "geocoded_column": {
      "latitude": "29.928895802564302",
      "longitude": "-90.12110234564213"
    }
  },
  {
    "service_request": "2023-1037673",
    "request_type": "Roads/Drainage",
    "request_reason": "Pothole",
    "date_created": "2023-09-22T23:52:45.000",
    "date_modified": "2023-09-22T23:52:45.000",
    "request_status": "Pending",
    "responsible_agency": "Department of Public Works",
    "final_address": "1315 Peniston St",
    "address_councildis": "B",
    "status": "Pending",
    "rowid": "1037673",
    "final_x": "3673101.31451",
    "final_y": "520423.11276",
    "longitude": "-90.09496908964098",
    "latitude": "29.925235197927364",
    "geocoded_column": {
      "latitude": "29.925235197927364",
      "longitude": "-90.09496908964098"
    }
  },
  {
    "service_request": "2023-1037672",
    "request_type": "Traffic Signals/Signs/Striping/Streetlights",
    "request_reason": "Traffic Sign Missing/Damaged",
    "date_created": "2023-09-22T23:48:01.000",
    "date_modified": "2023-09-22T23:48:01.000",
    "request_status": "Pending",
    "responsible_agency": "Department of Public Works",
    "final_address": "1000 BLK Saint Ann St",
    "address_councildis": "C",
    "status": "Pending",
    "rowid": "1037672",
    "final_x": "3681773.20663",
    "final_y": "533527.615475",
    "longitude": "-90.06713758219901",
    "latitude": "29.961007643990218",
    "geocoded_column": {
      "latitude": "29.961007643990218",
      "longitude": "-90.06713758219901"
    }
  },
  {
    "service_request": "2023-1037671",
    "request_type": "Roads/Drainage",
    "request_reason": "Pothole",
    "date_created": "2023-09-22T23:42:52.000",
    "date_modified": "2023-09-22T23:42:52.000",
    "request_status": "Pending",
    "responsible_agency": "Department of Public Works",
    "final_address": "4216 Chestnut St",
    "address_councildis": "B",
    "status": "Pending",
    "rowid": "1037671",
    "final_x": "3671574.31393",
    "final_y": "519539.203703",
    "longitude": "-90.09981939416457",
    "latitude": "29.922850019854593",
    "geocoded_column": {
      "latitude": "29.922850019854593",
      "longitude": "-90.09981939416457"
    }
  },
  {
    "service_request": "2023-1037670",
    "request_type": "Roads/Drainage",
    "request_reason": "Pothole",
    "date_created": "2023-09-22T23:33:50.000",
    "date_modified": "2023-09-22T23:33:50.000",
    "request_status": "Pending",
    "responsible_agency": "Department of Public Works",
    "final_address": "1421 Constantinople St",
    "address_councildis": "B",
    "status": "Pending",
    "rowid": "1037670",
    "final_x": "3672433.24257",
    "final_y": "520667.657465",
    "longitude": "-90.09706965638372",
    "latitude": "29.925927453713577",
    "geocoded_column": {
      "latitude": "29.925927453713577",
      "longitude": "-90.09706965638372"
    }
  },
  {
    "service_request": "2023-1037669",
    "request_type": "Roads/Drainage",
    "request_reason": "Pothole",
    "date_created": "2023-09-22T23:32:20.000",
    "date_modified": "2023-09-22T23:32:20.000",
    "request_status": "Pending",
    "responsible_agency": "Department of Public Works",
    "final_address": "6004 Chestnut St",
    "address_councildis": "A",
    "status": "Pending",
    "rowid": "1037669",
    "final_x": "3664708.90432",
    "final_y": "519836.195832",
    "longitude": "-90.12148097462406",
    "latitude": "29.923868090727332",
    "geocoded_column": {
      "latitude": "29.923868090727332",
      "longitude": "-90.12148097462406"
    }
  },
  {
    "service_request": "2023-1037668",
    "request_type": "Roads/Drainage",
    "request_reason": "Pothole",
    "date_created": "2023-09-22T23:26:17.000",
    "date_modified": "2023-09-22T23:26:17.000",
    "request_status": "Pending",
    "responsible_agency": "Department of Public Works",
    "final_address": "1312 Milan St",
    "address_councildis": "B",
    "status": "Pending",
    "rowid": "1037668",
    "final_x": "3671625.82823",
    "final_y": "520286.919608",
    "longitude": "-90.09963137110304",
    "latitude": "29.92490447494246",
    "geocoded_column": {
      "latitude": "29.92490447494246",
      "longitude": "-90.09963137110304"
    }
  },
  {
    "service_request": "2023-1037667",
    "request_type": "Roads/Drainage",
    "request_reason": "Street Subsidence (Sinking)",
    "date_created": "2023-09-22T23:22:15.000",
    "date_modified": "2023-09-22T23:22:15.000",
    "request_status": "Pending",
    "responsible_agency": "Department of Public Works",
    "final_address": "5731 Hurst St",
    "address_councildis": "A",
    "status": "Pending",
    "rowid": "1037667",
    "final_x": "3666265.75079",
    "final_y": "521691.120249",
    "longitude": "-90.11650437177222",
    "latitude": "29.928923180872253",
    "geocoded_column": {
      "latitude": "29.928923180872253",
      "longitude": "-90.11650437177222"
    }
  },
  {
    "service_request": "2023-1037666",
    "request_type": "Roads/Drainage",
    "request_reason": "Pothole",
    "date_created": "2023-09-22T23:15:29.000",
    "date_modified": "2023-09-22T23:15:29.000",
    "request_status": "Pending",
    "responsible_agency": "Department of Public Works",
    "final_address": "1423 General Pershing St",
    "address_councildis": "B",
    "status": "Pending",
    "rowid": "1037666",
    "final_x": "3671330.69185",
    "final_y": "520571.244024",
    "longitude": "-90.1005533659415",
    "latitude": "29.925695010510914",
    "geocoded_column": {
      "latitude": "29.925695010510914",
      "longitude": "-90.1005533659415"
    }
  },
  {
    "service_request": "2023-1037665",
    "request_type": "Abandoned Vehicles",
    "request_reason": "Abandoned/Junk Vehicles",
    "date_created": "2023-09-22T23:07:17.000",
    "date_modified": "2023-09-22T23:07:17.000",
    "request_status": "Pending",
    "responsible_agency": "Department of Public Works",
    "final_address": "4116 S Derbigny St",
    "address_councildis": "B",
    "status": "Pending",
    "rowid": "1037665",
    "final_x": "3671225.7634",
    "final_y": "526307.868094",
    "longitude": "-90.10068978777376",
    "latitude": "29.941471980835352",
    "geocoded_column": {
      "latitude": "29.941471980835352",
      "longitude": "-90.10068978777376"
    }
  },
  {
    "service_request": "2023-1037664",
    "request_type": "Abandoned Vehicles",
    "request_reason": "Abandoned/Junk Vehicles",
    "date_created": "2023-09-22T22:52:46.000",
    "date_modified": "2023-09-22T22:52:46.000",
    "request_status": "Pending",
    "responsible_agency": "Department of Public Works",
    "final_address": "4800 BLK Camelot Dr",
    "address_councildis": "E",
    "status": "Inspected",
    "rowid": "1037664",
    "final_x": "3708293.09191",
    "final_y": "556383.184265",
    "longitude": "-89.98254264556114",
    "latitude": "30.023019400164166",
    "geocoded_column": {
      "latitude": "30.023019400164166",
      "longitude": "-89.98254264556114"
    }
  },
  {
    "service_request": "2023-1037663",
    "request_type": "Traffic Signals/Signs/Striping/Streetlights",
    "request_reason": "Street Light Outage/Malfunction",
    "date_created": "2023-09-22T22:14:38.000",
    "date_modified": "2023-09-22T22:14:39.000",
    "request_status": "Pending",
    "responsible_agency": "Department of Public Works",
    "final_address": "13024 Biscay St",
    "address_councildis": "E",
    "status": "Assigned to Contractor",
    "contractor": "Legacy Professional Services",
    "rowid": "1037663",
    "final_x": "3723902.79487",
    "final_y": "561526.615839",
    "longitude": "-89.93302154310928",
    "latitude": "30.036646526608276",
    "geocoded_column": {
      "latitude": "30.036646526608276",
      "longitude": "-89.93302154310928"
    }
  },
  {
    "service_request": "2023-1037662",
    "request_type": "Abandoned Vehicles",
    "request_reason": "Abandoned/Junk Vehicles",
    "date_created": "2023-09-22T22:13:39.000",
    "date_modified": "2023-09-22T22:13:39.000",
    "request_status": "Pending",
    "responsible_agency": "Department of Public Works",
    "final_address": "6900 BLK Bundy Rd",
    "address_councildis": "E",
    "status": "Inspected",
    "rowid": "1037662",
    "final_x": "3707182.6125",
    "final_y": "560647.806642",
    "longitude": "-89.98589302240734",
    "latitude": "30.03478138997219",
    "geocoded_column": {
      "latitude": "30.03478138997219",
      "longitude": "-89.98589302240734"
    }
  },
  {
    "service_request": "2023-1037661",
    "request_type": "Property Maintenance",
    "request_reason": "Property Maintenance",
    "date_created": "2023-09-22T21:42:55.000",
    "date_modified": "2023-09-22T21:42:55.000",
    "request_status": "Pending",
    "responsible_agency": "Department of Code Enforcement",
    "final_address": "3009 S Saratoga St",
    "address_councildis": "B",
    "status": "Pending",
    "rowid": "1037661",
    "final_x": "3674166.11636",
    "final_y": "523555.090171",
    "longitude": "-90.09150069385093",
    "latitude": "29.93381543742744",
    "geocoded_column": {
      "latitude": "29.93381543742744",
      "longitude": "-90.09150069385093"
    }
  },
  {
    "service_request": "2023-1037660",
    "request_type": "Abandoned Vehicles",
    "request_reason": "Abandoned/Junk Vehicles",
    "date_created": "2023-09-22T21:36:03.000",
    "date_modified": "2023-09-22T21:36:03.000",
    "request_status": "Pending",
    "responsible_agency": "Department of Public Works",
    "final_address": "2916 S Saratoga St",
    "address_councildis": "B",
    "status": "Pending",
    "rowid": "1037660",
    "final_x": "3674422.37121",
    "final_y": "523648.483195",
    "longitude": "-90.0906885104331",
    "latitude": "29.93406459893217",
    "geocoded_column": {
      "latitude": "29.93406459893217",
      "longitude": "-90.0906885104331"
    }
  },
  {
    "service_request": "2023-1037659",
    "request_type": "Trash/Recycling",
    "request_reason": "MIssed Recycling Pick-Up",
    "date_created": "2023-09-22T21:33:54.000",
    "date_modified": "2023-09-22T21:33:55.000",
    "request_status": "Pending",
    "responsible_agency": "Department of Sanitation",
    "final_address": "3100 BLK Nashville Ave",
    "address_councildis": "A",
    "status": "Assigned to Contractor",
    "contractor": "Richards Disposal",
    "rowid": "1037659",
    "final_x": "3667793.53413",
    "final_y": "527319.271921",
    "longitude": "-90.1114919959497",
    "latitude": "29.944354092723028",
    "geocoded_column": {
      "latitude": "29.944354092723028",
      "longitude": "-90.1114919959497"
    }
  },
  {
    "service_request": "2023-1037658",
    "request_type": "Trash/Recycling",
    "request_reason": "Illegal Dumping",
    "date_created": "2023-09-22T21:33:11.000",
    "date_modified": "2023-09-22T21:33:11.000",
    "request_status": "Pending",
    "responsible_agency": "Department of Sanitation",
    "final_address": "1922 Harmony St",
    "address_councildis": "B",
    "status": "Pending",
    "rowid": "1037658",
    "final_x": "3674187.65211",
    "final_y": "522940.172987",
    "longitude": "-90.09145374611796",
    "latitude": "29.932123972986375",
    "geocoded_column": {
      "latitude": "29.932123972986375",
      "longitude": "-90.09145374611796"
    }
  },
  {
    "service_request": "2023-1037657",
    "request_type": "Trash/Recycling",
    "request_reason": "Request a Large Item Pick Up",
    "date_created": "2023-09-22T21:30:44.000",
    "date_modified": "2023-09-22T21:30:45.000",
    "request_status": "Pending",
    "responsible_agency": "Department of Sanitation",
    "final_address": "4737 Good Dr",
    "address_councildis": "E",
    "status": "Assigned to Contractor",
    "contractor": "Waste Pro",
    "rowid": "1037657",
    "final_x": "3714854.54469",
    "final_y": "556853.72105",
    "longitude": "-89.9617923496182",
    "latitude": "30.02409887239293",
    "geocoded_column": {
      "latitude": "30.02409887239293",
      "longitude": "-89.9617923496182"
    }
  },
  {
    "service_request": "2023-1037656",
    "request_type": "Traffic Signals/Signs/Striping/Streetlights",
    "request_reason": "Street Name Sign Damaged or Missing",
    "date_created": "2023-09-22T21:29:34.000",
    "date_modified": "2023-09-22T21:29:34.000",
    "request_status": "Pending",
    "responsible_agency": "Department of Public Works",
    "final_address": "1504 Filmore Ave",
    "address_councildis": "D",
    "status": "Pending",
    "rowid": "1037656",
    "final_x": "3678611.55406",
    "final_y": "551742.818389",
    "longitude": "-90.07649057061363",
    "latitude": "30.011188783998605",
    "geocoded_column": {
      "latitude": "30.011188783998605",
      "longitude": "-90.07649057061363"
    }
  },
  {
    "service_request": "2023-1037655",
    "request_type": "Abandoned Vehicles",
    "request_reason": "Abandoned/Junk Vehicles",
    "date_created": "2023-09-22T21:26:44.000",
    "date_modified": "2023-09-22T21:26:44.000",
    "request_status": "Pending",
    "responsible_agency": "Department of Public Works",
    "final_address": "2914 S Saratoga St",
    "address_councildis": "B",
    "status": "Pending",
    "rowid": "1037655",
    "final_x": "3674434.59432",
    "final_y": "523657.391419",
    "longitude": "-90.09064961748653",
    "latitude": "29.934088729155597",
    "geocoded_column": {
      "latitude": "29.934088729155597",
      "longitude": "-90.09064961748653"
    }
  },
  {
    "service_request": "2023-1037654",
    "request_type": "Trash/Recycling",
    "request_reason": "Order Recycling Cart",
    "date_created": "2023-09-22T21:16:10.000",
    "date_modified": "2023-09-22T21:16:10.000",
    "request_status": "Pending",
    "responsible_agency": "Department of Sanitation",
    "final_address": "3019 St Peter St",
    "address_councildis": "A",
    "status": "Pending",
    "rowid": "1037654",
    "final_x": "3675550.13429",
    "final_y": "537754.798024",
    "longitude": "-90.08664367535471",
    "latitude": "29.972818583887378",
    "geocoded_column": {
      "latitude": "29.972818583887378",
      "longitude": "-90.08664367535471"
    }
  },
  {
    "service_request": "2023-1037653",
    "request_type": "Roads/Drainage",
    "request_reason": "Pothole",
    "date_created": "2023-09-22T20:54:07.000",
    "date_modified": "2023-09-22T20:54:07.000",
    "request_status": "Pending",
    "responsible_agency": "Department of Public Works",
    "final_address": "1506 Milan St",
    "address_councildis": "B",
    "status": "Pending",
    "rowid": "1037653",
    "final_x": "3671572.56884",
    "final_y": "520709.144377",
    "longitude": "-90.0997851454598",
    "latitude": "29.926067034692668",
    "geocoded_column": {
      "latitude": "29.926067034692668",
      "longitude": "-90.0997851454598"
    }
  },
  {
    "service_request": "2023-1037652",
    "request_type": "Trash/Recycling",
    "request_reason": "Replace Trash Cart",
    "date_created": "2023-09-22T20:47:46.000",
    "date_modified": "2023-09-22T20:47:47.000",
    "request_status": "Pending",
    "responsible_agency": "Department of Sanitation",
    "final_address": "3015 Bienville Ave",
    "address_councildis": "B",
    "status": "Assigned to Contractor",
    "contractor": "Richards Disposal",
    "rowid": "1037652",
    "final_x": "3674743.24494",
    "final_y": "536627.624199",
    "longitude": "-90.08923063817849",
    "latitude": "29.96974335343762",
    "geocoded_column": {
      "latitude": "29.96974335343762",
      "longitude": "-90.08923063817849"
    }
  },
  {
    "service_request": "2023-1037651",
    "request_type": "Trash/Recycling",
    "request_reason": "Replace Trash Cart",
    "date_created": "2023-09-22T20:45:53.000",
    "date_modified": "2023-09-22T20:45:54.000",
    "request_status": "Pending",
    "responsible_agency": "Department of Sanitation",
    "final_address": "3013 Bienville Ave",
    "address_councildis": "B",
    "status": "Assigned to Contractor",
    "contractor": "Richards Disposal",
    "rowid": "1037651",
    "final_x": "3674752.14741",
    "final_y": "536620.744967",
    "longitude": "-90.08920275922078",
    "latitude": "29.969724172099404",
    "geocoded_column": {
      "latitude": "29.969724172099404",
      "longitude": "-90.08920275922078"
    }
  },
  {
    "service_request": "2023-1037650",
    "request_type": "Trash/Recycling",
    "request_reason": "Replace Trash Cart",
    "date_created": "2023-09-22T20:14:32.000",
    "date_modified": "2023-09-22T20:14:32.000",
    "request_status": "Pending",
    "responsible_agency": "Department of Sanitation",
    "final_address": "1043 Jena St",
    "address_councildis": "B",
    "status": "Assigned to Contractor",
    "contractor": "Richards Disposal",
    "rowid": "1037650",
    "final_x": "3670638.12692",
    "final_y": "519451.822135",
    "longitude": "-90.10277753870902",
    "latitude": "29.92263742690297",
    "geocoded_column": {
      "latitude": "29.92263742690297",
      "longitude": "-90.10277753870902"
    }
  },
  {
    "service_request": "2023-1037649",
    "request_type": "Trash/Recycling",
    "request_reason": "Replace Trash Cart",
    "date_created": "2023-09-22T20:13:18.000",
    "date_modified": "2023-09-22T20:13:18.000",
    "request_status": "Pending",
    "responsible_agency": "Department of Sanitation",
    "final_address": "1041 Jena St",
    "address_councildis": "B",
    "status": "Assigned to Contractor",
    "contractor": "Richards Disposal",
    "rowid": "1037649",
    "final_x": "3670636.68187",
    "final_y": "519438.335223",
    "longitude": "-90.10278255736814",
    "latitude": "29.922600384855283",
    "geocoded_column": {
      "latitude": "29.922600384855283",
      "longitude": "-90.10278255736814"
    }
  },
  {
    "service_request": "2023-1037648",
    "request_type": "Traffic Signals/Signs/Striping/Streetlights",
    "request_reason": "Traffic Signal Malfunctioning/Damaged",
    "date_created": "2023-09-22T19:54:15.000",
    "date_modified": "2023-09-22T19:54:15.000",
    "request_status": "Pending",
    "responsible_agency": "Department of Public Works",
    "final_address": "I 10 E & READ BLVD",
    "address_councildis": "E",
    "status": "Pending",
    "rowid": "1037648",
    "final_x": "3710246.0",
    "final_y": "561456.68",
    "longitude": "-89.97618207572056",
    "latitude": "30.0369060630307",
    "geocoded_column": {
      "latitude": "30.0369060630307",
      "longitude": "-89.97618207572056"
    }
  },
  {
    "service_request": "2023-1037647",
    "request_type": "Trash/Recycling",
    "request_reason": "MIssed Recycling Pick-Up",
    "date_created": "2023-09-22T19:48:38.000",
    "date_modified": "2023-09-22T19:48:39.000",
    "request_status": "Pending",
    "responsible_agency": "Department of Sanitation",
    "status": "Assigned to Contractor",
    "rowid": "1037647",
    "longitude": "0.0",
    "latitude": "0.0",
    "geocoded_column": {
      "latitude": "0.0",
      "longitude": "0.0"
    }
  },
  {
    "service_request": "2023-1037646",
    "request_type": "Roads/Drainage",
    "request_reason": "Street Flooding / Drainage",
    "date_created": "2023-09-22T18:51:45.000",
    "date_modified": "2023-09-22T18:51:45.000",
    "request_status": "Pending",
    "responsible_agency": "Department of Public Works",
    "final_address": "OLD GENTILLY RD & CATHERINE ST & DOWNMAN RD",
    "address_councildis": "E",
    "status": "Pending",
    "rowid": "1037646",
    "final_x": "3696339.9",
    "final_y": "550475.68",
    "longitude": "-90.02052574174068",
    "latitude": "30.007158024357857",
    "geocoded_column": {
      "latitude": "30.007158024357857",
      "longitude": "-90.02052574174068"
    }
  },
  {
    "service_request": "2023-1037645",
    "request_type": "Roads/Drainage",
    "request_reason": "Man hole cover issue",
    "date_created": "2023-09-22T18:51:13.000",
    "date_modified": "2023-09-22T18:51:13.000",
    "request_status": "Pending",
    "responsible_agency": "Department of Public Works",
    "final_address": "7115 Camp St",
    "address_councildis": "A",
    "status": "Pending",
    "rowid": "1037645",
    "final_x": "3661024.47411",
    "final_y": "521586.278265",
    "longitude": "-90.13305358640616",
    "latitude": "29.92878690441448",
    "geocoded_column": {
      "latitude": "29.92878690441448",
      "longitude": "-90.13305358640616"
    }
  },
  {
    "service_request": "2023-1037644",
    "request_type": "Roads/Drainage",
    "request_reason": "Pothole",
    "date_created": "2023-09-22T18:49:01.000",
    "date_modified": "2023-09-22T18:49:01.000",
    "request_status": "Pending",
    "responsible_agency": "Department of Public Works",
    "final_address": "5902 Hurst St",
    "address_councildis": "A",
    "status": "Pending",
    "rowid": "1037644",
    "final_x": "3665757.45908",
    "final_y": "521688.420601",
    "longitude": "-90.11810904350683",
    "latitude": "29.92893059016598",
    "geocoded_column": {
      "latitude": "29.92893059016598",
      "longitude": "-90.11810904350683"
    }
  },
  {
    "service_request": "2023-1037643",
    "request_type": "Roads/Drainage",
    "request_reason": "Pothole",
    "date_created": "2023-09-22T18:48:04.000",
    "date_modified": "2023-09-22T18:48:04.000",
    "request_status": "Pending",
    "responsible_agency": "Department of Public Works",
    "final_address": "6125 Pitt St",
    "address_councildis": "A",
    "status": "Pending",
    "rowid": "1037643",
    "final_x": "3664701.78119",
    "final_y": "521470.575801",
    "longitude": "-90.1214488946833",
    "latitude": "29.92836232888595",
    "geocoded_column": {
      "latitude": "29.92836232888595",
      "longitude": "-90.1214488946833"
    }
  },
  {
    "service_request": "2023-1037642",
    "request_type": "Trash/Recycling",
    "request_reason": "Request a Large Item Pick Up",
    "date_created": "2023-09-22T18:39:19.000",
    "date_modified": "2023-09-22T18:39:20.000",
    "request_status": "Pending",
    "responsible_agency": "Department of Sanitation",
    "final_address": "6898 Milne Blvd",
    "address_councildis": "A",
    "status": "Assigned to Contractor",
    "contractor": "IV Waste",
    "rowid": "1037642",
    "final_x": "3667531.32589",
    "final_y": "553538.173911",
    "longitude": "-90.11143711239937",
    "latitude": "30.01645490764264",
    "geocoded_column": {
      "latitude": "30.01645490764264",
      "longitude": "-90.11143711239937"
    }
  },
  {
    "service_request": "2023-1037641",
    "request_type": "Trash/Recycling",
    "request_reason": "MIssed Recycling Pick-Up",
    "date_created": "2023-09-22T18:37:57.000",
    "date_modified": "2023-09-22T18:37:58.000",
    "request_status": "Pending",
    "responsible_agency": "Department of Sanitation",
    "status": "Assigned to Contractor",
    "rowid": "1037641",
    "longitude": "0.0",
    "latitude": "0.0",
    "geocoded_column": {
      "latitude": "0.0",
      "longitude": "0.0"
    }
  },