[
  {
    "service_request": "2024-1058393",
    "request_type": "Roads/Drainage",
    "request_reason": "Pothole",
    "date_created": "2024-01-01T00:30:52.000",
    "date_modified": "2024-01-01T00:30:52.000",
    "request_status": "Pending",
    "responsible_agency": "Department of Public Works",
    "final_address": "4314 Pitt St",
    "address_councildis": "B",
    "status": "Pending",
    "rowid": "1058393",
    "final_x": "3671181.83662",
    "final_y": "520562.776248",
    "longitude": "-90.10102354544037",
    "latitude": "29.92567612958479",
    "geocoded_column": {
      "latitude": "29.92567612958479",
      "longitude": "-90.10102354544037"
    }
  },
  {
    "service_request": "2023-1058392",
    "request_type": "Property Maintenance",
    "request_reason": "Property Maintenance",
    "date_created": "2023-12-31T23:52:57.000",
    "date_modified": "2023-12-31T23:52:57.000",
    "request_status": "Pending",
    "responsible_agency": "Department of Code Enforcement",
    "final_address": "2025 Alvar St",
    "address_councildis": "D",
    "status": "Pending",
    "rowid": "1058392",
    "final_x": "3692446.18813",
    "final_y": "539010.54177",
    "longitude": "-90.03323797702913",
    "latitude": "29.97575514235341",
    "geocoded_column": {
      "latitude": "29.97575514235341",
      "longitude": "-90.03323797702913"
    }
  },
  {
    "service_request": "2023-1058391",
    "request_type": "Property Maintenance",
    "request_reason": "Property Maintenance",
    "date_created": "2023-12-31T23:34:22.000",
    "date_modified": "2023-12-31T23:34:22.000",
    "request_status": "Pending",
    "responsible_agency": "Department of Code Enforcement",
    "final_address": "1000 BLK State St",
    "address_councildis": "A",
    "status": "Pending",
    "rowid": "1058391",
    "final_x": "3664963.62509",
    "final_y": "520022.707774",
    "longitude": "-90.12067067872155",
    "latitude": "29.924373530056673",
    "geocoded_column": {
      "latitude": "29.924373530056673",
      "longitude": "-90.12067067872155"
    }
  },
  {
    "service_request": "2023-1058390",
    "request_type": "Trash/Recycling",
    "request_reason": "Order Recycling Cart",
    "date_created": "2023-12-31T23:11:25.000",
    "date_modified": "2023-12-31T23:11:25.000",
    "request_status": "Pending",
    "responsible_agency": "Department of Sanitation",
    "final_address": "4758 Francis Dr",
    "address_councildis": "D",
    "status": "Pending",
    "rowid": "1058390",
    "final_x": "3698157.03747",
    "final_y": "554523.563736",
    "longitude": "-90.01463776249017",
    "latitude": "30.018230809643452",
    "geocoded_column": {
      "latitude": "30.018230809643452",
      "longitude": "-90.01463776249017"
    }
  },
  {
    "service_request": "2023-1058389",
    "request_type": "Roads/Drainage",
    "request_reason": "Pothole",
    "date_created": "2023-12-31T23:02:44.000",
    "date_modified": "2023-12-31T23:02:44.000",
    "request_status": "Pending",
    "responsible_agency": "Department of Public Works",
    "final_address": "4216 Chestnut St",
    "address_councildis": "B",
    "status": "Pending",
    "rowid": "1058389",
    "final_x": "3671574.31393",
    "final_y": "519539.203703",
    "longitude": "-90.09981939416457",
    "latitude": "29.922850019854593",
    "geocoded_column": {
      "latitude": "29.922850019854593",
      "longitude": "-90.09981939416457"
    }
  },
  {
    "service_request": "2023-1058388",
    "request_type": "Mosquito, Termite & Rodent Control",
    "request_reason": "Mosquito Complaint",
    "date_created": "2023-12-31T21:24:21.000",
    "date_modified": "2023-12-31T21:24:21.000",
    "request_status": "Pending",
    "responsible_agency": "Mosquito, Termite & Rodent Control Board",
    "final_address": "10201 Chevy Chase Dr",
    "address_councildis": "E",
    "status": "Pending",
    "rowid": "1058388",
    "final_x": "3709952.25745",
    "final_y": "563232.614944",
    "longitude": "-89.97704392618412",
    "latitude": "30.04179873876961",
    "geocoded_column": {
      "latitude": "30.04179873876961",
      "longitude": "-89.97704392618412"
    }
  },
  {
    "service_request": "2023-1058387",
    "request_type": "Traffic Signals/Signs/Striping/Streetlights",
    "request_reason": "Traffic Sign Missing/Damaged",
    "date_created": "2023-12-31T21:21:48.000",
    "date_modified": "2023-12-31T21:21:48.000",
    "request_status": "Pending",
    "responsible_agency": "Department of Public Works",
    "final_address": "LANE ST & ARGONNE BLVD",
    "address_councildis": "A",
    "status": "Pending",
    "rowid": "1058387",
    "final_x": "3670435.9",
    "final_y": "550544.88",
    "longitude": "-90.10236148510914",
    "latitude": "30.00813891988428",
    "geocoded_column": {
      "latitude": "30.00813891988428",
      "longitude": "-90.10236148510914"
    }
  },
  {
    "service_request": "2023-1058386",
    "request_type": "Property Maintenance",
    "request_reason": "Property Maintenance",
    "date_created": "2023-12-31T20:57:40.000",
    "date_modified": "2023-12-31T20:57:40.000",
    "request_status": "Pending",
    "responsible_agency": "Department of Code Enforcement",
    "final_address": "1100 BLK Nashville Ave",
    "address_councildis": "A",
    "status": "Pending",
    "rowid": "1058386",
    "final_x": "3665783.89149",
    "final_y": "520165.702895",
    "longitude": "-90.11807658264756",
    "latitude": "29.92474282613868",
    "geocoded_column": {
      "latitude": "29.92474282613868",
      "longitude": "-90.11807658264756"
    }
  },
  {
    "service_request": "2023-1058385",
    "request_type": "Trash/Recycling",
    "request_reason": "Order Recycling Cart",
    "date_created": "2023-12-31T20:38:48.000",
    "date_modified": "2023-12-31T20:38:48.000",
    "request_status": "Pending",
    "responsible_agency": "Department of Sanitation",
    "final_address": "2452 Verbena St",
    "address_councildis": "D",
    "status": "Pending",
    "rowid": "1058385",
    "final_x": "3686036.17673",
    "final_y": "547688.696722",
    "longitude": "-90.05317634363199",
    "latitude": "29.99981540446704",
    "geocoded_column": {
      "latitude": "29.99981540446704",
      "longitude": "-90.05317634363199"
    }
  },
  {
    "service_request": "2023-1058383",
    "request_type": "Traffic Signals/Signs/Striping/Streetlights",
    "request_reason": "Street Light Outage/Malfunction",
    "date_created": "2023-12-31T20:14:19.000",
    "date_modified": "2023-12-31T20:14:20.000",
    "request_status": "Pending",
    "responsible_agency": "Department of Public Works",
    "final_address": "0 BLK Lark St",
    "address_councildis": "D",
    "status": "Assigned to Contractor",
    "contractor": "Legacy Professional Services",
    "rowid": "1058383",
    "final_x": "3675870.15544",
    "final_y": "556393.157671",
    "longitude": "-90.08499169643981",
    "latitude": "30.024057939540192",
    "geocoded_column": {
      "latitude": "30.024057939540192",
      "longitude": "-90.08499169643981"
    }
  },
  {
    "service_request": "2023-1058381",
    "request_type": "Trash/Recycling",
    "request_reason": "Request a Large Item Pick Up",
    "date_created": "2023-12-31T18:28:57.000",
    "date_modified": "2023-12-31T18:28:59.000",
    "request_status": "Pending",
    "responsible_agency": "Department of Sanitation",
    "final_address": "1408 Lowerline St",
    "address_councildis": "A",
    "status": "Assigned to Contractor",
    "contractor": "Richards Disposal",
    "rowid": "1058381",
    "final_x": "3664062.57319",
    "final_y": "527553.034495",
    "longitude": "-90.12326397061564",
    "latitude": "29.945105731119437",
    "geocoded_column": {
      "latitude": "29.945105731119437",
      "longitude": "-90.12326397061564"
    }
  },
  {
    "service_request": "2023-1058380",
    "request_type": "Trash/Recycling",
    "request_reason": "MIssed Recycling Pick-Up",
    "date_created": "2023-12-31T18:25:56.000",
    "date_modified": "2023-12-31T18:25:57.000",
    "request_status": "Pending",
    "responsible_agency": "Department of Sanitation",
    "final_address": "1408 Lowerline St",
    "address_councildis": "A",
    "status": "Assigned to Contractor",
    "contractor": "Richards Disposal",
    "rowid": "1058380",
    "final_x": "3664062.57319",
    "final_y": "527553.034495",
    "longitude": "-90.12326397061564",
    "latitude": "29.945105731119437",
    "geocoded_column": {
      "latitude": "29.945105731119437",
      "longitude": "-90.12326397061564"
    }
  },
  {
    "service_request": "2023-1058379",
    "request_type": "Mosquito, Termite & Rodent Control",
    "request_reason": "Mosquito Complaint",
    "date_created": "2023-12-31T17:25:23.000",
    "date_modified": "2023-12-31T17:25:23.000",
    "request_status": "Pending",
    "responsible_agency": "Mosquito, Termite & Rodent Control Board",
    "final_address": "4809 Chantilly Dr",
    "address_councildis": "E",
    "status": "Pending",
    "rowid": "1058379",
    "final_x": "3700935.14833",
    "final_y": "554482.35644",
    "longitude": "-90.00586153844738",
    "latitude": "30.018029301460142",
    "geocoded_column": {
      "latitude": "30.018029301460142",
      "longitude": "-90.00586153844738"
    }
  },
  {
    "service_request": "2023-1058378",
    "request_type": "Trash/Recycling",
    "request_reason": "Request a Large Item Pick Up",
    "date_created": "2023-12-31T17:11:18.000",
    "date_modified": "2023-12-31T17:11:19.000",
    "request_status": "Pending",
    "responsible_agency": "Department of Sanitation",
    "final_address": "2026 Gallier St",
    "address_councildis": "D",
    "status": "Assigned to Contractor",
    "contractor": "IV Waste",
    "rowid": "1058378",
    "final_x": "3691304.89443",
    "final_y": "539236.23393",
    "longitude": "-90.03683442471375",
    "latitude": "29.97641127244752",
    "geocoded_column": {
      "latitude": "29.97641127244752",
      "longitude": "-90.03683442471375"
    }
  },
  {
    "service_request": "2023-1058377",
    "request_type": "Roads/Drainage",
    "request_reason": "Pothole",
    "date_created": "2023-12-31T16:33:49.000",
    "date_modified": "2023-12-31T16:33:49.000",
    "request_status": "Pending",
    "responsible_agency": "Department of Public Works",
    "final_address": "1301 Constantinople St",
    "address_councildis": "B",
    "status": "Pending",
    "rowid": "1058377",
    "final_x": "3672430.66305",
    "final_y": "520250.7726",
    "longitude": "-90.09709199725775",
    "latitude": "29.924781230435865",
    "geocoded_column": {
      "latitude": "29.924781230435865",
      "longitude": "-90.09709199725775"
    }
  },
  {
    "service_request": "2023-1058374",
    "request_type": "Abandoned Vehicles",
    "request_reason": "Abandoned/Junk Vehicles",
    "date_created": "2023-12-31T16:18:21.000",
    "date_modified": "2023-12-31T16:18:21.000",
    "request_status": "Pending",
    "responsible_agency": "Department of Public Works",
    "final_address": "5800 Providence Pl",
    "address_councildis": "D",
    "status": "Pending",
    "rowid": "1058374",
    "final_x": "3688163.43087",
    "final_y": "554608.906008",
    "longitude": "-90.0462107081652",
    "latitude": "30.018777923546228",
    "geocoded_column": {
      "latitude": "30.018777923546228",
      "longitude": "-90.0462107081652"
    }
  },
  {
    "service_request": "2023-1058373",
    "request_type": "Trash/Recycling",
    "request_reason": "Request a Large Item Pick Up",
    "date_created": "2023-12-31T16:11:42.000",
    "date_modified": "2023-12-31T16:11:43.000",
    "request_status": "Pending",
    "responsible_agency": "Department of Sanitation",
    "final_address": "2734 Palmer Ave",
    "address_councildis": "A",
    "status": "Assigned to Contractor",
    "contractor": "Richards Disposal",
    "rowid": "1058373",
    "final_x": "3666771.84711",
    "final_y": "526790.39059",
    "longitude": "-90.1147355260787",
    "latitude": "29.942929756455325",
    "geocoded_column": {
      "latitude": "29.942929756455325",
      "longitude": "-90.1147355260787"
    }
  },
  {
    "service_request": "2023-1058372",
    "request_type": "Trash/Recycling",
    "request_reason": "Missed Trash Pick-Up",
    "date_created": "2023-12-31T15:59:14.000",
    "date_modified": "2023-12-31T15:59:16.000",
    "request_status": "Pending",
    "responsible_agency": "Department of Sanitation",
    "final_address": "6120 Camp St",
    "address_councildis": "A",
    "status": "Assigned to Contractor",
    "contractor": "Richards Disposal",
    "rowid": "1058372",
    "final_x": "3664064.73607",
    "final_y": "519716.749752",
    "longitude": "-90.12351837169366",
    "latitude": "29.92355836866188",
    "geocoded_column": {
      "latitude": "29.92355836866188",
      "longitude": "-90.12351837169366"
    }
  },
  {
    "service_request": "2023-1058371",
    "request_type": "Trash/Recycling",
    "request_reason": "Request a Large Item Pick Up",
    "date_created": "2023-12-31T15:46:15.000",
    "date_modified": "2023-12-31T15:46:16.000",
    "request_status": "Pending",
    "responsible_agency": "Department of Sanitation",
    "final_address": "4027 Delgado Dr A",
    "address_councildis": "A",
    "status": "Assigned to Contractor",
    "contractor": "Richards Disposal",
    "rowid": "1058371",
    "final_x": "3673812.15438",
    "final_y": "540969.160075",
    "longitude": "-90.09202257785174",
    "latitude": "29.98170886264218",
    "geocoded_column": {
      "latitude": "29.98170886264218",
      "longitude": "-90.09202257785174"
    }
  },
  {
    "service_request": "2023-1058370",
    "request_type": "Roads/Drainage",
    "request_reason": "Man hole cover issue",
    "date_created": "2023-12-31T15:45:52.000",
    "date_modified": "2023-12-31T15:45:52.000",
    "request_status": "Pending",
    "responsible_agency": "Department of Public Works",
    "final_address": "920 St Peter St",
    "address_councildis": "C",
    "status": "Pending",
    "rowid": "1058370",
    "final_x": "3681802.3782",
    "final_y": "532930.490948",
    "longitude": "-90.06706630170198",
    "latitude": "29.95936486884165",
    "geocoded_column": {
      "latitude": "29.95936486884165",
      "longitude": "-90.06706630170198"
    }
  },
  {
    "service_request": "2023-1058369",
    "request_type": "Property Maintenance",
    "request_reason": "Property Maintenance",
    "date_created": "2023-12-31T15:44:32.000",
    "date_modified": "2023-12-31T15:44:32.000",
    "request_status": "Pending",
    "responsible_agency": "Department of Code Enforcement",
    "final_address": "1309 Marigny St",
    "address_councildis": "C",
    "status": "Pending",
    "rowid": "1058369",
    "final_x": "3685389.05845",
    "final_y": "537177.809736",
    "longitude": "-90.05559088019541",
    "latitude": "29.970934051687433",
    "geocoded_column": {
      "latitude": "29.970934051687433",
      "longitude": "-90.05559088019541"
    }
  },
  {
    "service_request": "2023-1058368",
    "request_type": "Trash/Recycling",
    "request_reason": "Request a Large Item Pick Up",
    "date_created": "2023-12-31T15:34:40.000",
    "date_modified": "2023-12-31T15:34:41.000",
    "request_status": "Pending",
    "responsible_agency": "Department of Sanitation",
    "final_address": "930 Germain St",
    "address_councildis": "A",
    "status": "Assigned to Contractor",
    "contractor": "IV Waste",
    "rowid": "1058368",
    "final_x": "3670128.78606",
    "final_y": "547698.503122",
    "longitude": "-90.1034282780798",
    "latitude": "30.00032144627672",
    "geocoded_column": {
      "latitude": "30.00032144627672",
      "longitude": "-90.1034282780798"
    }
  },
  {
    "service_request": "2023-1058367",
    "request_type": "Roads/Drainage",
    "request_reason": "Pothole",
    "date_created": "2023-12-31T15:24:52.000",
    "date_modified": "2023-12-31T15:24:52.000",
    "request_status": "Pending",
    "responsible_agency": "Department of Public Works",
    "final_address": "4216 Chestnut St",
    "address_councildis": "B",
    "status": "Pending",
    "rowid": "1058367",
    "final_x": "3671574.31393",
    "final_y": "519539.203703",
    "longitude": "-90.09981939416457",
    "latitude": "29.922850019854593",
    "geocoded_column": {
      "latitude": "29.922850019854593",
      "longitude": "-90.09981939416457"
    }
  },
  {
    "service_request": "2023-1058366",
    "request_type": "Parks & Parkways",
    "request_reason": "Request Tree Service (Right of Way/Public Property)",
    "date_created": "2023-12-31T15:12:31.000",
    "date_modified": "2023-12-31T15:12:31.000",
    "request_status": "Pending",
    "responsible_agency": "Department of Parks & Parkway",
    "final_address": "2405 Nashville Ave",
    "address_councildis": "A",
    "status": "Pending",
    "rowid": "1058366",
    "final_x": "3667134.79725",
    "final_y": "524917.939836",
    "longitude": "-90.1136525279549",
    "latitude": "29.937770500387895",
    "geocoded_column": {
      "latitude": "29.937770500387895",
      "longitude": "-90.1136525279549"
    }
  },
  {
    "service_request": "2023-1058365",
    "request_type": "Roads/Drainage",
    "request_reason": "Pothole",
    "date_created": "2023-12-31T15:04:37.000",
    "date_modified": "2023-12-31T15:04:37.000",
    "request_status": "Pending",
    "responsible_agency": "Department of Public Works",
    "final_address": "1312 Milan St",
    "address_councildis": "B",
    "status": "Pending",
    "rowid": "1058365",
    "final_x": "3671625.82823",
    "final_y": "520286.919608",
    "longitude": "-90.09963137110304",
    "latitude": "29.92490447494246",
    "geocoded_column": {
      "latitude": "29.92490447494246",
      "longitude": "-90.09963137110304"
    }
  },
  {
    "service_request": "2023-1058364",
    "request_type": "Roads/Drainage",
    "request_reason": "Street Subsidence (Sinking)",
    "date_created": "2023-12-31T14:25:53.000",
    "date_modified": "2023-12-31T14:25:53.000",
    "request_status": "Pending",
    "responsible_agency": "Department of Public Works",
    "final_address": "1829 Bordeaux St",
    "address_councildis": "B",
    "status": "Pending",
    "rowid": "1058364",
    "final_x": "3669329.725",
    "final_y": "521672.549241",
    "longitude": "-90.1068326189762",
    "latitude": "29.92878229206484",
    "geocoded_column": {
      "latitude": "29.92878229206484",
      "longitude": "-90.1068326189762"
    }
  },
  {
    "service_request": "2023-1058362",
    "request_type": "Trash/Recycling",
    "request_reason": "Replace Trash Cart",
    "date_created": "2023-12-31T14:02:16.000",
    "date_modified": "2023-12-31T14:02:17.000",
    "request_status": "Pending",
    "responsible_agency": "Department of Sanitation",
    "final_address": "1007 Sixth St",
    "address_councildis": "B",
    "status": "Assigned to Contractor",
    "contractor": "Richards Disposal",
    "rowid": "1058362",
    "final_x": "3676819.45384",
    "final_y": "520312.720504",
    "longitude": "-90.08323589680724",
    "latitude": "29.924820639247393",
    "geocoded_column": {
      "latitude": "29.924820639247393",
      "longitude": "-90.08323589680724"
    }
  },
  {
    "service_request": "2023-1058361",
    "request_type": "Roads/Drainage",
    "request_reason": "Pothole",
    "date_created": "2023-12-31T13:50:19.000",
    "date_modified": "2023-12-31T13:50:19.000",
    "request_status": "Pending",
    "responsible_agency": "Department of Public Works",
    "final_address": "5914 Hurst St",
    "address_councildis": "A",
    "status": "Pending",
    "rowid": "1058361",
    "final_x": "3665677.14951",
    "final_y": "521715.385146",
    "longitude": "-90.11836166316931",
    "latitude": "29.929007075862273",
    "geocoded_column": {
      "latitude": "29.929007075862273",
      "longitude": "-90.11836166316931"
    }
  },
  {
    "service_request": "2023-1058360",
    "request_type": "Roads/Drainage",
    "request_reason": "Pothole",
    "date_created": "2023-12-31T13:47:03.000",
    "date_modified": "2023-12-31T13:47:03.000",
    "request_status": "Pending",
    "responsible_agency": "Department of Public Works",
    "final_address": "5920 Hurst St",
    "address_councildis": "A",
    "status": "Pending",
    "rowid": "1058360",
    "final_x": "3665634.94816",
    "final_y": "521728.61017",
    "longitude": "-90.1184944423846",
    "latitude": "29.9290446708389",
    "geocoded_column": {
      "latitude": "29.9290446708389",
      "longitude": "-90.1184944423846"
    }
  },
  {
    "service_request": "2023-1058359",
    "request_type": "Trash/Recycling",
    "request_reason": "Order Trash Cart",
    "date_created": "2023-12-31T13:29:59.000",
    "date_modified": "2023-12-31T13:30:00.000",
    "request_status": "Pending",
    "responsible_agency": "Department of Sanitation",
    "final_address": "2435 Governor Nicholls St",
    "address_councildis": "D",
    "status": "Assigned to Contractor",
    "contractor": "Richards Disposal",
    "rowid": "1058359",
    "final_x": "3678720.42453",
    "final_y": "537783.581832",
    "longitude": "-90.07663030392345",
    "latitude": "29.97280250421531",
    "geocoded_column": {
      "latitude": "29.97280250421531",
      "longitude": "-90.07663030392345"
    }
  },
  {
    "service_request": "2023-1058358",
    "request_type": "Abandoned Vehicles",
    "request_reason": "Abandoned/Junk Vehicles",
    "date_created": "2023-12-31T13:28:09.000",
    "date_modified": "2023-12-31T13:28:09.000",
    "request_status": "Pending",
    "responsible_agency": "Department of Public Works",
    "final_address": "170 Walnut St",
    "address_councildis": "A",
    "status": "Pending",
    "rowid": "1058358",
    "final_x": "3660948.46688",
    "final_y": "520886.774841",
    "longitude": "-90.13331665292618",
    "latitude": "29.926865677310165",
    "geocoded_column": {
      "latitude": "29.926865677310165",
      "longitude": "-90.13331665292618"
    }
  },
  {
    "service_request": "2023-1058357",
    "request_type": "Trash/Recycling",
    "request_reason": "Request a Large Item Pick Up",
    "date_created": "2023-12-31T13:21:37.000",
    "date_modified": "2023-12-31T13:21:38.000",
    "request_status": "Pending",
    "responsible_agency": "Department of Sanitation",
    "final_address": "5838 Willow St",
    "address_councildis": "A",
    "status": "Assigned to Contractor",
    "contractor": "Richards Disposal",
    "rowid": "1058357",
    "final_x": "3666913.33914",
    "final_y": "525613.846781",
    "longitude": "-90.11432831807842",
    "latitude": "29.939690501169764",
    "geocoded_column": {
      "latitude": "29.939690501169764",
      "longitude": "-90.11432831807842"
    }
  },
  {
    "service_request": "2023-1058356",
    "request_type": "Roads/Drainage",
    "request_reason": "Street Subsidence (Sinking)",
    "date_created": "2023-12-31T13:00:28.000",
    "date_modified": "2023-12-31T13:00:28.000",
    "request_status": "Pending",
    "responsible_agency": "Department of Public Works",
    "final_address": "4622 Chestnut St",
    "address_councildis": "B",
    "status": "Pending",
    "rowid": "1058356",
    "final_x": "3670039.94497",
    "final_y": "519389.544887",
    "longitude": "-90.10466787331214",
    "latitude": "29.922483834817356",
    "geocoded_column": {
      "latitude": "29.922483834817356",
      "longitude": "-90.10466787331214"
    }
  },
  {
    "service_request": "2023-1058355",
    "request_type": "Trash/Recycling",
    "request_reason": "Replace Trash Cart",
    "date_created": "2023-12-31T12:35:17.000",
    "date_modified": "2023-12-31T12:35:19.000",
    "request_status": "Pending",
    "responsible_agency": "Department of Sanitation",
    "final_address": "6321 Hewes St",
    "address_councildis": "A",
    "status": "Assigned to Contractor",
    "contractor": "Richards Disposal",
    "rowid": "1058355",
    "final_x": "3667715.97914",
    "final_y": "529885.970305",
    "longitude": "-90.1116504581841",
    "latitude": "29.951413953192326",
    "geocoded_column": {
      "latitude": "29.951413953192326",
      "longitude": "-90.1116504581841"
    }
  },
  {
    "service_request": "2023-1058354",
    "request_type": "Trash/Recycling",
    "request_reason": "Request a Large Item Pick Up",
    "date_created": "2023-12-31T12:33:47.000",
    "date_modified": "2023-12-31T12:33:48.000",
    "request_status": "Pending",
    "responsible_agency": "Department of Sanitation",
    "final_address": "5987 Tchoupitoulas St",
    "address_councildis": "A",
    "status": "Assigned to Contractor",
    "contractor": "Richards Disposal",
    "rowid": "1058354",
    "final_x": "3664230.01709",
    "final_y": "517543.768822",
    "longitude": "-90.1230690880363",
    "latitude": "29.91757854977657",
    "geocoded_column": {
      "latitude": "29.91757854977657",
      "longitude": "-90.1230690880363"
    }
  },
  {
    "service_request": "2023-1058353",
    "request_type": "Trash/Recycling",
    "request_reason": "MIssed Recycling Pick-Up",
    "date_created": "2023-12-31T12:29:21.000",
    "date_modified": "2023-12-31T12:29:22.000",
    "request_status": "Pending",
    "responsible_agency": "Department of Sanitation",
    "final_address": "7728 Plum St",
    "address_councildis": "A",
    "status": "Assigned to Contractor",
    "contractor": "Richards Disposal",
    "rowid": "1058353",
    "final_x": "3663079.25248",
    "final_y": "527781.895167",
    "longitude": "-90.12636102356754",
    "latitude": "29.945763541728354",
    "geocoded_column": {
      "latitude": "29.945763541728354",
      "longitude": "-90.12636102356754"
    }
  },
  {
    "service_request": "2023-1058352",
    "request_type": "Traffic Signals/Signs/Striping/Streetlights",
    "request_reason": "Street Name Sign Damaged or Missing",
    "date_created": "2023-12-31T12:22:20.000",
    "date_modified": "2023-12-31T12:22:20.000",
    "request_status": "Pending",
    "responsible_agency": "Department of Public Works",
    "final_address": "1200 BLK N Carrollton Ave",
    "address_councildis": "A",
    "status": "Pending",
    "rowid": "1058352",
    "final_x": "3674421.29679",
    "final_y": "541717.041025",
    "longitude": "-90.09007298741892",
    "latitude": "29.983747119113552",
    "geocoded_column": {
      "latitude": "29.983747119113552",
      "longitude": "-90.09007298741892"
    }
  },
  {
    "service_request": "2023-1058351",
    "request_type": "Roads/Drainage",
    "request_reason": "Pothole",
    "date_created": "2023-12-31T12:05:30.000",
    "date_modified": "2023-12-31T12:05:30.000",
    "request_status": "Pending",
    "responsible_agency": "Department of Public Works",
    "final_address": "3400 BLK Canal St",
    "address_councildis": "B",
    "status": "Pending",
    "rowid": "1058351",
    "final_x": "3673052.53936",
    "final_y": "536912.881671",
    "longitude": "-90.09456031040321",
    "latitude": "29.9705780821041",
    "geocoded_column": {
      "latitude": "29.9705780821041",
      "longitude": "-90.09456031040321"
    }
  },
  {
    "service_request": "2023-1058350",
    "request_type": "Trash/Recycling",
    "request_reason": "Request a Large Item Pick Up",
    "date_created": "2023-12-31T11:35:19.000",
    "date_modified": "2023-12-31T11:35:20.000",
    "request_status": "Pending",
    "responsible_agency": "Department of Sanitation",
    "final_address": "2400 BLK Saint Ann St",
    "address_councildis": "D",
    "status": "Assigned to Contractor",
    "contractor": "Richards Disposal",
    "rowid": "1058350",
    "final_x": "3677872.36928",
    "final_y": "536495.357571",
    "longitude": "-90.07935314677705",
    "latitude": "29.969285875708994",
    "geocoded_column": {
      "latitude": "29.969285875708994",
      "longitude": "-90.07935314677705"
    }
  },
  {
    "service_request": "2023-1058348",
    "request_type": "Roads/Drainage",
    "request_reason": "Pothole",
    "date_created": "2023-12-31T11:14:07.000",
    "date_modified": "2023-12-31T11:14:07.000",
    "request_status": "Pending",
    "responsible_agency": "Department of Public Works",
    "final_address": "1725 Dufossat St",
    "address_councildis": "B",
    "status": "Pending",
    "rowid": "1058348",
    "final_x": "3668192.68743",
    "final_y": "522036.060218",
    "longitude": "-90.11040977787289",
    "latitude": "29.92981524824353",
    "geocoded_column": {
      "latitude": "29.92981524824353",
      "longitude": "-90.11040977787289"
    }
  },
  {
    "service_request": "2023-1058347",
    "request_type": "Trash/Recycling",
    "request_reason": "Request a Large Item Pick Up",
    "date_created": "2023-12-31T10:44:06.000",
    "date_modified": "2023-12-31T10:44:07.000",
    "request_status": "Pending",
    "responsible_agency": "Department of Sanitation",
    "final_address": "1560 Athis St",
    "address_councildis": "D",
    "status": "Assigned to Contractor",
    "contractor": "IV Waste",
    "rowid": "1058347",
    "final_x": "3678868.25058",
    "final_y": "553679.698967",
    "longitude": "-90.07561239388795",
    "latitude": "30.016506762506793",
    "geocoded_column": {
      "latitude": "30.016506762506793",
      "longitude": "-90.07561239388795"
    }
  },
  {
    "service_request": "2023-1058346",
    "request_type": "Property Maintenance",
    "request_reason": "Property Maintenance",
    "date_created": "2023-12-31T10:16:46.000",
    "date_modified": "2023-12-31T10:16:46.000",
    "request_status": "Pending",
    "responsible_agency": "Department of Code Enforcement",
    "final_address": "4925 Music St",
    "address_councildis": "D",
    "status": "Pending",
    "rowid": "1058346",
    "final_x": "3685633.57404",
    "final_y": "551104.421461",
    "longitude": "-90.05432773593094",
    "latitude": "30.00921977140412",
    "geocoded_column": {
      "latitude": "30.00921977140412",
      "longitude": "-90.05432773593094"
    }
  },
  {
    "service_request": "2023-1058345",
    "request_type": "Mosquito, Termite & Rodent Control",
    "request_reason": "Mosquito Complaint",
    "date_created": "2023-12-31T10:01:44.000",
    "date_modified": "2023-12-31T10:01:44.000",
    "request_status": "Pending",
    "responsible_agency": "Mosquito, Termite & Rodent Control Board",
    "final_address": "7830 Parry St",
    "address_councildis": "E",
    "status": "Pending",
    "rowid": "1058345",
    "final_x": "3713945.12965",
    "final_y": "568965.835942",
    "longitude": "-89.96420860137064",
    "latitude": "30.05743220476295",
    "geocoded_column": {
      "latitude": "30.05743220476295",
      "longitude": "-89.96420860137064"
    }
  },
  {
    "service_request": "2023-1058344",
    "request_type": "Abandoned Vehicles",
    "request_reason": "Abandoned/Junk Vehicles",
    "date_created": "2023-12-31T09:43:44.000",
    "date_modified": "2023-12-31T09:43:44.000",
    "request_status": "Pending",
    "responsible_agency": "Department of Public Works",
    "final_address": "8003 Jeannette St",
    "address_councildis": "A",
    "status": "Pending",
    "rowid": "1058344",
    "final_x": "3662993.83802",
    "final_y": "528918.341824",
    "longitude": "-90.1265929181658",
    "latitude": "29.94889087904273",
    "geocoded_column": {
      "latitude": "29.94889087904273",
      "longitude": "-90.1265929181658"
    }
  },
  {
    "service_request": "2023-1058343",
    "request_type": "Roads/Drainage",
    "request_reason": "Man hole cover issue",
    "date_created": "2023-12-31T09:32:10.000",
    "date_modified": "2023-12-31T09:32:10.000",
    "request_status": "Pending",
    "responsible_agency": "Department of Public Works",
    "final_address": "7814 Lady Gray St",
    "address_councildis": "E",
    "status": "Pending",
    "rowid": "1058343",
    "final_x": "3709482.88632",
    "final_y": "566004.408739",
    "longitude": "-89.97842371793797",
    "latitude": "30.049435327232203",
    "geocoded_column": {
      "latitude": "30.049435327232203",
      "longitude": "-89.97842371793797"
    }
  },
  {
    "service_request": "2023-1058342",
    "request_type": "Trash/Recycling",
    "request_reason": "Missed Trash Pick-Up",
    "date_created": "2023-12-31T09:17:53.000",
    "date_modified": "2023-12-31T09:17:55.000",
    "request_status": "Pending",
    "responsible_agency": "Department of Sanitation",
    "final_address": "8229 S Claiborne Ave",
    "address_councildis": "A",
    "status": "Assigned to Contractor",
    "contractor": "Richards Disposal",
    "rowid": "1058342",
    "final_x": "3664453.96672",
    "final_y": "532029.537219",
    "longitude": "-90.12187878334746",
    "latitude": "29.957403294336462",
    "geocoded_column": {
      "latitude": "29.957403294336462",
      "longitude": "-90.12187878334746"
    }
  },
  {
    "service_request": "2023-1058341",
    "request_type": "Property Maintenance",
    "request_reason": "Property Maintenance",
    "date_created": "2023-12-31T07:48:28.000",
    "date_modified": "2023-12-31T07:48:28.000",
    "request_status": "Pending",
    "responsible_agency": "Department of Code Enforcement",
    "final_address": "6377 Patterson St",
    "address_councildis": "C",
    "status": "Pending",
    "rowid": "1058341",
    "final_x": "3707879.66974",
    "final_y": "520798.027513",
    "longitude": "-89.98517190160872",
    "latitude": "29.925186762356446",
    "geocoded_column": {
      "latitude": "29.925186762356446",
      "longitude": "-89.98517190160872"
    }
  },
  {
    "service_request": "2023-1058340",
    "request_type": "Trash/Recycling",
    "request_reason": "Request a Large Item Pick Up",
    "date_created": "2023-12-31T07:45:28.000",
    "date_modified": "2023-12-31T07:45:30.000",
    "request_status": "Pending",
    "responsible_agency": "Department of Sanitation",
    "final_address": "7573 Patterson St",
    "address_councildis": "C",
    "status": "Assigned to Contractor",
    "contractor": "Richards Disposal",
    "rowid": "1058340",
    "final_x": "3712230.74251",
    "final_y": "518967.892535",
    "longitude": "-89.97150575580237",
    "latitude": "29.920013056495883",
    "geocoded_column": {
      "latitude": "29.920013056495883",
      "longitude": "-89.97150575580237"
    }
  },
  {
    "service_request": "2023-1058339",
    "request_type": "Property Maintenance",
    "request_reason": "Property Maintenance",
    "date_created": "2023-12-31T07:39:10.000",
    "date_modified": "2023-12-31T07:39:10.000",
    "request_status": "Pending",
    "responsible_agency": "Department of Code Enforcement",
    "final_address": "8201 Palm St",
    "address_councildis": "A",
    "status": "Pending",
    "rowid": "1058339",
    "final_x": "3667451.44602",
    "final_y": "535002.51847",
    "longitude": "-90.11231357175221",
    "latitude": "29.96549053153417",
    "geocoded_column": {
      "latitude": "29.96549053153417",
      "longitude": "-90.11231357175221"
    }
  },
  {
    "service_request": "2023-1058338",
    "request_type": "Property Maintenance",
    "request_reason": "Property Maintenance",
    "date_created": "2023-12-31T07:37:15.000",
    "date_modified": "2023-12-31T07:37:15.000",
    "request_status": "Pending",
    "responsible_agency": "Department of Code Enforcement",
    "final_address": "8201 Palm St",
    "address_councildis": "A",
    "status": "Pending",
    "rowid": "1058338",
    "final_x": "3667451.44602",
    "final_y": "535002.51847",
    "longitude": "-90.11231357175221",
    "latitude": "29.96549053153417",
    "geocoded_column": {
      "latitude": "29.96549053153417",
      "longitude": "-90.11231357175221"
    }
  },
  {
    "service_request": "2023-1058337",
    "request_type": "Trash/Recycling",
    "request_reason": "Missed Trash Pick-Up",
    "date_created": "2023-12-31T07:36:59.000",
    "date_modified": "2023-12-31T07:37:01.000",
    "request_status": "Pending",
    "responsible_agency": "Department of Sanitation",
    "final_address": "2931 Bacchus Dr",
    "address_councildis": "C",
    "status": "Assigned to Contractor",
    "contractor": "Richards Disposal",
    "rowid": "1058337",
    "final_x": "3710161.84862",
    "final_y": "518643.020343",
    "longitude": "-89.97804832129685",
    "latitude": "29.919187220615434",
    "geocoded_column": {
      "latitude": "29.919187220615434",
      "longitude": "-89.97804832129685"
    }
  },
  {
    "service_request": "2023-1058335",
    "request_type": "Abandoned Vehicles",
    "request_reason": "Abandoned/Junk Vehicles",
    "date_created": "2023-12-31T03:09:31.000",
    "date_modified": "2023-12-31T03:09:31.000",
    "request_status": "Pending",
    "responsible_agency": "Department of Public Works",
    "final_address": "1312 Frenchmen St",
    "address_councildis": "C",
    "status": "Pending",
    "rowid": "1058335",
    "final_x": "3684493.90626",
    "final_y": "537134.566792",
    "longitude": "-90.058419400755",
    "latitude": "29.970842565222124",
    "geocoded_column": {
      "latitude": "29.970842565222124",
      "longitude": "-90.058419400755"
    }
  },
  {
    "service_request": "2023-1058334",
    "request_type": "Property Maintenance",
    "request_reason": "Property Maintenance",
    "date_created": "2023-12-30T23:37:58.000",
    "date_modified": "2023-12-30T23:37:58.000",
    "request_status": "Pending",
    "responsible_agency": "Department of Code Enforcement",
    "final_address": "1002 State St",
    "address_councildis": "A",
    "status": "Pending",
    "rowid": "1058334",
    "final_x": "3664871.17511",
    "final_y": "519925.617016",
    "longitude": "-90.12096575546664",
    "latitude": "29.92410925094869",
    "geocoded_column": {
      "latitude": "29.92410925094869",
      "longitude": "-90.12096575546664"
    }
  },
  {
    "service_request": "2023-1058333",
    "request_type": "Abandoned Vehicles",
    "request_reason": "Abandoned/Junk Vehicles",
    "date_created": "2023-12-30T23:35:21.000",
    "date_modified": "2023-12-30T23:35:21.000",
    "request_status": "Pending",
    "responsible_agency": "Department of Public Works",
    "final_address": "1105 Treme St",
    "address_councildis": "C",
    "status": "Pending",
    "rowid": "1058333",
    "final_x": "3681726.87458",
    "final_y": "535056.15175",
    "longitude": "-90.06723055574369",
    "latitude": "29.96521200336559",
    "geocoded_column": {
      "latitude": "29.96521200336559",
      "longitude": "-90.06723055574369"
    }
  },
  {
    "service_request": "2023-1058332",
    "request_type": "Roads/Drainage",
    "request_reason": "Pothole",
    "date_created": "2023-12-30T22:16:56.000",
    "date_modified": "2023-12-30T22:16:56.000",
    "request_status": "Pending",
    "responsible_agency": "Department of Public Works",
    "final_address": "1420 Valence St",
    "address_councildis": "B",
    "status": "Pending",
    "rowid": "1058332",
    "final_x": "3669700.59668",
    "final_y": "520355.41356",
    "longitude": "-90.10570639693285",
    "latitude": "29.925149667961925",
    "geocoded_column": {
      "latitude": "29.925149667961925",
      "longitude": "-90.10570639693285"
    }
  },
  {
    "service_request": "2023-1058331",
    "request_type": "Property Maintenance",
    "request_reason": "Property Maintenance",
    "date_created": "2023-12-30T21:25:58.000",
    "date_modified": "2023-12-30T21:25:58.000",
    "request_status": "Pending",
    "responsible_agency": "Department of Code Enforcement",
    "final_address": "4808 Raymond Joseph Dr",
    "address_councildis": "E",
    "status": "Pending",
    "rowid": "1058331",
    "final_x": "3703608.67454",
    "final_y": "555612.082137",
    "longitude": "-89.99737265900636",
    "latitude": "30.021050177157413",
    "geocoded_column": {
      "latitude": "30.021050177157413",
      "longitude": "-89.99737265900636"
    }
  },
  {
    "service_request": "2023-1058330",
    "request_type": "Property Maintenance",
    "request_reason": "Property Maintenance",
    "date_created": "2023-12-30T21:20:57.000",
    "date_modified": "2023-12-30T21:20:57.000",
    "request_status": "Pending",
    "responsible_agency": "Department of Code Enforcement",
    "final_address": "4800 Raymond Joseph Dr",
    "address_councildis": "E",
    "status": "Pending",
    "rowid": "1058330",
    "final_x": "3703617.16906",
    "final_y": "555514.866841",
    "longitude": "-89.99734940039193",
    "latitude": "30.020782600196448",
    "geocoded_column": {
      "latitude": "30.020782600196448",
      "longitude": "-89.99734940039193"
    }
  },
  {
    "service_request": "2023-1058329",
    "request_type": "Property Maintenance",
    "request_reason": "Property Maintenance",
    "date_created": "2023-12-30T20:30:24.000",
    "date_modified": "2023-12-30T20:30:24.000",
    "request_status": "Pending",
    "responsible_agency": "Department of Code Enforcement",
    "final_address": "1218 State St",
    "address_councildis": "A",
    "status": "Pending",
    "rowid": "1058329",
    "final_x": "3665109.65268",
    "final_y": "520683.046841",
    "longitude": "-90.1201876489551",
    "latitude": "29.926185004585204",
    "geocoded_column": {
      "latitude": "29.926185004585204",
      "longitude": "-90.1201876489551"
    }
  },
  {
    "service_request": "2023-1058328",
    "request_type": "Traffic Signals/Signs/Striping/Streetlights",
    "request_reason": "Street Light Outage/Malfunction",
    "date_created": "2023-12-30T19:52:49.000",
    "date_modified": "2023-12-30T19:52:50.000",
    "request_status": "Pending",
    "responsible_agency": "Department of Public Works",
    "final_address": "109 Lark St",
    "address_councildis": "D",
    "status": "Assigned to Contractor",
    "contractor": "Legacy Professional Services",
    "rowid": "1058328",
    "final_x": "3674864.29409",
    "final_y": "556196.748954",
    "longitude": "-90.08817677621316",
    "latitude": "30.023547979881883",
    "geocoded_column": {
      "latitude": "30.023547979881883",
      "longitude": "-90.08817677621316"
    }
  },
  {
    "service_request": "2023-1058327",
    "request_type": "Abandoned Vehicles",
    "request_reason": "Vehicle Blocking Your Driveway",
    "date_created": "2023-12-30T19:43:50.000",
    "date_modified": "2023-12-30T19:43:50.000",
    "request_status": "Pending",
    "responsible_agency": "Department of Public Works",
    "final_address": "1616 Frenchmen St",
    "address_councildis": "D",
    "status": "Pending",
    "rowid": "1058327",
    "final_x": "3684396.03855",
    "final_y": "538247.463433",
    "longitude": "-90.05868938130531",
    "latitude": "29.97390563737461",
    "geocoded_column": {
      "latitude": "29.97390563737461",
      "longitude": "-90.05868938130531"
    }
  },
  {
    "service_request": "2023-1058326",
    "request_type": "Trash/Recycling",
    "request_reason": "Order Recycling Cart",
    "date_created": "2023-12-30T19:25:12.000",
    "date_modified": "2023-12-30T19:25:12.000",
    "request_status": "Pending",
    "responsible_agency": "Department of Sanitation",
    "final_address": "1019 Bartholomew St",
    "address_councildis": "C",
    "status": "Pending",
    "rowid": "1058326",
    "final_x": "3691765.02595",
    "final_y": "535015.882502",
    "longitude": "-90.0355321643593",
    "latitude": "29.964792475076994",
    "geocoded_column": {
      "latitude": "29.964792475076994",
      "longitude": "-90.0355321643593"
    }
  },
  {
    "service_request": "2023-1058325",
    "request_type": "Abandoned Vehicles",
    "request_reason": "Abandoned/Junk Vehicles",
    "date_created": "2023-12-30T18:18:38.000",
    "date_modified": "2023-12-30T18:18:38.000",
    "request_status": "Pending",
    "responsible_agency": "Department of Public Works",
    "final_address": "625 S Dupre St",
    "address_councildis": "B",
    "status": "Pending",
    "rowid": "1058325",
    "final_x": "3673264.59009",
    "final_y": "534031.239621",
    "longitude": "-90.0939890601532",
    "latitude": "29.962648231082316",
    "geocoded_column": {
      "latitude": "29.962648231082316",
      "longitude": "-90.0939890601532"
    }
  },
  {
    "service_request": "2023-1058324",
    "request_type": "Trash/Recycling",
    "request_reason": "Return Recycling Cart",
    "date_created": "2023-12-30T17:25:59.000",
    "date_modified": "2023-12-30T17:25:59.000",
    "request_status": "Pending",
    "responsible_agency": "Department of Sanitation",
    "final_address": "6031 Warwick Ct",
    "address_councildis": "C",
    "status": "Pending",
    "rowid": "1058324",
    "final_x": "3706141.75537",
    "final_y": "515818.027188",
    "longitude": "-89.99084207868353",
    "latitude": "29.91154959812794",
    "geocoded_column": {
      "latitude": "29.91154959812794",
      "longitude": "-89.99084207868353"
    }
  },
  {
    "service_request": "2023-1058323",
    "request_type": "Trash/Recycling",
    "request_reason": "Illegal Dumping",
    "date_created": "2023-12-30T17:25:47.000",
    "date_modified": "2023-12-30T17:25:47.000",
    "request_status": "Pending",
    "responsible_agency": "Department of Sanitation",
    "final_address": "2407 Law St",
    "address_councildis": "D",
    "status": "Pending",
    "rowid": "1058323",
    "final_x": "3685488.2669",
    "final_y": "541986.635084",
    "longitude": "-90.05510815282076",
    "latitude": "29.984153590751813",
    "geocoded_column": {
      "latitude": "29.984153590751813",
      "longitude": "-90.05510815282076"
    }
  },
  {
    "service_request": "2023-1058322",
    "request_type": "Mosquito, Termite & Rodent Control",
    "request_reason": "Mosquito Complaint",
    "date_created": "2023-12-30T17:23:59.000",
    "date_modified": "2023-12-30T17:23:59.000",
    "request_status": "Pending",
    "responsible_agency": "Mosquito, Termite & Rodent Control Board",
    "final_address": "2407 Law St",
    "address_councildis": "D",
    "status": "Pending",
    "rowid": "1058322",
    "final_x": "3685488.2669",
    "final_y": "541986.635084",
    "longitude": "-90.05510815282076",
    "latitude": "29.984153590751813",
    "geocoded_column": {
      "latitude": "29.984153590751813",
      "longitude": "-90.05510815282076"
    }
  },
  {
    "service_request": "2023-1058321",
    "request_type": "Trash/Recycling",
    "request_reason": "Missed Trash Pick-Up",
    "date_created": "2023-12-30T17:23:44.000",
    "date_modified": "2023-12-30T17:23:45.000",
    "request_status": "Pending",
    "responsible_agency": "Department of Sanitation",
    "final_address": "6031 Warwick Ct",
    "address_councildis": "C",
    "status": "Assigned to Contractor",
    "contractor": "Richards Disposal",
    "rowid": "1058321",
    "final_x": "3706141.75537",
    "final_y": "515818.027188",
    "longitude": "-89.99084207868353",
    "latitude": "29.91154959812794",
    "geocoded_column": {
      "latitude": "29.91154959812794",
      "longitude": "-89.99084207868353"
    }
  },
  {
    "service_request": "2023-1058320",
    "request_type": "Trash/Recycling",
    "request_reason": "Request a Large Item Pick Up",
    "date_created": "2023-12-30T17:05:25.000",
    "date_modified": "2023-12-30T17:05:27.000",
    "request_status": "Pending",
    "responsible_agency": "Department of Sanitation",
    "final_address": "5526 York St",
    "address_councildis": "A",
    "status": "Assigned to Contractor",
    "contractor": "Richards Disposal",
    "rowid": "1058320",
    "final_x": "3668339.88295",
    "final_y": "528696.16992",
    "longitude": "-90.10972058679562",
    "latitude": "29.94812408456522",
    "geocoded_column": {
      "latitude": "29.94812408456522",
      "longitude": "-90.10972058679562"
    }
  },
  {
    "service_request": "2023-1058319",
    "request_type": "Trash/Recycling",
    "request_reason": "Missed Trash Pick-Up",
    "date_created": "2023-12-30T16:49:03.000",
    "date_modified": "2023-12-30T16:49:05.000",
    "request_status": "Pending",
    "responsible_agency": "Department of Sanitation",
    "final_address": "519 English Turn Dr",
    "address_councildis": "C",
    "status": "Assigned to Contractor",
    "contractor": "Richards Disposal",
    "rowid": "1058319",
    "final_x": "3715146.31493",
    "final_y": "515652.2069",
    "longitude": "-89.96242802153265",
    "latitude": "29.910800491799417",
    "geocoded_column": {
      "latitude": "29.910800491799417",
      "longitude": "-89.96242802153265"
    }
  },
  {
    "service_request": "2023-1058318",
    "request_type": "Trash/Recycling",
    "request_reason": "Request a Large Item Pick Up",
    "date_created": "2023-12-30T16:48:58.000",
    "date_modified": "2023-12-30T16:49:00.000",
    "request_status": "Pending",
    "responsible_agency": "Department of Sanitation",
    "final_address": "427 Belleville St",
    "address_councildis": "C",
    "status": "Assigned to Contractor",
    "contractor": "Richards Disposal",
    "rowid": "1058318",
    "final_x": "3687825.71503",
    "final_y": "530117.427329",
    "longitude": "-90.04814571791836",
    "latitude": "29.951445510074734",
    "geocoded_column": {
      "latitude": "29.951445510074734",
      "longitude": "-90.04814571791836"
    }
  },
  {
    "service_request": "2023-1058317",
    "request_type": "Trash/Recycling",
    "request_reason": "Missed Trash Pick-Up",
    "date_created": "2023-12-30T16:27:02.000",
    "date_modified": "2023-12-30T16:27:03.000",
    "request_status": "Pending",
    "responsible_agency": "Department of Sanitation",
    "final_address": "15 Sugarberry Pl",
    "address_councildis": "C",
    "status": "Assigned to Contractor",
    "contractor": "Richards Disposal",
    "rowid": "1058317",
    "final_x": "3717105.68639",
    "final_y": "516351.303669",
    "longitude": "-89.95621735740903",
    "latitude": "29.912658156383166",
    "geocoded_column": {
      "latitude": "29.912658156383166",
      "longitude": "-89.95621735740903"
    }
  },
  {
    "service_request": "2023-1058316",
    "request_type": "Trash/Recycling",
    "request_reason": "Missed Trash Pick-Up",
    "date_created": "2023-12-30T16:25:08.000",
    "date_modified": "2023-12-30T16:25:09.000",
    "request_status": "Pending",
    "responsible_agency": "Department of Sanitation",
    "final_address": "8514 Sycamore St",
    "address_councildis": "A",
    "status": "Assigned to Contractor",
    "contractor": "Richards Disposal",
    "rowid": "1058316",
    "final_x": "3663145.87309",
    "final_y": "531989.863683",
    "longitude": "-90.1260106906066",
    "latitude": "29.957332168019764",
    "geocoded_column": {
      "latitude": "29.957332168019764",
      "longitude": "-90.1260106906066"
    }
  },
  {
    "service_request": "2023-1058315",
    "request_type": "Trash/Recycling",
    "request_reason": "Order Recycling Cart",
    "date_created": "2023-12-30T16:03:29.000",
    "date_modified": "2023-12-30T16:03:29.000",
    "request_status": "Pending",
    "responsible_agency": "Department of Sanitation",
    "final_address": "5718 St Charles Ave",
    "address_councildis": "A",
    "status": "Pending",
    "rowid": "1058315",
    "final_x": "3666342.88564",
    "final_y": "521950.15897",
    "longitude": "-90.1162521858415",
    "latitude": "29.929633202685167",
    "geocoded_column": {
      "latitude": "29.929633202685167",
      "longitude": "-90.1162521858415"
    }
  },
  {
    "service_request": "2023-1058314",
    "request_type": "Trash/Recycling",
    "request_reason": "Replace Trash Cart",
    "date_created": "2023-12-30T16:00:02.000",
    "date_modified": "2023-12-30T16:00:04.000",
    "request_status": "Pending",
    "responsible_agency": "Department of Sanitation",
    "final_address": "3501 White Oak Ave",
    "address_councildis": "C",
    "status": "Assigned to Contractor",
    "contractor": "Richards Disposal",
    "rowid": "1058314",
    "final_x": "3703122.45732",
    "final_y": "514421.443699",
    "longitude": "-90.00042294326816",
    "latitude": "29.907806393443558",
    "geocoded_column": {
      "latitude": "29.907806393443558",
      "longitude": "-90.00042294326816"
    }
  },
  {
    "service_request": "2023-1058313",
    "request_type": "Trash/Recycling",
    "request_reason": "Request a Large Item Pick Up",
    "date_created": "2023-12-30T15:24:41.000",
    "date_modified": "2023-12-30T15:24:42.000",
    "request_status": "Pending",
    "responsible_agency": "Department of Sanitation",
    "final_address": "2436 Broadway St",
    "address_councildis": "A",
    "status": "Assigned to Contractor",
    "contractor": "Richards Disposal",
    "rowid": "1058313",
    "final_x": "3666717.75373",
    "final_y": "530409.630914",
    "longitude": "-90.11478479352043",
    "latitude": "29.95288307621406",
    "geocoded_column": {
      "latitude": "29.95288307621406",
      "longitude": "-90.11478479352043"
    }
  },
  {
    "service_request": "2023-1058312",
    "request_type": "Trash/Recycling",
    "request_reason": "Missed Trash Pick-Up",
    "date_created": "2023-12-30T15:21:11.000",
    "date_modified": "2023-12-30T15:21:12.000",
    "request_status": "Pending",
    "responsible_agency": "Department of Sanitation",
    "final_address": "2436 Broadway St",
    "address_councildis": "A",
    "status": "Assigned to Contractor",
    "contractor": "Richards Disposal",
    "rowid": "1058312",
    "final_x": "3666717.75373",
    "final_y": "530409.630914",
    "longitude": "-90.11478479352043",
    "latitude": "29.95288307621406",
    "geocoded_column": {
      "latitude": "29.95288307621406",
      "longitude": "-90.11478479352043"
    }
  },
  {
    "service_request": "2023-1058311",
    "request_type": "Trash/Recycling",
    "request_reason": "Request a Large Item Pick Up",
    "date_created": "2023-12-30T14:57:24.000",
    "date_modified": "2023-12-30T14:57:26.000",
    "request_status": "Pending",
    "responsible_agency": "Department of Sanitation",
    "final_address": "932 Florida Blvd",
    "address_councildis": "A",
    "status": "Assigned to Contractor",
    "contractor": "IV Waste",
    "rowid": "1058311",
    "final_x": "3670008.27201",
    "final_y": "545130.213903",
    "longitude": "-90.10389604322049",
    "latitude": "29.993263096188986",
    "geocoded_column": {
      "latitude": "29.993263096188986",
      "longitude": "-90.10389604322049"
    }
  },
  {
    "service_request": "2023-1058310",
    "request_type": "Trash/Recycling",
    "request_reason": "Order Recycling Cart",
    "date_created": "2023-12-30T14:28:05.000",
    "date_modified": "2023-12-30T14:28:05.000",
    "request_status": "Pending",
    "responsible_agency": "Department of Sanitation",
    "final_address": "3740 Nashville Ave",
    "address_councildis": "A",
    "status": "Pending",
    "rowid": "1058310",
    "final_x": "3668369.45722",
    "final_y": "529411.228801",
    "longitude": "-90.10960309643583",
    "latitude": "29.95008939506834",
    "geocoded_column": {
      "latitude": "29.95008939506834",
      "longitude": "-90.10960309643583"
    }
  },
  {
    "service_request": "2023-1058309",
    "request_type": "Abandoned Vehicles",
    "request_reason": "Abandoned/Junk Vehicles",
    "date_created": "2023-12-30T14:19:27.000",
    "date_modified": "2023-12-30T14:19:27.000",
    "request_status": "Pending",
    "responsible_agency": "Department of Public Works",
    "final_address": "100 BLK S Derbigny St",
    "address_councildis": "B",
    "status": "Inspected",
    "rowid": "1058309",
    "final_x": "3677957.17554",
    "final_y": "532836.66607",
    "longitude": "-90.07921178516807",
    "latitude": "29.959223164057438",
    "geocoded_column": {
      "latitude": "29.959223164057438",
      "longitude": "-90.07921178516807"
    }
  },
  {
    "service_request": "2023-1058308",
    "request_type": "Roads/Drainage",
    "request_reason": "Pothole",
    "date_created": "2023-12-30T14:10:02.000",
    "date_modified": "2023-12-30T14:10:02.000",
    "request_status": "Pending",
    "responsible_agency": "Department of Public Works",
    "final_address": "5220 Atlanta St",
    "address_councildis": "B",
    "status": "Pending",
    "rowid": "1058308",
    "final_x": "3667917.40577",
    "final_y": "520685.623161",
    "longitude": "-90.1113242624008",
    "latitude": "29.926110051036336",
    "geocoded_column": {
      "latitude": "29.926110051036336",
      "longitude": "-90.1113242624008"
    }
  },
  {
    "service_request": "2023-1058307",
    "request_type": "Roads/Drainage",
    "request_reason": "Road Shoulder Repair",
    "date_created": "2023-12-30T14:08:08.000",
    "date_modified": "2023-12-30T14:08:08.000",
    "request_status": "Pending",
    "responsible_agency": "Department of Public Works",
    "final_address": "1507 Dufossat St",
    "address_councildis": "B",
    "status": "Pending",
    "rowid": "1058307",
    "final_x": "3668186.71681",
    "final_y": "520463.654776",
    "longitude": "-90.11048160048723",
    "latitude": "29.92549180818648",
    "geocoded_column": {
      "latitude": "29.92549180818648",
      "longitude": "-90.11048160048723"
    }
  },
  {
    "service_request": "2023-1058306",
    "request_type": "Roads/Drainage",
    "request_reason": "Pothole",
    "date_created": "2023-12-30T14:06:03.000",
    "date_modified": "2023-12-30T14:06:03.000",
    "request_status": "Pending",
    "responsible_agency": "Department of Public Works",
    "final_address": "1300 Milan St",
    "address_councildis": "B",
    "status": "Pending",
    "rowid": "1058306",
    "final_x": "3671629.15374",
    "final_y": "520175.7502",
    "longitude": "-90.0996246518961",
    "latitude": "29.924598696141217",
    "geocoded_column": {
      "latitude": "29.924598696141217",
      "longitude": "-90.0996246518961"
    }
  },
  {
    "service_request": "2023-1058305",
    "request_type": "Trash/Recycling",
    "request_reason": "Order Recycling Cart",
    "date_created": "2023-12-30T13:22:33.000",
    "date_modified": "2023-12-30T13:22:33.000",
    "request_status": "Pending",
    "responsible_agency": "Department of Sanitation",
    "final_address": "1224 N Dupre St",
    "address_councildis": "A",
    "status": "Pending",
    "rowid": "1058305",
    "final_x": "3677114.44424",
    "final_y": "539401.055818",
    "longitude": "-90.0816464925173",
    "latitude": "29.97729833640949",
    "geocoded_column": {
      "latitude": "29.97729833640949",
      "longitude": "-90.0816464925173"
    }
  },
  {
    "service_request": "2023-1058304",
    "request_type": "Roads/Drainage",
    "request_reason": "Pothole",
    "date_created": "2023-12-30T13:10:26.000",
    "date_modified": "2023-12-30T13:10:26.000",
    "request_status": "Pending",
    "responsible_agency": "Department of Public Works",
    "final_address": "1502 Eleonore St",
    "address_councildis": "A",
    "status": "Pending",
    "rowid": "1058304",
    "final_x": "3665786.09434",
    "final_y": "521795.186042",
    "longitude": "-90.11801507263215",
    "latitude": "29.92922332626592",
    "geocoded_column": {
      "latitude": "29.92922332626592",
      "longitude": "-90.11801507263215"
    }
  },
  {
    "service_request": "2023-1058303",
    "request_type": "Roads/Drainage",
    "request_reason": "Pothole",
    "date_created": "2023-12-30T13:02:32.000",
    "date_modified": "2023-12-30T13:02:32.000",
    "request_status": "Pending",
    "responsible_agency": "Department of Public Works",
    "final_address": "1327 Coliseum St",
    "address_councildis": "B",
    "status": "Pending",
    "rowid": "1058303",
    "final_x": "3679989.93839",
    "final_y": "525132.443453",
    "longitude": "-90.07306039024776",
    "latitude": "29.937977801724248",
    "geocoded_column": {
      "latitude": "29.937977801724248",
      "longitude": "-90.07306039024776"
    }
  },
  {
    "service_request": "2023-1058302",
    "request_type": "Roads/Drainage",
    "request_reason": "Pothole",
    "date_created": "2023-12-30T12:59:52.000",
    "date_modified": "2023-12-30T12:59:52.000",
    "request_status": "Pending",
    "responsible_agency": "Department of Public Works",
    "final_address": "6125 Pitt St",
    "address_councildis": "A",
    "status": "Pending",
    "rowid": "1058302",
    "final_x": "3664701.78119",
    "final_y": "521470.575801",
    "longitude": "-90.1214488946833",
    "latitude": "29.92836232888595",
    "geocoded_column": {
      "latitude": "29.92836232888595",
      "longitude": "-90.1214488946833"
    }
  },
  {
    "service_request": "2023-1058301",
    "request_type": "Trash/Recycling",
    "request_reason": "Missed Trash Pick-Up",
    "date_created": "2023-12-30T12:49:31.000",
    "date_modified": "2023-12-30T12:49:33.000",
    "request_status": "Pending",
    "responsible_agency": "Department of Sanitation",
    "final_address": "4437 Plum Orchard St",
    "address_councildis": "E",
    "status": "Assigned to Contractor",
    "contractor": "Waste Pro",
    "rowid": "1058301",
    "final_x": "3701916.58743",
    "final_y": "552966.349783",
    "longitude": "-90.00281620600977",
    "latitude": "30.01382956111603",
    "geocoded_column": {
      "latitude": "30.01382956111603",
      "longitude": "-90.00281620600977"
    }
  },
  {
    "service_request": "2023-1058300",
    "request_type": "Trash/Recycling",
    "request_reason": "Missed Trash Pick-Up",
    "date_created": "2023-12-30T12:47:05.000",
    "date_modified": "2023-12-30T12:47:07.000",
    "request_status": "Pending",
    "responsible_agency": "Department of Sanitation",
    "final_address": "4437 Plum Orchard St",
    "address_councildis": "E",
    "status": "Assigned to Contractor",
    "contractor": "Waste Pro",
    "rowid": "1058300",
    "final_x": "3701916.58743",
    "final_y": "552966.349783",
    "longitude": "-90.00281620600977",
    "latitude": "30.01382956111603",
    "geocoded_column": {
      "latitude": "30.01382956111603",
      "longitude": "-90.00281620600977"
    }
  },
  {
    "service_request": "2023-1058299",
    "request_type": "Trash/Recycling",
    "request_reason": "Request a Large Item Pick Up",
    "date_created": "2023-12-30T12:44:59.000",
    "date_modified": "2023-12-30T12:45:00.000",
    "request_status": "Pending",
    "responsible_agency": "Department of Sanitation",
    "final_address": "4922 Venus St",
    "address_councildis": "D",
    "status": "Assigned to Contractor",
    "contractor": "IV Waste",
    "rowid": "1058299",
    "final_x": "3686400.88514",
    "final_y": "551071.025813",
    "longitude": "-90.05190472399381",
    "latitude": "30.0091043729947",
    "geocoded_column": {
      "latitude": "30.0091043729947",
      "longitude": "-90.05190472399381"
    }
  },
  {
    "service_request": "2023-1058298",
    "request_type": "Abandoned Vehicles",
    "request_reason": "Abandoned/Junk Vehicles",
    "date_created": "2023-12-30T12:22:17.000",
    "date_modified": "2023-12-30T12:22:17.000",
    "request_status": "Pending",
    "responsible_agency": "Department of Public Works",
    "final_address": "2500 BLK N Prieur St",
    "address_councildis": "D",
    "status": "Pending",
    "rowid": "1058298",
    "final_x": "3687147.2218",
    "final_y": "539440.40319",
    "longitude": "-90.04995835567996",
    "latitude": "29.97710136379783",
    "geocoded_column": {
      "latitude": "29.97710136379783",
      "longitude": "-90.04995835567996"
    }
  },
  {
    "service_request": "2023-1058297",
    "request_type": "Trash/Recycling",
    "request_reason": "Replace Recycling Cart",
    "date_created": "2023-12-30T12:10:50.000",
    "date_modified": "2023-12-30T12:10:50.000",
    "request_status": "Pending",
    "responsible_agency": "Department of Sanitation",
    "final_address": "5880 Louis Xiv St",
    "address_councildis": "A",
    "status": "Pending",
    "rowid": "1058297",
    "final_x": "3667918.00961",
    "final_y": "546612.118353",
    "longitude": "-90.11044890177165",
    "latitude": "29.997399326376968",
    "geocoded_column": {
      "latitude": "29.997399326376968",
      "longitude": "-90.11044890177165"
    }
  },
  {
    "service_request": "2023-1058296",
    "request_type": "Traffic Signals/Signs/Striping/Streetlights",
    "request_reason": "Traffic Signal Malfunctioning/Damaged",
    "date_created": "2023-12-30T12:02:20.000",
    "date_modified": "2023-12-30T12:02:20.000",
    "request_status": "Pending",
    "responsible_agency": "Department of Public Works",
    "final_address": "CITY PARK AVE & ORLEANS AVE",
    "address_councildis": "A",
    "status": "Pending",
    "rowid": "1058296",
    "final_x": "3670423.5",
    "final_y": "541801.18",
    "longitude": "-90.10269734375164",
    "latitude": "29.984097138378488",
    "geocoded_column": {
      "latitude": "29.984097138378488",
      "longitude": "-90.10269734375164"
    }
  },
  {
    "service_request": "2023-1058295",
    "request_type": "Property Maintenance",
    "request_reason": "Property Maintenance",
    "date_created": "2023-12-30T11:59:23.000",
    "date_modified": "2023-12-30T11:59:23.000",
    "request_status": "Pending",
    "responsible_agency": "Department of Code Enforcement",
    "final_address": "1211 Poland Ave",
    "address_councildis": "D",
    "status": "Pending",
    "rowid": "1058295",
    "final_x": "3693221.48624",
    "final_y": "535440.494982",
    "longitude": "-90.03091753736379",
    "latitude": "29.965914570463735",
    "geocoded_column": {
      "latitude": "29.965914570463735",
      "longitude": "-90.03091753736379"
    }
  },
  {
    "service_request": "2023-1058294",
    "request_type": "Trash/Recycling",
    "request_reason": "Request a Large Item Pick Up",
    "date_created": "2023-12-30T11:30:37.000",
    "date_modified": "2023-12-30T11:30:38.000",
    "request_status": "Pending",
    "responsible_agency": "Department of Sanitation",
    "final_address": "4532 Laurel St",
    "address_councildis": "B",
    "status": "Assigned to Contractor",
    "contractor": "Richards Disposal",
    "rowid": "1058294",
    "final_x": "3670454.41819",
    "final_y": "517950.357174",
    "longitude": "-90.10340830858514",
    "latitude": "29.918514297964627",
    "geocoded_column": {
      "latitude": "29.918514297964627",
      "longitude": "-90.10340830858514"
    }
  },
  {
    "service_request": "2023-1058293",
    "request_type": "Roads/Drainage",
    "request_reason": "Road Shoulder Repair",
    "date_created": "2023-12-30T11:05:21.000",
    "date_modified": "2023-12-30T11:05:21.000",
    "request_status": "Pending",
    "responsible_agency": "Department of Public Works",
    "final_address": "5030 Danneel St",
    "address_councildis": "B",
    "status": "Pending",
    "rowid": "1058293",
    "final_x": "3668583.04846",
    "final_y": "522061.497338",
    "longitude": "-90.10917661362056",
    "latitude": "29.929873730703292",
    "geocoded_column": {
      "latitude": "29.929873730703292",
      "longitude": "-90.10917661362056"
    }
  },
  {
    "service_request": "2023-1058292",
    "request_type": "Roads/Drainage",
    "request_reason": "Road Shoulder Repair",
    "date_created": "2023-12-30T11:03:13.000",
    "date_modified": "2023-12-30T11:03:13.000",
    "request_status": "Pending",
    "responsible_agency": "Department of Public Works",
    "final_address": "1725 Dufossat St",
    "address_councildis": "B",
    "status": "Pending",
    "rowid": "1058292",
    "final_x": "3668192.68743",
    "final_y": "522036.060218",
    "longitude": "-90.11040977787289",
    "latitude": "29.92981524824353",
    "geocoded_column": {
      "latitude": "29.92981524824353",
      "longitude": "-90.11040977787289"
    }
  },
  {
    "service_request": "2023-1058291",
    "request_type": "Trash/Recycling",
    "request_reason": "Order Recycling Cart",
    "date_created": "2023-12-30T10:33:10.000",
    "date_modified": "2023-12-30T10:33:10.000",
    "request_status": "Pending",
    "responsible_agency": "Department of Sanitation",
    "final_address": "117 S Scott St",
    "address_councildis": "A",
    "status": "Pending",
    "rowid": "1058291",
    "final_x": "3671604.96487",
    "final_y": "537663.590536",
    "longitude": "-90.09910639363603",
    "latitude": "29.972685230521463",
    "geocoded_column": {
      "latitude": "29.972685230521463",
      "longitude": "-90.09910639363603"
    }
  },
  {
    "service_request": "2023-1058290",
    "request_type": "Trash/Recycling",
    "request_reason": "Replace Trash Cart",
    "date_created": "2023-12-30T10:31:51.000",
    "date_modified": "2023-12-30T10:31:52.000",
    "request_status": "Pending",
    "responsible_agency": "Department of Sanitation",
    "final_address": "117 S Scott St",
    "address_councildis": "A",
    "status": "Assigned to Contractor",
    "contractor": "Richards Disposal",
    "rowid": "1058290",
    "final_x": "3671604.96487",
    "final_y": "537663.590536",
    "longitude": "-90.09910639363603",
    "latitude": "29.972685230521463",
    "geocoded_column": {
      "latitude": "29.972685230521463",
      "longitude": "-90.09910639363603"
    }
  },
  {
    "service_request": "2023-1058289",
    "request_type": "Trash/Recycling",
    "request_reason": "Missed Trash Pick-Up",
    "date_created": "2023-12-30T10:31:50.000",
    "date_modified": "2023-12-30T10:31:51.000",
    "request_status": "Pending",
    "responsible_agency": "Department of Sanitation",
    "final_address": "6100 BLK Curran Rd",
    "address_councildis": "E",
    "status": "Assigned to Contractor",
    "contractor": "Waste Pro",
    "rowid": "1058289",
    "final_x": "3695823.60635",
    "final_y": "559048.258003",
    "longitude": "-90.02184686415326",
    "latitude": "30.03074563385676",
    "geocoded_column": {
      "latitude": "30.03074563385676",
      "longitude": "-90.02184686415326"
    }
  },
  {
    "service_request": "2023-1058288",
    "request_type": "Roads/Drainage",
    "request_reason": "Street Flooding / Drainage",
    "date_created": "2023-12-30T10:29:53.000",
    "date_modified": "2023-12-30T10:29:53.000",
    "request_status": "Pending",
    "responsible_agency": "Department of Public Works",
    "final_address": "2101 Clouet St",
    "address_councildis": "D",
    "status": "Pending",
    "rowid": "1058288",
    "final_x": "3689988.5064",
    "final_y": "539787.161098",
    "longitude": "-90.04097233679963",
    "latitude": "29.9779670162824",
    "geocoded_column": {
      "latitude": "29.9779670162824",
      "longitude": "-90.04097233679963"
    }
  },
  {
    "service_request": "2023-1058287",
    "request_type": "Trash/Recycling",
    "request_reason": "Request a Large Item Pick Up",
    "date_created": "2023-12-30T09:25:11.000",
    "date_modified": "2023-12-30T09:25:12.000",
    "request_status": "Pending",
    "responsible_agency": "Department of Sanitation",
    "final_address": "221 S Solomon St",
    "address_councildis": "A",
    "status": "Assigned to Contractor",
    "contractor": "Richards Disposal",
    "rowid": "1058287",
    "final_x": "3670188.28474",
    "final_y": "538266.980041",
    "longitude": "-90.10356009003696",
    "latitude": "29.97438623102531",
    "geocoded_column": {
      "latitude": "29.97438623102531",
      "longitude": "-90.10356009003696"
    }
  },
  {
    "service_request": "2023-1058286",
    "request_type": "Trash/Recycling",
    "request_reason": "Repair Trash Cart",
    "date_created": "2023-12-30T09:21:10.000",
    "date_modified": "2023-12-30T09:21:12.000",
    "request_status": "Pending",
    "responsible_agency": "Department of Sanitation",
    "final_address": "2534 Valentine Ct",
    "address_councildis": "C",
    "status": "Assigned to Contractor",
    "contractor": "Richards Disposal",
    "rowid": "1058286",
    "final_x": "3699177.51607",
    "final_y": "521988.241274",
    "longitude": "-90.0125983506241",
    "latitude": "29.928738102940006",
    "geocoded_column": {
      "latitude": "29.928738102940006",
      "longitude": "-90.0125983506241"
    }
  },
  {
    "service_request": "2023-1058285",
    "request_type": "Trash/Recycling",
    "request_reason": "MIssed Recycling Pick-Up",
    "date_created": "2023-12-30T08:46:19.000",
    "date_modified": "2023-12-30T08:58:41.000",
    "case_close_date": "2023-12-30T02:58:41.000",
    "request_status": "Closed",
    "responsible_agency": "Department of Sanitation",
    "final_address": "5176 Feliciana Dr",
    "address_councildis": "D",
    "status": "Invalid Request",
    "contractor": "IV Waste",
    "contractor_action": "Invalid Request",
    "rowid": "1058285",
    "final_x": "3689916.23536",
    "final_y": "552606.19631",
    "longitude": "-90.04074387157519",
    "latitude": "30.013216960009146",
    "geocoded_column": {
      "latitude": "30.013216960009146",
      "longitude": "-90.04074387157519"
    }
  },
  {
    "service_request": "2023-1058282",
    "request_type": "Property Maintenance",
    "request_reason": "Property Maintenance",
    "date_created": "2023-12-30T04:26:51.000",
    "date_modified": "2023-12-30T04:26:51.000",
    "request_status": "Pending",
    "responsible_agency": "Department of Code Enforcement",
    "final_address": "4910 Baronne St",
    "address_councildis": "B",
    "status": "Pending",
    "rowid": "1058282",
    "final_x": "3668968.88391",
    "final_y": "521387.841849",
    "longitude": "-90.10798133506876",
    "latitude": "29.928010052943375",
    "geocoded_column": {
      "latitude": "29.928010052943375",
      "longitude": "-90.10798133506876"
    }
  },
  {
    "service_request": "2023-1058281",
    "request_type": "Trash/Recycling",
    "request_reason": "Return Recycling Cart",
    "date_created": "2023-12-30T02:01:02.000",
    "date_modified": "2023-12-30T02:01:02.000",
    "request_status": "Pending",
    "responsible_agency": "Department of Sanitation",
    "final_address": "3130 Maurepas St",
    "address_councildis": "A",
    "status": "Pending",
    "rowid": "1058281",
    "final_x": "3676350.96245",
    "final_y": "540714.880075",
    "longitude": "-90.08401257965623",
    "latitude": "29.980933811295067",
    "geocoded_column": {
      "latitude": "29.980933811295067",
      "longitude": "-90.08401257965623"
    }
  },
  {
    "service_request": "2023-1058280",
    "request_type": "Mosquito, Termite & Rodent Control",
    "request_reason": "Mosquito Complaint",
    "date_created": "2023-12-30T01:45:59.000",
    "date_modified": "2023-12-30T01:45:59.000",
    "request_status": "Pending",
    "responsible_agency": "Mosquito, Termite & Rodent Control Board",
    "final_address": "9701 Hammond St",
    "address_councildis": "E",
    "status": "Pending",
    "rowid": "1058280",
    "final_x": "3711345.42686",
    "final_y": "556392.44617",
    "longitude": "-89.97289769532512",
    "latitude": "30.022945574037635",
    "geocoded_column": {
      "latitude": "30.022945574037635",
      "longitude": "-89.97289769532512"
    }
  },
  {
    "service_request": "2023-1058279",
    "request_type": "Mosquito, Termite & Rodent Control",
    "request_reason": "Mosquito Complaint",
    "date_created": "2023-12-30T01:42:53.000",
    "date_modified": "2023-12-30T01:42:53.000",
    "request_status": "Pending",
    "responsible_agency": "Mosquito, Termite & Rodent Control Board",
    "final_address": "8801 Chef Menteur Hwy",
    "address_councildis": "E",
    "status": "Pending",
    "rowid": "1058279",
    "final_x": "3708085.49694",
    "final_y": "553771.941591",
    "longitude": "-89.98329580657897",
    "latitude": "30.015846224240825",
    "geocoded_column": {
      "latitude": "30.015846224240825",
      "longitude": "-89.98329580657897"
    }
  },
  {
    "service_request": "2023-1058278",
    "request_type": "Mosquito, Termite & Rodent Control",
    "request_reason": "Mosquito Complaint",
    "date_created": "2023-12-30T01:41:52.000",
    "date_modified": "2023-12-30T01:41:52.000",
    "request_status": "Pending",
    "responsible_agency": "Mosquito, Termite & Rodent Control Board",
    "final_address": "8801 Chef Menteur Hwy",
    "address_councildis": "E",
    "status": "Pending",
    "rowid": "1058278",
    "final_x": "3708085.49694",
    "final_y": "553771.941591",
    "longitude": "-89.98329580657897",
    "latitude": "30.015846224240825",
    "geocoded_column": {
      "latitude": "30.015846224240825",
      "longitude": "-89.98329580657897"
    }
  },
  {
    "service_request": "2023-1058277",
    "request_type": "Property Maintenance",
    "request_reason": "Property Maintenance",
    "date_created": "2023-12-30T00:34:30.000",
    "date_modified": "2023-12-30T00:34:30.000",
    "request_status": "Pending",
    "responsible_agency": "Department of Code Enforcement",
    "final_address": "1130 Nashville Ave",
    "address_councildis": "A",
    "status": "Pending",
    "rowid": "1058277",
    "final_x": "3665744.48845",
    "final_y": "520280.688504",
    "longitude": "-90.11819711619898",
    "latitude": "29.92506014939694",
    "geocoded_column": {
      "latitude": "29.92506014939694",
      "longitude": "-90.11819711619898"
    }
  },
  {
    "service_request": "2023-1058276",
    "request_type": "Property Maintenance",
    "request_reason": "Property Maintenance",
    "date_created": "2023-12-30T00:20:05.000",
    "date_modified": "2023-12-30T00:20:05.000",
    "request_status": "Pending",
    "responsible_agency": "Department of Code Enforcement",
    "final_address": "5228 Prytania St",
    "address_councildis": "B",
    "status": "Pending",
    "rowid": "1058276",
    "final_x": "3667847.31194",
    "final_y": "520132.2622",
    "longitude": "-90.11156415460567",
    "latitude": "29.9245905389231",
    "geocoded_column": {
      "latitude": "29.9245905389231",
      "longitude": "-90.11156415460567"
    }
  },
  {
    "service_request": "2023-1058275",
    "request_type": "Roads/Drainage",
    "request_reason": "Pothole",
    "date_created": "2023-12-30T00:03:01.000",
    "date_modified": "2023-12-30T00:03:01.000",
    "request_status": "Pending",
    "responsible_agency": "Department of Public Works",
    "final_address": "1312 Milan St",
    "address_councildis": "B",
    "status": "Pending",
    "rowid": "1058275",
    "final_x": "3671625.82823",
    "final_y": "520286.919608",
    "longitude": "-90.09963137110304",
    "latitude": "29.92490447494246",
    "geocoded_column": {
      "latitude": "29.92490447494246",
      "longitude": "-90.09963137110304"
    }
  },
  {
    "service_request": "2023-1058274",
    "request_type": "Roads/Drainage",
    "request_reason": "Pothole",
    "date_created": "2023-12-29T23:19:21.000",
    "date_modified": "2023-12-29T23:19:21.000",
    "request_status": "Pending",
    "responsible_agency": "Department of Public Works",
    "final_address": "4216 Chestnut St",
    "address_councildis": "B",
    "status": "Pending",
    "rowid": "1058274",
    "final_x": "3671574.31393",
    "final_y": "519539.203703",
    "longitude": "-90.09981939416457",
    "latitude": "29.922850019854593",
    "geocoded_column": {
      "latitude": "29.922850019854593",
      "longitude": "-90.09981939416457"
    }
  },
  {
    "service_request": "2023-1058273",
    "request_type": "Roads/Drainage",
    "request_reason": "Pothole",
    "date_created": "2023-12-29T22:56:03.000",
    "date_modified": "2023-12-29T22:56:03.000",
    "request_status": "Pending",
    "responsible_agency": "Department of Public Works",
    "final_address": "1241 Eleonore St",
    "address_councildis": "A",
    "status": "Pending",
    "rowid": "1058273",
    "final_x": "3665601.32096",
    "final_y": "520595.412792",
    "longitude": "-90.11863851974041",
    "latitude": "29.925929716012785",
    "geocoded_column": {
      "latitude": "29.925929716012785",
      "longitude": "-90.11863851974041"
    }
  },
  {
    "service_request": "2023-1058272",
    "request_type": "Roads/Drainage",
    "request_reason": "Pothole",
    "date_created": "2023-12-29T22:54:02.000",
    "date_modified": "2023-12-29T22:54:02.000",
    "request_status": "Pending",
    "responsible_agency": "Department of Public Works",
    "final_address": "6031 Pitt St",
    "address_councildis": "A",
    "status": "Pending",
    "rowid": "1058272",
    "final_x": "3665074.90548",
    "final_y": "521345.766329",
    "longitude": "-90.12027518893876",
    "latitude": "29.928008285877205",
    "geocoded_column": {
      "latitude": "29.928008285877205",
      "longitude": "-90.12027518893876"
    }
  },
  {
    "service_request": "2023-1058271",
    "request_type": "Roads/Drainage",
    "request_reason": "Pothole",
    "date_created": "2023-12-29T22:48:29.000",
    "date_modified": "2023-12-29T22:48:29.000",
    "request_status": "Pending",
    "responsible_agency": "Department of Public Works",
    "final_address": "5811 Hurst St",
    "address_councildis": "A",
    "status": "Pending",
    "rowid": "1058271",
    "final_x": "3666020.68199",
    "final_y": "521739.295738",
    "longitude": "-90.11727639383294",
    "latitude": "29.929062802019686",
    "geocoded_column": {
      "latitude": "29.929062802019686",
      "longitude": "-90.11727639383294"
    }
  },
  {
    "service_request": "2023-1058270",
    "request_type": "Roads/Drainage",
    "request_reason": "Catch Basin - Clogged",
    "date_created": "2023-12-29T22:24:53.000",
    "date_modified": "2023-12-29T22:24:53.000",
    "request_status": "Pending",
    "responsible_agency": "Department of Public Works",
    "final_address": "2730 Marais St",
    "address_councildis": "C",
    "status": "Pending",
    "rowid": "1058270",
    "final_x": "3687703.47171",
    "final_y": "536575.109895",
    "longitude": "-90.04830303093784",
    "latitude": "29.96920567105619",
    "geocoded_column": {
      "latitude": "29.96920567105619",
      "longitude": "-90.04830303093784"
    }
  },
  {
    "service_request": "2023-1058269",
    "request_type": "Trash/Recycling",
    "request_reason": "Missed Trash Pick-Up",
    "date_created": "2023-12-29T21:54:41.000",
    "date_modified": "2023-12-29T21:54:42.000",
    "request_status": "Pending",
    "responsible_agency": "Department of Sanitation",
    "final_address": "2329 General Meyer Ave",
    "address_councildis": "C",
    "status": "Assigned to Contractor",
    "contractor": "Richards Disposal",
    "rowid": "1058269",
    "final_x": "3692652.05296",
    "final_y": "527621.965631",
    "longitude": "-90.03299598049206",
    "latitude": "29.944434123735533",
    "geocoded_column": {
      "latitude": "29.944434123735533",
      "longitude": "-90.03299598049206"
    }
  },
  {
    "service_request": "2023-1058268",
    "request_type": "Trash/Recycling",
    "request_reason": "MIssed Recycling Pick-Up",
    "date_created": "2023-12-29T20:59:37.000",
    "date_modified": "2023-12-29T20:59:38.000",
    "request_status": "Pending",
    "responsible_agency": "Department of Sanitation",
    "final_address": "8506 Apricot St",
    "address_councildis": "A",
    "status": "Assigned to Contractor",
    "contractor": "Richards Disposal",
    "rowid": "1058268",
    "final_x": "3664686.92685",
    "final_y": "533611.932741",
    "longitude": "-90.12109029887758",
    "latitude": "29.961747590287853",
    "geocoded_column": {
      "latitude": "29.961747590287853",
      "longitude": "-90.12109029887758"
    }
  },
  {
    "service_request": "2023-1058267",
    "request_type": "Trash/Recycling",
    "request_reason": "Missed Trash Pick-Up",
    "date_created": "2023-12-29T20:54:08.000",
    "date_modified": "2023-12-29T20:54:09.000",
    "request_status": "Pending",
    "responsible_agency": "Department of Sanitation",
    "final_address": "3609 Nashville Ave",
    "address_councildis": "A",
    "status": "Assigned to Contractor",
    "contractor": "Richards Disposal",
    "rowid": "1058267",
    "final_x": "3668340.89306",
    "final_y": "528826.355776",
    "longitude": "-90.10971300793435",
    "latitude": "29.948482023631545",
    "geocoded_column": {
      "latitude": "29.948482023631545",
      "longitude": "-90.10971300793435"
    }
  },
  {
    "service_request": "2023-1058266",
    "request_type": "Traffic Signals/Signs/Striping/Streetlights",
    "request_reason": "Street Light Outage/Malfunction",
    "date_created": "2023-12-29T20:35:47.000",
    "date_modified": "2023-12-29T20:37:58.000",
    "request_status": "Pending",
    "responsible_agency": "Department of Public Works",
    "final_address": "4719 Marigny St",
    "address_councildis": "D",
    "status": "Assigned to Contractor",
    "contractor": "Legacy Professional Services",
    "rowid": "1058266",
    "final_x": "3684504.97737",
    "final_y": "550258.254804",
    "longitude": "-90.05792310781757",
    "latitude": "30.006927710710443",
    "geocoded_column": {
      "latitude": "30.006927710710443",
      "longitude": "-90.05792310781757"
    }
  },
  {
    "service_request": "2023-1058265",
    "request_type": "Health Related Request",
    "request_reason": "Noise Ordinance Complaint",
    "date_created": "2023-12-29T20:28:44.000",
    "date_modified": "2023-12-29T20:28:44.000",
    "request_status": "Pending",
    "responsible_agency": "Health Department",
    "final_address": "517 Warrington Dr",
    "address_councildis": "D",
    "status": "Pending",
    "rowid": "1058265",
    "final_x": "3681277.24021",
    "final_y": "548735.258771",
    "longitude": "-90.06817351446739",
    "latitude": "30.002838410286635",
    "geocoded_column": {
      "latitude": "30.002838410286635",
      "longitude": "-90.06817351446739"
    }
  },
  {
    "service_request": "2023-1058264",
    "request_type": "Property Maintenance",
    "request_reason": "Property Maintenance",
    "date_created": "2023-12-29T20:25:00.000",
    "date_modified": "2023-12-29T20:25:00.000",
    "request_status": "Pending",
    "responsible_agency": "Department of Code Enforcement",
    "final_address": "1300 BLK Webster St",
    "address_councildis": "A",
    "status": "Pending",
    "rowid": "1058264",
    "final_x": "3664770.96373",
    "final_y": "521179.824226",
    "longitude": "-90.1212402086791",
    "latitude": "29.92756084156265",
    "geocoded_column": {
      "latitude": "29.92756084156265",
      "longitude": "-90.1212402086791"
    }
  },
  {
    "service_request": "2023-1058263",
    "request_type": "Property Maintenance",
    "request_reason": "Property Maintenance",
    "date_created": "2023-12-29T20:24:09.000",
    "date_modified": "2023-12-29T20:24:09.000",
    "request_status": "Pending",
    "responsible_agency": "Department of Code Enforcement",
    "final_address": "1300 BLK Webster St",
    "address_councildis": "A",
    "status": "Pending",
    "rowid": "1058263",
    "final_x": "3664770.96373",
    "final_y": "521179.824226",
    "longitude": "-90.1212402086791",
    "latitude": "29.92756084156265",
    "geocoded_column": {
      "latitude": "29.92756084156265",
      "longitude": "-90.1212402086791"
    }
  },
  {
    "service_request": "2023-1058262",
    "request_type": "Property Maintenance",
    "request_reason": "Property Maintenance",
    "date_created": "2023-12-29T20:22:30.000",
    "date_modified": "2023-12-29T20:22:30.000",
    "request_status": "Pending",
    "responsible_agency": "Department of Code Enforcement",
    "final_address": "1300 BLK Webster St",
    "address_councildis": "A",
    "status": "Pending",
    "rowid": "1058262",
    "final_x": "3664770.96373",
    "final_y": "521179.824226",
    "longitude": "-90.1212402086791",
    "latitude": "29.92756084156265",
    "geocoded_column": {
      "latitude": "29.92756084156265",
      "longitude": "-90.1212402086791"
    }
  },
  {
    "service_request": "2023-1058261",
    "request_type": "Trash/Recycling",
    "request_reason": "Missed Trash Pick-Up",
    "date_created": "2023-12-29T20:19:11.000",
    "date_modified": "2023-12-30T07:22:57.000",
    "case_close_date": "2023-12-30T01:22:57.000",
    "request_status": "Closed",
    "responsible_agency": "Department of Sanitation",
    "final_address": "1023 Bartholomew St",
    "address_councildis": "C",
    "status": "Invalid Request",
    "contractor": "IV Waste",
    "contractor_action": "Invalid Request",
    "rowid": "1058261",
    "final_x": "3691774.14096",
    "final_y": "535049.520454",
    "longitude": "-90.03550217670221",
    "latitude": "29.96488468375125",
    "geocoded_column": {
      "latitude": "29.96488468375125",
      "longitude": "-90.03550217670221"
    }
  },
  {
    "service_request": "2023-1058260",
    "request_type": "Trash/Recycling",
    "request_reason": "Illegal Dumping",
    "date_created": "2023-12-29T20:15:42.000",
    "date_modified": "2023-12-29T20:15:42.000",
    "request_status": "Pending",
    "responsible_agency": "Department of Sanitation",
    "final_address": "1020 Franklin Ave",
    "address_councildis": "C",
    "status": "Pending",
    "rowid": "1058260",
    "final_x": "3687041.00591",
    "final_y": "536272.093703",
    "longitude": "-90.05040585613712",
    "latitude": "29.968392893868263",
    "geocoded_column": {
      "latitude": "29.968392893868263",
      "longitude": "-90.05040585613712"
    }
  },
  {
    "service_request": "2023-1058259",
    "request_type": "Trash/Recycling",
    "request_reason": "Missed Trash Pick-Up",
    "date_created": "2023-12-29T20:03:35.000",
    "date_modified": "2023-12-30T07:22:25.000",
    "case_close_date": "2023-12-30T01:22:25.000",
    "request_status": "Closed",
    "responsible_agency": "Department of Sanitation",
    "final_address": "1241 Louisa St",
    "address_councildis": "C",
    "status": "Invalid Request",
    "contractor": "IV Waste",
    "contractor_action": "Invalid Request",
    "rowid": "1058259",
    "final_x": "3689769.20848",
    "final_y": "536543.812295",
    "longitude": "-90.04178041706983",
    "latitude": "29.96905575152679",
    "geocoded_column": {
      "latitude": "29.96905575152679",
      "longitude": "-90.04178041706983"
    }
  },
  {
    "service_request": "2023-1058258",
    "request_type": "Traffic Signals/Signs/Striping/Streetlights",
    "request_reason": "Street Light Outage/Malfunction",
    "date_created": "2023-12-29T19:44:02.000",
    "date_modified": "2023-12-29T19:44:03.000",
    "request_status": "Pending",
    "responsible_agency": "Department of Public Works",
    "final_address": "807 Bourbon St",
    "address_councildis": "C",
    "status": "Assigned to Contractor",
    "contractor": "Legacy Professional Services",
    "rowid": "1058258",
    "final_x": "3682522.33781",
    "final_y": "533049.363012",
    "longitude": "-90.06478868699098",
    "latitude": "29.959669829756294",
    "geocoded_column": {
      "latitude": "29.959669829756294",
      "longitude": "-90.06478868699098"
    }
  },
  {
    "service_request": "2023-1058257",
    "request_type": "Trash/Recycling",
    "request_reason": "Missed Trash Pick-Up",
    "date_created": "2023-12-29T19:38:26.000",
    "date_modified": "2023-12-30T07:21:11.000",
    "case_close_date": "2023-12-30T01:21:10.000",
    "request_status": "Closed",
    "responsible_agency": "Department of Sanitation",
    "final_address": "3140 N Claiborne Ave",
    "address_councildis": "D",
    "status": "Invalid Request",
    "contractor": "IV Waste",
    "contractor_action": "Invalid Request",
    "rowid": "1058257",
    "final_x": "3689823.08137",
    "final_y": "537738.536392",
    "longitude": "-90.04156774813494",
    "latitude": "29.972339152396245",
    "geocoded_column": {
      "latitude": "29.972339152396245",
      "longitude": "-90.04156774813494"
    }
  },
  {
    "service_request": "2023-1058256",
    "request_type": "Trash/Recycling",
    "request_reason": "Request a Large Item Pick Up",
    "date_created": "2023-12-29T19:26:54.000",
    "date_modified": "2023-12-29T19:26:55.000",
    "request_status": "Pending",
    "responsible_agency": "Department of Sanitation",
    "final_address": "6210 St Roch Ave",
    "address_councildis": "D",
    "status": "Assigned to Contractor",
    "contractor": "IV Waste",
    "rowid": "1058256",
    "final_x": "3684813.41794",
    "final_y": "556208.641562",
    "longitude": "-90.05673922280747",
    "latitude": "30.023279651539074",
    "geocoded_column": {
      "latitude": "30.023279651539074",
      "longitude": "-90.05673922280747"
    }
  },
  {
    "service_request": "2023-1058255",
    "request_type": "Trash/Recycling",
    "request_reason": "Missed Trash Pick-Up",
    "date_created": "2023-12-29T18:24:00.000",
    "date_modified": "2023-12-29T18:24:01.000",
    "request_status": "Pending",
    "responsible_agency": "Department of Sanitation",
    "final_address": "6910 Coventry St",
    "address_councildis": "E",
    "status": "Assigned to Contractor",
    "contractor": "Waste Pro",
    "rowid": "1058255",
    "final_x": "3698862.77258",
    "final_y": "559708.312605",
    "longitude": "-90.01221904013947",
    "latitude": "30.032464533113558",
    "geocoded_column": {
      "latitude": "30.032464533113558",
      "longitude": "-90.01221904013947"
    }
  },
  {
    "service_request": "2023-1058254",
    "request_type": "Trash/Recycling",
    "request_reason": "Missed Trash Pick-Up",
    "date_created": "2023-12-29T18:23:39.000",
    "date_modified": "2023-12-29T18:23:40.000",
    "request_status": "Pending",
    "responsible_agency": "Department of Sanitation",
    "final_address": "6910 Coventry St",
    "address_councildis": "E",
    "status": "Assigned to Contractor",
    "contractor": "Waste Pro",
    "rowid": "1058254",
    "final_x": "3698862.77258",
    "final_y": "559708.312605",
    "longitude": "-90.01221904013947",
    "latitude": "30.032464533113558",
    "geocoded_column": {
      "latitude": "30.032464533113558",
      "longitude": "-90.01221904013947"
    }
  },
  {
    "service_request": "2023-1058253",
    "request_type": "Trash/Recycling",
    "request_reason": "Replace Trash Cart",
    "date_created": "2023-12-29T18:14:47.000",
    "date_modified": "2023-12-29T18:14:48.000",
    "request_status": "Pending",
    "responsible_agency": "Department of Sanitation",
    "final_address": "1123 Louisiana Ave",
    "address_councildis": "B",
    "status": "Assigned to Contractor",
    "contractor": "Richards Disposal",
    "rowid": "1058253",
    "final_x": "3675017.26952",
    "final_y": "519856.663736",
    "longitude": "-90.08894043886947",
    "latitude": "29.92362057005257",
    "geocoded_column": {
      "latitude": "29.92362057005257",
      "longitude": "-90.08894043886947"
    }
  },
  {
    "service_request": "2023-1058252",
    "request_type": "Trash/Recycling",
    "request_reason": "MIssed Recycling Pick-Up",
    "date_created": "2023-12-29T18:14:38.000",
    "date_modified": "2023-12-29T18:14:39.000",
    "request_status": "Pending",
    "responsible_agency": "Department of Sanitation",
    "final_address": "7535 Garfield St",
    "address_councildis": "A",
    "status": "Assigned to Contractor",
    "contractor": "Richards Disposal",
    "rowid": "1058252",
    "final_x": "3660813.56678",
    "final_y": "524378.530492",
    "longitude": "-90.13362709167163",
    "latitude": "29.936470795261613",
    "geocoded_column": {
      "latitude": "29.936470795261613",
      "longitude": "-90.13362709167163"
    }
  },
  {
    "service_request": "2023-1058251",
    "request_type": "Trash/Recycling",
    "request_reason": "MIssed Recycling Pick-Up",
    "date_created": "2023-12-29T18:07:16.000",
    "date_modified": "2023-12-30T07:17:03.000",
    "case_close_date": "2023-12-30T01:17:03.000",
    "request_status": "Closed",
    "responsible_agency": "Department of Sanitation",
    "final_address": "1014 Desire St",
    "address_councildis": "C",
    "status": "Invalid Request",
    "contractor": "IV Waste",
    "contractor_action": "Invalid Request",
    "rowid": "1058251",
    "final_x": "3690078.27043",
    "final_y": "535408.076614",
    "longitude": "-90.04084483903002",
    "latitude": "29.96592329460682",
    "geocoded_column": {
      "latitude": "29.96592329460682",
      "longitude": "-90.04084483903002"
    }
  },
  {
    "service_request": "2023-1058250",
    "request_type": "Trash/Recycling",
    "request_reason": "Missed Trash Pick-Up",
    "date_created": "2023-12-29T18:07:11.000",
    "date_modified": "2023-12-30T07:19:30.000",
    "case_close_date": "2023-12-30T01:19:30.000",
    "request_status": "Closed",
    "responsible_agency": "Department of Sanitation",
    "final_address": "831 Louisa St",
    "address_councildis": "C",
    "status": "Invalid Request",
    "contractor": "IV Waste",
    "contractor_action": "Invalid Request",
    "rowid": "1058250",
    "final_x": "3689371.38556",
    "final_y": "534974.340742",
    "longitude": "-90.04309257658095",
    "latitude": "29.964752578131034",
    "geocoded_column": {
      "latitude": "29.964752578131034",
      "longitude": "-90.04309257658095"
    }
  },
  {
    "service_request": "2023-1058249",
    "request_type": "Trash/Recycling",
    "request_reason": "MIssed Recycling Pick-Up",
    "date_created": "2023-12-29T18:07:08.000",
    "date_modified": "2023-12-30T07:14:14.000",
    "case_close_date": "2023-12-30T01:14:14.000",
    "request_status": "Closed",
    "responsible_agency": "Department of Sanitation",
    "final_address": "831 Louisa St",
    "address_councildis": "C",
    "status": "Duplicate Request",
    "contractor": "IV Waste",
    "contractor_action": "duplicate",
    "rowid": "1058249",
    "final_x": "3689371.38556",
    "final_y": "534974.340742",
    "longitude": "-90.04309257658095",
    "latitude": "29.964752578131034",
    "geocoded_column": {
      "latitude": "29.964752578131034",
      "longitude": "-90.04309257658095"
    }
  },
  {
    "service_request": "2023-1058248",
    "request_type": "Trash/Recycling",
    "request_reason": "Missed Trash Pick-Up",
    "date_created": "2023-12-29T18:06:17.000",
    "date_modified": "2023-12-30T07:18:59.000",
    "case_close_date": "2023-12-30T01:18:59.000",
    "request_status": "Closed",
    "responsible_agency": "Department of Sanitation",
    "final_address": "1014 Desire St",
    "address_councildis": "C",
    "status": "Invalid Request",
    "contractor": "IV Waste",
    "contractor_action": "Invalid Request",
    "rowid": "1058248",
    "final_x": "3690078.27043",
    "final_y": "535408.076614",
    "longitude": "-90.04084483903002",
    "latitude": "29.96592329460682",
    "geocoded_column": {
      "latitude": "29.96592329460682",
      "longitude": "-90.04084483903002"
    }
  },
  {
    "service_request": "2023-1058247",
    "request_type": "Trash/Recycling",
    "request_reason": "Missed Trash Pick-Up",
    "date_created": "2023-12-29T17:56:51.000",
    "date_modified": "2023-12-29T17:56:51.000",
    "request_status": "Pending",
    "responsible_agency": "Department of Sanitation",
    "final_address": "2721 Memorial Park Dr",
    "address_councildis": "C",
    "status": "Assigned to Contractor",
    "contractor": "Richards Disposal",
    "rowid": "1058247",
    "final_x": "3693274.32989",
    "final_y": "520611.37228",
    "longitude": "-90.03128280013001",
    "latitude": "29.9251379526816",
    "geocoded_column": {
      "latitude": "29.9251379526816",
      "longitude": "-90.03128280013001"
    }
  },
  {
    "service_request": "2023-1058246",
    "request_type": "Traffic Signals/Signs/Striping/Streetlights",
    "request_reason": "Street Light Outage/Malfunction",
    "date_created": "2023-12-29T17:45:45.000",
    "date_modified": "2023-12-29T17:45:46.000",
    "request_status": "Pending",
    "responsible_agency": "Department of Public Works",
    "final_address": "1231 Seville Dr",
    "address_councildis": "D",
    "status": "Assigned to Contractor",
    "contractor": "Legacy Professional Services",
    "rowid": "1058246",
    "final_x": "3677036.87752",
    "final_y": "551182.821973",
    "longitude": "-90.08148494118241",
    "latitude": "30.009696392567847",
    "geocoded_column": {
      "latitude": "30.009696392567847",
      "longitude": "-90.08148494118241"
    }
  },