[
  {
    "service_request": "2022-902035",
    "request_type": "Safety & Permits",
    "request_reason": "Construction permit",
    "date_created": "2022-07-21T00:11:37.000",
    "date_modified": "2022-07-21T00:11:37.000",
    "request_status": "Pending",
    "responsible_agency": "Department of Code Enforcement",
    "status": "Pending",
    "rowid": "902035",
    "longitude": "0.0",
    "latitude": "0.0",
    "geocoded_column": {
      "latitude": "0.0",
      "longitude": "0.0"
    }
  },
  {
    "service_request": "2022-902034",
    "request_type": "Abandoned Vehicles",
    "request_reason": "Abandoned/Junk Vehicles",
    "date_created": "2022-07-20T23:37:08.000",
    "date_modified": "2022-07-20T23:37:08.000",
    "request_status": "Pending",
    "responsible_agency": "Department of Public Works",
    "final_address": "635 Elmira Ave",
    "address_councildis": "C",
    "status": "Pending",
    "rowid": "902034",
    "final_x": "3688128.12214",
    "final_y": "529196.552768",
    "longitude": "-90.04722350267011",
    "latitude": "29.948904090707472",
    "geocoded_column": {
      "latitude": "29.948904090707472",
      "longitude": "-90.04722350267011"
    }
  },
  {
    "service_request": "2022-902033",
    "request_type": "Roads/Drainage",
    "request_reason": "Catch Basin - Clogged",
    "date_created": "2022-07-20T23:32:21.000",
    "date_modified": "2022-07-20T23:32:21.000",
    "request_status": "Pending",
    "responsible_agency": "Department of Public Works",
    "final_address": "200 Delaronde St",
    "address_councildis": "C",
    "status": "Pending",
    "rowid": "902033",
    "final_x": "3685987.44566",
    "final_y": "530607.170882",
    "longitude": "-90.05393279688215",
    "latitude": "29.95284870271816",
    "geocoded_column": {
      "latitude": "29.95284870271816",
      "longitude": "-90.05393279688215"
    }
  },
  {
    "service_request": "2022-902032",
    "request_type": "Traffic Signals/Signs/Striping/Streetlights",
    "request_reason": "Street Light Outage/Malfunction",
    "date_created": "2022-07-20T22:32:21.000",
    "date_modified": "2022-07-20T22:32:22.000",
    "request_status": "Pending",
    "responsible_agency": "Department of Public Works",
    "final_address": "5929 General Diaz St",
    "address_councildis": "A",
    "status": "Pending",
    "contractor": "Royal Engineering",
    "rowid": "902032",
    "final_x": "3669529.24858",
    "final_y": "546806.910033",
    "longitude": "-90.10535244284597",
    "latitude": "29.99788755539447",
    "geocoded_column": {
      "latitude": "29.99788755539447",
      "longitude": "-90.10535244284597"
    }
  },
  {
    "service_request": "2022-902031",
    "request_type": "Trash/Recycling",
    "request_reason": "Missed Trash Pick-Up",
    "date_created": "2022-07-20T22:29:10.000",
    "date_modified": "2022-07-20T22:29:10.000",
    "request_status": "Pending",
    "responsible_agency": "Department of Sanitation",
    "final_address": "201 New Orleans-Hammond Hwy",
    "address_councildis": "A",
    "status": "Assigned to Contractor",
    "contractor": "Metro Disposal",
    "rowid": "902031",
    "final_x": "3666123.88096",
    "final_y": "554703.540376",
    "longitude": "-90.11584492739992",
    "latitude": "30.019700448415083",
    "geocoded_column": {
      "latitude": "30.019700448415083",
      "longitude": "-90.11584492739992"
    }
  },
  {
    "service_request": "2022-902030",
    "request_type": "Traffic Signals/Signs/Striping/Streetlights",
    "request_reason": "Street Light Outage/Malfunction",
    "date_created": "2022-07-20T22:26:59.000",
    "date_modified": "2022-07-20T22:26:59.000",
    "request_status": "Pending",
    "responsible_agency": "Department of Public Works",
    "final_address": "5929 General Diaz St",
    "address_councildis": "A",
    "status": "Pending",
    "contractor": "Royal Engineering",
    "rowid": "902030",
    "final_x": "3669529.24858",
    "final_y": "546806.910033",
    "longitude": "-90.10535244284597",
    "latitude": "29.99788755539447",
    "geocoded_column": {
      "latitude": "29.99788755539447",
      "longitude": "-90.10535244284597"
    }
  },
  {
    "service_request": "2022-902029",
    "request_type": "Abandoned Vehicles",
    "request_reason": "Abandoned/Junk Vehicles",
    "date_created": "2022-07-20T22:21:14.000",
    "date_modified": "2022-07-20T22:21:14.000",
    "request_status": "Pending",
    "responsible_agency": "Department of Public Works",
    "status": "Pending",
    "rowid": "902029",
    "longitude": "0.0",
    "latitude": "0.0",
    "geocoded_column": {
      "latitude": "0.0",
      "longitude": "0.0"
    }
  },
  {
    "service_request": "2022-902028",
    "request_type": "Trash/Recycling",
    "request_reason": "Missed Trash Pick-Up",
    "date_created": "2022-07-20T22:06:05.000",
    "date_modified": "2022-07-20T22:06:06.000",
    "request_status": "Pending",
    "responsible_agency": "Department of Sanitation",
    "final_address": "7830 Walmsley Ave",
    "address_councildis": "A",
    "status": "Assigned to Contractor",
    "contractor": "Richards Disposal",
    "rowid": "902028",
    "final_x": "3666497.44282",
    "final_y": "531951.214659",
    "longitude": "-90.11542870264954",
    "latitude": "29.957128368437502",
    "geocoded_column": {
      "latitude": "29.957128368437502",
      "longitude": "-90.11542870264954"
    }
  },
  {
    "service_request": "2022-902027",
    "request_type": "Abandoned Vehicles",
    "request_reason": "Abandoned/Junk Vehicles",
    "date_created": "2022-07-20T22:05:08.000",
    "date_modified": "2022-07-20T22:18:42.000",
    "request_status": "Pending",
    "responsible_agency": "Department of Public Works",
    "status": "Inspected",
    "rowid": "902027",
    "longitude": "0.0",
    "latitude": "0.0",
    "geocoded_column": {
      "latitude": "0.0",
      "longitude": "0.0"
    }
  },
  {
    "service_request": "2022-902026",
    "request_type": "Roads/Drainage",
    "request_reason": "Catch Basin - Broken/Damage",
    "date_created": "2022-07-20T21:53:08.000",
    "date_modified": "2022-07-20T21:53:08.000",
    "request_status": "Pending",
    "responsible_agency": "Department of Public Works",
    "final_address": "1716 Sixth St",
    "address_councildis": "B",
    "status": "Pending",
    "rowid": "902026",
    "final_x": "3675170.3803",
    "final_y": "522679.201146",
    "longitude": "-90.08836031855692",
    "latitude": "29.931377061994297",
    "geocoded_column": {
      "latitude": "29.931377061994297",
      "longitude": "-90.08836031855692"
    }
  },
  {
    "service_request": "2022-902025",
    "request_type": "Roads/Drainage",
    "request_reason": "Catch Basin - Clogged",
    "date_created": "2022-07-20T21:49:35.000",
    "date_modified": "2022-07-20T21:49:35.000",
    "request_status": "Pending",
    "responsible_agency": "Department of Public Works",
    "final_address": "3100 Carondelet St",
    "address_councildis": "B",
    "status": "Pending",
    "rowid": "902025",
    "final_x": "3674762.35905",
    "final_y": "522194.353466",
    "longitude": "-90.08966500598632",
    "latitude": "29.930056071668826",
    "geocoded_column": {
      "latitude": "29.930056071668826",
      "longitude": "-90.08966500598632"
    }
  },
  {
    "service_request": "2022-902023",
    "request_type": "Parks & Parkways",
    "request_reason": "Request Tree Service (Right of Way/Public Property)",
    "date_created": "2022-07-20T21:48:27.000",
    "date_modified": "2022-07-20T21:48:27.000",
    "request_status": "Pending",
    "responsible_agency": "Department of Parks & Parkway",
    "status": "Pending",
    "rowid": "902023",
    "longitude": "0.0",
    "latitude": "0.0",
    "geocoded_column": {
      "latitude": "0.0",
      "longitude": "0.0"
    }
  },
  {
    "service_request": "2022-902022",
    "request_type": "Trash/Recycling",
    "request_reason": "Illegal Dumping",
    "date_created": "2022-07-20T21:41:45.000",
    "date_modified": "2022-07-20T21:41:45.000",
    "request_status": "Pending",
    "responsible_agency": "Department of Sanitation",
    "final_address": "1822 Washington Ave",
    "address_councildis": "B",
    "status": "Pending",
    "rowid": "902022",
    "final_x": "3675380.66037",
    "final_y": "523272.498875",
    "longitude": "-90.08767612821768",
    "latitude": "29.933002153829914",
    "geocoded_column": {
      "latitude": "29.933002153829914",
      "longitude": "-90.08767612821768"
    }
  },
  {
    "service_request": "2022-902021",
    "request_type": "Roads/Drainage",
    "request_reason": "Catch Basin - Clogged",
    "date_created": "2022-07-20T21:40:50.000",
    "date_modified": "2022-07-20T21:40:50.000",
    "request_status": "Pending",
    "responsible_agency": "Department of Public Works",
    "final_address": "1241 Frenchmen St",
    "address_councildis": "C",
    "status": "Pending",
    "rowid": "902021",
    "final_x": "3684586.30018",
    "final_y": "536967.742152",
    "longitude": "-90.05813347295022",
    "latitude": "29.97038102842954",
    "geocoded_column": {
      "latitude": "29.97038102842954",
      "longitude": "-90.05813347295022"
    }
  },
  {
    "service_request": "2022-902020",
    "request_type": "Abandoned Vehicles",
    "request_reason": "Abandoned/Junk Vehicles",
    "date_created": "2022-07-20T21:40:10.000",
    "date_modified": "2022-07-20T21:58:21.000",
    "request_status": "Pending",
    "responsible_agency": "Department of Public Works",
    "status": "Inspected",
    "rowid": "902020",
    "longitude": "0.0",
    "latitude": "0.0",
    "geocoded_column": {
      "latitude": "0.0",
      "longitude": "0.0"
    }
  },
  {
    "service_request": "2022-902019",
    "request_type": "Traffic Signals/Signs/Striping/Streetlights",
    "request_reason": "Street Light Outage/Malfunction",
    "date_created": "2022-07-20T21:36:23.000",
    "date_modified": "2022-07-20T21:36:24.000",
    "request_status": "Pending",
    "responsible_agency": "Department of Public Works",
    "final_address": "2100 Napoleon Ave",
    "address_councildis": "B",
    "status": "Pending",
    "contractor": "Royal Engineering",
    "rowid": "902019",
    "final_x": "3670394.96826",
    "final_y": "522656.31161",
    "longitude": "-90.10343652210679",
    "latitude": "29.931455927719163",
    "geocoded_column": {
      "latitude": "29.931455927719163",
      "longitude": "-90.10343652210679"
    }
  },
  {
    "service_request": "2022-902018",
    "request_type": "Trash/Recycling",
    "request_reason": "Dead Animal Pick Up",
    "date_created": "2022-07-20T21:34:43.000",
    "date_modified": "2022-07-20T21:34:44.000",
    "request_status": "Pending",
    "responsible_agency": "Department of Sanitation",
    "final_address": "713 Elmira Ave",
    "address_councildis": "C",
    "status": "Assigned to Contractor",
    "contractor": "Richards Disposal",
    "rowid": "902018",
    "final_x": "3688138.03235",
    "final_y": "528991.401024",
    "longitude": "-90.0471994825561",
    "latitude": "29.94833968772787",
    "geocoded_column": {
      "latitude": "29.94833968772787",
      "longitude": "-90.0471994825561"
    }
  },
  {
    "service_request": "2022-902017",
    "request_type": "Trash/Recycling",
    "request_reason": "Request a Large Item Pick Up",
    "date_created": "2022-07-20T21:32:06.000",
    "date_modified": "2022-07-20T21:32:07.000",
    "request_status": "Pending",
    "responsible_agency": "Department of Sanitation",
    "final_address": "5141 Carlisle Ct",
    "address_councildis": "C",
    "status": "Assigned to Contractor",
    "contractor": "Richards Disposal",
    "rowid": "902017",
    "final_x": "3703174.63895",
    "final_y": "516472.027317",
    "longitude": "-90.0001829538753",
    "latitude": "29.91344312926251",
    "geocoded_column": {
      "latitude": "29.91344312926251",
      "longitude": "-90.0001829538753"
    }
  },
  {
    "service_request": "2022-902016",
    "request_type": "Trash/Recycling",
    "request_reason": "Missed Trash Pick-Up",
    "date_created": "2022-07-20T21:29:48.000",
    "date_modified": "2022-07-20T21:29:48.000",
    "request_status": "Pending",
    "responsible_agency": "Department of Sanitation",
    "final_address": "7656 Anne Marie Ct",
    "address_councildis": "E",
    "status": "Assigned to Contractor",
    "contractor": "Metro Disposal",
    "rowid": "902016",
    "final_x": "3717737.04057",
    "final_y": "571303.543272",
    "longitude": "-89.95213394696222",
    "latitude": "30.063734802869117",
    "geocoded_column": {
      "latitude": "30.063734802869117",
      "longitude": "-89.95213394696222"
    }
  },
  {
    "service_request": "2022-902015",
    "request_type": "Abandoned Vehicles",
    "request_reason": "Abandoned/Junk Vehicles",
    "date_created": "2022-07-20T21:28:03.000",
    "date_modified": "2022-07-20T21:35:01.000",
    "request_status": "Pending",
    "responsible_agency": "Department of Public Works",
    "status": "Inspected",
    "rowid": "902015",
    "longitude": "0.0",
    "latitude": "0.0",
    "geocoded_column": {
      "latitude": "0.0",
      "longitude": "0.0"
    }
  },
  {
    "service_request": "2022-902014",
    "request_type": "Traffic Signals/Signs/Striping/Streetlights",
    "request_reason": "Street Light Outage/Malfunction",
    "date_created": "2022-07-20T21:17:48.000",
    "date_modified": "2022-07-20T21:17:49.000",
    "request_status": "Pending",
    "responsible_agency": "Department of Public Works",
    "final_address": "6749 Memphis St",
    "address_councildis": "A",
    "status": "Pending",
    "contractor": "Royal Engineering",
    "rowid": "902014",
    "final_x": "3669742.38874",
    "final_y": "552347.19791",
    "longitude": "-90.10449144048584",
    "latitude": "30.01311512771771",
    "geocoded_column": {
      "latitude": "30.01311512771771",
      "longitude": "-90.10449144048584"
    }
  },
  {
    "service_request": "2022-902012",
    "request_type": "Trash/Recycling",
    "request_reason": "Missed Trash Pick-Up",
    "date_created": "2022-07-20T21:07:31.000",
    "date_modified": "2022-07-20T21:07:31.000",
    "request_status": "Pending",
    "responsible_agency": "Department of Sanitation",
    "final_address": "161 Mary Jane Ln",
    "address_councildis": "E",
    "status": "Assigned to Contractor",
    "contractor": "Metro Disposal",
    "rowid": "902012",
    "final_x": "3718320.98911",
    "final_y": "571281.994792",
    "longitude": "-89.95028889079146",
    "latitude": "30.063656186332228",
    "geocoded_column": {
      "latitude": "30.063656186332228",
      "longitude": "-89.95028889079146"
    }
  },
  {
    "service_request": "2022-902011",
    "request_type": "Abandoned Vehicles",
    "request_reason": "Abandoned/Junk Vehicles",
    "date_created": "2022-07-20T21:03:34.000",
    "date_modified": "2022-07-20T21:22:52.000",
    "request_status": "Pending",
    "responsible_agency": "Department of Public Works",
    "status": "Inspected",
    "rowid": "902011",
    "longitude": "0.0",
    "latitude": "0.0",
    "geocoded_column": {
      "latitude": "0.0",
      "longitude": "0.0"
    }
  },
  {
    "service_request": "2022-902010",
    "request_type": "Abandoned Vehicles",
    "request_reason": "Abandoned/Junk Vehicles",
    "date_created": "2022-07-20T20:59:57.000",
    "date_modified": "2022-07-20T20:59:57.000",
    "request_status": "Pending",
    "responsible_agency": "Department of Public Works",
    "final_address": "709 Mandeville St",
    "address_councildis": "C",
    "status": "Pending",
    "rowid": "902010",
    "final_x": "3685916.33001",
    "final_y": "535017.410246",
    "longitude": "-90.05400186903074",
    "latitude": "29.964977526504114",
    "geocoded_column": {
      "latitude": "29.964977526504114",
      "longitude": "-90.05400186903074"
    }
  },
  {
    "service_request": "2022-902008",
    "request_type": "Trash/Recycling",
    "request_reason": "Missed Trash Pick-Up",
    "date_created": "2022-07-20T20:28:15.000",
    "date_modified": "2022-07-20T20:28:16.000",
    "request_status": "Pending",
    "responsible_agency": "Department of Sanitation",
    "final_address": "8036 Sandpiper Dr",
    "address_councildis": "E",
    "status": "Assigned to Contractor",
    "contractor": "Metro Disposal",
    "rowid": "902008",
    "final_x": "3715016.14789",
    "final_y": "570783.957287",
    "longitude": "-89.96075445187027",
    "latitude": "30.062396056784475",
    "geocoded_column": {
      "latitude": "30.062396056784475",
      "longitude": "-89.96075445187027"
    }
  },
  {
    "service_request": "2022-902007",
    "request_type": "Traffic Signals/Signs/Striping/Streetlights",
    "request_reason": "Additional signage",
    "date_created": "2022-07-20T20:24:03.000",
    "date_modified": "2022-07-20T20:24:03.000",
    "request_status": "Pending",
    "responsible_agency": "Department of Public Works",
    "final_address": "3146 N Claiborne Ave",
    "address_councildis": "D",
    "status": "Pending",
    "rowid": "902007",
    "final_x": "3689844.36137",
    "final_y": "537659.101448",
    "longitude": "-90.04150337075208",
    "latitude": "29.972120074654125",
    "geocoded_column": {
      "latitude": "29.972120074654125",
      "longitude": "-90.04150337075208"
    }
  },
  {
    "service_request": "2022-902006",
    "request_type": "Trash/Recycling",
    "request_reason": "Request a Large Item Pick Up",
    "date_created": "2022-07-20T20:22:02.000",
    "date_modified": "2022-07-20T20:22:03.000",
    "request_status": "Pending",
    "responsible_agency": "Department of Sanitation",
    "final_address": "1015 N Salcedo St, New Orleans, Louisiana, 70119",
    "address_councildis": "A",
    "status": "Assigned to Contractor",
    "contractor": "Richards Disposal",
    "rowid": "902006",
    "final_x": "3676236.94766",
    "final_y": "538975.785994",
    "longitude": "-90.08443255819074",
    "latitude": "29.976155318048335",
    "geocoded_column": {
      "latitude": "29.976155318048335",
      "longitude": "-90.08443255819074"
    }
  },
  {
    "service_request": "2022-902005",
    "request_type": "Abandoned Vehicles",
    "request_reason": "Abandoned/Junk Vehicles",
    "date_created": "2022-07-20T20:13:39.000",
    "date_modified": "2022-07-20T20:54:21.000",
    "request_status": "Pending",
    "responsible_agency": "Department of Public Works",
    "status": "Inspected",
    "rowid": "902005",
    "longitude": "0.0",
    "latitude": "0.0",
    "geocoded_column": {
      "latitude": "0.0",
      "longitude": "0.0"
    }
  },
  {
    "service_request": "2022-902004",
    "request_type": "Trash/Recycling",
    "request_reason": "Missed Trash Pick-Up",
    "date_created": "2022-07-20T20:10:59.000",
    "date_modified": "2022-07-20T20:11:00.000",
    "request_status": "Pending",
    "responsible_agency": "Department of Sanitation",
    "final_address": "3032 St Peter St",
    "address_councildis": "A",
    "status": "Assigned to Contractor",
    "contractor": "Richards Disposal",
    "rowid": "902004",
    "final_x": "3675404.16341",
    "final_y": "537754.798024",
    "longitude": "-90.08710467938063",
    "latitude": "29.972822950037493",
    "geocoded_column": {
      "latitude": "29.972822950037493",
      "longitude": "-90.08710467938063"
    }
  },
  {
    "service_request": "2022-902003",
    "request_type": "Traffic Signals/Signs/Striping/Streetlights",
    "request_reason": "Street Light Outage/Malfunction",
    "date_created": "2022-07-20T20:10:09.000",
    "date_modified": "2022-07-20T20:10:10.000",
    "request_status": "Pending",
    "responsible_agency": "Department of Public Works",
    "status": "Pending",
    "contractor": "Royal Engineering",
    "rowid": "902003",
    "longitude": "0.0",
    "latitude": "0.0",
    "geocoded_column": {
      "latitude": "0.0",
      "longitude": "0.0"
    }
  },
  {
    "service_request": "2022-902002",
    "request_type": "Trash/Recycling",
    "request_reason": "Order Trash Cart",
    "date_created": "2022-07-20T20:09:13.000",
    "date_modified": "2022-07-20T20:09:14.000",
    "request_status": "Pending",
    "responsible_agency": "Department of Sanitation",
    "final_address": "3032 St Peter St",
    "address_councildis": "A",
    "status": "Assigned to Contractor",
    "contractor": "Richards Disposal",
    "rowid": "902002",
    "final_x": "3675404.16341",
    "final_y": "537754.798024",
    "longitude": "-90.08710467938063",
    "latitude": "29.972822950037493",
    "geocoded_column": {
      "latitude": "29.972822950037493",
      "longitude": "-90.08710467938063"
    }
  },
  {
    "service_request": "2022-902000",
    "request_type": "Roads/Drainage",
    "request_reason": "Street Flooding / Drainage",
    "date_created": "2022-07-20T19:39:35.000",
    "date_modified": "2022-07-20T19:39:35.000",
    "request_status": "Pending",
    "responsible_agency": "Department of Public Works",
    "final_address": "520 Valence St",
    "address_councildis": "B",
    "status": "Pending",
    "rowid": "902000",
    "final_x": "3670019.61844",
    "final_y": "517533.739574",
    "longitude": "-90.10479484432996",
    "latitude": "29.91738155691022",
    "geocoded_column": {
      "latitude": "29.91738155691022",
      "longitude": "-90.10479484432996"
    }
  },
  {
    "service_request": "2022-901999",
    "request_type": "Trash/Recycling",
    "request_reason": "MIssed Recycling Pick-Up",
    "date_created": "2022-07-20T19:33:31.000",
    "date_modified": "2022-07-20T19:33:31.000",
    "request_status": "Pending",
    "responsible_agency": "Department of Sanitation",
    "final_address": "1316 Short St, New Orleans, Louisiana, 70118",
    "address_councildis": "A",
    "status": "Assigned to Contractor",
    "contractor": "Richards Disposal",
    "rowid": "901999",
    "final_x": "3662637.69498",
    "final_y": "528514.161152",
    "longitude": "-90.12773084808003",
    "latitude": "29.94778982034247",
    "geocoded_column": {
      "latitude": "29.94778982034247",
      "longitude": "-90.12773084808003"
    }
  },
  {
    "service_request": "2022-901998",
    "request_type": "Traffic Signals/Signs/Striping/Streetlights",
    "request_reason": "Traffic Signal Malfunctioning/Damaged",
    "date_created": "2022-07-20T19:26:08.000",
    "date_modified": "2022-07-20T19:26:08.000",
    "request_status": "Pending",
    "responsible_agency": "Department of Public Works",
    "status": "Pending",
    "rowid": "901998",
    "longitude": "0.0",
    "latitude": "0.0",
    "geocoded_column": {
      "latitude": "0.0",
      "longitude": "0.0"
    }
  },
  {
    "service_request": "2022-901997",
    "request_type": "Property Maintenance",
    "request_reason": "Property Maintenance",
    "date_created": "2022-07-20T19:17:27.000",
    "date_modified": "2022-07-20T19:17:27.000",
    "request_status": "Pending",
    "responsible_agency": "Department of Code Enforcement",
    "status": "Pending",
    "rowid": "901997",
    "longitude": "0.0",
    "latitude": "0.0",
    "geocoded_column": {
      "latitude": "0.0",
      "longitude": "0.0"
    }
  },
  {
    "service_request": "2022-901996",
    "request_type": "Roads/Drainage",
    "request_reason": "Catch Basin - Clogged",
    "date_created": "2022-07-20T19:05:26.000",
    "date_modified": "2022-07-20T19:05:26.000",
    "request_status": "Pending",
    "responsible_agency": "Department of Public Works",
    "final_address": "4603 Baronne St",
    "address_councildis": "B",
    "status": "Pending",
    "rowid": "901996",
    "final_x": "3669971.85556",
    "final_y": "521591.816505",
    "longitude": "-90.1048082713876",
    "latitude": "29.928541387807847",
    "geocoded_column": {
      "latitude": "29.928541387807847",
      "longitude": "-90.1048082713876"
    }
  },
  {
    "service_request": "2022-901995",
    "request_type": "Roads/Drainage",
    "request_reason": "Catch Basin - Clogged",
    "date_created": "2022-07-20T19:03:58.000",
    "date_modified": "2022-07-20T19:03:58.000",
    "request_status": "Pending",
    "responsible_agency": "Department of Public Works",
    "final_address": "4603 Baronne St",
    "address_councildis": "B",
    "status": "Pending",
    "rowid": "901995",
    "final_x": "3669971.85556",
    "final_y": "521591.816505",
    "longitude": "-90.1048082713876",
    "latitude": "29.928541387807847",
    "geocoded_column": {
      "latitude": "29.928541387807847",
      "longitude": "-90.1048082713876"
    }
  },
  {
    "service_request": "2022-901994",
    "request_type": "Property Maintenance",
    "request_reason": "Property Maintenance",
    "date_created": "2022-07-20T18:57:27.000",
    "date_modified": "2022-07-20T18:57:27.000",
    "request_status": "Pending",
    "responsible_agency": "Department of Code Enforcement",
    "final_address": "3218 Pine St, New Orleans, Louisiana, 70125",
    "address_councildis": "B",
    "status": "Pending",
    "rowid": "901994",
    "final_x": "3667996.71681",
    "final_y": "532815.437444",
    "longitude": "-90.11066532274532",
    "latitude": "29.959460793826242",
    "geocoded_column": {
      "latitude": "29.959460793826242",
      "longitude": "-90.11066532274532"
    }
  },
  {
    "service_request": "2022-901993",
    "request_type": "Roads/Drainage",
    "request_reason": "Street Flooding / Drainage",
    "date_created": "2022-07-20T18:50:39.000",
    "date_modified": "2022-07-20T18:50:39.000",
    "request_status": "Pending",
    "responsible_agency": "Department of Public Works",
    "final_address": "2408 St Roch Ave",
    "address_councildis": "D",
    "status": "Pending",
    "rowid": "901993",
    "final_x": "3686022.94306",
    "final_y": "541307.6859",
    "longitude": "-90.05344331029895",
    "latitude": "29.9822703096099",
    "geocoded_column": {
      "latitude": "29.9822703096099",
      "longitude": "-90.05344331029895"
    }
  },
  {
    "service_request": "2022-901992",
    "request_type": "Roads/Drainage",
    "request_reason": "Ditch Issue",
    "date_created": "2022-07-20T18:42:49.000",
    "date_modified": "2022-07-20T18:42:49.000",
    "request_status": "Pending",
    "responsible_agency": "Department of Public Works",
    "final_address": "501 Passera Ct",
    "address_councildis": "A",
    "status": "Pending",
    "rowid": "901992",
    "final_x": "3670473.53793",
    "final_y": "540719.306315",
    "longitude": "-90.1025760001852",
    "latitude": "29.98112087653102",
    "geocoded_column": {
      "latitude": "29.98112087653102",
      "longitude": "-90.1025760001852"
    }
  },
  {
    "service_request": "2022-901991",
    "request_type": "Property Maintenance",
    "request_reason": "Property Maintenance",
    "date_created": "2022-07-20T18:40:45.000",
    "date_modified": "2022-07-20T18:40:45.000",
    "request_status": "Pending",
    "responsible_agency": "Department of Code Enforcement",
    "final_address": "501 Passera Ct",
    "address_councildis": "A",
    "status": "Pending",
    "rowid": "901991",
    "final_x": "3670473.53793",
    "final_y": "540719.306315",
    "longitude": "-90.1025760001852",
    "latitude": "29.98112087653102",
    "geocoded_column": {
      "latitude": "29.98112087653102",
      "longitude": "-90.1025760001852"
    }
  },
  {
    "service_request": "2022-901990",
    "request_type": "Traffic Signals/Signs/Striping/Streetlights",
    "request_reason": "Street Light Outage/Malfunction",
    "date_created": "2022-07-20T18:35:37.000",
    "date_modified": "2022-07-20T18:35:38.000",
    "request_status": "Pending",
    "responsible_agency": "Department of Public Works",
    "final_address": "1300 Jena St",
    "address_councildis": "B",
    "status": "Pending",
    "contractor": "Royal Engineering",
    "rowid": "901990",
    "final_x": "3670463.74196",
    "final_y": "520145.726136",
    "longitude": "-90.1033044906772",
    "latitude": "29.92455059049944",
    "geocoded_column": {
      "latitude": "29.92455059049944",
      "longitude": "-90.1033044906772"
    }
  },
  {
    "service_request": "2022-901989",
    "request_type": "Trash/Recycling",
    "request_reason": "Missed Trash Pick-Up",
    "date_created": "2022-07-20T18:26:18.000",
    "date_modified": "2022-07-20T18:26:19.000",
    "request_status": "Pending",
    "responsible_agency": "Department of Sanitation",
    "final_address": "6054 Airway St",
    "address_councildis": "D",
    "status": "Assigned to Contractor",
    "contractor": "Metro Disposal",
    "rowid": "901989",
    "final_x": "3696742.44304",
    "final_y": "552825.246486",
    "longitude": "-90.01916887092067",
    "latitude": "30.013605765064067",
    "geocoded_column": {
      "latitude": "30.013605765064067",
      "longitude": "-90.01916887092067"
    }
  },
  {
    "service_request": "2022-901987",
    "request_type": "Parks & Parkways",
    "request_reason": "Request Tree Service (Right of Way/Public Property)",
    "date_created": "2022-07-20T18:25:28.000",
    "date_modified": "2022-07-20T18:25:28.000",
    "request_status": "Pending",
    "responsible_agency": "Department of Parks & Parkway",
    "final_address": "6336 Vicksburg St",
    "address_councildis": "A",
    "status": "Pending",
    "rowid": "901987",
    "final_x": "3669012.43694",
    "final_y": "549600.369427",
    "longitude": "-90.10689059395837",
    "latitude": "30.005583817319103",
    "geocoded_column": {
      "latitude": "30.005583817319103",
      "longitude": "-90.10689059395837"
    }
  },
  {
    "service_request": "2022-901986",
    "request_type": "Roads/Drainage",
    "request_reason": "Catch Basin - Clogged",
    "date_created": "2022-07-20T18:23:43.000",
    "date_modified": "2022-07-20T18:23:44.000",
    "request_status": "Pending",
    "responsible_agency": "Department of Public Works",
    "final_address": "4501 Mendez St",
    "address_councildis": "D",
    "status": "Pending",
    "rowid": "901986",
    "final_x": "3690324.29929",
    "final_y": "553908.763031",
    "longitude": "-90.03940813857695",
    "latitude": "30.016785871858282",
    "geocoded_column": {
      "latitude": "30.016785871858282",
      "longitude": "-90.03940813857695"
    }
  },
  {
    "service_request": "2022-901985",
    "request_type": "Roads/Drainage",
    "request_reason": "Catch Basin - Clogged",
    "date_created": "2022-07-20T18:20:24.000",
    "date_modified": "2022-07-20T18:20:24.000",
    "request_status": "Pending",
    "responsible_agency": "Department of Public Works",
    "final_address": "4500 Tchoupitoulas St",
    "address_councildis": "B",
    "status": "Pending",
    "rowid": "901985",
    "final_x": "3670785.29063",
    "final_y": "517368.653621",
    "longitude": "-90.10238364208546",
    "latitude": "29.916905027518247",
    "geocoded_column": {
      "latitude": "29.916905027518247",
      "longitude": "-90.10238364208546"
    }
  },
  {
    "service_request": "2022-901984",
    "request_type": "Roads/Drainage",
    "request_reason": "Catch Basin - Clogged",
    "date_created": "2022-07-20T18:10:56.000",
    "date_modified": "2022-07-20T18:10:56.000",
    "case_close_date": "2020-06-03T19:00:00.000",
    "request_status": "Pending",
    "responsible_agency": "Department of Public Works",
    "final_address": "3400 Elysian Fields Ave",
    "address_councildis": "D",
    "status": "Pending",
    "rowid": "901984",
    "final_x": "3684149.08975",
    "final_y": "545188.160399",
    "longitude": "-90.05922555892747",
    "latitude": "29.99299765959722",
    "geocoded_column": {
      "latitude": "29.99299765959722",
      "longitude": "-90.05922555892747"
    }
  },
  {
    "service_request": "2022-901983",
    "request_type": "Roads/Drainage",
    "request_reason": "Catch Basin - Clogged",
    "date_created": "2022-07-20T18:10:33.000",
    "date_modified": "2022-07-20T18:10:34.000",
    "request_status": "Pending",
    "responsible_agency": "Department of Public Works",
    "final_address": "1800 Moss St",
    "address_councildis": "A",
    "status": "Pending",
    "rowid": "901983",
    "final_x": "3675336.09109",
    "final_y": "542962.643597",
    "longitude": "-90.08714078668659",
    "latitude": "29.987144771484985",
    "geocoded_column": {
      "latitude": "29.987144771484985",
      "longitude": "-90.08714078668659"
    }
  },
  {
    "service_request": "2022-901982",
    "request_type": "Roads/Drainage",
    "request_reason": "Catch Basin - Clogged",
    "date_created": "2022-07-20T18:10:00.000",
    "date_modified": "2022-07-20T18:10:00.000",
    "request_status": "Pending",
    "responsible_agency": "Department of Public Works",
    "final_address": "6336 Vicksburg St",
    "address_councildis": "A",
    "status": "Pending",
    "rowid": "901982",
    "final_x": "3669012.43694",
    "final_y": "549600.369427",
    "longitude": "-90.10689059395837",
    "latitude": "30.005583817319103",
    "geocoded_column": {
      "latitude": "30.005583817319103",
      "longitude": "-90.10689059395837"
    }
  },
  {
    "service_request": "2022-901981",
    "request_type": "Trash/Recycling",
    "request_reason": "MIssed Recycling Pick-Up",
    "date_created": "2022-07-20T18:08:18.000",
    "date_modified": "2022-07-20T18:08:19.000",
    "request_status": "Pending",
    "responsible_agency": "Department of Sanitation",
    "final_address": "4113 Tchoupitoulas St, New Orleans, Louisiana, 70115",
    "address_councildis": "B",
    "status": "Assigned to Contractor",
    "contractor": "Richards Disposal",
    "rowid": "901981",
    "final_x": "3672144.94753",
    "final_y": "517605.872246",
    "longitude": "-90.09808391382103",
    "latitude": "29.917517070333336",
    "geocoded_column": {
      "latitude": "29.917517070333336",
      "longitude": "-90.09808391382103"
    }
  },
  {
    "service_request": "2022-901980",
    "request_type": "Trash/Recycling",
    "request_reason": "Missed Trash Pick-Up",
    "date_created": "2022-07-20T18:07:56.000",
    "date_modified": "2022-07-20T18:07:57.000",
    "request_status": "Pending",
    "responsible_agency": "Department of Sanitation",
    "final_address": "2001 Broadway St",
    "address_councildis": "A",
    "status": "Assigned to Contractor",
    "contractor": "Richards Disposal",
    "rowid": "901980",
    "final_x": "3665824.79776",
    "final_y": "528834.40864",
    "longitude": "-90.1176571343816",
    "latitude": "29.94857780709452",
    "geocoded_column": {
      "latitude": "29.94857780709452",
      "longitude": "-90.1176571343816"
    }
  },
  {
    "service_request": "2022-901979",
    "request_type": "Roads/Drainage",
    "request_reason": "Catch Basin - Clogged",
    "date_created": "2022-07-20T18:03:02.000",
    "date_modified": "2022-07-20T18:03:03.000",
    "request_status": "Pending",
    "responsible_agency": "Department of Public Works",
    "final_address": "4717 Lynhuber Dr",
    "address_councildis": "D",
    "status": "Pending",
    "rowid": "901979",
    "final_x": "3698093.93021",
    "final_y": "554132.919",
    "longitude": "-90.01485135924095",
    "latitude": "30.017158681402925",
    "geocoded_column": {
      "latitude": "30.017158681402925",
      "longitude": "-90.01485135924095"
    }
  },
  {
    "service_request": "2022-901978",
    "request_type": "Parks & Parkways",
    "request_reason": "Request Tree Service (Right of Way/Public Property)",
    "date_created": "2022-07-20T17:57:58.000",
    "date_modified": "2022-07-20T17:57:58.000",
    "request_status": "Pending",
    "responsible_agency": "Department of Parks & Parkway",
    "final_address": "6541 Bellaire Dr",
    "address_councildis": "A",
    "status": "Pending",
    "rowid": "901978",
    "final_x": "3664596.28564",
    "final_y": "551621.820437",
    "longitude": "-90.1207746917482",
    "latitude": "30.01127133769948",
    "geocoded_column": {
      "latitude": "30.01127133769948",
      "longitude": "-90.1207746917482"
    }
  },
  {
    "service_request": "2022-901977",
    "request_type": "Roads/Drainage",
    "request_reason": "Catch Basin - Clogged",
    "date_created": "2022-07-20T17:54:27.000",
    "date_modified": "2022-07-20T17:54:27.000",
    "request_status": "Pending",
    "responsible_agency": "Department of Public Works",
    "final_address": "440 34Th St",
    "address_councildis": "A",
    "status": "Pending",
    "rowid": "901977",
    "final_x": "3664585.37767",
    "final_y": "551437.980181",
    "longitude": "-90.12081530085756",
    "latitude": "30.010766158322458",
    "geocoded_column": {
      "latitude": "30.010766158322458",
      "longitude": "-90.12081530085756"
    }
  },
  {
    "service_request": "2022-901976",
    "request_type": "Traffic Signals/Signs/Striping/Streetlights",
    "request_reason": "Street Name Sign Damaged or Missing",
    "date_created": "2022-07-20T17:45:35.000",
    "date_modified": "2022-07-20T17:45:35.000",
    "request_status": "Pending",
    "responsible_agency": "Department of Public Works",
    "final_address": "6138 Providence Pl",
    "address_councildis": "D",
    "status": "Pending",
    "rowid": "901976",
    "final_x": "3688460.47836",
    "final_y": "556021.255961",
    "longitude": "-90.04522198068467",
    "latitude": "30.022652182734323",
    "geocoded_column": {
      "latitude": "30.022652182734323",
      "longitude": "-90.04522198068467"
    }
  },
  {
    "service_request": "2022-901975",
    "request_type": "Trash/Recycling",
    "request_reason": "Missed Trash Pick-Up",
    "date_created": "2022-07-20T17:44:07.000",
    "date_modified": "2022-07-20T17:44:08.000",
    "request_status": "Pending",
    "responsible_agency": "Department of Sanitation",
    "final_address": "7719 Pearl St",
    "address_councildis": "A",
    "status": "Assigned to Contractor",
    "contractor": "Richards Disposal",
    "rowid": "901975",
    "final_x": "3661322.75584",
    "final_y": "525685.491069",
    "longitude": "-90.1319762934953",
    "latitude": "29.940049854606897",
    "geocoded_column": {
      "latitude": "29.940049854606897",
      "longitude": "-90.1319762934953"
    }
  },
  {
    "service_request": "2022-901974",
    "request_type": "Roads/Drainage",
    "request_reason": "Catch Basin - Clogged",
    "date_created": "2022-07-20T17:39:46.000",
    "date_modified": "2022-07-20T17:39:46.000",
    "request_status": "Pending",
    "responsible_agency": "Department of Public Works",
    "final_address": "5619 Mandeville St",
    "address_councildis": "D",
    "status": "Pending",
    "rowid": "901974",
    "final_x": "3684426.70492",
    "final_y": "553630.628183",
    "longitude": "-90.05805181315554",
    "latitude": "30.01620290410306",
    "geocoded_column": {
      "latitude": "30.01620290410306",
      "longitude": "-90.05805181315554"
    }
  },
  {
    "service_request": "2022-901973",
    "request_type": "Property Maintenance",
    "request_reason": "Property Maintenance",
    "date_created": "2022-07-20T17:38:58.000",
    "date_modified": "2022-07-20T17:38:58.000",
    "request_status": "Pending",
    "responsible_agency": "Department of Code Enforcement",
    "final_address": "11239 Curran Rd",
    "address_councildis": "E",
    "status": "Pending",
    "rowid": "901973",
    "final_x": "3711011.22597",
    "final_y": "566536.137955",
    "longitude": "-89.97357332965689",
    "latitude": "30.05084758776179",
    "geocoded_column": {
      "latitude": "30.05084758776179",
      "longitude": "-89.97357332965689"
    }
  },
  {
    "service_request": "2022-901972",
    "request_type": "Roads/Drainage",
    "request_reason": "Street Flooding / Drainage",
    "date_created": "2022-07-20T17:37:35.000",
    "date_modified": "2022-07-20T17:37:35.000",
    "request_status": "Pending",
    "responsible_agency": "Department of Public Works",
    "final_address": "6123 Providence Pl",
    "address_councildis": "D",
    "status": "Pending",
    "rowid": "901972",
    "final_x": "3688329.69001",
    "final_y": "555839.665113",
    "longitude": "-90.0456416883101",
    "latitude": "30.02215691758849",
    "geocoded_column": {
      "latitude": "30.02215691758849",
      "longitude": "-90.0456416883101"
    }
  },
  {
    "service_request": "2022-901971",
    "request_type": "Traffic Signals/Signs/Striping/Streetlights",
    "request_reason": "Street Light Knocked Down/Leaning",
    "date_created": "2022-07-20T17:34:31.000",
    "date_modified": "2022-07-20T17:34:31.000",
    "request_status": "Pending",
    "responsible_agency": "Department of Public Works",
    "final_address": "7272 Endston Ct",
    "address_councildis": "E",
    "status": "Pending",
    "contractor": "Royal Engineering",
    "rowid": "901971",
    "final_x": "3711908.50949",
    "final_y": "564766.369954",
    "longitude": "-89.9708038651153",
    "latitude": "30.045952133714387",
    "geocoded_column": {
      "latitude": "30.045952133714387",
      "longitude": "-89.9708038651153"
    }
  },
  {
    "service_request": "2022-901970",
    "request_type": "Roads/Drainage",
    "request_reason": "Catch Basin - Clogged",
    "date_created": "2022-07-20T17:27:51.000",
    "date_modified": "2022-07-20T17:27:54.000",
    "request_status": "Pending",
    "responsible_agency": "Department of Public Works",
    "final_address": "3034 St Ann St",
    "address_councildis": "A",
    "status": "Pending",
    "rowid": "901970",
    "final_x": "3675686.54069",
    "final_y": "538116.254857",
    "longitude": "-90.08620045320596",
    "latitude": "29.97380838531935",
    "geocoded_column": {
      "latitude": "29.97380838531935",
      "longitude": "-90.08620045320596"
    }
  },
  {
    "service_request": "2022-901969",
    "request_type": "Roads/Drainage",
    "request_reason": "Street Flooding / Drainage",
    "date_created": "2022-07-20T17:26:47.000",
    "date_modified": "2022-07-20T17:26:47.000",
    "request_status": "Pending",
    "responsible_agency": "Department of Public Works",
    "final_address": "5010 Debore Cir",
    "address_councildis": "D",
    "status": "Pending",
    "rowid": "901969",
    "final_x": "3692188.23869",
    "final_y": "552825.906326",
    "longitude": "-90.0335577057517",
    "latitude": "30.01375041253146",
    "geocoded_column": {
      "latitude": "30.01375041253146",
      "longitude": "-90.0335577057517"
    }
  },
  {
    "service_request": "2022-901968",
    "request_type": "Roads/Drainage",
    "request_reason": "Catch Basin - Clogged",
    "date_created": "2022-07-20T17:26:15.000",
    "date_modified": "2022-07-20T17:26:15.000",
    "request_status": "Pending",
    "responsible_agency": "Department of Public Works",
    "final_address": "2621 Banks St A",
    "address_councildis": "B",
    "status": "Pending",
    "rowid": "901968",
    "final_x": "3674944.06638",
    "final_y": "533980.767237",
    "longitude": "-90.08868722317226",
    "latitude": "29.962459393806533",
    "geocoded_column": {
      "latitude": "29.962459393806533",
      "longitude": "-90.08868722317226"
    }
  },
  {
    "service_request": "2022-901967",
    "request_type": "Abandoned Vehicles",
    "request_reason": "Abandoned/Junk Vehicles",
    "date_created": "2022-07-20T17:26:03.000",
    "date_modified": "2022-07-20T17:26:03.000",
    "request_status": "Pending",
    "responsible_agency": "Department of Public Works",
    "final_address": "6042 Airway St",
    "address_councildis": "D",
    "status": "Pending",
    "rowid": "901967",
    "final_x": "3696707.0129",
    "final_y": "552821.82255",
    "longitude": "-90.0192809351796",
    "latitude": "30.013597467788212",
    "geocoded_column": {
      "latitude": "30.013597467788212",
      "longitude": "-90.0192809351796"
    }
  },
  {
    "service_request": "2022-901966",
    "request_type": "Roads/Drainage",
    "request_reason": "Catch Basin - Clogged",
    "date_created": "2022-07-20T17:24:17.000",
    "date_modified": "2022-07-20T17:24:17.000",
    "request_status": "Pending",
    "responsible_agency": "Department of Public Works",
    "final_address": "2621 Banks St A",
    "address_councildis": "B",
    "status": "Pending",
    "rowid": "901966",
    "final_x": "3674944.06638",
    "final_y": "533980.767237",
    "longitude": "-90.08868722317226",
    "latitude": "29.962459393806533",
    "geocoded_column": {
      "latitude": "29.962459393806533",
      "longitude": "-90.08868722317226"
    }
  },
  {
    "service_request": "2022-901965",
    "request_type": "Health Related Questions",
    "request_reason": "Noise Ordinance Complaint",
    "date_created": "2022-07-20T17:19:06.000",
    "date_modified": "2022-07-20T17:19:07.000",
    "request_status": "Pending",
    "responsible_agency": "Health Department",
    "final_address": "7448 Hurst St",
    "address_councildis": "A",
    "status": "Pending",
    "rowid": "901965",
    "final_x": "3661338.65677",
    "final_y": "524129.03462",
    "longitude": "-90.13197761215002",
    "latitude": "29.935769632845304",
    "geocoded_column": {
      "latitude": "29.935769632845304",
      "longitude": "-90.13197761215002"
    }
  },
  {
    "service_request": "2022-901964",
    "request_type": "Trash/Recycling",
    "request_reason": "Order Recycling Cart",
    "date_created": "2022-07-20T17:08:13.000",
    "date_modified": "2022-07-20T17:08:13.000",
    "request_status": "Pending",
    "responsible_agency": "Department of Sanitation",
    "final_address": "213 Elmira Ave",
    "address_councildis": "C",
    "status": "Pending",
    "rowid": "901964",
    "final_x": "3688218.27305",
    "final_y": "531066.269442",
    "longitude": "-90.0468725782695",
    "latitude": "29.954042387240865",
    "geocoded_column": {
      "latitude": "29.954042387240865",
      "longitude": "-90.0468725782695"
    }
  },
  {
    "service_request": "2022-901963",
    "request_type": "Trash/Recycling",
    "request_reason": "MIssed Recycling Pick-Up",
    "date_created": "2022-07-20T17:08:00.000",
    "date_modified": "2022-07-20T17:08:01.000",
    "request_status": "Pending",
    "responsible_agency": "Department of Sanitation",
    "final_address": "3329 Chippewa St",
    "address_councildis": "B",
    "status": "Assigned to Contractor",
    "contractor": "Richards Disposal",
    "rowid": "901963",
    "final_x": "3675791.37422",
    "final_y": "518273.914166",
    "longitude": "-90.08655123584413",
    "latitude": "29.919245379225654",
    "geocoded_column": {
      "latitude": "29.919245379225654",
      "longitude": "-90.08655123584413"
    }
  },
  {
    "service_request": "2022-901962",
    "request_type": "Property Maintenance",
    "request_reason": "Property Maintenance",
    "date_created": "2022-07-20T17:06:54.000",
    "date_modified": "2022-07-20T17:06:54.000",
    "request_status": "Pending",
    "responsible_agency": "Department of Code Enforcement",
    "final_address": "6006 Airway St",
    "address_councildis": "D",
    "status": "Pending",
    "rowid": "901962",
    "final_x": "3696578.70896",
    "final_y": "552810.219478",
    "longitude": "-90.01968672693643",
    "latitude": "30.013569608865815",
    "geocoded_column": {
      "latitude": "30.013569608865815",
      "longitude": "-90.01968672693643"
    }
  },
  {
    "service_request": "2022-901961",
    "request_type": "Trash/Recycling",
    "request_reason": "Order Trash Cart",
    "date_created": "2022-07-20T17:06:38.000",
    "date_modified": "2022-07-20T17:06:39.000",
    "request_status": "Pending",
    "responsible_agency": "Department of Sanitation",
    "final_address": "213 Elmira Ave",
    "address_councildis": "C",
    "status": "Assigned to Contractor",
    "contractor": "Richards Disposal",
    "rowid": "901961",
    "final_x": "3688218.27305",
    "final_y": "531066.269442",
    "longitude": "-90.0468725782695",
    "latitude": "29.954042387240865",
    "geocoded_column": {
      "latitude": "29.954042387240865",
      "longitude": "-90.0468725782695"
    }
  },
  {
    "service_request": "2022-901960",
    "request_type": "Trash/Recycling",
    "request_reason": "Missed Trash Pick-Up",
    "date_created": "2022-07-20T16:58:18.000",
    "date_modified": "2022-07-20T16:58:19.000",
    "request_status": "Pending",
    "responsible_agency": "Department of Sanitation",
    "final_address": "2219 S Salcedo St",
    "address_councildis": "A",
    "status": "Assigned to Contractor",
    "contractor": "Richards Disposal",
    "rowid": "901960",
    "final_x": "3669136.94913",
    "final_y": "528943.801472",
    "longitude": "-90.10719555049423",
    "latitude": "29.948781562243237",
    "geocoded_column": {
      "latitude": "29.948781562243237",
      "longitude": "-90.10719555049423"
    }
  },
  {
    "service_request": "2022-901959",
    "request_type": "Trash/Recycling",
    "request_reason": "Order Trash Cart",
    "date_created": "2022-07-20T16:56:41.000",
    "date_modified": "2022-07-20T16:56:41.000",
    "request_status": "Pending",
    "responsible_agency": "Department of Sanitation",
    "final_address": "3120 Paris Ave",
    "address_councildis": "D",
    "status": "Assigned to Contractor",
    "contractor": "Metro Disposal",
    "rowid": "901959",
    "final_x": "3679690.10178",
    "final_y": "544018.358734",
    "longitude": "-90.07335136127693",
    "latitude": "29.989916694340458",
    "geocoded_column": {
      "latitude": "29.989916694340458",
      "longitude": "-90.07335136127693"
    }
  },
  {
    "service_request": "2022-901958",
    "request_type": "Trash/Recycling",
    "request_reason": "Order Trash Cart",
    "date_created": "2022-07-20T16:56:21.000",
    "date_modified": "2022-07-20T16:56:22.000",
    "request_status": "Pending",
    "responsible_agency": "Department of Sanitation",
    "final_address": "3112 Paris Ave",
    "address_councildis": "D",
    "status": "Assigned to Contractor",
    "contractor": "Metro Disposal",
    "rowid": "901958",
    "final_x": "3679723.81077",
    "final_y": "543919.862734",
    "longitude": "-90.07324830513835",
    "latitude": "29.989644845683404",
    "geocoded_column": {
      "latitude": "29.989644845683404",
      "longitude": "-90.07324830513835"
    }
  },
  {
    "service_request": "2022-901957",
    "request_type": "Trash/Recycling",
    "request_reason": "Order Trash Cart",
    "date_created": "2022-07-20T16:55:48.000",
    "date_modified": "2022-07-20T16:55:48.000",
    "request_status": "Pending",
    "responsible_agency": "Department of Sanitation",
    "final_address": "3114 Paris Ave",
    "address_councildis": "D",
    "status": "Assigned to Contractor",
    "contractor": "Metro Disposal",
    "rowid": "901957",
    "final_x": "3679696.33115",
    "final_y": "543954.158222",
    "longitude": "-90.07333391434581",
    "latitude": "29.989739977131755",
    "geocoded_column": {
      "latitude": "29.989739977131755",
      "longitude": "-90.07333391434581"
    }
  },
  {
    "service_request": "2022-901956",
    "request_type": "Trash/Recycling",
    "request_reason": "Order Trash Cart",
    "date_created": "2022-07-20T16:55:01.000",
    "date_modified": "2022-07-20T16:55:02.000",
    "request_status": "Pending",
    "responsible_agency": "Department of Sanitation",
    "final_address": "3116 Paris Ave",
    "address_councildis": "D",
    "status": "Assigned to Contractor",
    "contractor": "Metro Disposal",
    "rowid": "901956",
    "final_x": "3679696.9421",
    "final_y": "543977.69083",
    "longitude": "-90.07333116713468",
    "latitude": "29.989804665066305",
    "geocoded_column": {
      "latitude": "29.989804665066305",
      "longitude": "-90.07333116713468"
    }
  },
  {
    "service_request": "2022-901955",
    "request_type": "Roads/Drainage",
    "request_reason": "Catch Basin - Clogged",
    "date_created": "2022-07-20T16:54:54.000",
    "date_modified": "2022-07-20T16:54:54.000",
    "request_status": "Pending",
    "responsible_agency": "Department of Public Works",
    "final_address": "1470 Riviera Ave",
    "address_councildis": "D",
    "status": "Pending",
    "rowid": "901955",
    "final_x": "3678207.39234",
    "final_y": "550807.443797",
    "longitude": "-90.0777998621271",
    "latitude": "30.008629022507158",
    "geocoded_column": {
      "latitude": "30.008629022507158",
      "longitude": "-90.0777998621271"
    }
  },
  {
    "service_request": "2022-901954",
    "request_type": "Trash/Recycling",
    "request_reason": "Replace Trash Cart",
    "date_created": "2022-07-20T16:46:47.000",
    "date_modified": "2022-07-20T16:46:47.000",
    "request_status": "Pending",
    "responsible_agency": "Department of Sanitation",
    "final_address": "2315 Annunciation St",
    "address_councildis": "B",
    "status": "Assigned to Contractor",
    "contractor": "Richards Disposal",
    "rowid": "901954",
    "final_x": "3679077.32783",
    "final_y": "520903.420985",
    "longitude": "-90.0760880749635",
    "latitude": "29.926376946873447",
    "geocoded_column": {
      "latitude": "29.926376946873447",
      "longitude": "-90.0760880749635"
    }
  },
  {
    "service_request": "2022-901952",
    "request_type": "Trash/Recycling",
    "request_reason": "Missed Trash Pick-Up",
    "date_created": "2022-07-20T16:30:27.000",
    "date_modified": "2022-07-20T16:35:00.000",
    "request_status": "Pending",
    "responsible_agency": "Department of Sanitation",
    "final_address": "New Orleans,LA",
    "address_councildis": "D",
    "status": "Assigned to Contractor",
    "contractor": "Metro Disposal",
    "rowid": "901952",
    "final_x": "3670534.14939",
    "final_y": "554686.063384",
    "longitude": "-90.10191047972863",
    "latitude": "30.019522806400552",
    "geocoded_column": {
      "latitude": "30.019522806400552",
      "longitude": "-90.10191047972863"
    }
  },
  {
    "service_request": "2022-901951",
    "request_type": "Roads/Drainage",
    "request_reason": "Catch Basin - Clogged",
    "date_created": "2022-07-20T16:26:41.000",
    "date_modified": "2022-07-20T16:26:41.000",
    "request_status": "Pending",
    "responsible_agency": "Department of Public Works",
    "final_address": "2048 Camp St",
    "address_councildis": "B",
    "status": "Pending",
    "rowid": "901951",
    "final_x": "3678983.578",
    "final_y": "522609.467898",
    "longitude": "-90.07632493677988",
    "latitude": "29.93107084607271",
    "geocoded_column": {
      "latitude": "29.93107084607271",
      "longitude": "-90.07632493677988"
    }
  },
  {
    "service_request": "2022-901950",
    "request_type": "Trash/Recycling",
    "request_reason": "Request a Large Item Pick Up",
    "date_created": "2022-07-20T16:26:19.000",
    "date_modified": "2022-07-20T16:26:19.000",
    "request_status": "Pending",
    "responsible_agency": "Department of Sanitation",
    "final_address": "2719 Milan St",
    "address_councildis": "B",
    "status": "Assigned to Contractor",
    "contractor": "Richards Disposal",
    "rowid": "901950",
    "final_x": "3671241.74747",
    "final_y": "524981.522621",
    "longitude": "-90.10068437063326",
    "latitude": "29.93782448855903",
    "geocoded_column": {
      "latitude": "29.93782448855903",
      "longitude": "-90.10068437063326"
    }
  },
  {
    "service_request": "2022-901949",
    "request_type": "Trash/Recycling",
    "request_reason": "Order Recycling Cart",
    "date_created": "2022-07-20T16:25:31.000",
    "date_modified": "2022-07-20T16:25:31.000",
    "request_status": "Pending",
    "responsible_agency": "Department of Sanitation",
    "final_address": "816 Octavia St",
    "address_councildis": "A",
    "status": "Pending",
    "rowid": "901949",
    "final_x": "3666435.90362",
    "final_y": "518971.053879",
    "longitude": "-90.11605845169049",
    "latitude": "29.921438886903584",
    "geocoded_column": {
      "latitude": "29.921438886903584",
      "longitude": "-90.11605845169049"
    }
  },
  {
    "service_request": "2022-901948",
    "request_type": "Trash/Recycling",
    "request_reason": "Missed Trash Pick-Up",
    "date_created": "2022-07-20T16:23:38.000",
    "date_modified": "2022-07-20T16:23:39.000",
    "request_status": "Pending",
    "responsible_agency": "Department of Sanitation",
    "final_address": "5610 Orleans Ave",
    "address_councildis": "A",
    "status": "Assigned to Contractor",
    "contractor": "Metro Disposal",
    "rowid": "901948",
    "final_x": "3670561.99585",
    "final_y": "544435.483535",
    "longitude": "-90.1021704957652",
    "latitude": "29.991336479272334",
    "geocoded_column": {
      "latitude": "29.991336479272334",
      "longitude": "-90.1021704957652"
    }
  },
  {
    "service_request": "2022-901947",
    "request_type": "Traffic Signals/Signs/Striping/Streetlights",
    "request_reason": "Street Light Outage/Malfunction",
    "date_created": "2022-07-20T16:23:31.000",
    "date_modified": "2022-07-20T16:23:32.000",
    "request_status": "Pending",
    "responsible_agency": "Department of Public Works",
    "final_address": "2048 Camp St",
    "address_councildis": "B",
    "status": "Pending",
    "contractor": "Royal Engineering",
    "rowid": "901947",
    "final_x": "3678983.578",
    "final_y": "522609.467898",
    "longitude": "-90.07632493677988",
    "latitude": "29.93107084607271",
    "geocoded_column": {
      "latitude": "29.93107084607271",
      "longitude": "-90.07632493677988"
    }
  },
  {
    "service_request": "2022-901946",
    "request_type": "Trash/Recycling",
    "request_reason": "Request a Large Item Pick Up",
    "date_created": "2022-07-20T16:22:49.000",
    "date_modified": "2022-07-20T16:22:50.000",
    "request_status": "Pending",
    "responsible_agency": "Department of Sanitation",
    "final_address": "1631 Saint Charles Ave, New Orleans, Louisiana, 70130",
    "status": "Assigned to Contractor",
    "rowid": "901946",
    "longitude": "0.0",
    "latitude": "0.0",
    "geocoded_column": {
      "latitude": "0.0",
      "longitude": "0.0"
    }
  },
  {
    "service_request": "2022-901945",
    "request_type": "Trash/Recycling",
    "request_reason": "MIssed Recycling Pick-Up",
    "date_created": "2022-07-20T16:17:49.000",
    "date_modified": "2022-07-20T16:17:50.000",
    "request_status": "Pending",
    "responsible_agency": "Department of Sanitation",
    "final_address": "2836 Chippewa St",
    "address_councildis": "B",
    "status": "Assigned to Contractor",
    "contractor": "Richards Disposal",
    "rowid": "901945",
    "final_x": "3677643.69474",
    "final_y": "519367.486583",
    "longitude": "-90.08066665906492",
    "latitude": "29.922196800451434",
    "geocoded_column": {
      "latitude": "29.922196800451434",
      "longitude": "-90.08066665906492"
    }
  },
  {
    "service_request": "2022-901944",
    "request_type": "Roads/Drainage",
    "request_reason": "Street Subsidence (Sinking)",
    "date_created": "2022-07-20T16:12:05.000",
    "date_modified": "2022-07-20T16:12:05.000",
    "request_status": "Pending",
    "responsible_agency": "Department of Public Works",
    "final_address": "2707 S Robertson St",
    "address_councildis": "B",
    "status": "Pending",
    "rowid": "901944",
    "final_x": "3674115.60878",
    "final_y": "525715.583293",
    "longitude": "-90.09158622958137",
    "latitude": "29.939757594363257",
    "geocoded_column": {
      "latitude": "29.939757594363257",
      "longitude": "-90.09158622958137"
    }
  },
  {
    "service_request": "2022-901943",
    "request_type": "Trash/Recycling",
    "request_reason": "Missed Trash Pick-Up",
    "date_created": "2022-07-20T16:08:39.000",
    "date_modified": "2022-07-20T16:08:40.000",
    "request_status": "Pending",
    "responsible_agency": "Department of Sanitation",
    "final_address": "4217 Lasalle St, New Orleans, Louisiana, 70115",
    "address_councildis": "B",
    "status": "Assigned to Contractor",
    "contractor": "Richards Disposal",
    "rowid": "901943",
    "final_x": "3671159.99828",
    "final_y": "523799.825979",
    "longitude": "-90.10098258387504",
    "latitude": "29.93457762272055",
    "geocoded_column": {
      "latitude": "29.93457762272055",
      "longitude": "-90.10098258387504"
    }
  },
  {
    "service_request": "2022-901942",
    "request_type": "Trash/Recycling",
    "request_reason": "Request a Large Item Pick Up",
    "date_created": "2022-07-20T16:07:47.000",
    "date_modified": "2022-07-20T16:07:48.000",
    "request_status": "Pending",
    "responsible_agency": "Department of Sanitation",
    "final_address": "2421 Kerlerec St",
    "address_councildis": "D",
    "status": "Assigned to Contractor",
    "contractor": "Metro Disposal",
    "rowid": "901942",
    "final_x": "3679145.6685",
    "final_y": "538767.159625",
    "longitude": "-90.07525319766822",
    "latitude": "29.975494173494894",
    "geocoded_column": {
      "latitude": "29.975494173494894",
      "longitude": "-90.07525319766822"
    }
  },
  {
    "service_request": "2022-901941",
    "request_type": "Trash/Recycling",
    "request_reason": "Request a Large Item Pick Up",
    "date_created": "2022-07-20T16:04:50.000",
    "date_modified": "2022-07-20T16:04:51.000",
    "request_status": "Pending",
    "responsible_agency": "Department of Sanitation",
    "final_address": "2427 Kerlerec St",
    "address_councildis": "D",
    "status": "Assigned to Contractor",
    "contractor": "Metro Disposal",
    "rowid": "901941",
    "final_x": "3679111.67861",
    "final_y": "538794.141641",
    "longitude": "-90.07535961145683",
    "latitude": "29.975569390841066",
    "geocoded_column": {
      "latitude": "29.975569390841066",
      "longitude": "-90.07535961145683"
    }
  },
  {
    "service_request": "2022-901940",
    "request_type": "Abandoned Vehicles",
    "request_reason": "Abandoned/Junk Vehicles",
    "date_created": "2022-07-20T15:58:05.000",
    "date_modified": "2022-07-20T15:58:06.000",
    "request_status": "Pending",
    "responsible_agency": "Department of Public Works",
    "final_address": "S ROCHEBLAVE ST & GENERAL PERSHING ST",
    "address_councildis": "B",
    "status": "Pending",
    "rowid": "901940",
    "final_x": "3670489.9",
    "final_y": "528514.68",
    "longitude": "-90.10293824414308",
    "latitude": "29.94756174061411",
    "geocoded_column": {
      "latitude": "29.94756174061411",
      "longitude": "-90.10293824414308"
    }
  },
  {
    "service_request": "2022-901939",
    "request_type": "Abandoned Vehicles",
    "request_reason": "Abandoned/Junk Vehicles",
    "date_created": "2022-07-20T15:57:04.000",
    "date_modified": "2022-07-20T15:57:04.000",
    "request_status": "Pending",
    "responsible_agency": "Department of Public Works",
    "final_address": "2133 St Anthony St",
    "address_councildis": "D",
    "status": "Pending",
    "rowid": "901939",
    "final_x": "3683282.0877",
    "final_y": "540168.587083",
    "longitude": "-90.06214017070204",
    "latitude": "29.979222083097596",
    "geocoded_column": {
      "latitude": "29.979222083097596",
      "longitude": "-90.06214017070204"
    }
  },
  {
    "service_request": "2022-901938",
    "request_type": "Roads/Drainage",
    "request_reason": "Pothole",
    "date_created": "2022-07-20T15:56:37.000",
    "date_modified": "2022-07-20T15:56:37.000",
    "request_status": "Pending",
    "responsible_agency": "Department of Public Works",
    "final_address": "6132 Constance St",
    "address_councildis": "A",
    "status": "Pending",
    "rowid": "901938",
    "final_x": "3663813.7152",
    "final_y": "519142.300087",
    "longitude": "-90.12432988809304",
    "latitude": "29.92198609686308",
    "geocoded_column": {
      "latitude": "29.92198609686308",
      "longitude": "-90.12432988809304"
    }
  },
  {
    "service_request": "2022-901936",
    "request_type": "Traffic Signals/Signs/Striping/Streetlights",
    "request_reason": "Street Light Outage/Malfunction",
    "date_created": "2022-07-20T15:54:26.000",
    "date_modified": "2022-07-20T15:54:26.000",
    "request_status": "Pending",
    "responsible_agency": "Department of Public Works",
    "final_address": "6132 Constance St",
    "address_councildis": "A",
    "status": "Pending",
    "contractor": "Royal Engineering",
    "rowid": "901936",
    "final_x": "3663813.7152",
    "final_y": "519142.300087",
    "longitude": "-90.12432988809304",
    "latitude": "29.92198609686308",
    "geocoded_column": {
      "latitude": "29.92198609686308",
      "longitude": "-90.12432988809304"
    }
  },
  {
    "service_request": "2022-901935",
    "request_type": "Traffic Signals/Signs/Striping/Streetlights",
    "request_reason": "Street Light Outage/Malfunction",
    "date_created": "2022-07-20T15:53:20.000",
    "date_modified": "2022-07-20T15:53:21.000",
    "request_status": "Pending",
    "responsible_agency": "Department of Public Works",
    "final_address": "1138 Josephine St",
    "address_councildis": "B",
    "status": "Pending",
    "contractor": "Royal Engineering",
    "rowid": "901935",
    "final_x": "3678939.07432",
    "final_y": "522549.966266",
    "longitude": "-90.0764674893942",
    "latitude": "29.930908578442235",
    "geocoded_column": {
      "latitude": "29.930908578442235",
      "longitude": "-90.0764674893942"
    }
  },
  {
    "service_request": "2022-901934",
    "request_type": "Trash/Recycling",
    "request_reason": "Request a Large Item Pick Up",
    "date_created": "2022-07-20T15:52:47.000",
    "date_modified": "2022-07-20T15:52:48.000",
    "request_status": "Pending",
    "responsible_agency": "Department of Sanitation",
    "final_address": "316 S Lopez St",
    "address_councildis": "B",
    "status": "Assigned to Contractor",
    "contractor": "Richards Disposal",
    "rowid": "901934",
    "final_x": "3673311.06158",
    "final_y": "535436.26311",
    "longitude": "-90.09379431219756",
    "latitude": "29.966510191687192",
    "geocoded_column": {
      "latitude": "29.966510191687192",
      "longitude": "-90.09379431219756"
    }
  },
  {
    "service_request": "2022-901933",
    "request_type": "Roads/Drainage",
    "request_reason": "Street Subsidence (Sinking)",
    "date_created": "2022-07-20T15:50:51.000",
    "date_modified": "2022-07-20T15:50:51.000",
    "request_status": "Pending",
    "responsible_agency": "Department of Public Works",
    "final_address": "1122 Fourth St",
    "address_councildis": "B",
    "status": "Pending",
    "rowid": "901933",
    "final_x": "3677159.64552",
    "final_y": "521144.619257",
    "longitude": "-90.08213334848759",
    "latitude": "29.92709788119436",
    "geocoded_column": {
      "latitude": "29.92709788119436",
      "longitude": "-90.08213334848759"
    }
  },
  {
    "service_request": "2022-901932",
    "request_type": "Roads/Drainage",
    "request_reason": "Street Subsidence (Sinking)",
    "date_created": "2022-07-20T15:49:20.000",
    "date_modified": "2022-07-20T15:49:20.000",
    "request_status": "Pending",
    "responsible_agency": "Department of Public Works",
    "final_address": "4700 Toulouse St",
    "address_councildis": "A",
    "status": "Pending",
    "rowid": "901932",
    "final_x": "3670120.19559",
    "final_y": "541238.315916",
    "longitude": "-90.10367442585077",
    "latitude": "29.982558407412522",
    "geocoded_column": {
      "latitude": "29.982558407412522",
      "longitude": "-90.10367442585077"
    }
  },
  {
    "service_request": "2022-901931",
    "request_type": "Trash/Recycling",
    "request_reason": "Illegal Dumping",
    "date_created": "2022-07-20T15:48:01.000",
    "date_modified": "2022-07-20T15:48:39.000",
    "case_close_date": "2022-07-20T10:48:39.000",
    "request_status": "Closed",
    "responsible_agency": "Department of Sanitation",
    "final_address": "3232 First St",
    "address_councildis": "B",
    "status": "Resolved",
    "rowid": "901931",
    "final_x": "3673633.32059",
    "final_y": "528175.710464",
    "longitude": "-90.09302481124183",
    "latitude": "29.946536499900386",
    "geocoded_column": {
      "latitude": "29.946536499900386",
      "longitude": "-90.09302481124183"
    }
  },
  {
    "service_request": "2022-901930",
    "request_type": "Trash/Recycling",
    "request_reason": "Illegal Dumping",
    "date_created": "2022-07-20T15:46:48.000",
    "date_modified": "2022-07-20T15:47:30.000",
    "case_close_date": "2022-07-20T10:47:30.000",
    "request_status": "Closed",
    "responsible_agency": "Department of Sanitation",
    "final_address": "3301 First St",
    "address_councildis": "B",
    "status": "Resolved",
    "rowid": "901930",
    "final_x": "3673614.95649",
    "final_y": "528317.601152",
    "longitude": "-90.09307794420883",
    "latitude": "29.94692719914807",
    "geocoded_column": {
      "latitude": "29.94692719914807",
      "longitude": "-90.09307794420883"
    }
  },
  {
    "service_request": "2022-901929",
    "request_type": "Trash/Recycling",
    "request_reason": "Order Recycling Cart",
    "date_created": "2022-07-20T15:42:26.000",
    "date_modified": "2022-07-20T15:42:26.000",
    "request_status": "Pending",
    "responsible_agency": "Department of Sanitation",
    "final_address": "238 Moqueur Ln",
    "address_councildis": "A",
    "status": "Pending",
    "rowid": "901929",
    "final_x": "3661525.11104",
    "final_y": "521306.277817",
    "longitude": "-90.13148244109003",
    "latitude": "29.928002561324618",
    "geocoded_column": {
      "latitude": "29.928002561324618",
      "longitude": "-90.13148244109003"
    }
  },
  {
    "service_request": "2022-901928",
    "request_type": "Traffic Signals/Signs/Striping/Streetlights",
    "request_reason": "Street Light Outage/Malfunction",
    "date_created": "2022-07-20T15:33:06.000",
    "date_modified": "2022-07-20T15:33:07.000",
    "request_status": "Pending",
    "responsible_agency": "Department of Public Works",
    "final_address": "3930 Prentiss Ave",
    "address_councildis": "D",
    "status": "Pending",
    "contractor": "Royal Engineering",
    "rowid": "901928",
    "final_x": "3688453.88963",
    "final_y": "554127.286616",
    "longitude": "-90.04531007034565",
    "latitude": "30.017444674212925",
    "geocoded_column": {
      "latitude": "30.017444674212925",
      "longitude": "-90.04531007034565"
    }
  },
  {
    "service_request": "2022-901927",
    "request_type": "Trash/Recycling",
    "request_reason": "Request a Large Item Pick Up",
    "date_created": "2022-07-20T15:32:17.000",
    "date_modified": "2022-07-20T15:32:18.000",
    "request_status": "Pending",
    "responsible_agency": "Department of Sanitation",
    "final_address": "7519 Sandy Cove Dr",
    "address_councildis": "E",
    "status": "Assigned to Contractor",
    "contractor": "Metro Disposal",
    "rowid": "901927",
    "final_x": "3716040.85912",
    "final_y": "568911.764517",
    "longitude": "-89.95758640532006",
    "latitude": "30.057214510743293",
    "geocoded_column": {
      "latitude": "30.057214510743293",
      "longitude": "-89.95758640532006"
    }
  },
  {
    "service_request": "2022-901926",
    "request_type": "Trash/Recycling",
    "request_reason": "Return Recycling Cart",
    "date_created": "2022-07-20T15:30:22.000",
    "date_modified": "2022-07-20T15:30:22.000",
    "request_status": "Pending",
    "responsible_agency": "Department of Sanitation",
    "final_address": "3616 Meadow Park Ln",
    "address_councildis": "C",
    "status": "Pending",
    "rowid": "901926",
    "final_x": "3703989.0993",
    "final_y": "511151.209904",
    "longitude": "-89.99780802680037",
    "latitude": "29.898786612186456",
    "geocoded_column": {
      "latitude": "29.898786612186456",
      "longitude": "-89.99780802680037"
    }
  },
  {
    "service_request": "2022-901925",
    "request_type": "Trash/Recycling",
    "request_reason": "Replace Trash Cart",
    "date_created": "2022-07-20T15:29:53.000",
    "date_modified": "2022-07-20T15:29:54.000",
    "request_status": "Pending",
    "responsible_agency": "Department of Sanitation",
    "final_address": "437 Walnut St, New Orleans, Louisiana, 70118",
    "address_councildis": "A",
    "status": "Assigned to Contractor",
    "contractor": "Richards Disposal",
    "rowid": "901925",
    "final_x": "3662531.85882",
    "final_y": "522920.760507",
    "longitude": "-90.12825075338704",
    "latitude": "29.932412807644667",
    "geocoded_column": {
      "latitude": "29.932412807644667",
      "longitude": "-90.12825075338704"
    }
  },
  {
    "service_request": "2022-901924",
    "request_type": "Traffic Signals/Signs/Striping/Streetlights",
    "request_reason": "Street Light Outage/Malfunction",
    "date_created": "2022-07-20T15:23:20.000",
    "date_modified": "2022-07-20T15:23:23.000",
    "request_status": "Pending",
    "responsible_agency": "Department of Public Works",
    "final_address": "3930 Prentiss Ave",
    "address_councildis": "D",
    "status": "Pending",
    "contractor": "Royal Engineering",
    "rowid": "901924",
    "final_x": "3688453.88963",
    "final_y": "554127.286616",
    "longitude": "-90.04531007034565",
    "latitude": "30.017444674212925",
    "geocoded_column": {
      "latitude": "30.017444674212925",
      "longitude": "-90.04531007034565"
    }
  },
  {
    "service_request": "2022-901923",
    "request_type": "Trash/Recycling",
    "request_reason": "Missed Trash Pick-Up",
    "date_created": "2022-07-20T15:16:38.000",
    "date_modified": "2022-07-20T15:16:38.000",
    "request_status": "Pending",
    "responsible_agency": "Department of Sanitation",
    "final_address": "14 Duckhook Dr",
    "address_councildis": "A",
    "status": "Assigned to Contractor",
    "contractor": "Richards Disposal",
    "rowid": "901923",
    "final_x": "3667227.33146",
    "final_y": "539026.549962",
    "longitude": "-90.1128859667886",
    "latitude": "29.976561841307916",
    "geocoded_column": {
      "latitude": "29.976561841307916",
      "longitude": "-90.1128859667886"
    }
  },
  {
    "service_request": "2022-901922",
    "request_type": "Property Maintenance",
    "request_reason": "Property Maintenance",
    "date_created": "2022-07-20T15:10:48.000",
    "date_modified": "2022-07-20T15:14:22.000",
    "case_close_date": "2022-07-20T10:14:22.000",
    "request_status": "Closed",
    "responsible_agency": "Department of Code Enforcement",
    "final_address": "I 10 E & MICHOUD BLVD EXIT",
    "address_councildis": "E",
    "status": "Referred to Code Enforcement",
    "rowid": "901922",
    "final_x": "3726117.0",
    "final_y": "574846.58",
    "longitude": "-89.92550711631998",
    "latitude": "30.07319623322261",
    "geocoded_column": {
      "latitude": "30.07319623322261",
      "longitude": "-89.92550711631998"
    }
  },
  {
    "service_request": "2022-901921",
    "request_type": "Traffic Signals/Signs/Striping/Streetlights",
    "request_reason": "Street Light Outage/Malfunction",
    "date_created": "2022-07-20T15:07:34.000",
    "date_modified": "2022-07-20T15:07:35.000",
    "request_status": "Pending",
    "responsible_agency": "Department of Public Works",
    "final_address": "8700 BLK Oleander St",
    "address_councildis": "A",
    "status": "Pending",
    "contractor": "Royal Engineering",
    "rowid": "901921",
    "final_x": "3665071.35552",
    "final_y": "535206.736789",
    "longitude": "-90.11982299483824",
    "latitude": "29.966121588258307",
    "geocoded_column": {
      "latitude": "29.966121588258307",
      "longitude": "-90.11982299483824"
    }
  },
  {
    "service_request": "2022-901920",
    "request_type": "Trash/Recycling",
    "request_reason": "Request a Large Item Pick Up",
    "date_created": "2022-07-20T15:06:10.000",
    "date_modified": "2022-07-20T15:06:11.000",
    "request_status": "Pending",
    "responsible_agency": "Department of Sanitation",
    "final_address": "812 N White St",
    "address_councildis": "A",
    "status": "Assigned to Contractor",
    "contractor": "Richards Disposal",
    "rowid": "901920",
    "final_x": "3676593.79099",
    "final_y": "537654.846024",
    "longitude": "-90.08335105214529",
    "latitude": "29.972512486071807",
    "geocoded_column": {
      "latitude": "29.972512486071807",
      "longitude": "-90.08335105214529"
    }
  },
  {
    "service_request": "2022-901919",
    "request_type": "Trash/Recycling",
    "request_reason": "Request a Large Item Pick Up",
    "date_created": "2022-07-20T15:03:23.000",
    "date_modified": "2022-07-20T15:03:23.000",
    "request_status": "Pending",
    "responsible_agency": "Department of Sanitation",
    "final_address": "1311 Bourbon St, New Orleans, Louisiana, 70116",
    "address_councildis": "C",
    "status": "Assigned to Contractor",
    "contractor": "Empire Services",
    "rowid": "901919",
    "final_x": "3683622.83669",
    "final_y": "534523.117317",
    "longitude": "-90.06126190255824",
    "latitude": "29.963688601935466",
    "geocoded_column": {
      "latitude": "29.963688601935466",
      "longitude": "-90.06126190255824"
    }
  },
  {
    "service_request": "2022-901918",
    "request_type": "Trash/Recycling",
    "request_reason": "Replace Trash Cart",
    "date_created": "2022-07-20T14:57:30.000",
    "date_modified": "2022-07-20T14:57:31.000",
    "request_status": "Pending",
    "responsible_agency": "Department of Sanitation",
    "final_address": "5840 Louisville St",
    "address_councildis": "A",
    "status": "Assigned to Contractor",
    "contractor": "Metro Disposal",
    "rowid": "901918",
    "final_x": "3667610.87169",
    "final_y": "546424.216337",
    "longitude": "-90.11142547329882",
    "latitude": "29.996891670015103",
    "geocoded_column": {
      "latitude": "29.996891670015103",
      "longitude": "-90.11142547329882"
    }
  },
  {
    "service_request": "2022-901917",
    "request_type": "Parks & Parkways",
    "request_reason": "Request Tree Service (Right of Way/Public Property)",
    "date_created": "2022-07-20T14:50:44.000",
    "date_modified": "2022-07-20T14:53:20.000",
    "request_status": "Pending",
    "responsible_agency": "Department of Parks & Parkway",
    "final_address": "917 Eleonore St",
    "address_councildis": "A",
    "status": "Pending",
    "rowid": "901917",
    "final_x": "3665373.97965",
    "final_y": "519532.060663",
    "longitude": "-90.11939173399604",
    "latitude": "29.9230124567899",
    "geocoded_column": {
      "latitude": "29.9230124567899",
      "longitude": "-90.11939173399604"
    }
  },
  {
    "service_request": "2022-901916",
    "request_type": "Property Maintenance",
    "request_reason": "Property Maintenance",
    "date_created": "2022-07-20T14:47:56.000",
    "date_modified": "2022-07-20T15:12:22.000",
    "case_close_date": "2022-07-20T10:12:22.000",
    "request_status": "Closed",
    "responsible_agency": "Department of Code Enforcement",
    "final_address": "1918 Onzaga St",
    "address_councildis": "D",
    "status": "Referred to Code Enforcement",
    "rowid": "901916",
    "final_x": "3681369.943",
    "final_y": "538761.029193",
    "longitude": "-90.06822855038578",
    "latitude": "29.975409978730752",
    "geocoded_column": {
      "latitude": "29.975409978730752",
      "longitude": "-90.06822855038578"
    }
  },
  {
    "service_request": "2022-901915",
    "request_type": "Property Maintenance",
    "request_reason": "Property Maintenance",
    "date_created": "2022-07-20T14:47:56.000",
    "date_modified": "2022-07-20T15:16:11.000",
    "case_close_date": "2022-07-20T10:16:11.000",
    "request_status": "Closed",
    "responsible_agency": "Department of Code Enforcement",
    "final_address": "1918 Onzaga St",
    "address_councildis": "D",
    "status": "Referred to Code Enforcement",
    "rowid": "901915",
    "final_x": "3681369.943",
    "final_y": "538761.029193",
    "longitude": "-90.06822855038578",
    "latitude": "29.975409978730752",
    "geocoded_column": {
      "latitude": "29.975409978730752",
      "longitude": "-90.06822855038578"
    }
  },
  {
    "service_request": "2022-901914",
    "request_type": "Property Maintenance",
    "request_reason": "Property Maintenance",
    "date_created": "2022-07-20T14:41:45.000",
    "date_modified": "2022-07-20T14:41:45.000",
    "request_status": "Closed",
    "responsible_agency": "Department of Code Enforcement",
    "final_address": "8009 Brevard Ave",
    "address_councildis": "E",
    "status": "Resolved",
    "rowid": "901914",
    "final_x": "3705826.33111",
    "final_y": "564486.817633",
    "longitude": "-89.99003681579717",
    "latitude": "30.04538093589608",
    "geocoded_column": {
      "latitude": "30.04538093589608",
      "longitude": "-89.99003681579717"
    }
  },
  {
    "service_request": "2022-901913",
    "request_type": "Roads/Drainage",
    "request_reason": "Street Subsidence (Sinking)",
    "date_created": "2022-07-20T14:41:03.000",
    "date_modified": "2022-07-20T14:41:04.000",
    "request_status": "Pending",
    "responsible_agency": "Department of Public Works",
    "final_address": "EARHART BLVD & S DORGENOIS ST",
    "address_councildis": "B",
    "status": "Pending",
    "rowid": "901913",
    "final_x": "3672914.3",
    "final_y": "531021.68",
    "longitude": "-90.0951979245243",
    "latitude": "29.9543833578518",
    "geocoded_column": {
      "latitude": "29.9543833578518",
      "longitude": "-90.0951979245243"
    }
  },
  {
    "service_request": "2022-901912",
    "request_type": "Trash/Recycling",
    "request_reason": "Request a Large Item Pick Up",
    "date_created": "2022-07-20T14:36:12.000",
    "date_modified": "2022-07-20T14:36:12.000",
    "request_status": "Pending",
    "responsible_agency": "Department of Sanitation",
    "final_address": "2637 Milan St",
    "address_councildis": "B",
    "status": "Assigned to Contractor",
    "contractor": "Richards Disposal",
    "rowid": "901912",
    "final_x": "3671265.52385",
    "final_y": "524732.00998",
    "longitude": "-90.10061778106343",
    "latitude": "29.937137706280648",
    "geocoded_column": {
      "latitude": "29.937137706280648",
      "longitude": "-90.10061778106343"
    }
  },
  {
    "service_request": "2022-901911",
    "request_type": "Parks & Parkways",
    "request_reason": "Request Tree Service (Right of Way/Public Property)",
    "date_created": "2022-07-20T14:32:16.000",
    "date_modified": "2022-07-20T14:32:17.000",
    "request_status": "Pending",
    "responsible_agency": "Department of Parks & Parkway",
    "final_address": "4938 Paris Ave",
    "address_councildis": "D",
    "status": "Pending",
    "rowid": "901911",
    "final_x": "3679110.67464",
    "final_y": "550705.052629",
    "longitude": "-90.0749496549921",
    "latitude": "30.00832023786959",
    "geocoded_column": {
      "latitude": "30.00832023786959",
      "longitude": "-90.0749496549921"
    }
  },
  {
    "service_request": "2022-901910",
    "request_type": "Property Maintenance",
    "request_reason": "Property Maintenance",
    "date_created": "2022-07-20T14:31:46.000",
    "date_modified": "2022-07-20T15:10:12.000",
    "case_close_date": "2022-07-20T10:10:12.000",
    "request_status": "Closed",
    "responsible_agency": "Department of Code Enforcement",
    "final_address": "2010 Clouet St",
    "address_councildis": "D",
    "status": "Referred to Code Enforcement",
    "rowid": "901910",
    "final_x": "3689840.97808",
    "final_y": "539490.715466",
    "longitude": "-90.04144883763384",
    "latitude": "29.97715647037543",
    "geocoded_column": {
      "latitude": "29.97715647037543",
      "longitude": "-90.04144883763384"
    }
  },
  {
    "service_request": "2022-901909",
    "request_type": "Roads/Drainage",
    "request_reason": "Catch Basin - Broken/Damage",
    "date_created": "2022-07-20T14:26:10.000",
    "date_modified": "2022-07-20T14:26:10.000",
    "request_status": "Pending",
    "responsible_agency": "Department of Public Works",
    "final_address": "1401 Henry Clay Ave",
    "address_councildis": "A",
    "status": "Pending",
    "rowid": "901909",
    "final_x": "3664609.97485",
    "final_y": "521479.125625",
    "longitude": "-90.12173842311657",
    "latitude": "29.928388507765806",
    "geocoded_column": {
      "latitude": "29.928388507765806",
      "longitude": "-90.12173842311657"
    }
  },
  {
    "service_request": "2022-901908",
    "request_type": "Abandoned Vehicles",
    "request_reason": "Abandoned/Junk Vehicles",
    "date_created": "2022-07-20T14:24:32.000",
    "date_modified": "2022-07-20T14:24:32.000",
    "request_status": "Pending",
    "responsible_agency": "Department of Public Works",
    "status": "Inspected",
    "rowid": "901908",
    "longitude": "0.0",
    "latitude": "0.0",
    "geocoded_column": {
      "latitude": "0.0",
      "longitude": "0.0"
    }
  },
  {
    "service_request": "2022-901907",
    "request_type": "Property Maintenance",
    "request_reason": "Property Maintenance",
    "date_created": "2022-07-20T14:21:27.000",
    "date_modified": "2022-07-20T14:29:13.000",
    "case_close_date": "2022-07-20T09:29:13.000",
    "request_status": "Closed",
    "responsible_agency": "Department of Code Enforcement",
    "final_address": "3502 Roger Williams St",
    "address_councildis": "D",
    "status": "Referred to Code Enforcement",
    "rowid": "901907",
    "final_x": "3676250.54792",
    "final_y": "543896.900238",
    "longitude": "-90.08422017320487",
    "latitude": "29.989686274133977",
    "geocoded_column": {
      "latitude": "29.989686274133977",
      "longitude": "-90.08422017320487"
    }
  },
  {
    "service_request": "2022-901906",
    "request_type": "Abandoned Vehicles",
    "request_reason": "Abandoned/Junk Vehicles",
    "date_created": "2022-07-20T14:18:58.000",
    "date_modified": "2022-07-20T14:18:58.000",
    "request_status": "Pending",
    "responsible_agency": "Department of Public Works",
    "status": "Inspected",
    "rowid": "901906",
    "longitude": "0.0",
    "latitude": "0.0",
    "geocoded_column": {
      "latitude": "0.0",
      "longitude": "0.0"
    }
  },
  {
    "service_request": "2022-901905",
    "request_type": "Trash/Recycling",
    "request_reason": "Repair Recycling Cart",
    "date_created": "2022-07-20T14:13:09.000",
    "date_modified": "2022-07-20T14:13:09.000",
    "request_status": "Pending",
    "responsible_agency": "Department of Sanitation",
    "final_address": "5430 Berkley Dr",
    "address_councildis": "C",
    "status": "Pending",
    "rowid": "901905",
    "final_x": "3704130.04062",
    "final_y": "518230.31487",
    "longitude": "-89.9971027155176",
    "latitude": "29.918247215804985",
    "geocoded_column": {
      "latitude": "29.918247215804985",
      "longitude": "-89.9971027155176"
    }
  },
  {
    "service_request": "2022-901904",
    "request_type": "Abandoned Vehicles",
    "request_reason": "Abandoned/Junk Vehicles",
    "date_created": "2022-07-20T14:10:22.000",
    "date_modified": "2022-07-20T14:12:22.000",
    "request_status": "Pending",
    "responsible_agency": "Department of Public Works",
    "final_address": "1245 Magazine St",
    "address_councildis": "B",
    "status": "Pending",
    "rowid": "901904",
    "final_x": "3680511.84309",
    "final_y": "525281.205437",
    "longitude": "-90.07140752067795",
    "latitude": "29.938371053692702",
    "geocoded_column": {
      "latitude": "29.938371053692702",
      "longitude": "-90.07140752067795"
    }
  },
  {
    "service_request": "2022-901903",
    "request_type": "Trash/Recycling",
    "request_reason": "Missed Trash Pick-Up",
    "date_created": "2022-07-20T14:08:35.000",
    "date_modified": "2022-07-20T14:08:36.000",
    "request_status": "Pending",
    "responsible_agency": "Department of Sanitation",
    "final_address": "2135 S Lopez St",
    "address_councildis": "A",
    "status": "Assigned to Contractor",
    "contractor": "Richards Disposal",
    "rowid": "901903",
    "final_x": "3669082.92327",
    "final_y": "529279.550273",
    "longitude": "-90.1073547912911",
    "latitude": "29.949706351355903",
    "geocoded_column": {
      "latitude": "29.949706351355903",
      "longitude": "-90.1073547912911"
    }
  },
  {
    "service_request": "2022-901902",
    "request_type": "Trash/Recycling",
    "request_reason": "Order Recycling Cart",
    "date_created": "2022-07-20T14:08:33.000",
    "date_modified": "2022-07-20T14:08:33.000",
    "request_status": "Pending",
    "responsible_agency": "Department of Sanitation",
    "final_address": "8207 Neron Pl",
    "address_councildis": "A",
    "status": "Pending",
    "rowid": "901902",
    "final_x": "3664189.90234",
    "final_y": "531618.768259",
    "longitude": "-90.12272632725397",
    "latitude": "29.95628148739812",
    "geocoded_column": {
      "latitude": "29.95628148739812",
      "longitude": "-90.12272632725397"
    }
  },
  {
    "service_request": "2022-901901",
    "request_type": "Trash/Recycling",
    "request_reason": "Missed Trash Pick-Up",
    "date_created": "2022-07-20T14:06:47.000",
    "date_modified": "2022-07-20T14:06:48.000",
    "request_status": "Pending",
    "responsible_agency": "Department of Sanitation",
    "final_address": "5600 Block of General Diaz St, New Orleans, Louisiana, 70124",
    "status": "Assigned to Contractor",
    "rowid": "901901",
    "longitude": "0.0",
    "latitude": "0.0",
    "geocoded_column": {
      "latitude": "0.0",
      "longitude": "0.0"
    }
  },
  {
    "service_request": "2022-901900",
    "request_type": "Property Maintenance",
    "request_reason": "Property Maintenance",
    "date_created": "2022-07-20T14:06:33.000",
    "date_modified": "2022-07-20T14:21:41.000",
    "case_close_date": "2022-07-20T09:21:41.000",
    "request_status": "Closed",
    "responsible_agency": "Department of Code Enforcement",
    "final_address": "3318 Elysian Fields Ave",
    "address_councildis": "D",
    "status": "Referred to Code Enforcement",
    "rowid": "901900",
    "final_x": "3684172.00476",
    "final_y": "544978.909263",
    "longitude": "-90.05916052465984",
    "latitude": "29.992421592868304",
    "geocoded_column": {
      "latitude": "29.992421592868304",
      "longitude": "-90.05916052465984"
    }
  },
  {
    "service_request": "2022-901899",
    "request_type": "Abandoned Vehicles",
    "request_reason": "Abandoned/Junk Vehicles",
    "date_created": "2022-07-20T14:05:30.000",
    "date_modified": "2022-07-20T14:05:30.000",
    "request_status": "Pending",
    "responsible_agency": "Department of Public Works",
    "final_address": "1700 Dante St",
    "address_councildis": "A",
    "status": "Pending",
    "rowid": "901899",
    "final_x": "3662537.66861",
    "final_y": "530271.167873",
    "longitude": "-90.12798831584868",
    "latitude": "29.952623917276306",
    "geocoded_column": {
      "latitude": "29.952623917276306",
      "longitude": "-90.12798831584868"
    }
  },
  {
    "service_request": "2022-901898",
    "request_type": "Abandoned Vehicles",
    "request_reason": "Abandoned/Junk Vehicles",
    "date_created": "2022-07-20T13:58:40.000",
    "date_modified": "2022-07-20T13:58:41.000",
    "request_status": "Pending",
    "responsible_agency": "Department of Public Works",
    "final_address": "2319 Napoleon Ave",
    "address_councildis": "B",
    "status": "Pending",
    "rowid": "901898",
    "final_x": "3670684.58951",
    "final_y": "523494.986491",
    "longitude": "-90.10249378042904",
    "latitude": "29.933753462907905",
    "geocoded_column": {
      "latitude": "29.933753462907905",
      "longitude": "-90.10249378042904"
    }
  },
  {
    "service_request": "2022-901897",
    "request_type": "Property Maintenance",
    "request_reason": "Property Maintenance",
    "date_created": "2022-07-20T13:56:39.000",
    "date_modified": "2022-07-20T14:18:50.000",
    "case_close_date": "2022-07-20T09:18:50.000",
    "request_status": "Closed",
    "responsible_agency": "Department of Code Enforcement",
    "final_address": "5845 Lafaye St",
    "address_councildis": "D",
    "status": "Referred to Code Enforcement",
    "rowid": "901897",
    "final_x": "3687202.94198",
    "final_y": "554840.8694",
    "longitude": "-90.04923728967222",
    "latitude": "30.0194453683588",
    "geocoded_column": {
      "latitude": "30.0194453683588",
      "longitude": "-90.04923728967222"
    }
  },
  {
    "service_request": "2022-901896",
    "request_type": "Roads/Drainage",
    "request_reason": "Road Shoulder Repair",
    "date_created": "2022-07-20T13:55:48.000",
    "date_modified": "2022-07-20T13:55:48.000",
    "request_status": "Pending",
    "responsible_agency": "Department of Public Works",
    "final_address": "737 Emerald St",
    "address_councildis": "D",
    "status": "Pending",
    "rowid": "901896",
    "final_x": "3669999.07214",
    "final_y": "555006.964185",
    "longitude": "-90.10359026852021",
    "latitude": "30.020420970072532",
    "geocoded_column": {
      "latitude": "30.020420970072532",
      "longitude": "-90.10359026852021"
    }
  },
  {
    "service_request": "2022-901895",
    "request_type": "Roads/Drainage",
    "request_reason": "Catch Basin - Clogged",
    "date_created": "2022-07-20T13:53:23.000",
    "date_modified": "2022-07-20T13:53:23.000",
    "request_status": "Pending",
    "responsible_agency": "Department of Public Works",
    "final_address": "2417 State St",
    "address_councildis": "A",
    "status": "Pending",
    "rowid": "901895",
    "final_x": "3666800.18522",
    "final_y": "525487.120637",
    "longitude": "-90.11468981728504",
    "latitude": "29.939345354496584",
    "geocoded_column": {
      "latitude": "29.939345354496584",
      "longitude": "-90.11468981728504"
    }
  },
  {
    "service_request": "2022-901894",
    "request_type": "Roads/Drainage",
    "request_reason": "Catch Basin - Clogged",
    "date_created": "2022-07-20T13:52:35.000",
    "date_modified": "2022-07-20T13:52:35.000",
    "request_status": "Pending",
    "responsible_agency": "Department of Public Works",
    "final_address": "2410 State St",
    "address_councildis": "A",
    "status": "Pending",
    "rowid": "901894",
    "final_x": "3666667.59514",
    "final_y": "525537.662845",
    "longitude": "-90.11510672634142",
    "latitude": "29.939488206120803",
    "geocoded_column": {
      "latitude": "29.939488206120803",
      "longitude": "-90.11510672634142"
    }
  },
  {
    "service_request": "2022-901893",
    "request_type": "Trash/Recycling",
    "request_reason": "Order Recycling Cart",
    "date_created": "2022-07-20T13:51:11.000",
    "date_modified": "2022-07-20T13:51:12.000",
    "request_status": "Pending",
    "responsible_agency": "Department of Sanitation",
    "final_address": "7108 Coliseum St",
    "address_councildis": "A",
    "status": "Pending",
    "rowid": "901893",
    "final_x": "3661434.62618",
    "final_y": "522060.35225",
    "longitude": "-90.1317431198825",
    "latitude": "29.930078639434413",
    "geocoded_column": {
      "latitude": "29.930078639434413",
      "longitude": "-90.1317431198825"
    }
  },
  {
    "service_request": "2022-901892",
    "request_type": "Abandoned Vehicles",
    "request_reason": "Abandoned/Junk Vehicles",
    "date_created": "2022-07-20T13:45:49.000",
    "date_modified": "2022-07-20T13:45:49.000",
    "request_status": "Pending",
    "responsible_agency": "Department of Public Works",
    "status": "Inspected",
    "rowid": "901892",
    "longitude": "0.0",
    "latitude": "0.0",
    "geocoded_column": {
      "latitude": "0.0",
      "longitude": "0.0"
    }
  },
  {
    "service_request": "2022-901891",
    "request_type": "Abandoned Vehicles",
    "request_reason": "Abandoned/Junk Vehicles",
    "date_created": "2022-07-20T13:45:14.000",
    "date_modified": "2022-07-20T13:45:14.000",
    "request_status": "Pending",
    "responsible_agency": "Department of Public Works",
    "final_address": "2128 Harmony St",
    "address_councildis": "B",
    "status": "Pending",
    "rowid": "901891",
    "final_x": "3673907.58587",
    "final_y": "523649.005627",
    "longitude": "-90.09231365288467",
    "latitude": "29.934081376174838",
    "geocoded_column": {
      "latitude": "29.934081376174838",
      "longitude": "-90.09231365288467"
    }
  },
  {
    "service_request": "2022-901890",
    "request_type": "Traffic Signals/Signs/Striping/Streetlights",
    "request_reason": "Request for Stop Sign",
    "date_created": "2022-07-20T13:41:02.000",
    "date_modified": "2022-07-20T13:41:02.000",
    "request_status": "Pending",
    "responsible_agency": "Department of Public Works",
    "final_address": "8303 Belfast St",
    "address_councildis": "A",
    "status": "Pending",
    "rowid": "901890",
    "final_x": "3665044.60084",
    "final_y": "532920.002948",
    "longitude": "-90.11998395507939",
    "latitude": "29.95983460043627",
    "geocoded_column": {
      "latitude": "29.95983460043627",
      "longitude": "-90.11998395507939"
    }
  },
  {
    "service_request": "2022-901889",
    "request_type": "Trash/Recycling",
    "request_reason": "Order Trash Cart",
    "date_created": "2022-07-20T13:39:34.000",
    "date_modified": "2022-07-20T13:39:36.000",
    "request_status": "Pending",
    "responsible_agency": "Department of Sanitation",
    "final_address": "6364 Vicksburg St",
    "address_councildis": "A",
    "status": "Assigned to Contractor",
    "contractor": "Metro Disposal",
    "rowid": "901889",
    "final_x": "3669045.86913",
    "final_y": "549794.742804",
    "longitude": "-90.10677840055027",
    "latitude": "30.006117292261838",
    "geocoded_column": {
      "latitude": "30.006117292261838",
      "longitude": "-90.10677840055027"
    }
  },
  {
    "service_request": "2022-901888",
    "request_type": "Property Maintenance",
    "request_reason": "Property Maintenance",
    "date_created": "2022-07-20T13:39:27.000",
    "date_modified": "2022-07-20T13:54:54.000",
    "case_close_date": "2022-07-20T08:54:54.000",
    "request_status": "Closed",
    "responsible_agency": "Department of Code Enforcement",
    "final_address": "7831 Parry St",
    "address_councildis": "E",
    "status": "Referred to Code Enforcement",
    "rowid": "901888",
    "final_x": "3713947.92127",
    "final_y": "569143.07639",
    "longitude": "-89.96419308343424",
    "latitude": "30.0579194514425",
    "geocoded_column": {
      "latitude": "30.0579194514425",
      "longitude": "-89.96419308343424"
    }
  },
  {
    "service_request": "2022-901887",
    "request_type": "Trash/Recycling",
    "request_reason": "Illegal Dumping",
    "date_created": "2022-07-20T13:37:58.000",
    "date_modified": "2022-07-20T13:37:58.000",
    "request_status": "Pending",
    "responsible_agency": "Department of Sanitation",
    "final_address": "5400 Tullis Dr",
    "address_councildis": "C",
    "status": "Pending",
    "rowid": "901887",
    "final_x": "3703969.56151",
    "final_y": "511975.875248",
    "longitude": "-89.99783935194829",
    "latitude": "29.901054788968743",
    "geocoded_column": {
      "latitude": "29.901054788968743",
      "longitude": "-89.99783935194829"
    }
  },
  {
    "service_request": "2022-901886",
    "request_type": "Trash/Recycling",
    "request_reason": "MIssed Recycling Pick-Up",
    "date_created": "2022-07-20T13:36:19.000",
    "date_modified": "2022-07-20T13:36:21.000",
    "request_status": "Pending",
    "responsible_agency": "Department of Sanitation",
    "final_address": "635 S Alexander St",
    "address_councildis": "A",
    "status": "Assigned to Contractor",
    "contractor": "Richards Disposal",
    "rowid": "901886",
    "final_x": "3668609.60929",
    "final_y": "537400.123528",
    "longitude": "-90.1085752011929",
    "latitude": "29.972049159742397",
    "geocoded_column": {
      "latitude": "29.972049159742397",
      "longitude": "-90.1085752011929"
    }
  },