[
  {
    "service_request": "2025-1175770",
    "request_type": "Health Related Request",
    "request_reason": "Noise Ordinance Complaint",
    "date_created": "2025-03-14T22:28:57.000",
    "date_modified": "2025-03-14T22:28:59.000",
    "request_status": "Pending",
    "responsible_agency": "Health Department",
    "final_address": "600 N Broad St",
    "address_councildis": "D",
    "status": "Pending",
    "rowid": "1175770",
    "final_x": "3676514.68328",
    "final_y": "536431.051079",
    "longitude": "-90.0836430411453",
    "latitude": "29.969149839828454",
    "geocoded_column": {
      "latitude": "29.969149839828454",
      "longitude": "-90.0836430411453"
    }
  },
  {
    "service_request": "2025-1175769",
    "request_type": "Street and Traffic Signs",
    "request_reason": "Street Name Sign Damaged or Missing",
    "date_created": "2025-03-14T22:06:08.000",
    "date_modified": "2025-03-14T22:06:10.000",
    "request_status": "Pending",
    "responsible_agency": "Department of Public Works",
    "final_address": "N CLAIBORNE AVE & MARIGNY ST",
    "address_councildis": "C",
    "status": "Pending",
    "rowid": "1175769",
    "final_x": "3685270.5",
    "final_y": "538176.28",
    "longitude": "-90.05593014882284",
    "latitude": "29.973683131312153",
    "geocoded_column": {
      "latitude": "29.973683131312153",
      "longitude": "-90.05593014882284"
    }
  },
  {
    "service_request": "2025-1175768",
    "request_type": "Street and Traffic Signs",
    "request_reason": "Street Name Sign Damaged or Missing",
    "date_created": "2025-03-14T22:04:36.000",
    "date_modified": "2025-03-14T22:04:37.000",
    "request_status": "Pending",
    "responsible_agency": "Department of Public Works",
    "final_address": "SPAIN ST & N CLAIBORNE AVE",
    "address_councildis": "D",
    "status": "Pending",
    "rowid": "1175768",
    "final_x": "3685989.9",
    "final_y": "538236.18",
    "longitude": "-90.05365602058086",
    "latitude": "29.973825763516366",
    "geocoded_column": {
      "latitude": "29.973825763516366",
      "longitude": "-90.05365602058086"
    }
  },
  {
    "service_request": "2025-1175767",
    "request_type": "Street and Traffic Signs",
    "request_reason": "Street Name Sign Damaged or Missing",
    "date_created": "2025-03-14T22:03:37.000",
    "date_modified": "2025-03-14T22:03:39.000",
    "request_status": "Pending",
    "responsible_agency": "Department of Public Works",
    "final_address": "N CLAIBORNE AVE & ST ANTHONY ST",
    "address_councildis": "D",
    "status": "Pending",
    "rowid": "1175767",
    "final_x": "3683367.0",
    "final_y": "538024.68",
    "longitude": "-90.0619471168193",
    "latitude": "29.97332449591114",
    "geocoded_column": {
      "latitude": "29.97332449591114",
      "longitude": "-90.0619471168193"
    }
  },
  {
    "service_request": "2025-1175766",
    "request_type": "Street and Traffic Signs",
    "request_reason": "Street Name Sign Damaged or Missing",
    "date_created": "2025-03-14T21:59:49.000",
    "date_modified": "2025-03-14T21:59:52.000",
    "request_status": "Pending",
    "responsible_agency": "Department of Public Works",
    "final_address": "N CLAIBORNE AVE & TOURO ST",
    "address_councildis": "D",
    "status": "Pending",
    "rowid": "1175766",
    "final_x": "3684086.6",
    "final_y": "538077.18",
    "longitude": "-90.05967263349358",
    "latitude": "29.97344687855213",
    "geocoded_column": {
      "latitude": "29.97344687855213",
      "longitude": "-90.05967263349358"
    }
  },
  {
    "service_request": "2025-1175765",
    "request_type": "Street and Traffic Signs",
    "request_reason": "Street Name Sign Damaged or Missing",
    "date_created": "2025-03-14T21:54:14.000",
    "date_modified": "2025-03-14T21:54:15.000",
    "request_status": "Pending",
    "responsible_agency": "Department of Public Works",
    "final_address": "N CLAIBORNE AVE & TOURO ST",
    "address_councildis": "D",
    "status": "Pending",
    "rowid": "1175765",
    "final_x": "3684086.6",
    "final_y": "538077.18",
    "longitude": "-90.05967263349358",
    "latitude": "29.97344687855213",
    "geocoded_column": {
      "latitude": "29.97344687855213",
      "longitude": "-90.05967263349358"
    }
  },
  {
    "service_request": "2025-1175764",
    "request_type": "Street and Traffic Signs",
    "request_reason": "Additional Signage Request",
    "date_created": "2025-03-14T21:51:20.000",
    "date_modified": "2025-03-14T21:51:22.000",
    "request_status": "Pending",
    "responsible_agency": "Department of Public Works",
    "final_address": "1411 Marigny St",
    "address_councildis": "C",
    "status": "Pending",
    "rowid": "1175764",
    "final_x": "3685356.23618",
    "final_y": "537547.2882",
    "longitude": "-90.05568152605578",
    "latitude": "29.971950995032607",
    "geocoded_column": {
      "latitude": "29.971950995032607",
      "longitude": "-90.05568152605578"
    }
  },
  {
    "service_request": "2025-1175763",
    "request_type": "Street and Traffic Signs",
    "request_reason": "Street Name Sign Damaged or Missing",
    "date_created": "2025-03-14T21:47:48.000",
    "date_modified": "2025-03-14T21:47:50.000",
    "request_status": "Pending",
    "responsible_agency": "Department of Public Works",
    "final_address": "ANDRY ST & N CLAIBORNE AVE",
    "address_councildis": "E",
    "status": "Pending",
    "rowid": "1175763",
    "final_x": "3697680.1",
    "final_y": "535827.38",
    "longitude": "-90.01682341370366",
    "latitude": "29.966838264012598",
    "geocoded_column": {
      "latitude": "29.966838264012598",
      "longitude": "-90.01682341370366"
    }
  },
  {
    "service_request": "2025-1175762",
    "request_type": "Street and Traffic Signs",
    "request_reason": "Street Name Sign Damaged or Missing",
    "date_created": "2025-03-14T21:43:47.000",
    "date_modified": "2025-03-14T21:43:49.000",
    "request_status": "Pending",
    "responsible_agency": "Department of Public Works",
    "final_address": "N CLAIBORNE AVE & LAHARPE ST",
    "address_councildis": "D",
    "status": "Pending",
    "rowid": "1175762",
    "final_x": "3681899.2",
    "final_y": "537517.28",
    "longitude": "-90.0666004404715",
    "latitude": "29.971974021372514",
    "geocoded_column": {
      "latitude": "29.971974021372514",
      "longitude": "-90.0666004404715"
    }
  },
  {
    "service_request": "2025-1175761",
    "request_type": "Street and Traffic Signs",
    "request_reason": "Street Name Sign Damaged or Missing",
    "date_created": "2025-03-14T21:42:15.000",
    "date_modified": "2025-03-14T21:42:16.000",
    "request_status": "Pending",
    "responsible_agency": "Department of Public Works",
    "final_address": "COLUMBUS ST & N CLAIBORNE AVE",
    "address_councildis": "D",
    "status": "Pending",
    "rowid": "1175761",
    "final_x": "3681673.9",
    "final_y": "537226.38",
    "longitude": "-90.06732212428908",
    "latitude": "29.971180993533036",
    "geocoded_column": {
      "latitude": "29.971180993533036",
      "longitude": "-90.06732212428908"
    }
  },
  {
    "service_request": "2025-1175760",
    "request_type": "Street and Traffic Signs",
    "request_reason": "Street Name Sign Damaged or Missing",
    "date_created": "2025-03-14T21:39:40.000",
    "date_modified": "2025-03-14T21:39:42.000",
    "request_status": "Pending",
    "responsible_agency": "Department of Public Works",
    "final_address": "N CLAIBORNE AVE & ESPLANADE AVE",
    "address_councildis": "D",
    "status": "Pending",
    "rowid": "1175760",
    "final_x": "3681187.9",
    "final_y": "536587.48",
    "longitude": "-90.06887924362073",
    "latitude": "29.969438994559713",
    "geocoded_column": {
      "latitude": "29.969438994559713",
      "longitude": "-90.06887924362073"
    }
  },
  {
    "service_request": "2025-1175759",
    "request_type": "Street and Traffic Signs",
    "request_reason": "Street Name Sign Damaged or Missing",
    "date_created": "2025-03-14T21:36:21.000",
    "date_modified": "2025-03-14T21:36:23.000",
    "request_status": "Pending",
    "responsible_agency": "Department of Public Works",
    "final_address": "URSULINES AVE & N CLAIBORNE AVE",
    "address_councildis": "D",
    "status": "Pending",
    "rowid": "1175759",
    "final_x": "3680620.2",
    "final_y": "535824.58",
    "longitude": "-90.07069863429241",
    "latitude": "29.967358494978164",
    "geocoded_column": {
      "latitude": "29.967358494978164",
      "longitude": "-90.07069863429241"
    }
  },
  {
    "service_request": "2025-1175758",
    "request_type": "Street and Traffic Signs",
    "request_reason": "Street Name Sign Damaged or Missing",
    "date_created": "2025-03-14T21:34:14.000",
    "date_modified": "2025-03-14T21:34:16.000",
    "request_status": "Pending",
    "responsible_agency": "Department of Public Works",
    "final_address": "ST PHILIP ST & N CLAIBORNE AVE",
    "address_councildis": "D",
    "status": "Pending",
    "rowid": "1175758",
    "final_x": "3680398.3",
    "final_y": "535535.58",
    "longitude": "-90.07140944890652",
    "latitude": "29.96657056553638",
    "geocoded_column": {
      "latitude": "29.96657056553638",
      "longitude": "-90.07140944890652"
    }
  },
  {
    "service_request": "2025-1175757",
    "request_type": "Street and Traffic Signs",
    "request_reason": "Street Name Sign Damaged or Missing",
    "date_created": "2025-03-14T21:30:58.000",
    "date_modified": "2025-03-14T21:31:00.000",
    "request_status": "Pending",
    "responsible_agency": "Department of Public Works",
    "final_address": "LAFITTE ST & N BROAD ST",
    "address_councildis": "D",
    "status": "Pending",
    "rowid": "1175757",
    "final_x": "3676366.9",
    "final_y": "536430.78",
    "longitude": "-90.08410976111576",
    "latitude": "29.96915352544743",
    "geocoded_column": {
      "latitude": "29.96915352544743",
      "longitude": "-90.08410976111576"
    }
  },
  {
    "service_request": "2025-1175756",
    "request_type": "Street and Traffic Signs",
    "request_reason": "Street Name Sign Damaged or Missing",
    "date_created": "2025-03-14T21:29:22.000",
    "date_modified": "2025-03-14T21:29:24.000",
    "request_status": "Pending",
    "responsible_agency": "Department of Public Works",
    "final_address": "URSULINES AVE & N ROCHEBLAVE ST",
    "address_councildis": "D",
    "status": "Pending",
    "rowid": "1175756",
    "final_x": "3678420.65",
    "final_y": "537509.34",
    "longitude": "-90.07758654017563",
    "latitude": "29.972057470146613",
    "geocoded_column": {
      "latitude": "29.972057470146613",
      "longitude": "-90.07758654017563"
    }
  },
  {
    "service_request": "2025-1175755",
    "request_type": "Graffiti Removal",
    "request_reason": "Graffiti Removal",
    "date_created": "2025-03-14T21:28:42.000",
    "date_modified": "2025-03-14T21:28:44.000",
    "request_status": "Pending",
    "responsible_agency": "Department of Code Enforcement",
    "final_address": "1900 St Ann St",
    "address_councildis": "D",
    "status": "Pending",
    "rowid": "1175755",
    "final_x": "3679362.3133",
    "final_y": "535317.63431",
    "longitude": "-90.07468864505087",
    "latitude": "29.966002620626902",
    "geocoded_column": {
      "latitude": "29.966002620626902",
      "longitude": "-90.07468864505087"
    }
  },
  {
    "service_request": "2025-1175754",
    "request_type": "Street and Traffic Signs",
    "request_reason": "Street Name Sign Damaged or Missing",
    "date_created": "2025-03-14T21:28:33.000",
    "date_modified": "2025-03-14T21:28:34.000",
    "request_status": "Pending",
    "responsible_agency": "Department of Public Works",
    "final_address": "N DERBIGNY ST & URSULINES AVE",
    "address_councildis": "D",
    "status": "Pending",
    "rowid": "1175754",
    "final_x": "3680365.32",
    "final_y": "535998.04",
    "longitude": "-90.07149751651932",
    "latitude": "29.96784317072742",
    "geocoded_column": {
      "latitude": "29.96784317072742",
      "longitude": "-90.07149751651932"
    }
  },
  {
    "service_request": "2025-1175753",
    "request_type": "Street and Traffic Signs",
    "request_reason": "Street Name Sign Damaged or Missing",
    "date_created": "2025-03-14T21:27:42.000",
    "date_modified": "2025-03-14T21:27:43.000",
    "request_status": "Pending",
    "responsible_agency": "Department of Public Works",
    "final_address": "GOVERNOR NICHOLLS ST & N CLAIBORNE AVE",
    "address_councildis": "D",
    "status": "Pending",
    "rowid": "1175753",
    "final_x": "3680830.6",
    "final_y": "536104.28",
    "longitude": "-90.07002444970273",
    "latitude": "29.96812119731939",
    "geocoded_column": {
      "latitude": "29.96812119731939",
      "longitude": "-90.07002444970273"
    }
  },
  {
    "service_request": "2025-1175752",
    "request_type": "Street and Traffic Signs",
    "request_reason": "Street Name Sign Damaged or Missing",
    "date_created": "2025-03-14T21:25:13.000",
    "date_modified": "2025-03-14T21:25:15.000",
    "request_status": "Pending",
    "responsible_agency": "Department of Public Works",
    "final_address": "N CLAIBORNE AVE & ESPLANADE AVE",
    "address_councildis": "D",
    "status": "Pending",
    "rowid": "1175752",
    "final_x": "3681187.9",
    "final_y": "536587.48",
    "longitude": "-90.06887924362073",
    "latitude": "29.969438994559713",
    "geocoded_column": {
      "latitude": "29.969438994559713",
      "longitude": "-90.06887924362073"
    }
  },
  {
    "service_request": "2025-1175751",
    "request_type": "Trash/Recycling",
    "request_reason": "Return Trash Cart",
    "date_created": "2025-03-14T21:24:44.000",
    "date_modified": "2025-03-14T21:24:45.000",
    "request_status": "Pending",
    "responsible_agency": "Department of Sanitation",
    "final_address": "2137 Dumaine St",
    "address_councildis": "D",
    "status": "Assigned to Contractor",
    "contractor": "IV Waste",
    "rowid": "1175751",
    "final_x": "3678862.94178",
    "final_y": "536273.171271",
    "longitude": "-90.07623254105646",
    "latitude": "29.968645094313246",
    "geocoded_column": {
      "latitude": "29.968645094313246",
      "longitude": "-90.07623254105646"
    }
  },
  {
    "service_request": "2025-1175750",
    "request_type": "Trash/Recycling",
    "request_reason": "Request a Large Item Pick Up",
    "date_created": "2025-03-14T21:24:40.000",
    "date_modified": "2025-03-14T21:24:42.000",
    "request_status": "Pending",
    "responsible_agency": "Department of Sanitation",
    "final_address": "17432 Chef Menteur Hwy",
    "address_councildis": "E",
    "status": "Assigned to Contractor",
    "contractor": "Waste Pro",
    "rowid": "1175750",
    "final_x": "3742683.77691",
    "final_y": "568784.435109",
    "longitude": "-89.87337869693128",
    "latitude": "30.055957928296035",
    "geocoded_column": {
      "latitude": "30.055957928296035",
      "longitude": "-89.87337869693128"
    }
  },
  {
    "service_request": "2025-1175749",
    "request_type": "Street and Traffic Signs",
    "request_reason": "Street Name Sign Damaged or Missing",
    "date_created": "2025-03-14T21:23:44.000",
    "date_modified": "2025-03-14T21:23:45.000",
    "request_status": "Pending",
    "responsible_agency": "Department of Public Works",
    "final_address": "COLUMBUS ST & N CLAIBORNE AVE",
    "address_councildis": "D",
    "status": "Pending",
    "rowid": "1175749",
    "final_x": "3681673.9",
    "final_y": "537226.38",
    "longitude": "-90.06732212428908",
    "latitude": "29.971180993533036",
    "geocoded_column": {
      "latitude": "29.971180993533036",
      "longitude": "-90.06732212428908"
    }
  },
  {
    "service_request": "2025-1175748",
    "request_type": "Property Maintenance",
    "request_reason": "Property Maintenance",
    "date_created": "2025-03-14T21:20:27.000",
    "date_modified": "2025-03-14T21:20:29.000",
    "request_status": "Pending",
    "responsible_agency": "Department of Code Enforcement",
    "final_address": "4614 Wilson Ave",
    "address_councildis": "E",
    "status": "Pending",
    "rowid": "1175748",
    "final_x": "3703021.91876",
    "final_y": "554264.996312",
    "longitude": "-89.99927618213523",
    "latitude": "30.017365005529754",
    "geocoded_column": {
      "latitude": "30.017365005529754",
      "longitude": "-89.99927618213523"
    }
  },
  {
    "service_request": "2025-1175747",
    "request_type": "Street and Traffic Signs",
    "request_reason": "Street Name Sign Damaged or Missing",
    "date_created": "2025-03-14T21:18:48.000",
    "date_modified": "2025-03-14T21:18:50.000",
    "request_status": "Pending",
    "responsible_agency": "Department of Public Works",
    "final_address": "N CLAIBORNE AVE & LAHARPE ST",
    "address_councildis": "D",
    "status": "Pending",
    "rowid": "1175747",
    "final_x": "3681899.2",
    "final_y": "537517.28",
    "longitude": "-90.0666004404715",
    "latitude": "29.971974021372514",
    "geocoded_column": {
      "latitude": "29.971974021372514",
      "longitude": "-90.0666004404715"
    }
  },
  {
    "service_request": "2025-1175746",
    "request_type": "Street and Traffic Signs",
    "request_reason": "Street Name Sign Damaged or Missing",
    "date_created": "2025-03-14T21:17:49.000",
    "date_modified": "2025-03-14T21:17:50.000",
    "request_status": "Pending",
    "responsible_agency": "Department of Public Works",
    "final_address": "N CLAIBORNE AVE & ST BERNARD AVE",
    "address_councildis": "D",
    "status": "Pending",
    "rowid": "1175746",
    "final_x": "3682143.48",
    "final_y": "537838.4",
    "longitude": "-90.06581774710449",
    "latitude": "29.972849562408335",
    "geocoded_column": {
      "latitude": "29.972849562408335",
      "longitude": "-90.06581774710449"
    }
  },
  {
    "service_request": "2025-1175745",
    "request_type": "Property Maintenance",
    "request_reason": "Property Maintenance",
    "date_created": "2025-03-14T21:17:34.000",
    "date_modified": "2025-03-14T21:17:36.000",
    "request_status": "Pending",
    "responsible_agency": "Department of Code Enforcement",
    "final_address": "8370 Lake Forest Blvd",
    "address_councildis": "E",
    "status": "Pending",
    "rowid": "1175745",
    "final_x": "3705126.33047",
    "final_y": "557578.049883",
    "longitude": "-89.99250464736014",
    "latitude": "30.026407085389657",
    "geocoded_column": {
      "latitude": "30.026407085389657",
      "longitude": "-89.99250464736014"
    }
  },
  {
    "service_request": "2025-1175744",
    "request_type": "Abandoned Vehicles",
    "request_reason": "Abandoned/Junk Vehicles",
    "date_created": "2025-03-14T21:16:05.000",
    "date_modified": "2025-03-14T21:16:07.000",
    "request_status": "Pending",
    "responsible_agency": "Department of Public Works",
    "final_address": "822 N Rocheblave St",
    "address_councildis": "D",
    "status": "Pending",
    "rowid": "1175744",
    "final_x": "3677883.6973",
    "final_y": "536744.913544",
    "longitude": "-90.0793087467444",
    "latitude": "29.969971728511258",
    "geocoded_column": {
      "latitude": "29.969971728511258",
      "longitude": "-90.0793087467444"
    }
  },
  {
    "service_request": "2025-1175743",
    "request_type": "Street and Traffic Signs",
    "request_reason": "Street Name Sign Damaged or Missing",
    "date_created": "2025-03-14T21:15:47.000",
    "date_modified": "2025-03-14T21:15:48.000",
    "request_status": "Pending",
    "responsible_agency": "Department of Public Works",
    "final_address": "ELYSIAN FIELDS AVE & N CLAIBORNE AVE",
    "address_councildis": "D",
    "status": "Pending",
    "rowid": "1175743",
    "final_x": "3684815.6",
    "final_y": "538136.98",
    "longitude": "-90.05736820071654",
    "latitude": "29.973589006521028",
    "geocoded_column": {
      "latitude": "29.973589006521028",
      "longitude": "-90.05736820071654"
    }
  },
  {
    "service_request": "2025-1175742",
    "request_type": "Street and Traffic Signs",
    "request_reason": "Street Name Sign Damaged or Missing",
    "date_created": "2025-03-14T21:14:51.000",
    "date_modified": "2025-03-14T21:14:53.000",
    "request_status": "Pending",
    "responsible_agency": "Department of Public Works",
    "final_address": "MANDEVILLE ST & N ROBERTSON ST",
    "address_councildis": "C",
    "status": "Pending",
    "rowid": "1175742",
    "final_x": "3685661.9",
    "final_y": "537839.68",
    "longitude": "-90.0547058881976",
    "latitude": "29.972745595319847",
    "geocoded_column": {
      "latitude": "29.972745595319847",
      "longitude": "-90.0547058881976"
    }
  },
  {
    "service_request": "2025-1175741",
    "request_type": "Street and Traffic Signs",
    "request_reason": "Street Name Sign Damaged or Missing",
    "date_created": "2025-03-14T21:13:52.000",
    "date_modified": "2025-03-14T21:13:53.000",
    "request_status": "Pending",
    "responsible_agency": "Department of Public Works",
    "final_address": "SPAIN ST & N ROBERTSON ST",
    "address_councildis": "C",
    "status": "Pending",
    "rowid": "1175741",
    "final_x": "3686016.0",
    "final_y": "537862.58",
    "longitude": "-90.05358676918797",
    "latitude": "29.972797692708344",
    "geocoded_column": {
      "latitude": "29.972797692708344",
      "longitude": "-90.05358676918797"
    }
  },
  {
    "service_request": "2025-1175740",
    "request_type": "New Orleans Recreation Development Commission (NORDC)",
    "request_reason": "Facilities and Parks Maintenance/Clean Up",
    "date_created": "2025-03-14T21:08:58.000",
    "date_modified": "2025-03-14T21:09:00.000",
    "request_status": "Pending",
    "responsible_agency": "New Orleans Recreation Development Commission",
    "final_address": "2538 New Orleans St",
    "address_councildis": "D",
    "status": "Pending",
    "rowid": "1175740",
    "final_x": "3681933.38114",
    "final_y": "541515.446284",
    "longitude": "-90.06635287319833",
    "latitude": "29.982966547930683",
    "geocoded_column": {
      "latitude": "29.982966547930683",
      "longitude": "-90.06635287319833"
    }
  },
  {
    "service_request": "2025-1175739",
    "request_type": "Roads and Streets",
    "request_reason": "Street Subsidence (Sinking)",
    "date_created": "2025-03-14T21:08:21.000",
    "date_modified": "2025-03-14T21:08:23.000",
    "request_status": "Pending",
    "responsible_agency": "Department of Public Works",
    "final_address": "WASHINGTON AVE & FRERET ST",
    "address_councildis": "B",
    "status": "Pending",
    "rowid": "1175739",
    "final_x": "3674105.2",
    "final_y": "525277.78",
    "longitude": "-90.09163407003525",
    "latitude": "29.93855408854139",
    "geocoded_column": {
      "latitude": "29.93855408854139",
      "longitude": "-90.09163407003525"
    }
  },
  {
    "service_request": "2025-1175738",
    "request_type": "Street and Traffic Signs",
    "request_reason": "Street Name Sign Damaged or Missing",
    "date_created": "2025-03-14T21:06:52.000",
    "date_modified": "2025-03-14T21:06:55.000",
    "request_status": "Pending",
    "responsible_agency": "Department of Public Works",
    "final_address": "1800 Rev. John Raphael, Jr. Way",
    "address_councildis": "B",
    "status": "Pending",
    "rowid": "1175738",
    "final_x": "3676360.42913",
    "final_y": "526636.095742",
    "longitude": "-90.08446733196533",
    "latitude": "29.942221618027204",
    "geocoded_column": {
      "latitude": "29.942221618027204",
      "longitude": "-90.08446733196533"
    }
  },
  {
    "service_request": "2025-1175737",
    "request_type": "New Orleans Recreation Development Commission (NORDC)",
    "request_reason": "Facilities and Parks Maintenance/Clean Up",
    "date_created": "2025-03-14T21:05:43.000",
    "date_modified": "2025-03-14T21:05:45.000",
    "request_status": "Pending",
    "responsible_agency": "New Orleans Recreation Development Commission",
    "final_address": "2538 New Orleans St",
    "address_councildis": "D",
    "status": "Pending",
    "rowid": "1175737",
    "final_x": "3681933.38114",
    "final_y": "541515.446284",
    "longitude": "-90.06635287319833",
    "latitude": "29.982966547930683",
    "geocoded_column": {
      "latitude": "29.982966547930683",
      "longitude": "-90.06635287319833"
    }
  },
  {
    "service_request": "2025-1175736",
    "request_type": "New Orleans Recreation Development Commission (NORDC)",
    "request_reason": "Facilities and Parks Maintenance/Clean Up",
    "date_created": "2025-03-14T21:01:25.000",
    "date_modified": "2025-03-14T21:01:27.000",
    "request_status": "Pending",
    "responsible_agency": "New Orleans Recreation Development Commission",
    "final_address": "2538 New Orleans St",
    "address_councildis": "D",
    "status": "Pending",
    "rowid": "1175736",
    "final_x": "3681933.38114",
    "final_y": "541515.446284",
    "longitude": "-90.06635287319833",
    "latitude": "29.982966547930683",
    "geocoded_column": {
      "latitude": "29.982966547930683",
      "longitude": "-90.06635287319833"
    }
  },
  {
    "service_request": "2025-1175735",
    "request_type": "Street and Traffic Signs",
    "request_reason": "Street Name Sign Damaged or Missing",
    "date_created": "2025-03-14T20:59:11.000",
    "date_modified": "2025-03-14T20:59:13.000",
    "request_status": "Pending",
    "responsible_agency": "Department of Public Works",
    "final_address": "2601 N Robertson St",
    "address_councildis": "C",
    "status": "Pending",
    "rowid": "1175735",
    "final_x": "3687457.96367",
    "final_y": "537964.598089",
    "longitude": "-90.04902917785556",
    "latitude": "29.973033845359822",
    "geocoded_column": {
      "latitude": "29.973033845359822",
      "longitude": "-90.04902917785556"
    }
  },
  {
    "service_request": "2025-1175734",
    "request_type": "Street and Traffic Signs",
    "request_reason": "Street Name Sign Damaged or Missing",
    "date_created": "2025-03-14T20:57:47.000",
    "date_modified": "2025-03-14T20:57:49.000",
    "request_status": "Pending",
    "responsible_agency": "Department of Public Works",
    "final_address": "N ROBERTSON ST & PORT ST",
    "address_councildis": "C",
    "status": "Pending",
    "rowid": "1175734",
    "final_x": "3687795.1",
    "final_y": "537878.5",
    "longitude": "-90.04796748865105",
    "latitude": "29.972786711264305",
    "geocoded_column": {
      "latitude": "29.972786711264305",
      "longitude": "-90.04796748865105"
    }
  },
  {
    "service_request": "2025-1175733",
    "request_type": "Street and Traffic Signs",
    "request_reason": "Street Name Sign Damaged or Missing",
    "date_created": "2025-03-14T20:56:44.000",
    "date_modified": "2025-03-14T20:56:47.000",
    "request_status": "Pending",
    "responsible_agency": "Department of Public Works",
    "final_address": "1500 Clouet St",
    "address_councildis": "D",
    "status": "Pending",
    "rowid": "1175733",
    "final_x": "3689355.09852",
    "final_y": "537527.511752",
    "longitude": "-90.04305321892606",
    "latitude": "29.971773407317563",
    "geocoded_column": {
      "latitude": "29.971773407317563",
      "longitude": "-90.04305321892606"
    }
  },
  {
    "service_request": "2025-1175732",
    "request_type": "Street and Traffic Signs",
    "request_reason": "Street Name Sign Damaged or Missing",
    "date_created": "2025-03-14T20:55:03.000",
    "date_modified": "2025-03-14T20:55:05.000",
    "request_status": "Pending",
    "responsible_agency": "Department of Public Works",
    "final_address": "N CLAIBORNE AVE & CONGRESS ST",
    "address_councildis": "D",
    "status": "Pending",
    "rowid": "1175732",
    "final_x": "3691180.8",
    "final_y": "537445.18",
    "longitude": "-90.037290332824",
    "latitude": "29.971490369291462",
    "geocoded_column": {
      "latitude": "29.971490369291462",
      "longitude": "-90.037290332824"
    }
  },
  {
    "service_request": "2025-1175731",
    "request_type": "Street and Traffic Signs",
    "request_reason": "Street Name Sign Damaged or Missing",
    "date_created": "2025-03-14T20:54:02.000",
    "date_modified": "2025-03-14T20:54:04.000",
    "request_status": "Pending",
    "responsible_agency": "Department of Public Works",
    "final_address": "N VILLERE ST & FRANCE ST",
    "address_councildis": "D",
    "status": "Pending",
    "rowid": "1175731",
    "final_x": "3692661.5",
    "final_y": "536270.58",
    "longitude": "-90.03265619350863",
    "latitude": "29.968214501055265",
    "geocoded_column": {
      "latitude": "29.968214501055265",
      "longitude": "-90.03265619350863"
    }
  },
  {
    "service_request": "2025-1175730",
    "request_type": "Street and Traffic Signs",
    "request_reason": "Street Name Sign Damaged or Missing",
    "date_created": "2025-03-14T20:53:00.000",
    "date_modified": "2025-03-14T20:53:01.000",
    "request_status": "Pending",
    "responsible_agency": "Department of Public Works",
    "final_address": "BURGUNDY ST & FRANCE ST",
    "address_councildis": "C",
    "status": "Pending",
    "rowid": "1175730",
    "final_x": "3692192.6",
    "final_y": "534371.18",
    "longitude": "-90.03420500194777",
    "latitude": "29.963006446820348",
    "geocoded_column": {
      "latitude": "29.963006446820348",
      "longitude": "-90.03420500194777"
    }
  },
  {
    "service_request": "2025-1175729",
    "request_type": "Trash/Recycling",
    "request_reason": "Return Trash Cart",
    "date_created": "2025-03-14T20:39:06.000",
    "date_modified": "2025-03-14T20:39:07.000",
    "request_status": "Pending",
    "responsible_agency": "Department of Sanitation",
    "final_address": "800 BLK N Derbigny St",
    "address_councildis": "D",
    "status": "Assigned to Contractor",
    "contractor": "IV Waste",
    "rowid": "1175729",
    "final_x": "3679774.11679",
    "final_y": "535288.759591",
    "longitude": "-90.07338918388304",
    "latitude": "29.96591078066911",
    "geocoded_column": {
      "latitude": "29.96591078066911",
      "longitude": "-90.07338918388304"
    }
  },
  {
    "service_request": "2025-1175728",
    "request_type": "Street and Traffic Signs",
    "request_reason": "One Way Sign Missing or Damaged",
    "date_created": "2025-03-14T20:37:54.000",
    "date_modified": "2025-03-14T20:37:55.000",
    "request_status": "Pending",
    "responsible_agency": "Department of Public Works",
    "final_address": "S MAESTRI PL & CAMP ST",
    "address_councildis": "B",
    "status": "Pending",
    "rowid": "1175728",
    "final_x": "3680961.4",
    "final_y": "528649.18",
    "longitude": "-90.06987098099223",
    "latitude": "29.94761823784248",
    "geocoded_column": {
      "latitude": "29.94761823784248",
      "longitude": "-90.06987098099223"
    }
  },
  {
    "service_request": "2025-1175727",
    "request_type": "Trash/Recycling",
    "request_reason": "Request a Large Item Pick Up",
    "date_created": "2025-03-14T20:37:38.000",
    "date_modified": "2025-03-14T20:37:40.000",
    "request_status": "Pending",
    "responsible_agency": "Department of Sanitation",
    "final_address": "800 BLK N Derbigny St",
    "address_councildis": "D",
    "status": "Assigned to Contractor",
    "contractor": "IV Waste",
    "rowid": "1175727",
    "final_x": "3679774.11679",
    "final_y": "535288.759591",
    "longitude": "-90.07338918388304",
    "latitude": "29.96591078066911",
    "geocoded_column": {
      "latitude": "29.96591078066911",
      "longitude": "-90.07338918388304"
    }
  },
  {
    "service_request": "2025-1175726",
    "request_type": "Property Maintenance",
    "request_reason": "Property Maintenance",
    "date_created": "2025-03-14T20:35:28.000",
    "date_modified": "2025-03-14T20:35:30.000",
    "request_status": "Pending",
    "responsible_agency": "Department of Code Enforcement",
    "final_address": "800 BLK N Derbigny St",
    "address_councildis": "D",
    "status": "Pending",
    "rowid": "1175726",
    "final_x": "3679774.11679",
    "final_y": "535288.759591",
    "longitude": "-90.07338918388304",
    "latitude": "29.96591078066911",
    "geocoded_column": {
      "latitude": "29.96591078066911",
      "longitude": "-90.07338918388304"
    }
  },
  {
    "service_request": "2025-1175725",
    "request_type": "Health Related Request",
    "request_reason": "Homeless Encampment Complaint",
    "date_created": "2025-03-14T20:33:56.000",
    "date_modified": "2025-03-14T20:33:59.000",
    "request_status": "Pending",
    "responsible_agency": "Health Department",
    "final_address": "800 BLK N Derbigny St",
    "address_councildis": "D",
    "status": "Pending",
    "rowid": "1175725",
    "final_x": "3679774.11679",
    "final_y": "535288.759591",
    "longitude": "-90.07338918388304",
    "latitude": "29.96591078066911",
    "geocoded_column": {
      "latitude": "29.96591078066911",
      "longitude": "-90.07338918388304"
    }
  },
  {
    "service_request": "2025-1175724",
    "request_type": "Graffiti Removal",
    "request_reason": "Graffiti Removal",
    "date_created": "2025-03-14T20:29:42.000",
    "date_modified": "2025-03-14T20:29:44.000",
    "request_status": "Pending",
    "responsible_agency": "Department of Code Enforcement",
    "final_address": "800 BLK N Derbigny St",
    "address_councildis": "D",
    "status": "Pending",
    "rowid": "1175724",
    "final_x": "3679774.11679",
    "final_y": "535288.759591",
    "longitude": "-90.07338918388304",
    "latitude": "29.96591078066911",
    "geocoded_column": {
      "latitude": "29.96591078066911",
      "longitude": "-90.07338918388304"
    }
  },
  {
    "service_request": "2025-1175723",
    "request_type": "Trash/Recycling",
    "request_reason": "Request a Large Item Pick Up",
    "date_created": "2025-03-14T20:24:26.000",
    "date_modified": "2025-03-14T20:24:29.000",
    "request_status": "Pending",
    "responsible_agency": "Department of Sanitation",
    "final_address": "4819 Reynes St",
    "address_councildis": "E",
    "status": "Assigned to Contractor",
    "contractor": "Waste Pro",
    "rowid": "1175723",
    "final_x": "3699152.85284",
    "final_y": "555368.487833",
    "longitude": "-90.01146058000722",
    "latitude": "30.02052248007719",
    "geocoded_column": {
      "latitude": "30.02052248007719",
      "longitude": "-90.01146058000722"
    }
  },
  {
    "service_request": "2025-1175722",
    "request_type": "Abandoned Vehicles",
    "request_reason": "Abandoned/Junk Vehicles",
    "date_created": "2025-03-14T20:11:33.000",
    "date_modified": "2025-03-14T20:11:35.000",
    "request_status": "Pending",
    "responsible_agency": "Department of Public Works",
    "final_address": "3000 Second St",
    "address_councildis": "B",
    "status": "Pending",
    "rowid": "1175722",
    "final_x": "3673776.84264",
    "final_y": "527334.352575",
    "longitude": "-90.09260042485953",
    "latitude": "29.944218769867327",
    "geocoded_column": {
      "latitude": "29.944218769867327",
      "longitude": "-90.09260042485953"
    }
  },
  {
    "service_request": "2025-1175721",
    "request_type": "Abandoned Vehicles",
    "request_reason": "Abandoned/Junk Vehicles",
    "date_created": "2025-03-14T19:41:31.000",
    "date_modified": "2025-03-14T19:41:33.000",
    "request_status": "Pending",
    "responsible_agency": "Department of Public Works",
    "final_address": "6910 Pinebrook Dr",
    "address_councildis": "E",
    "status": "Pending",
    "rowid": "1175721",
    "final_x": "3719985.01913",
    "final_y": "569075.851686",
    "longitude": "-89.94511333933933",
    "latitude": "30.0575348835561",
    "geocoded_column": {
      "latitude": "30.0575348835561",
      "longitude": "-89.94511333933933"
    }
  },
  {
    "service_request": "2025-1175720",
    "request_type": "Property Maintenance",
    "request_reason": "Property Maintenance",
    "date_created": "2025-03-14T19:30:16.000",
    "date_modified": "2025-03-14T19:30:17.000",
    "request_status": "Pending",
    "responsible_agency": "Department of Code Enforcement",
    "final_address": "1547 Leda St",
    "address_councildis": "A",
    "status": "Pending",
    "rowid": "1175720",
    "final_x": "3675698.75361",
    "final_y": "541841.050444",
    "longitude": "-90.08603382857136",
    "latitude": "29.984049928303698",
    "geocoded_column": {
      "latitude": "29.984049928303698",
      "longitude": "-90.08603382857136"
    }
  },
  {
    "service_request": "2025-1175719",
    "request_type": "Roads and Streets",
    "request_reason": "Sidewalk Damaged or Missing",
    "date_created": "2025-03-14T19:27:09.000",
    "date_modified": "2025-03-14T19:27:11.000",
    "request_status": "Pending",
    "responsible_agency": "Department of Public Works",
    "final_address": "614 Verret St",
    "address_councildis": "C",
    "status": "Pending",
    "rowid": "1175719",
    "final_x": "3687091.40508",
    "final_y": "529358.703873",
    "longitude": "-90.05049112577544",
    "latitude": "29.94938190602061",
    "geocoded_column": {
      "latitude": "29.94938190602061",
      "longitude": "-90.05049112577544"
    }
  },
  {
    "service_request": "2025-1175718",
    "request_type": "Streetlights",
    "request_reason": "Streetlight Outage/Malfunction",
    "date_created": "2025-03-14T19:25:07.000",
    "date_modified": "2025-03-14T19:25:09.000",
    "request_status": "Pending",
    "responsible_agency": "Department of Public Works",
    "final_address": "MILNE BLVD & LANE ST",
    "address_councildis": "A",
    "status": "Pending",
    "contractor": "Legacy Professional Services",
    "rowid": "1175718",
    "final_x": "3667371.5",
    "final_y": "550780.58",
    "longitude": "-90.11203496119434",
    "latitude": "30.00887717695997",
    "geocoded_column": {
      "latitude": "30.00887717695997",
      "longitude": "-90.11203496119434"
    }
  },
  {
    "service_request": "2025-1175717",
    "request_type": "Mosquito, Termite & Rodent Control",
    "request_reason": "Mosquito Complaint",
    "date_created": "2025-03-14T19:23:05.000",
    "date_modified": "2025-03-14T19:23:08.000",
    "request_status": "Pending",
    "responsible_agency": "Mosquito, Termite & Rodent Control Board",
    "final_address": "612 Moss St",
    "address_councildis": "A",
    "status": "Pending",
    "rowid": "1175717",
    "final_x": "3674346.05371",
    "final_y": "538326.504713",
    "longitude": "-90.09042680878181",
    "latitude": "29.9744265498682",
    "geocoded_column": {
      "latitude": "29.9744265498682",
      "longitude": "-90.09042680878181"
    }
  },
  {
    "service_request": "2025-1175716",
    "request_type": "Trash/Recycling",
    "request_reason": "Request a Large Item Pick Up",
    "date_created": "2025-03-14T19:19:50.000",
    "date_modified": "2025-03-14T19:19:52.000",
    "request_status": "Pending",
    "responsible_agency": "Department of Sanitation",
    "final_address": "614 Verret St",
    "address_councildis": "C",
    "status": "Assigned to Contractor",
    "contractor": "Richards Disposal",
    "rowid": "1175716",
    "final_x": "3687091.40508",
    "final_y": "529358.703873",
    "longitude": "-90.05049112577544",
    "latitude": "29.94938190602061",
    "geocoded_column": {
      "latitude": "29.94938190602061",
      "longitude": "-90.05049112577544"
    }
  },
  {
    "service_request": "2025-1175715",
    "request_type": "Street and Traffic Signs",
    "request_reason": "Stop Sign Missing or Damaged",
    "date_created": "2025-03-14T19:19:26.000",
    "date_modified": "2025-03-14T19:19:28.000",
    "request_status": "Pending",
    "responsible_agency": "Department of Public Works",
    "final_address": "2016 Seventh St",
    "address_councildis": "B",
    "status": "Pending",
    "rowid": "1175715",
    "final_x": "3674350.60334",
    "final_y": "523387.842683",
    "longitude": "-90.09092400098878",
    "latitude": "29.933350062137272",
    "geocoded_column": {
      "latitude": "29.933350062137272",
      "longitude": "-90.09092400098878"
    }
  },
  {
    "service_request": "2025-1175714",
    "request_type": "Trash/Recycling",
    "request_reason": "Replace Trash Cart",
    "date_created": "2025-03-14T19:16:42.000",
    "date_modified": "2025-03-14T19:16:43.000",
    "request_status": "Pending",
    "responsible_agency": "Department of Sanitation",
    "final_address": "2016 Seventh St",
    "address_councildis": "B",
    "status": "Assigned to Contractor",
    "contractor": "IV Waste",
    "rowid": "1175714",
    "final_x": "3674350.60334",
    "final_y": "523387.842683",
    "longitude": "-90.09092400098878",
    "latitude": "29.933350062137272",
    "geocoded_column": {
      "latitude": "29.933350062137272",
      "longitude": "-90.09092400098878"
    }
  },
  {
    "service_request": "2025-1175713",
    "request_type": "Roads and Streets",
    "request_reason": "Road Shoulder Damage",
    "date_created": "2025-03-14T19:16:28.000",
    "date_modified": "2025-03-14T19:16:30.000",
    "request_status": "Pending",
    "responsible_agency": "Department of Public Works",
    "final_address": "600 Amethyst St",
    "address_councildis": "D",
    "status": "Pending",
    "rowid": "1175713",
    "final_x": "3669063.9403",
    "final_y": "556712.375386",
    "longitude": "-90.10648731405055",
    "latitude": "30.025137805238597",
    "geocoded_column": {
      "latitude": "30.025137805238597",
      "longitude": "-90.10648731405055"
    }
  },
  {
    "service_request": "2025-1175712",
    "request_type": "Abandoned Vehicles",
    "request_reason": "Abandoned/Junk Vehicles",
    "date_created": "2025-03-14T19:13:16.000",
    "date_modified": "2025-03-14T19:13:18.000",
    "request_status": "Pending",
    "responsible_agency": "Department of Public Works",
    "final_address": "905 Dauphine St",
    "address_councildis": "C",
    "status": "Pending",
    "rowid": "1175712",
    "final_x": "3682440.40431",
    "final_y": "533541.987525",
    "longitude": "-90.0650301955374",
    "latitude": "29.961026872711095",
    "geocoded_column": {
      "latitude": "29.961026872711095",
      "longitude": "-90.0650301955374"
    }
  },
  {
    "service_request": "2025-1175711",
    "request_type": "Abandoned Vehicles",
    "request_reason": "Abandoned/Junk Vehicles",
    "date_created": "2025-03-14T19:12:23.000",
    "date_modified": "2025-03-14T19:12:25.000",
    "request_status": "Pending",
    "responsible_agency": "Department of Public Works",
    "final_address": "4478 Lafaye St",
    "address_councildis": "D",
    "status": "Pending",
    "rowid": "1175711",
    "final_x": "3687466.2317",
    "final_y": "549561.371411",
    "longitude": "-90.04859242031209",
    "latitude": "30.00492057187599",
    "geocoded_column": {
      "latitude": "30.00492057187599",
      "longitude": "-90.04859242031209"
    }
  },
  {
    "service_request": "2025-1175710",
    "request_type": "Abandoned Vehicles",
    "request_reason": "Abandoned/Junk Vehicles",
    "date_created": "2025-03-14T19:11:22.000",
    "date_modified": "2025-03-14T19:11:24.000",
    "request_status": "Pending",
    "responsible_agency": "Department of Public Works",
    "final_address": "4478 Lafaye St",
    "address_councildis": "D",
    "status": "Pending",
    "rowid": "1175710",
    "final_x": "3687466.2317",
    "final_y": "549561.371411",
    "longitude": "-90.04859242031209",
    "latitude": "30.00492057187599",
    "geocoded_column": {
      "latitude": "30.00492057187599",
      "longitude": "-90.04859242031209"
    }
  },
  {
    "service_request": "2025-1175709",
    "request_type": "Abandoned Vehicles",
    "request_reason": "Abandoned/Junk Vehicles",
    "date_created": "2025-03-14T19:10:36.000",
    "date_modified": "2025-03-14T19:10:38.000",
    "request_status": "Pending",
    "responsible_agency": "Department of Public Works",
    "final_address": "3905 Dauphine St",
    "address_councildis": "C",
    "status": "Pending",
    "rowid": "1175709",
    "final_x": "3691290.53276",
    "final_y": "534246.234757",
    "longitude": "-90.03705807289873",
    "latitude": "29.962690982266395",
    "geocoded_column": {
      "latitude": "29.962690982266395",
      "longitude": "-90.03705807289873"
    }
  },
  {
    "service_request": "2025-1175708",
    "request_type": "Utility Poles",
    "request_reason": "Utility Pole Leaning",
    "date_created": "2025-03-14T19:10:27.000",
    "date_modified": "2025-03-14T19:10:31.000",
    "request_status": "Pending",
    "responsible_agency": "Utility Company Collective",
    "final_address": "1654 Joseph St",
    "address_councildis": "A",
    "status": "Pending",
    "rowid": "1175708",
    "final_x": "3666845.28161",
    "final_y": "522377.62521",
    "longitude": "-90.11465185325893",
    "latitude": "29.930793916371698",
    "geocoded_column": {
      "latitude": "29.930793916371698",
      "longitude": "-90.11465185325893"
    }
  },
  {
    "service_request": "2025-1175707",
    "request_type": "Trash/Recycling",
    "request_reason": "Request a Large Item Pick Up",
    "date_created": "2025-03-14T18:51:18.000",
    "date_modified": "2025-03-14T18:51:19.000",
    "request_status": "Pending",
    "responsible_agency": "Department of Sanitation",
    "final_address": "1542 Riviera Ave",
    "address_councildis": "D",
    "status": "Assigned to Contractor",
    "contractor": "IV Waste",
    "rowid": "1175707",
    "final_x": "3679027.85167",
    "final_y": "550873.434069",
    "longitude": "-90.07520547762448",
    "latitude": "30.00878572721095",
    "geocoded_column": {
      "latitude": "30.00878572721095",
      "longitude": "-90.07520547762448"
    }
  },
  {
    "service_request": "2025-1175706",
    "request_type": "Streetlights",
    "request_reason": "Streetlight Outage/Malfunction",
    "date_created": "2025-03-14T18:48:20.000",
    "date_modified": "2025-03-14T18:48:21.000",
    "request_status": "Pending",
    "responsible_agency": "Department of Public Works",
    "final_address": "509 Whitney Ave",
    "address_councildis": "C",
    "status": "Pending",
    "contractor": "Legacy Professional Services",
    "rowid": "1175706",
    "final_x": "3690141.00566",
    "final_y": "529761.743169",
    "longitude": "-90.04084785311649",
    "latitude": "29.950395893372065",
    "geocoded_column": {
      "latitude": "29.950395893372065",
      "longitude": "-90.04084785311649"
    }
  },
  {
    "service_request": "2025-1175705",
    "request_type": "Abandoned Vehicles",
    "request_reason": "Abandoned/Junk Vehicles",
    "date_created": "2025-03-14T18:41:14.000",
    "date_modified": "2025-03-14T18:41:15.000",
    "request_status": "Pending",
    "responsible_agency": "Department of Public Works",
    "final_address": "4478 Lafaye St",
    "address_councildis": "D",
    "status": "Pending",
    "rowid": "1175705",
    "final_x": "3687466.2317",
    "final_y": "549561.371411",
    "longitude": "-90.04859242031209",
    "latitude": "30.00492057187599",
    "geocoded_column": {
      "latitude": "30.00492057187599",
      "longitude": "-90.04859242031209"
    }
  },
  {
    "service_request": "2025-1175704",
    "request_type": "Abandoned Vehicles",
    "request_reason": "Abandoned/Junk Vehicles",
    "date_created": "2025-03-14T18:39:16.000",
    "date_modified": "2025-03-14T18:39:17.000",
    "request_status": "Pending",
    "responsible_agency": "Department of Public Works",
    "final_address": "4478 Lafaye St",
    "address_councildis": "D",
    "status": "Pending",
    "rowid": "1175704",
    "final_x": "3687466.2317",
    "final_y": "549561.371411",
    "longitude": "-90.04859242031209",
    "latitude": "30.00492057187599",
    "geocoded_column": {
      "latitude": "30.00492057187599",
      "longitude": "-90.04859242031209"
    }
  },
  {
    "service_request": "2025-1175703",
    "request_type": "Abandoned Vehicles",
    "request_reason": "Abandoned/Junk Vehicles",
    "date_created": "2025-03-14T18:38:24.000",
    "date_modified": "2025-03-14T18:38:26.000",
    "request_status": "Pending",
    "responsible_agency": "Department of Public Works",
    "final_address": "2600 St Peter St",
    "address_councildis": "D",
    "status": "Pending",
    "rowid": "1175703",
    "final_x": "3677041.96488",
    "final_y": "536519.950215",
    "longitude": "-90.08197478076852",
    "latitude": "29.969378459162648",
    "geocoded_column": {
      "latitude": "29.969378459162648",
      "longitude": "-90.08197478076852"
    }
  },
  {
    "service_request": "2025-1175702",
    "request_type": "Drainage",
    "request_reason": "Catch Basin Damaged",
    "date_created": "2025-03-14T18:37:11.000",
    "date_modified": "2025-03-14T18:37:14.000",
    "request_status": "Pending",
    "responsible_agency": "Sewerage & Water Board ",
    "final_address": "2600 St Peter St",
    "address_councildis": "D",
    "status": "Pending",
    "rowid": "1175702",
    "final_x": "3677041.96488",
    "final_y": "536519.950215",
    "longitude": "-90.08197478076852",
    "latitude": "29.969378459162648",
    "geocoded_column": {
      "latitude": "29.969378459162648",
      "longitude": "-90.08197478076852"
    }
  },
  {
    "service_request": "2025-1175701",
    "request_type": "Mosquito, Termite & Rodent Control",
    "request_reason": "Mosquito Complaint",
    "date_created": "2025-03-14T18:29:59.000",
    "date_modified": "2025-03-14T18:30:01.000",
    "request_status": "Pending",
    "responsible_agency": "Mosquito, Termite & Rodent Control Board",
    "final_address": "5314 Florida Ave Apt 1A",
    "address_councildis": "E",
    "status": "Pending",
    "rowid": "1175701",
    "final_x": "3698612.23588",
    "final_y": "539956.842315",
    "longitude": "-90.01372956332301",
    "latitude": "29.978163316322135",
    "geocoded_column": {
      "latitude": "29.978163316322135",
      "longitude": "-90.01372956332301"
    }
  },
  {
    "service_request": "2025-1175700",
    "request_type": "Mosquito, Termite & Rodent Control",
    "request_reason": "Mosquito Complaint",
    "date_created": "2025-03-14T18:26:39.000",
    "date_modified": "2025-03-14T18:26:41.000",
    "request_status": "Pending",
    "responsible_agency": "Mosquito, Termite & Rodent Control Board",
    "final_address": "5318 Florida Ave Apt 2B",
    "address_councildis": "E",
    "status": "Pending",
    "rowid": "1175700",
    "final_x": "3698645.16247",
    "final_y": "539936.579786",
    "longitude": "-90.01362630708196",
    "latitude": "29.978106559012723",
    "geocoded_column": {
      "latitude": "29.978106559012723",
      "longitude": "-90.01362630708196"
    }
  },
  {
    "service_request": "2025-1175699",
    "request_type": "Trash/Recycling",
    "request_reason": "Request a Large Item Pick Up",
    "date_created": "2025-03-14T18:17:39.000",
    "date_modified": "2025-03-14T18:17:41.000",
    "request_status": "Pending",
    "responsible_agency": "Department of Sanitation",
    "final_address": "10 Honeysuckle Ln",
    "address_councildis": "E",
    "status": "Assigned to Contractor",
    "contractor": "Waste Pro",
    "rowid": "1175699",
    "final_x": "3713069.50405",
    "final_y": "568171.674789",
    "longitude": "-89.96700624180168",
    "latitude": "30.055277325665152",
    "geocoded_column": {
      "latitude": "30.055277325665152",
      "longitude": "-89.96700624180168"
    }
  },
  {
    "service_request": "2025-1175698",
    "request_type": "Trash/Recycling",
    "request_reason": "Request a Large Item Pick Up",
    "date_created": "2025-03-14T18:15:06.000",
    "date_modified": "2025-03-14T18:15:14.000",
    "request_status": "Pending",
    "responsible_agency": "Department of Sanitation",
    "final_address": "8506 S Claiborne Ave",
    "address_councildis": "A",
    "status": "Assigned to Contractor",
    "contractor": "IV Waste",
    "rowid": "1175698",
    "final_x": "3663647.87872",
    "final_y": "532489.245892",
    "longitude": "-90.12440886394765",
    "latitude": "29.958690752896544",
    "geocoded_column": {
      "latitude": "29.958690752896544",
      "longitude": "-90.12440886394765"
    }
  },
  {
    "service_request": "2025-1175697",
    "request_type": "Street and Traffic Signs",
    "request_reason": "Street Name Sign Damaged or Missing",
    "date_created": "2025-03-14T18:14:12.000",
    "date_modified": "2025-03-14T18:14:14.000",
    "request_status": "Pending",
    "responsible_agency": "Department of Public Works",
    "final_address": "S MAESTRI PL & CAMP ST",
    "address_councildis": "B",
    "status": "Pending",
    "rowid": "1175697",
    "final_x": "3680961.4",
    "final_y": "528649.18",
    "longitude": "-90.06987098099223",
    "latitude": "29.94761823784248",
    "geocoded_column": {
      "latitude": "29.94761823784248",
      "longitude": "-90.06987098099223"
    }
  },
  {
    "service_request": "2025-1175696",
    "request_type": "Street and Traffic Signs",
    "request_reason": "One Way Sign Missing or Damaged",
    "date_created": "2025-03-14T18:09:28.000",
    "date_modified": "2025-03-14T18:09:30.000",
    "request_status": "Pending",
    "responsible_agency": "Department of Public Works",
    "final_address": "PERDIDO ST & ST CHARLES AVE",
    "address_councildis": "B",
    "status": "Pending",
    "rowid": "1175696",
    "final_x": "3680799.0",
    "final_y": "529687.38",
    "longitude": "-90.0703476096901",
    "latitude": "29.950477861804366",
    "geocoded_column": {
      "latitude": "29.950477861804366",
      "longitude": "-90.0703476096901"
    }
  },
  {
    "service_request": "2025-1175695",
    "request_type": "Trash/Recycling",
    "request_reason": "Request a Large Item Pick Up",
    "date_created": "2025-03-14T18:07:00.000",
    "date_modified": "2025-03-14T18:07:01.000",
    "request_status": "Pending",
    "responsible_agency": "Department of Sanitation",
    "final_address": "7910 Lady Gray St",
    "address_councildis": "E",
    "status": "Assigned to Contractor",
    "contractor": "Waste Pro",
    "rowid": "1175695",
    "final_x": "3709296.71537",
    "final_y": "566304.653795",
    "longitude": "-89.97900091083956",
    "latitude": "30.05026693178168",
    "geocoded_column": {
      "latitude": "30.05026693178168",
      "longitude": "-89.97900091083956"
    }
  },
  {
    "service_request": "2025-1175694",
    "request_type": "Trash/Recycling",
    "request_reason": "Replace Trash Cart",
    "date_created": "2025-03-14T18:05:48.000",
    "date_modified": "2025-03-14T18:05:50.000",
    "request_status": "Pending",
    "responsible_agency": "Department of Sanitation",
    "final_address": "1911 Holiday Dr",
    "address_councildis": "C",
    "status": "Assigned to Contractor",
    "contractor": "Richards Disposal",
    "rowid": "1175694",
    "final_x": "3698842.58807",
    "final_y": "523905.711996",
    "longitude": "-90.01358592539326",
    "latitude": "29.93402109690619",
    "geocoded_column": {
      "latitude": "29.93402109690619",
      "longitude": "-90.01358592539326"
    }
  },
  {
    "service_request": "2025-1175693",
    "request_type": "Streetlights",
    "request_reason": "Streetlight Outage/Malfunction",
    "date_created": "2025-03-14T17:58:24.000",
    "date_modified": "2025-03-14T17:58:25.000",
    "request_status": "Pending",
    "responsible_agency": "Department of Public Works",
    "final_address": "2552 Dumaine St",
    "address_councildis": "D",
    "status": "Pending",
    "contractor": "Legacy Professional Services",
    "rowid": "1175693",
    "final_x": "3677602.1677",
    "final_y": "537131.789768",
    "longitude": "-90.08018448309603",
    "latitude": "29.9710439749077",
    "geocoded_column": {
      "latitude": "29.9710439749077",
      "longitude": "-90.08018448309603"
    }
  },
  {
    "service_request": "2025-1175692",
    "request_type": "Roads and Streets",
    "request_reason": "Pothole",
    "date_created": "2025-03-14T17:54:31.000",
    "date_modified": "2025-03-14T17:54:33.000",
    "request_status": "Pending",
    "responsible_agency": "Department of Public Works",
    "final_address": "7517 Freret St",
    "address_councildis": "A",
    "status": "Pending",
    "rowid": "1175692",
    "final_x": "3662964.28512",
    "final_y": "526566.345214",
    "longitude": "-90.12676442849933",
    "latitude": "29.942424497249064",
    "geocoded_column": {
      "latitude": "29.942424497249064",
      "longitude": "-90.12676442849933"
    }
  },
  {
    "service_request": "2025-1175691",
    "request_type": "Trash/Recycling",
    "request_reason": "Request a Large Item Pick Up",
    "date_created": "2025-03-14T17:45:26.000",
    "date_modified": "2025-03-14T17:45:27.000",
    "request_status": "Pending",
    "responsible_agency": "Department of Sanitation",
    "final_address": "7910 Lady Gray St",
    "address_councildis": "E",
    "status": "Assigned to Contractor",
    "contractor": "Waste Pro",
    "rowid": "1175691",
    "final_x": "3709296.71537",
    "final_y": "566304.653795",
    "longitude": "-89.97900091083956",
    "latitude": "30.05026693178168",
    "geocoded_column": {
      "latitude": "30.05026693178168",
      "longitude": "-89.97900091083956"
    }
  },
  {
    "service_request": "2025-1175690",
    "request_type": "Trash/Recycling",
    "request_reason": "Request a Large Item Pick Up",
    "date_created": "2025-03-14T17:37:39.000",
    "date_modified": "2025-03-14T17:37:42.000",
    "request_status": "Pending",
    "responsible_agency": "Department of Sanitation",
    "final_address": "3837 Virgil Blvd",
    "address_councildis": "D",
    "status": "Assigned to Contractor",
    "contractor": "IV Waste",
    "rowid": "1175690",
    "final_x": "3680514.13391",
    "final_y": "546664.464977",
    "longitude": "-90.0706563618535",
    "latitude": "29.99716761048537",
    "geocoded_column": {
      "latitude": "29.99716761048537",
      "longitude": "-90.0706563618535"
    }
  },
  {
    "service_request": "2025-1175689",
    "request_type": "Abandoned Vehicles",
    "request_reason": "Abandoned/Junk Vehicles",
    "date_created": "2025-03-14T17:32:07.000",
    "date_modified": "2025-03-14T17:32:09.000",
    "request_status": "Pending",
    "responsible_agency": "Department of Public Works",
    "final_address": "4023 Prentiss Ave",
    "address_councildis": "D",
    "status": "Pending",
    "rowid": "1175689",
    "final_x": "3688762.30806",
    "final_y": "554363.101848",
    "longitude": "-90.04432721219374",
    "latitude": "30.01808354239693",
    "geocoded_column": {
      "latitude": "30.01808354239693",
      "longitude": "-90.04432721219374"
    }
  },
  {
    "service_request": "2025-1175688",
    "request_type": "Trash/Recycling",
    "request_reason": "Illegal Dumping",
    "date_created": "2025-03-14T16:55:50.000",
    "date_modified": "2025-03-14T16:55:52.000",
    "request_status": "Pending",
    "responsible_agency": "Department of Sanitation",
    "final_address": "5355 Baccich St",
    "address_councildis": "D",
    "status": "Pending",
    "rowid": "1175688",
    "final_x": "3687731.65532",
    "final_y": "552767.921686",
    "longitude": "-90.04764022952381",
    "latitude": "30.01372922535538",
    "geocoded_column": {
      "latitude": "30.01372922535538",
      "longitude": "-90.04764022952381"
    }
  },
  {
    "service_request": "2025-1175687",
    "request_type": "Trash/Recycling",
    "request_reason": "Request a Large Item Pick Up",
    "date_created": "2025-03-14T16:51:52.000",
    "date_modified": "2025-03-14T16:51:54.000",
    "request_status": "Pending",
    "responsible_agency": "Department of Sanitation",
    "final_address": "57 Hawk St",
    "address_councildis": "D",
    "status": "Assigned to Contractor",
    "contractor": "IV Waste",
    "rowid": "1175687",
    "final_x": "3672864.27636",
    "final_y": "555399.951833",
    "longitude": "-90.09452365351544",
    "latitude": "30.021416682363686",
    "geocoded_column": {
      "latitude": "30.021416682363686",
      "longitude": "-90.09452365351544"
    }
  },
  {
    "service_request": "2025-1175686",
    "request_type": "Abandoned Vehicles",
    "request_reason": "Abandoned/Junk Vehicles",
    "date_created": "2025-03-14T16:48:38.000",
    "date_modified": "2025-03-14T16:48:40.000",
    "request_status": "Pending",
    "responsible_agency": "Department of Public Works",
    "status": "Pending",
    "rowid": "1175686",
    "longitude": "0.0",
    "latitude": "0.0",
    "geocoded_column": {
      "latitude": "0.0",
      "longitude": "0.0"
    }
  },
  {
    "service_request": "2025-1175685",
    "request_type": "Abandoned Vehicles",
    "request_reason": "Abandoned/Junk Vehicles",
    "date_created": "2025-03-14T16:47:31.000",
    "date_modified": "2025-03-14T16:47:32.000",
    "request_status": "Pending",
    "responsible_agency": "Department of Public Works",
    "final_address": "3315 Calhoun St",
    "address_councildis": "A",
    "status": "Pending",
    "rowid": "1175685",
    "final_x": "3667523.47738",
    "final_y": "528919.0672",
    "longitude": "-90.11229082049034",
    "latitude": "29.948760926516815",
    "geocoded_column": {
      "latitude": "29.948760926516815",
      "longitude": "-90.11229082049034"
    }
  },
  {
    "service_request": "2025-1175684",
    "request_type": "Abandoned Vehicles",
    "request_reason": "Abandoned/Junk Vehicles",
    "date_created": "2025-03-14T16:44:54.000",
    "date_modified": "2025-03-14T16:44:56.000",
    "request_status": "Pending",
    "responsible_agency": "Department of Public Works",
    "final_address": "3316 Calhoun St",
    "address_councildis": "A",
    "status": "Pending",
    "rowid": "1175684",
    "final_x": "3667442.31898",
    "final_y": "528946.647168",
    "longitude": "-90.11254614532116",
    "latitude": "29.9488391402635",
    "geocoded_column": {
      "latitude": "29.9488391402635",
      "longitude": "-90.11254614532116"
    }
  },
  {
    "service_request": "2025-1175683",
    "request_type": "Trash/Recycling",
    "request_reason": "Request a Large Item Pick Up",
    "date_created": "2025-03-14T16:44:24.000",
    "date_modified": "2025-03-14T16:44:26.000",
    "request_status": "Pending",
    "responsible_agency": "Department of Sanitation",
    "final_address": "512 Short St",
    "address_councildis": "A",
    "status": "Assigned to Contractor",
    "contractor": "IV Waste",
    "rowid": "1175683",
    "final_x": "3660686.49683",
    "final_y": "526359.767102",
    "longitude": "-90.13396278795422",
    "latitude": "29.941922227540022",
    "geocoded_column": {
      "latitude": "29.941922227540022",
      "longitude": "-90.13396278795422"
    }
  },
  {
    "service_request": "2025-1175682",
    "request_type": "Trash/Recycling",
    "request_reason": "Missed Trash Pick-Up",
    "date_created": "2025-03-14T16:42:49.000",
    "date_modified": "2025-03-14T16:42:51.000",
    "request_status": "Pending",
    "responsible_agency": "Department of Sanitation",
    "final_address": "930 Piety St",
    "address_councildis": "C",
    "status": "Assigned to Contractor",
    "contractor": "IV Waste",
    "rowid": "1175682",
    "final_x": "3689667.26409",
    "final_y": "535253.86343",
    "longitude": "-90.0421482682462",
    "latitude": "29.965512003545157",
    "geocoded_column": {
      "latitude": "29.965512003545157",
      "longitude": "-90.0421482682462"
    }
  },
  {
    "service_request": "2025-1175681",
    "request_type": "Drainage",
    "request_reason": "Street Flooding",
    "date_created": "2025-03-14T16:36:20.000",
    "date_modified": "2025-03-14T16:36:22.000",
    "request_status": "Pending",
    "responsible_agency": "Sewerage & Water Board ",
    "final_address": "1423 Audubon St",
    "address_councildis": "A",
    "status": "Pending",
    "rowid": "1175681",
    "final_x": "3664936.63968",
    "final_y": "527030.700094",
    "longitude": "-90.1205217146476",
    "latitude": "29.943644069249785",
    "geocoded_column": {
      "latitude": "29.943644069249785",
      "longitude": "-90.1205217146476"
    }
  },
  {
    "service_request": "2025-1175680",
    "request_type": "General Services",
    "request_reason": "General Service Request",
    "date_created": "2025-03-14T16:34:39.000",
    "date_modified": "2025-03-14T16:36:21.000",
    "case_close_date": "2025-03-14T11:36:20.000",
    "request_status": "Closed",
    "responsible_agency": "Orleans Parish Communication District",
    "final_address": "1035 Valence Street ",
    "address_councildis": "B",
    "status": "Question Answered.",
    "rowid": "1175680",
    "final_x": "3669932.99617",
    "final_y": "519349.235255",
    "longitude": "-90.10500683238266",
    "latitude": "29.922376149001458",
    "geocoded_column": {
      "latitude": "29.922376149001458",
      "longitude": "-90.10500683238266"
    }
  },
  {
    "service_request": "2025-1175679",
    "request_type": "General Services",
    "request_reason": "General Service Request",
    "date_created": "2025-03-14T16:32:30.000",
    "date_modified": "2025-03-14T16:32:32.000",
    "request_status": "Pending",
    "responsible_agency": "Orleans Parish Communication District",
    "final_address": "0 BLK Across St",
    "address_councildis": "E",
    "status": "Pending",
    "rowid": "1175679",
    "final_x": "3711887.63918",
    "final_y": "553972.247814",
    "longitude": "-89.97127534652184",
    "latitude": "30.01627326470007",
    "geocoded_column": {
      "latitude": "30.01627326470007",
      "longitude": "-89.97127534652184"
    }
  },
  {
    "service_request": "2025-1175678",
    "request_type": "Trash/Recycling",
    "request_reason": "Replace Trash Cart",
    "date_created": "2025-03-14T16:29:00.000",
    "date_modified": "2025-03-14T16:29:01.000",
    "request_status": "Pending",
    "responsible_agency": "Department of Sanitation",
    "final_address": "2612 Marengo St",
    "address_councildis": "B",
    "status": "Assigned to Contractor",
    "contractor": "IV Waste",
    "rowid": "1175678",
    "final_x": "3671551.94715",
    "final_y": "524572.230908",
    "longitude": "-90.099718954422",
    "latitude": "29.93668988965629",
    "geocoded_column": {
      "latitude": "29.93668988965629",
      "longitude": "-90.099718954422"
    }
  },
  {
    "service_request": "2025-1175677",
    "request_type": "Trash/Recycling",
    "request_reason": "Replace Recycling Cart",
    "date_created": "2025-03-14T16:22:42.000",
    "date_modified": "2025-03-14T16:22:43.000",
    "request_status": "Pending",
    "responsible_agency": "Department of Sanitation",
    "final_address": "2332 Laurel St",
    "address_councildis": "B",
    "status": "Pending",
    "rowid": "1175677",
    "final_x": "3678783.20507",
    "final_y": "521048.660281",
    "longitude": "-90.07701151107412",
    "latitude": "29.926785178018118",
    "geocoded_column": {
      "latitude": "29.926785178018118",
      "longitude": "-90.07701151107412"
    }
  },
  {
    "service_request": "2025-1175676",
    "request_type": "Alley Ways",
    "request_reason": "Alley Way Regrading",
    "date_created": "2025-03-14T16:21:46.000",
    "date_modified": "2025-03-14T16:21:48.000",
    "request_status": "Pending",
    "responsible_agency": "Department of Public Works",
    "final_address": "6153 General Haig St",
    "address_councildis": "A",
    "status": "Pending",
    "rowid": "1175676",
    "final_x": "3670677.66932",
    "final_y": "548147.300818",
    "longitude": "-90.10167907952194",
    "latitude": "30.001539272547998",
    "geocoded_column": {
      "latitude": "30.001539272547998",
      "longitude": "-90.10167907952194"
    }
  },
  {
    "service_request": "2025-1175675",
    "request_type": "Trash/Recycling",
    "request_reason": "Damaged Caused By Contractor",
    "date_created": "2025-03-14T16:21:32.000",
    "date_modified": "2025-03-14T16:21:34.000",
    "request_status": "Pending",
    "responsible_agency": "Department of Sanitation",
    "final_address": "2332 Laurel St",
    "address_councildis": "B",
    "status": "Assigned to Contractor",
    "contractor": "IV Waste",
    "rowid": "1175675",
    "final_x": "3678783.20507",
    "final_y": "521048.660281",
    "longitude": "-90.07701151107412",
    "latitude": "29.926785178018118",
    "geocoded_column": {
      "latitude": "29.926785178018118",
      "longitude": "-90.07701151107412"
    }
  },
  {
    "service_request": "2025-1175674",
    "request_type": "Street and Traffic Signs",
    "request_reason": "Street Name Sign Damaged or Missing",
    "date_created": "2025-03-14T16:19:14.000",
    "date_modified": "2025-03-14T16:19:16.000",
    "request_status": "Pending",
    "responsible_agency": "Department of Public Works",
    "final_address": "BENSON ST & CURRAN BLVD",
    "address_councildis": "E",
    "status": "Pending",
    "rowid": "1175674",
    "final_x": "3704355.6",
    "final_y": "562672.68",
    "longitude": "-89.99475198494723",
    "latitude": "30.04044010108637",
    "geocoded_column": {
      "latitude": "30.04044010108637",
      "longitude": "-89.99475198494723"
    }
  },
  {
    "service_request": "2025-1175673",
    "request_type": "Roads and Streets",
    "request_reason": "Pothole",
    "date_created": "2025-03-14T16:09:40.000",
    "date_modified": "2025-03-14T16:09:43.000",
    "request_status": "Pending",
    "responsible_agency": "Department of Public Works",
    "final_address": "PAINTERS ST & MENDEZ ST",
    "address_councildis": "D",
    "status": "Pending",
    "rowid": "1175673",
    "final_x": "3686190.3",
    "final_y": "553614.18",
    "longitude": "-90.05248021810927",
    "latitude": "30.016103589288058",
    "geocoded_column": {
      "latitude": "30.016103589288058",
      "longitude": "-90.05248021810927"
    }
  },
  {
    "service_request": "2025-1175672",
    "request_type": "Trash/Recycling",
    "request_reason": "Repair Trash Cart",
    "date_created": "2025-03-14T16:07:12.000",
    "date_modified": "2025-03-14T16:07:13.000",
    "request_status": "Pending",
    "responsible_agency": "Department of Sanitation",
    "final_address": "2414 St Louis St",
    "address_councildis": "B",
    "status": "Assigned to Contractor",
    "contractor": "IV Waste",
    "rowid": "1175672",
    "final_x": "3677190.09365",
    "final_y": "535530.912646",
    "longitude": "-90.08154110083856",
    "latitude": "29.96665449353057",
    "geocoded_column": {
      "latitude": "29.96665449353057",
      "longitude": "-90.08154110083856"
    }
  },
  {
    "service_request": "2025-1175671",
    "request_type": "Parks & Parkways",
    "request_reason": "Request Tree Service (Right of Way/Public Property)",
    "date_created": "2025-03-14T16:04:25.000",
    "date_modified": "2025-03-14T16:04:27.000",
    "request_status": "Pending",
    "responsible_agency": "Department of Parks & Parkway",
    "final_address": "7450 Strathmore Dr",
    "address_councildis": "E",
    "status": "Pending",
    "rowid": "1175671",
    "final_x": "3714505.65919",
    "final_y": "566818.649059",
    "longitude": "-89.96251805596891",
    "latitude": "30.05150989344262",
    "geocoded_column": {
      "latitude": "30.05150989344262",
      "longitude": "-89.96251805596891"
    }
  },
  {
    "service_request": "2025-1175670",
    "request_type": "Trash/Recycling",
    "request_reason": "Request a Large Item Pick Up",
    "date_created": "2025-03-14T16:03:39.000",
    "date_modified": "2025-03-14T16:03:42.000",
    "request_status": "Pending",
    "responsible_agency": "Department of Sanitation",
    "final_address": "5631 Samovar Dr",
    "address_councildis": "E",
    "status": "Assigned to Contractor",
    "contractor": "Waste Pro",
    "rowid": "1175670",
    "final_x": "3703632.20612",
    "final_y": "556751.03657",
    "longitude": "-89.99725634405134",
    "latitude": "30.024181108079265",
    "geocoded_column": {
      "latitude": "30.024181108079265",
      "longitude": "-89.99725634405134"
    }
  },
  {
    "service_request": "2025-1175669",
    "request_type": "Trash/Recycling",
    "request_reason": "Repair Trash Cart",
    "date_created": "2025-03-14T15:57:36.000",
    "date_modified": "2025-03-14T15:57:38.000",
    "request_status": "Pending",
    "responsible_agency": "Department of Sanitation",
    "final_address": "1224 N Gayoso St",
    "address_councildis": "A",
    "status": "Assigned to Contractor",
    "contractor": "IV Waste",
    "rowid": "1175669",
    "final_x": "3676784.4203",
    "final_y": "539527.566794",
    "longitude": "-90.08268445665007",
    "latitude": "29.977656106746615",
    "geocoded_column": {
      "latitude": "29.977656106746615",
      "longitude": "-90.08268445665007"
    }
  },
  {
    "service_request": "2025-1175668",
    "request_type": "Abandoned Vehicles",
    "request_reason": "Abandoned/Junk Vehicles",
    "date_created": "2025-03-14T15:49:16.000",
    "date_modified": "2025-03-14T15:49:18.000",
    "request_status": "Pending",
    "responsible_agency": "Department of Public Works",
    "final_address": "2609 Rousseau St",
    "address_councildis": "B",
    "status": "Pending",
    "rowid": "1175668",
    "final_x": "3678719.95528",
    "final_y": "519261.163767",
    "longitude": "-90.0772730279281",
    "latitude": "29.921872050652365",
    "geocoded_column": {
      "latitude": "29.921872050652365",
      "longitude": "-90.0772730279281"
    }
  },
  {
    "service_request": "2025-1175667",
    "request_type": "Trash/Recycling",
    "request_reason": "Replace Trash Cart",
    "date_created": "2025-03-14T15:46:42.000",
    "date_modified": "2025-03-14T15:46:44.000",
    "request_status": "Pending",
    "responsible_agency": "Department of Sanitation",
    "final_address": "4620 S Derbigny St",
    "address_councildis": "B",
    "status": "Assigned to Contractor",
    "contractor": "IV Waste",
    "rowid": "1175667",
    "final_x": "3669364.82964",
    "final_y": "526115.231102",
    "longitude": "-90.10657164956967",
    "latitude": "29.94099720617252",
    "geocoded_column": {
      "latitude": "29.94099720617252",
      "longitude": "-90.10657164956967"
    }
  },
  {
    "service_request": "2025-1175666",
    "request_type": "Trash/Recycling",
    "request_reason": "Order Recycling Cart",
    "date_created": "2025-03-14T15:46:22.000",
    "date_modified": "2025-03-14T15:46:24.000",
    "request_status": "Pending",
    "responsible_agency": "Department of Sanitation",
    "final_address": "6317 S Prieur St",
    "address_councildis": "A",
    "status": "Pending",
    "rowid": "1175666",
    "final_x": "3666596.30426",
    "final_y": "527343.147839",
    "longitude": "-90.11527120758767",
    "latitude": "29.94445479286512",
    "geocoded_column": {
      "latitude": "29.94445479286512",
      "longitude": "-90.11527120758767"
    }
  },
  {
    "service_request": "2025-1175665",
    "request_type": "Roads and Streets",
    "request_reason": "Pothole",
    "date_created": "2025-03-14T15:43:35.000",
    "date_modified": "2025-03-14T15:43:36.000",
    "request_status": "Pending",
    "responsible_agency": "Department of Public Works",
    "final_address": "2115 Joseph St",
    "address_councildis": "A",
    "status": "Pending",
    "rowid": "1175665",
    "final_x": "3667307.59213",
    "final_y": "523902.726844",
    "longitude": "-90.11314112976541",
    "latitude": "29.9349739311684",
    "geocoded_column": {
      "latitude": "29.9349739311684",
      "longitude": "-90.11314112976541"
    }
  },
  {
    "service_request": "2025-1175664",
    "request_type": "Roads and Streets",
    "request_reason": "Debris in Driving Lanes",
    "date_created": "2025-03-14T15:43:04.000",
    "date_modified": "2025-03-14T15:43:06.000",
    "request_status": "Pending",
    "responsible_agency": "Department of Public Works",
    "final_address": "4713 Stemway Dr",
    "address_councildis": "D",
    "status": "Pending",
    "rowid": "1175664",
    "final_x": "3697000.21725",
    "final_y": "554022.09532",
    "longitude": "-90.0183110457092",
    "latitude": "30.016888516910516",
    "geocoded_column": {
      "latitude": "30.016888516910516",
      "longitude": "-90.0183110457092"
    }
  },
  {
    "service_request": "2025-1175663",
    "request_type": "Abandoned Vehicles",
    "request_reason": "Abandoned/Junk Vehicles",
    "date_created": "2025-03-14T15:32:06.000",
    "date_modified": "2025-03-14T15:32:08.000",
    "request_status": "Pending",
    "responsible_agency": "Department of Public Works",
    "final_address": "2714 N Rocheblave St",
    "address_councildis": "D",
    "status": "Pending",
    "rowid": "1175663",
    "final_x": "3687350.58774",
    "final_y": "541273.076684",
    "longitude": "-90.04925119687917",
    "latitude": "29.98213430343855",
    "geocoded_column": {
      "latitude": "29.98213430343855",
      "longitude": "-90.04925119687917"
    }
  },
  {
    "service_request": "2025-1175662",
    "request_type": "Trash/Recycling",
    "request_reason": "Illegal Dumping",
    "date_created": "2025-03-14T15:27:20.000",
    "date_modified": "2025-03-14T15:27:23.000",
    "request_status": "Pending",
    "responsible_agency": "Department of Sanitation",
    "final_address": "1432 Joliet St",
    "address_councildis": "A",
    "status": "Pending",
    "rowid": "1175662",
    "final_x": "3661522.8288",
    "final_y": "530076.837697",
    "longitude": "-90.13119917661888",
    "latitude": "29.952118886618813",
    "geocoded_column": {
      "latitude": "29.952118886618813",
      "longitude": "-90.13119917661888"
    }
  },
  {
    "service_request": "2025-1175661",
    "request_type": "Trash/Recycling",
    "request_reason": "Illegal Dumping",
    "date_created": "2025-03-14T15:25:34.000",
    "date_modified": "2025-03-14T15:25:36.000",
    "request_status": "Pending",
    "responsible_agency": "Department of Sanitation",
    "final_address": "4400 BLK Flake Ave",
    "address_councildis": "E",
    "status": "Pending",
    "rowid": "1175661",
    "final_x": "3706300.53782",
    "final_y": "553455.645829",
    "longitude": "-89.98894715254329",
    "latitude": "30.01503423803505",
    "geocoded_column": {
      "latitude": "30.01503423803505",
      "longitude": "-89.98894715254329"
    }
  },
  {
    "service_request": "2025-1175660",
    "request_type": "Abandoned Vehicles",
    "request_reason": "Abandoned/Junk Vehicles",
    "date_created": "2025-03-14T15:24:47.000",
    "date_modified": "2025-03-14T15:24:49.000",
    "request_status": "Pending",
    "responsible_agency": "Department of Public Works",
    "final_address": "2714 N Rocheblave St",
    "address_councildis": "D",
    "status": "Pending",
    "rowid": "1175660",
    "final_x": "3687350.58774",
    "final_y": "541273.076684",
    "longitude": "-90.04925119687917",
    "latitude": "29.98213430343855",
    "geocoded_column": {
      "latitude": "29.98213430343855",
      "longitude": "-90.04925119687917"
    }
  },
  {
    "service_request": "2025-1175659",
    "request_type": "Trash/Recycling",
    "request_reason": "Request a Large Item Pick Up",
    "date_created": "2025-03-14T15:24:18.000",
    "date_modified": "2025-03-14T15:24:20.000",
    "request_status": "Pending",
    "responsible_agency": "Department of Sanitation",
    "final_address": "6570 Harbourview Dr",
    "address_councildis": "E",
    "status": "Assigned to Contractor",
    "contractor": "Waste Pro",
    "rowid": "1175659",
    "final_x": "3698876.42992",
    "final_y": "555909.418073",
    "longitude": "-90.01231428307932",
    "latitude": "30.02201859752299",
    "geocoded_column": {
      "latitude": "30.02201859752299",
      "longitude": "-90.01231428307932"
    }
  },
  {
    "service_request": "2025-1175658",
    "request_type": "Trash/Recycling",
    "request_reason": "Order Recycling Cart",
    "date_created": "2025-03-14T15:22:03.000",
    "date_modified": "2025-03-14T15:22:04.000",
    "request_status": "Pending",
    "responsible_agency": "Department of Sanitation",
    "final_address": "738 Harmony St",
    "address_councildis": "B",
    "status": "Pending",
    "rowid": "1175658",
    "final_x": "3676305.01505",
    "final_y": "518945.229367",
    "longitude": "-90.08490684343403",
    "latitude": "29.92107590238775",
    "geocoded_column": {
      "latitude": "29.92107590238775",
      "longitude": "-90.08490684343403"
    }
  },
  {
    "service_request": "2025-1175657",
    "request_type": "Abandoned Vehicles",
    "request_reason": "Abandoned/Junk Vehicles",
    "date_created": "2025-03-14T15:18:35.000",
    "date_modified": "2025-03-14T15:19:27.000",
    "request_status": "Pending",
    "responsible_agency": "Department of Public Works",
    "final_address": "THALIA ST & CAMP ST",
    "address_councildis": "B",
    "status": "Pending",
    "rowid": "1175657",
    "final_x": "3680159.8",
    "final_y": "525333.68",
    "longitude": "-90.0725171320386",
    "latitude": "29.938525997352436",
    "geocoded_column": {
      "latitude": "29.938525997352436",
      "longitude": "-90.0725171320386"
    }
  },
  {
    "service_request": "2025-1175656",
    "request_type": "Property Maintenance",
    "request_reason": "Property Maintenance",
    "date_created": "2025-03-14T15:17:36.000",
    "date_modified": "2025-03-14T15:36:00.000",
    "case_close_date": "2025-03-14T10:36:00.000",
    "request_status": "Closed",
    "responsible_agency": "Department of Code Enforcement",
    "final_address": "2437 Calhoun St",
    "address_councildis": "A",
    "status": "Referred to Code Enforcement",
    "rowid": "1175656",
    "final_x": "3666211.81089",
    "final_y": "525972.591357",
    "longitude": "-90.11653112195386",
    "latitude": "29.940697436455373",
    "geocoded_column": {
      "latitude": "29.940697436455373",
      "longitude": "-90.11653112195386"
    }
  },
  {
    "service_request": "2025-1175655",
    "request_type": "Trash/Recycling",
    "request_reason": "Damaged Caused By Contractor",
    "date_created": "2025-03-14T15:16:57.000",
    "date_modified": "2025-03-14T15:18:53.000",
    "case_close_date": "2025-03-14T10:18:52.000",
    "request_status": "Closed",
    "responsible_agency": "Department of Sanitation",
    "final_address": "118 City Park Ave",
    "address_councildis": "A",
    "status": "Resolved",
    "rowid": "1175655",
    "final_x": "3667651.43245",
    "final_y": "540854.232907",
    "longitude": "-90.1114849682831",
    "latitude": "29.98157492613766",
    "geocoded_column": {
      "latitude": "29.98157492613766",
      "longitude": "-90.1114849682831"
    }
  },
  {
    "service_request": "2025-1175654",
    "request_type": "Abandoned Vehicles",
    "request_reason": "Abandoned/Junk Vehicles",
    "date_created": "2025-03-14T15:13:37.000",
    "date_modified": "2025-03-14T15:13:40.000",
    "request_status": "Pending",
    "responsible_agency": "Department of Public Works",
    "final_address": "2723 S Miro St",
    "address_councildis": "B",
    "status": "Pending",
    "rowid": "1175654",
    "final_x": "3672142.08487",
    "final_y": "528526.286848",
    "longitude": "-90.09772124776747",
    "latitude": "29.947544770253263",
    "geocoded_column": {
      "latitude": "29.947544770253263",
      "longitude": "-90.09772124776747"
    }
  },
  {
    "service_request": "2025-1175653",
    "request_type": "Trash/Recycling",
    "request_reason": "Request a Large Item Pick Up",
    "date_created": "2025-03-14T15:10:08.000",
    "date_modified": "2025-03-14T15:10:09.000",
    "request_status": "Pending",
    "responsible_agency": "Department of Sanitation",
    "final_address": "1009 Joseph St",
    "address_councildis": "A",
    "status": "Assigned to Contractor",
    "contractor": "IV Waste",
    "rowid": "1175653",
    "final_x": "3666357.11821",
    "final_y": "519757.719544",
    "longitude": "-90.11628076885485",
    "latitude": "29.9236042712585",
    "geocoded_column": {
      "latitude": "29.9236042712585",
      "longitude": "-90.11628076885485"
    }
  },
  {
    "service_request": "2025-1175652",
    "request_type": "Safety & Permits",
    "request_reason": "Licenses & Permits",
    "date_created": "2025-03-14T15:10:00.000",
    "date_modified": "2025-03-14T16:24:30.000",
    "case_close_date": "2025-03-14T11:24:30.000",
    "request_status": "Closed",
    "responsible_agency": "Safety and Permits",
    "final_address": "4300 BLK Woodland Dr",
    "address_councildis": "C",
    "status": "Resolved",
    "rowid": "1175652",
    "final_x": "3705328.51516",
    "final_y": "514271.257006",
    "longitude": "-89.99346593371895",
    "latitude": "29.90732268450957",
    "geocoded_column": {
      "latitude": "29.90732268450957",
      "longitude": "-89.99346593371895"
    }
  },
  {
    "service_request": "2025-1175651",
    "request_type": "Abandoned Vehicles",
    "request_reason": "Abandoned/Junk Vehicles",
    "date_created": "2025-03-14T15:05:22.000",
    "date_modified": "2025-03-14T15:05:24.000",
    "request_status": "Pending",
    "responsible_agency": "Department of Public Works",
    "final_address": "2723 S Miro St",
    "address_councildis": "B",
    "status": "Pending",
    "rowid": "1175651",
    "final_x": "3672142.08487",
    "final_y": "528526.286848",
    "longitude": "-90.09772124776747",
    "latitude": "29.947544770253263",
    "geocoded_column": {
      "latitude": "29.947544770253263",
      "longitude": "-90.09772124776747"
    }
  },
  {
    "service_request": "2025-1175650",
    "request_type": "Street and Traffic Signs",
    "request_reason": "Stop Sign Missing or Damaged",
    "date_created": "2025-03-14T15:04:32.000",
    "date_modified": "2025-03-14T15:04:34.000",
    "request_status": "Pending",
    "responsible_agency": "Department of Public Works",
    "final_address": "3900 France Prkwy",
    "address_councildis": "D",
    "status": "Pending",
    "rowid": "1175650",
    "final_x": "3694066.94781",
    "final_y": "543254.747342",
    "longitude": "-90.02796648035886",
    "latitude": "29.987374515377148",
    "geocoded_column": {
      "latitude": "29.987374515377148",
      "longitude": "-90.02796648035886"
    }
  },
  {
    "service_request": "2025-1175649",
    "request_type": "Trash/Recycling",
    "request_reason": "Missed Trash Pick-Up",
    "date_created": "2025-03-14T15:01:27.000",
    "date_modified": "2025-03-14T15:18:58.000",
    "case_close_date": "2025-03-14T10:18:58.000",
    "request_status": "Closed",
    "responsible_agency": "Department of Sanitation",
    "final_address": "7126 Tudor Ct",
    "address_councildis": "E",
    "status": "Invalid Request",
    "contractor": "Waste Pro",
    "contractor_action": "Invalid Request",
    "rowid": "1175649",
    "final_x": "3703643.1107",
    "final_y": "559711.353629",
    "longitude": "-89.99711280595065",
    "latitude": "30.03232048099165",
    "geocoded_column": {
      "latitude": "30.03232048099165",
      "longitude": "-89.99711280595065"
    }
  },
  {
    "service_request": "2025-1175648",
    "request_type": "Healthy Homes",
    "request_reason": "Healthy Homes",
    "date_created": "2025-03-14T14:58:25.000",
    "date_modified": "2025-03-14T15:08:48.000",
    "case_close_date": "2025-03-14T10:08:48.000",
    "request_status": "Closed",
    "responsible_agency": "Department of Code Enforcement",
    "final_address": "2210 Felicity St",
    "address_councildis": "B",
    "status": "Referred to Code Enforcement",
    "rowid": "1175648",
    "final_x": "3676584.56405",
    "final_y": "526416.054078",
    "longitude": "-90.08376726425115",
    "latitude": "29.941609857036457",
    "geocoded_column": {
      "latitude": "29.941609857036457",
      "longitude": "-90.08376726425115"
    }
  },
  {
    "service_request": "2025-1175647",
    "request_type": "Safety & Permits",
    "request_reason": "Zoning Enforcement",
    "date_created": "2025-03-14T14:57:39.000",
    "date_modified": "2025-03-14T16:26:30.000",
    "case_close_date": "2025-03-14T11:26:29.000",
    "request_status": "Closed",
    "responsible_agency": "Safety and Permits",
    "final_address": "2951 Ponce De Leon St",
    "address_councildis": "A",
    "status": "Resolved",
    "rowid": "1175647",
    "final_x": "3677292.62312",
    "final_y": "540539.655179",
    "longitude": "-90.08104444302906",
    "latitude": "29.98042373902965",
    "geocoded_column": {
      "latitude": "29.98042373902965",
      "longitude": "-90.08104444302906"
    }
  },
  {
    "service_request": "2025-1175646",
    "request_type": "Trash/Recycling",
    "request_reason": "Repair Recycling Cart",
    "date_created": "2025-03-14T14:56:19.000",
    "date_modified": "2025-03-14T14:56:52.000",
    "request_status": "Pending",
    "responsible_agency": "Department of Sanitation",
    "final_address": "1620 Sumner St",
    "address_councildis": "C",
    "status": "Pending",
    "rowid": "1175646",
    "final_x": "3691049.02185",
    "final_y": "525341.383293",
    "longitude": "-90.03813858604626",
    "latitude": "29.938213225642254",
    "geocoded_column": {
      "latitude": "29.938213225642254",
      "longitude": "-90.03813858604626"
    }
  },
  {
    "service_request": "2025-1175645",
    "request_type": "Trash/Recycling",
    "request_reason": "Illegal Dumping",
    "date_created": "2025-03-14T14:55:57.000",
    "date_modified": "2025-03-14T14:55:58.000",
    "request_status": "Pending",
    "responsible_agency": "Department of Sanitation",
    "final_address": "5760 Lincoln Beach Blvd",
    "address_councildis": "D",
    "status": "Pending",
    "rowid": "1175645",
    "final_x": "3694009.87459",
    "final_y": "559659.100317",
    "longitude": "-90.02755627448623",
    "latitude": "30.032482172889033",
    "geocoded_column": {
      "latitude": "30.032482172889033",
      "longitude": "-90.02755627448623"
    }
  },
  {
    "service_request": "2025-1175644",
    "request_type": "Parks & Parkways",
    "request_reason": "Request Tree Service (Right of Way/Public Property)",
    "date_created": "2025-03-14T14:51:23.000",
    "date_modified": "2025-03-14T14:52:54.000",
    "request_status": "Pending",
    "responsible_agency": "Department of Parks & Parkway",
    "final_address": "7919 Hickory St",
    "address_councildis": "A",
    "status": "Pending",
    "rowid": "1175644",
    "final_x": "3663843.33479",
    "final_y": "529552.094785",
    "longitude": "-90.12388955749098",
    "latitude": "29.950608868177127",
    "geocoded_column": {
      "latitude": "29.950608868177127",
      "longitude": "-90.12388955749098"
    }
  },
  {
    "service_request": "2025-1175643",
    "request_type": "Abandoned Vehicles",
    "request_reason": "Abandoned/Junk Vehicles",
    "date_created": "2025-03-14T14:50:22.000",
    "date_modified": "2025-03-14T14:50:34.000",
    "request_status": "Pending",
    "responsible_agency": "Department of Public Works",
    "final_address": "2423 Laharpe St",
    "address_councildis": "D",
    "status": "Pending",
    "rowid": "1175643",
    "final_x": "3679578.35195",
    "final_y": "539360.95233",
    "longitude": "-90.07386605216696",
    "latitude": "29.97711382841571",
    "geocoded_column": {
      "latitude": "29.97711382841571",
      "longitude": "-90.07386605216696"
    }
  },
  {
    "service_request": "2025-1175642",
    "request_type": "Drainage",
    "request_reason": "Catch Basin Clogged",
    "date_created": "2025-03-14T14:47:55.000",
    "date_modified": "2025-03-14T14:47:56.000",
    "request_status": "Pending",
    "responsible_agency": "Sewerage & Water Board ",
    "final_address": "3701 Napoleon Ave",
    "address_councildis": "B",
    "status": "Pending",
    "rowid": "1175642",
    "final_x": "3670212.17415",
    "final_y": "528205.00416",
    "longitude": "-90.10382562664194",
    "latitude": "29.94671843033207",
    "geocoded_column": {
      "latitude": "29.94671843033207",
      "longitude": "-90.10382562664194"
    }
  },
  {
    "service_request": "2025-1175641",
    "request_type": "Trash/Recycling",
    "request_reason": "Missed Trash Pick-Up",
    "date_created": "2025-03-14T14:46:59.000",
    "date_modified": "2025-03-14T16:13:10.000",
    "case_close_date": "2025-03-14T11:13:10.000",
    "request_status": "Closed",
    "responsible_agency": "Department of Sanitation",
    "final_address": "2236 Jefferson Ave",
    "address_councildis": "A",
    "status": "Invalid Request",
    "contractor": "IV Waste",
    "contractor_action": "Invalid",
    "rowid": "1175641",
    "final_x": "3667813.19559",
    "final_y": "523963.293884",
    "longitude": "-90.11154290008324",
    "latitude": "29.935125656901313",
    "geocoded_column": {
      "latitude": "29.935125656901313",
      "longitude": "-90.11154290008324"
    }
  },
  {
    "service_request": "2025-1175640",
    "request_type": "Drainage",
    "request_reason": "Catch Basin Clogged",
    "date_created": "2025-03-14T14:46:32.000",
    "date_modified": "2025-03-14T14:46:33.000",
    "request_status": "Pending",
    "responsible_agency": "Sewerage & Water Board ",
    "final_address": "3701 Napoleon Ave",
    "address_councildis": "B",
    "status": "Pending",
    "rowid": "1175640",
    "final_x": "3670212.17415",
    "final_y": "528205.00416",
    "longitude": "-90.10382562664194",
    "latitude": "29.94671843033207",
    "geocoded_column": {
      "latitude": "29.94671843033207",
      "longitude": "-90.10382562664194"
    }
  },
  {
    "service_request": "2025-1175639",
    "request_type": "Trash/Recycling",
    "request_reason": "Request a Large Item Pick Up",
    "date_created": "2025-03-14T14:45:38.000",
    "date_modified": "2025-03-14T14:45:41.000",
    "request_status": "Pending",
    "responsible_agency": "Department of Sanitation",
    "final_address": "7126 Tudor Ct",
    "address_councildis": "E",
    "status": "Assigned to Contractor",
    "contractor": "Waste Pro",
    "rowid": "1175639",
    "final_x": "3703643.1107",
    "final_y": "559711.353629",
    "longitude": "-89.99711280595065",
    "latitude": "30.03232048099165",
    "geocoded_column": {
      "latitude": "30.03232048099165",
      "longitude": "-89.99711280595065"
    }
  },
  {
    "service_request": "2025-1175638",
    "request_type": "Trash/Recycling",
    "request_reason": "Request a Large Item Pick Up",
    "date_created": "2025-03-14T14:43:12.000",
    "date_modified": "2025-03-14T14:43:22.000",
    "request_status": "Pending",
    "responsible_agency": "Department of Sanitation",
    "final_address": "7201 Boston Dr",
    "address_councildis": "E",
    "status": "Assigned to Contractor",
    "contractor": "Waste Pro",
    "rowid": "1175638",
    "final_x": "3706148.95799",
    "final_y": "561366.89155",
    "longitude": "-89.98913284079853",
    "latitude": "30.03679197183839",
    "geocoded_column": {
      "latitude": "30.03679197183839",
      "longitude": "-89.98913284079853"
    }
  },
  {
    "service_request": "2025-1175637",
    "request_type": "Trash/Recycling",
    "request_reason": "Request a Large Item Pick Up",
    "date_created": "2025-03-14T14:41:18.000",
    "date_modified": "2025-03-14T14:41:19.000",
    "request_status": "Pending",
    "responsible_agency": "Department of Sanitation",
    "final_address": "8701 Lomond Rd",
    "address_councildis": "E",
    "status": "Assigned to Contractor",
    "contractor": "Waste Pro",
    "rowid": "1175637",
    "final_x": "3704495.65092",
    "final_y": "562549.053344",
    "longitude": "-89.99431394701838",
    "latitude": "30.04009567717978",
    "geocoded_column": {
      "latitude": "30.04009567717978",
      "longitude": "-89.99431394701838"
    }
  },
  {
    "service_request": "2025-1175636",
    "request_type": "Abandoned Vehicles",
    "request_reason": "Abandoned/Junk Vehicles",
    "date_created": "2025-03-14T14:40:35.000",
    "date_modified": "2025-03-14T14:40:37.000",
    "request_status": "Pending",
    "responsible_agency": "Department of Public Works",
    "final_address": "1234 Monroe St",
    "address_councildis": "A",
    "status": "Pending",
    "rowid": "1175636",
    "final_x": "3660544.9223",
    "final_y": "530038.314945",
    "longitude": "-90.13428823859718",
    "latitude": "29.952041135399163",
    "geocoded_column": {
      "latitude": "29.952041135399163",
      "longitude": "-90.13428823859718"
    }
  },
  {
    "service_request": "2025-1175635",
    "request_type": "Abandoned Vehicles",
    "request_reason": "Abandoned/Junk Vehicles",
    "date_created": "2025-03-14T14:34:30.000",
    "date_modified": "2025-03-14T16:27:24.000",
    "request_status": "Pending",
    "responsible_agency": "Department of Public Works",
    "final_address": "1500 BLK Tropic Dr",
    "address_councildis": "C",
    "rowid": "1175635",
    "final_x": "3699511.78434",
    "final_y": "525220.472313",
    "longitude": "-90.01142542831262",
    "latitude": "29.937615021088227",
    "geocoded_column": {
      "latitude": "29.937615021088227",
      "longitude": "-90.01142542831262"
    }
  },
  {
    "service_request": "2025-1175634",
    "request_type": "Trash/Recycling",
    "request_reason": "Request a Large Item Pick Up",
    "date_created": "2025-03-14T14:34:18.000",
    "date_modified": "2025-03-14T14:34:19.000",
    "request_status": "Pending",
    "responsible_agency": "Department of Sanitation",
    "final_address": "4835 Hauck Dr",
    "address_councildis": "E",
    "status": "Assigned to Contractor",
    "contractor": "Waste Pro",
    "rowid": "1175634",
    "final_x": "3714586.66219",
    "final_y": "557202.311643",
    "longitude": "-89.96262562212377",
    "latitude": "30.025066172233114",
    "geocoded_column": {
      "latitude": "30.025066172233114",
      "longitude": "-89.96262562212377"
    }
  },
  {
    "service_request": "2025-1175633",
    "request_type": "Trash/Recycling",
    "request_reason": "Request a Large Item Pick Up",
    "date_created": "2025-03-14T14:30:51.000",
    "date_modified": "2025-03-14T14:31:25.000",
    "request_status": "Pending",
    "responsible_agency": "Department of Sanitation",
    "final_address": "146 26Th St",
    "address_councildis": "A",
    "status": "Assigned to Contractor",
    "contractor": "IV Waste",
    "rowid": "1175633",
    "final_x": "3665777.15104",
    "final_y": "549852.585876",
    "longitude": "-90.11710317511744",
    "latitude": "30.006372144945683",
    "geocoded_column": {
      "latitude": "30.006372144945683",
      "longitude": "-90.11710317511744"
    }
  },
  {
    "service_request": "2025-1175632",
    "request_type": "Trash/Recycling",
    "request_reason": "Missed Trash Pick-Up",
    "date_created": "2025-03-14T14:28:54.000",
    "date_modified": "2025-03-14T14:28:55.000",
    "request_status": "Pending",
    "responsible_agency": "Department of Sanitation",
    "final_address": "511 Lizardi St",
    "address_councildis": "E",
    "status": "Assigned to Contractor",
    "contractor": "Waste Pro",
    "rowid": "1175632",
    "final_x": "3695984.66691",
    "final_y": "532080.471747",
    "longitude": "-90.0223129464312",
    "latitude": "29.956589045413352",
    "geocoded_column": {
      "latitude": "29.956589045413352",
      "longitude": "-90.0223129464312"
    }
  },
  {
    "service_request": "2025-1175631",
    "request_type": "Drainage",
    "request_reason": "Drainage Manhole Cover Missing or Damaged",
    "date_created": "2025-03-14T14:25:18.000",
    "date_modified": "2025-03-14T14:25:20.000",
    "request_status": "Pending",
    "responsible_agency": "Sewerage & Water Board ",
    "final_address": "ST PETER ST & BASIN ST",
    "address_councildis": "C",
    "status": "Pending",
    "rowid": "1175631",
    "final_x": "3680930.0",
    "final_y": "533190.58",
    "longitude": "-90.06981200678877",
    "latitude": "29.960106504901077",
    "geocoded_column": {
      "latitude": "29.960106504901077",
      "longitude": "-90.06981200678877"
    }
  },