[
  {
    "service_request": "2023-987035",
    "request_type": "Trash/Recycling",
    "request_reason": "Order Trash Cart",
    "date_created": "2023-03-30T01:04:20.000",
    "date_modified": "2023-03-30T01:04:20.000",
    "request_status": "Pending",
    "responsible_agency": "Department of Sanitation",
    "final_address": "2862 Law St",
    "address_councildis": "D",
    "status": "Assigned to Contractor",
    "contractor": "IV Waste",
    "rowid": "987035",
    "final_x": "3688379.45833",
    "final_y": "542098.565388",
    "longitude": "-90.04597224263468",
    "latitude": "29.98437236004014",
    "geocoded_column": {
      "latitude": "29.98437236004014",
      "longitude": "-90.04597224263468"
    }
  },
  {
    "service_request": "2023-987034",
    "request_type": "Trash/Recycling",
    "request_reason": "Order Trash Cart",
    "date_created": "2023-03-30T01:02:48.000",
    "date_modified": "2023-03-30T01:02:50.000",
    "request_status": "Pending",
    "responsible_agency": "Department of Sanitation",
    "final_address": "2860 Law St",
    "address_councildis": "D",
    "status": "Assigned to Contractor",
    "contractor": "IV Waste",
    "rowid": "987034",
    "final_x": "3688365.52911",
    "final_y": "542097.407948",
    "longitude": "-90.04601627977502",
    "latitude": "29.984369607794005",
    "geocoded_column": {
      "latitude": "29.984369607794005",
      "longitude": "-90.04601627977502"
    }
  },
  {
    "service_request": "2023-987033",
    "request_type": "Trash/Recycling",
    "request_reason": "Order Recycling Cart",
    "date_created": "2023-03-30T00:19:06.000",
    "date_modified": "2023-03-30T00:19:06.000",
    "request_status": "Pending",
    "responsible_agency": "Department of Sanitation",
    "final_address": "1904 Napoleon Ave",
    "address_councildis": "B",
    "status": "Pending",
    "rowid": "987033",
    "final_x": "3670597.63636",
    "final_y": "522003.563962",
    "longitude": "-90.10281885092698",
    "latitude": "29.92965509801179",
    "geocoded_column": {
      "latitude": "29.92965509801179",
      "longitude": "-90.10281885092698"
    }
  },
  {
    "service_request": "2023-987032",
    "request_type": "Trash/Recycling",
    "request_reason": "Replace Trash Cart",
    "date_created": "2023-03-30T00:13:05.000",
    "date_modified": "2023-03-30T00:13:05.000",
    "request_status": "Pending",
    "responsible_agency": "Department of Sanitation",
    "final_address": "1904 Napoleon Ave",
    "address_councildis": "B",
    "status": "Assigned to Contractor",
    "contractor": "Richards Disposal",
    "rowid": "987032",
    "final_x": "3670597.63636",
    "final_y": "522003.563962",
    "longitude": "-90.10281885092698",
    "latitude": "29.92965509801179",
    "geocoded_column": {
      "latitude": "29.92965509801179",
      "longitude": "-90.10281885092698"
    }
  },
  {
    "service_request": "2023-987031",
    "request_type": "Property Maintenance",
    "request_reason": "Property Maintenance",
    "date_created": "2023-03-30T00:03:03.000",
    "date_modified": "2023-03-30T00:03:03.000",
    "request_status": "Pending",
    "responsible_agency": "Department of Code Enforcement",
    "final_address": "4013 Hollygrove St",
    "address_councildis": "A",
    "status": "Pending",
    "rowid": "987031",
    "final_x": "3666422.10279",
    "final_y": "537932.844105",
    "longitude": "-90.1154658494658",
    "latitude": "29.973578073988246",
    "geocoded_column": {
      "latitude": "29.973578073988246",
      "longitude": "-90.1154658494658"
    }
  },
  {
    "service_request": "2023-987030",
    "request_type": "Property Maintenance",
    "request_reason": "Property Maintenance",
    "date_created": "2023-03-30T00:00:28.000",
    "date_modified": "2023-03-30T00:00:28.000",
    "request_status": "Pending",
    "responsible_agency": "Department of Code Enforcement",
    "final_address": "4037 Hollygrove St",
    "address_councildis": "A",
    "status": "Pending",
    "rowid": "987030",
    "final_x": "3666546.1858",
    "final_y": "538075.496969",
    "longitude": "-90.11506917747242",
    "latitude": "29.973966694815136",
    "geocoded_column": {
      "latitude": "29.973966694815136",
      "longitude": "-90.11506917747242"
    }
  },
  {
    "service_request": "2023-987029",
    "request_type": "Mosquito, Termite & Rodent Control",
    "request_reason": "Non-Rodent Complaint (Mice, Possums, Snakes)",
    "date_created": "2023-03-29T23:58:37.000",
    "date_modified": "2023-03-29T23:58:37.000",
    "request_status": "Pending",
    "responsible_agency": "Mosquito, Termite & Rodent Control Board",
    "final_address": "4037 Hollygrove St",
    "address_councildis": "A",
    "status": "Pending",
    "rowid": "987029",
    "final_x": "3666546.1858",
    "final_y": "538075.496969",
    "longitude": "-90.11506917747242",
    "latitude": "29.973966694815136",
    "geocoded_column": {
      "latitude": "29.973966694815136",
      "longitude": "-90.11506917747242"
    }
  },
  {
    "service_request": "2023-987028",
    "request_type": "Mosquito, Termite & Rodent Control",
    "request_reason": "Non-Rodent Complaint (Mice, Possums, Snakes)",
    "date_created": "2023-03-29T23:57:21.000",
    "date_modified": "2023-03-29T23:57:21.000",
    "request_status": "Pending",
    "responsible_agency": "Mosquito, Termite & Rodent Control Board",
    "final_address": "4037 Hollygrove St",
    "address_councildis": "A",
    "status": "Pending",
    "rowid": "987028",
    "final_x": "3666546.1858",
    "final_y": "538075.496969",
    "longitude": "-90.11506917747242",
    "latitude": "29.973966694815136",
    "geocoded_column": {
      "latitude": "29.973966694815136",
      "longitude": "-90.11506917747242"
    }
  },
  {
    "service_request": "2023-987027",
    "request_type": "Abandoned Vehicles",
    "request_reason": "Abandoned/Junk Vehicles",
    "date_created": "2023-03-29T22:49:26.000",
    "date_modified": "2023-03-29T22:49:26.000",
    "request_status": "Pending",
    "responsible_agency": "Department of Public Works",
    "final_address": "735 Upperline St",
    "address_councildis": "B",
    "status": "Pending",
    "rowid": "987027",
    "final_x": "3669032.69607",
    "final_y": "518100.023926",
    "longitude": "-90.10789089333986",
    "latitude": "29.91896771930638",
    "geocoded_column": {
      "latitude": "29.91896771930638",
      "longitude": "-90.10789089333986"
    }
  },
  {
    "service_request": "2023-987026",
    "request_type": "Health Related Request",
    "request_reason": "Noise Ordinance Complaint",
    "date_created": "2023-03-29T22:34:39.000",
    "date_modified": "2023-03-29T22:34:39.000",
    "request_status": "Pending",
    "responsible_agency": "Health Department",
    "final_address": "600 N Broad St",
    "address_councildis": "D",
    "status": "Pending",
    "rowid": "987026",
    "final_x": "3676514.68328",
    "final_y": "536431.051079",
    "longitude": "-90.0836430411453",
    "latitude": "29.969149839828454",
    "geocoded_column": {
      "latitude": "29.969149839828454",
      "longitude": "-90.0836430411453"
    }
  },
  {
    "service_request": "2023-987025",
    "request_type": "Trash/Recycling",
    "request_reason": "Replace Trash Cart",
    "date_created": "2023-03-29T22:09:56.000",
    "date_modified": "2023-03-29T22:09:57.000",
    "request_status": "Pending",
    "responsible_agency": "Department of Sanitation",
    "final_address": "6226 Arts St",
    "address_councildis": "D",
    "status": "Assigned to Contractor",
    "contractor": "IV Waste",
    "rowid": "987025",
    "final_x": "3685573.5407",
    "final_y": "556171.75657",
    "longitude": "-90.05433870304749",
    "latitude": "30.023154923979728",
    "geocoded_column": {
      "latitude": "30.023154923979728",
      "longitude": "-90.05433870304749"
    }
  },
  {
    "service_request": "2023-987024",
    "request_type": "Trash/Recycling",
    "request_reason": "MIssed Recycling Pick-Up",
    "date_created": "2023-03-29T21:14:33.000",
    "date_modified": "2023-03-29T21:14:34.000",
    "request_status": "Pending",
    "responsible_agency": "Department of Sanitation",
    "final_address": "1124 Jackson Ave",
    "address_councildis": "B",
    "status": "Assigned to Contractor",
    "contractor": "Richards Disposal",
    "rowid": "987024",
    "final_x": "3678674.23976",
    "final_y": "522220.253882",
    "longitude": "-90.07731494512066",
    "latitude": "29.93000996235017",
    "geocoded_column": {
      "latitude": "29.93000996235017",
      "longitude": "-90.07731494512066"
    }
  },
  {
    "service_request": "2023-987023",
    "request_type": "Roads/Drainage",
    "request_reason": "Street Subsidence (Sinking)",
    "date_created": "2023-03-29T20:56:41.000",
    "date_modified": "2023-03-29T20:56:41.000",
    "request_status": "Pending",
    "responsible_agency": "Department of Public Works",
    "final_address": "5653 Abbey Dr",
    "address_councildis": "C",
    "status": "Pending",
    "rowid": "987023",
    "final_x": "3704597.56836",
    "final_y": "521112.624121",
    "longitude": "-89.99552077262639",
    "latitude": "29.92615756728712",
    "geocoded_column": {
      "latitude": "29.92615756728712",
      "longitude": "-89.99552077262639"
    }
  },
  {
    "service_request": "2023-987022",
    "request_type": "Roads/Drainage",
    "request_reason": "WaterMain Break",
    "date_created": "2023-03-29T20:38:13.000",
    "date_modified": "2023-03-29T20:38:13.000",
    "request_status": "Closed",
    "responsible_agency": "Department of Public Works",
    "final_address": "2121 Dauphine St",
    "address_councildis": "C",
    "status": "Invalid Case",
    "rowid": "987022",
    "final_x": "3684868.88898",
    "final_y": "535235.982534",
    "longitude": "-90.05730193255954",
    "latitude": "29.96561063953787",
    "geocoded_column": {
      "latitude": "29.96561063953787",
      "longitude": "-90.05730193255954"
    }
  },
  {
    "service_request": "2023-987021",
    "request_type": "Trash/Recycling",
    "request_reason": "MIssed Recycling Pick-Up",
    "date_created": "2023-03-29T20:15:07.000",
    "date_modified": "2023-03-29T20:15:08.000",
    "request_status": "Pending",
    "responsible_agency": "Department of Sanitation",
    "final_address": "917 Thalia St",
    "address_councildis": "B",
    "status": "Assigned to Contractor",
    "contractor": "Richards Disposal",
    "rowid": "987021",
    "final_x": "3681183.92591",
    "final_y": "525116.528957",
    "longitude": "-90.06929142583014",
    "latitude": "29.937897878712683",
    "geocoded_column": {
      "latitude": "29.937897878712683",
      "longitude": "-90.06929142583014"
    }
  },
  {
    "service_request": "2023-987020",
    "request_type": "Trash/Recycling",
    "request_reason": "Missed Trash Pick-Up",
    "date_created": "2023-03-29T20:04:58.000",
    "date_modified": "2023-03-29T20:04:59.000",
    "request_status": "Pending",
    "responsible_agency": "Department of Sanitation",
    "final_address": "6229 St Roch Ave",
    "address_councildis": "D",
    "status": "Assigned to Contractor",
    "contractor": "IV Waste",
    "rowid": "987020",
    "final_x": "3685026.14754",
    "final_y": "556164.768218",
    "longitude": "-90.05606858926967",
    "latitude": "30.023152497602283",
    "geocoded_column": {
      "latitude": "30.023152497602283",
      "longitude": "-90.05606858926967"
    }
  },
  {
    "service_request": "2023-987019",
    "request_type": "Trash/Recycling",
    "request_reason": "Order Trash Cart",
    "date_created": "2023-03-29T20:02:30.000",
    "date_modified": "2023-03-29T20:02:31.000",
    "request_status": "Pending",
    "responsible_agency": "Department of Sanitation",
    "final_address": "1309 Bourbon St",
    "address_councildis": "C",
    "status": "Assigned to Contractor",
    "contractor": "Empire Services",
    "rowid": "987019",
    "final_x": "3683611.11881",
    "final_y": "534495.339781",
    "longitude": "-90.06129988018391",
    "latitude": "29.96361258095877",
    "geocoded_column": {
      "latitude": "29.96361258095877",
      "longitude": "-90.06129988018391"
    }
  },
  {
    "service_request": "2023-987018",
    "request_type": "Trash/Recycling",
    "request_reason": "Order Recycling Cart",
    "date_created": "2023-03-29T19:57:09.000",
    "date_modified": "2023-03-29T19:57:09.000",
    "request_status": "Pending",
    "responsible_agency": "Department of Sanitation",
    "final_address": "6038 Stratford Pl",
    "address_councildis": "C",
    "status": "Pending",
    "rowid": "987018",
    "final_x": "3706226.3274",
    "final_y": "516245.19378",
    "longitude": "-89.9905593508636",
    "latitude": "29.912721434248297",
    "geocoded_column": {
      "latitude": "29.912721434248297",
      "longitude": "-89.9905593508636"
    }
  },
  {
    "service_request": "2023-987017",
    "request_type": "Trash/Recycling",
    "request_reason": "MIssed Recycling Pick-Up",
    "date_created": "2023-03-29T19:50:27.000",
    "date_modified": "2023-03-29T19:50:28.000",
    "request_status": "Pending",
    "responsible_agency": "Department of Sanitation",
    "final_address": "1825 Baronne St",
    "address_councildis": "B",
    "status": "Assigned to Contractor",
    "contractor": "Richards Disposal",
    "rowid": "987017",
    "final_x": "3677699.83714",
    "final_y": "525059.722493",
    "longitude": "-90.08029295013381",
    "latitude": "29.93784690327387",
    "geocoded_column": {
      "latitude": "29.93784690327387",
      "longitude": "-90.08029295013381"
    }
  },
  {
    "service_request": "2023-987016",
    "request_type": "Trash/Recycling",
    "request_reason": "Order Trash Cart",
    "date_created": "2023-03-29T19:45:35.000",
    "date_modified": "2023-03-29T19:45:36.000",
    "request_status": "Pending",
    "responsible_agency": "Department of Sanitation",
    "final_address": "2110 Adams St",
    "address_councildis": "A",
    "status": "Assigned to Contractor",
    "contractor": "Richards Disposal",
    "rowid": "987016",
    "final_x": "3665246.13613",
    "final_y": "529834.894401",
    "longitude": "-90.11945075491587",
    "latitude": "29.951345687469015",
    "geocoded_column": {
      "latitude": "29.951345687469015",
      "longitude": "-90.11945075491587"
    }
  },
  {
    "service_request": "2023-987015",
    "request_type": "Trash/Recycling",
    "request_reason": "Missed Trash Pick-Up",
    "date_created": "2023-03-29T19:41:35.000",
    "date_modified": "2023-03-29T19:41:36.000",
    "request_status": "Pending",
    "responsible_agency": "Department of Sanitation",
    "final_address": "2116 Oretha Castle Haley Blvd",
    "address_councildis": "B",
    "status": "Assigned to Contractor",
    "contractor": "Richards Disposal",
    "rowid": "987015",
    "final_x": "3677023.08584",
    "final_y": "524835.779004",
    "longitude": "-90.08243722889668",
    "latitude": "29.937251464273828",
    "geocoded_column": {
      "latitude": "29.937251464273828",
      "longitude": "-90.08243722889668"
    }
  },
  {
    "service_request": "2023-987014",
    "request_type": "Trash/Recycling",
    "request_reason": "Missed Trash Pick-Up",
    "date_created": "2023-03-29T18:39:04.000",
    "date_modified": "2023-03-29T18:39:04.000",
    "request_status": "Pending",
    "responsible_agency": "Department of Sanitation",
    "final_address": "4525 Charlene Dr",
    "address_councildis": "E",
    "status": "Assigned to Contractor",
    "contractor": "Waste Pro",
    "rowid": "987014",
    "final_x": "3708102.55768",
    "final_y": "554246.175384",
    "longitude": "-89.98322424806044",
    "latitude": "30.017149630901255",
    "geocoded_column": {
      "latitude": "30.017149630901255",
      "longitude": "-89.98322424806044"
    }
  },
  {
    "service_request": "2023-987013",
    "request_type": "Trash/Recycling",
    "request_reason": "Repair Trash Cart",
    "date_created": "2023-03-29T17:43:27.000",
    "date_modified": "2023-03-29T17:43:28.000",
    "request_status": "Pending",
    "responsible_agency": "Department of Sanitation",
    "final_address": "4310 Fields St",
    "address_councildis": "C",
    "status": "Assigned to Contractor",
    "contractor": "Richards Disposal",
    "rowid": "987013",
    "final_x": "3707972.10974",
    "final_y": "514891.098739",
    "longitude": "-89.98509949839304",
    "latitude": "29.90894177202597",
    "geocoded_column": {
      "latitude": "29.90894177202597",
      "longitude": "-89.98509949839304"
    }
  },
  {
    "service_request": "2023-987012",
    "request_type": "Trash/Recycling",
    "request_reason": "Repair Recycling Cart",
    "date_created": "2023-03-29T17:27:19.000",
    "date_modified": "2023-03-29T17:27:20.000",
    "request_status": "Pending",
    "responsible_agency": "Department of Sanitation",
    "final_address": "4100 St Charles Ave",
    "address_councildis": "B",
    "status": "Pending",
    "rowid": "987012",
    "final_x": "3671889.68308",
    "final_y": "520870.924729",
    "longitude": "-90.09877860355118",
    "latitude": "29.92650248798185",
    "geocoded_column": {
      "latitude": "29.92650248798185",
      "longitude": "-90.09877860355118"
    }
  },
  {
    "service_request": "2023-987011",
    "request_type": "Trash/Recycling",
    "request_reason": "Request a Large Item Pick Up",
    "date_created": "2023-03-29T17:26:52.000",
    "date_modified": "2023-03-29T17:26:53.000",
    "request_status": "Pending",
    "responsible_agency": "Department of Sanitation",
    "final_address": "5931 Providence Pl",
    "address_councildis": "D",
    "status": "Assigned to Contractor",
    "contractor": "IV Waste",
    "rowid": "987011",
    "final_x": "3688252.71958",
    "final_y": "555228.725529",
    "longitude": "-90.04590658447128",
    "latitude": "30.02047943908574",
    "geocoded_column": {
      "latitude": "30.02047943908574",
      "longitude": "-90.04590658447128"
    }
  },
  {
    "service_request": "2023-987010",
    "request_type": "Trash/Recycling",
    "request_reason": "MIssed Recycling Pick-Up",
    "date_created": "2023-03-29T17:23:19.000",
    "date_modified": "2023-03-29T17:23:19.000",
    "request_status": "Pending",
    "responsible_agency": "Department of Sanitation",
    "final_address": "2823 Second St",
    "address_councildis": "B",
    "status": "Assigned to Contractor",
    "contractor": "Richards Disposal",
    "rowid": "987010",
    "final_x": "3674291.72552",
    "final_y": "526780.611518",
    "longitude": "-90.09099374698583",
    "latitude": "29.942680823820208",
    "geocoded_column": {
      "latitude": "29.942680823820208",
      "longitude": "-90.09099374698583"
    }
  },
  {
    "service_request": "2023-987009",
    "request_type": "Traffic Signals/Signs/Striping/Streetlights",
    "request_reason": "Street Light Outage/Malfunction",
    "date_created": "2023-03-29T17:20:59.000",
    "date_modified": "2023-03-29T17:20:59.000",
    "request_status": "Pending",
    "responsible_agency": "Department of Public Works",
    "final_address": "4133 Vincennes Pl",
    "address_councildis": "B",
    "status": "Assigned to Contractor",
    "contractor": "Legacy Professional Services",
    "rowid": "987009",
    "final_x": "3668690.06023",
    "final_y": "530771.10797",
    "longitude": "-90.10854490304123",
    "latitude": "29.953819199199952",
    "geocoded_column": {
      "latitude": "29.953819199199952",
      "longitude": "-90.10854490304123"
    }
  },
  {
    "service_request": "2023-987008",
    "request_type": "Trash/Recycling",
    "request_reason": "Order Recycling Cart",
    "date_created": "2023-03-29T17:20:49.000",
    "date_modified": "2023-03-29T17:20:50.000",
    "request_status": "Pending",
    "responsible_agency": "Department of Sanitation",
    "final_address": "6911 Morrison Rd",
    "address_councildis": "E",
    "status": "Pending",
    "rowid": "987008",
    "final_x": "3699159.81021",
    "final_y": "558997.106268",
    "longitude": "-90.01130631448453",
    "latitude": "30.03049956993968",
    "geocoded_column": {
      "latitude": "30.03049956993968",
      "longitude": "-90.01130631448453"
    }
  },
  {
    "service_request": "2023-987007",
    "request_type": "Trash/Recycling",
    "request_reason": "Order Trash Cart",
    "date_created": "2023-03-29T17:20:33.000",
    "date_modified": "2023-03-29T17:20:34.000",
    "request_status": "Pending",
    "responsible_agency": "Department of Sanitation",
    "final_address": "6911 Morrison Rd",
    "address_councildis": "E",
    "status": "Assigned to Contractor",
    "contractor": "Waste Pro",
    "rowid": "987007",
    "final_x": "3699159.81021",
    "final_y": "558997.106268",
    "longitude": "-90.01130631448453",
    "latitude": "30.03049956993968",
    "geocoded_column": {
      "latitude": "30.03049956993968",
      "longitude": "-90.01130631448453"
    }
  },
  {
    "service_request": "2023-987006",
    "request_type": "Traffic Signals/Signs/Striping/Streetlights",
    "request_reason": "Traffic Signal Malfunctioning/Damaged",
    "date_created": "2023-03-29T17:18:50.000",
    "date_modified": "2023-03-29T17:18:50.000",
    "request_status": "Pending",
    "responsible_agency": "Department of Public Works",
    "final_address": "600 Julia St",
    "address_councildis": "B",
    "status": "Pending",
    "rowid": "987006",
    "final_x": "3680735.02427",
    "final_y": "527900.549823",
    "longitude": "-90.07061178555823",
    "latitude": "29.945566617288815",
    "geocoded_column": {
      "latitude": "29.945566617288815",
      "longitude": "-90.07061178555823"
    }
  },
  {
    "service_request": "2023-987005",
    "request_type": "Traffic Signals/Signs/Striping/Streetlights",
    "request_reason": "Street Light Outage/Malfunction",
    "date_created": "2023-03-29T17:18:09.000",
    "date_modified": "2023-03-29T17:18:09.000",
    "request_status": "Pending",
    "responsible_agency": "Department of Public Works",
    "final_address": "4133 Vincennes Pl",
    "address_councildis": "B",
    "status": "Assigned to Contractor",
    "contractor": "Legacy Professional Services",
    "rowid": "987005",
    "final_x": "3668690.06023",
    "final_y": "530771.10797",
    "longitude": "-90.10854490304123",
    "latitude": "29.953819199199952",
    "geocoded_column": {
      "latitude": "29.953819199199952",
      "longitude": "-90.10854490304123"
    }
  },
  {
    "service_request": "2023-987004",
    "request_type": "Traffic Signals/Signs/Striping/Streetlights",
    "request_reason": "Street Light Outage/Malfunction",
    "date_created": "2023-03-29T17:14:01.000",
    "date_modified": "2023-03-29T17:14:02.000",
    "request_status": "Pending",
    "responsible_agency": "Department of Public Works",
    "final_address": "4133 Vincennes Pl",
    "address_councildis": "B",
    "status": "Assigned to Contractor",
    "contractor": "Legacy Professional Services",
    "rowid": "987004",
    "final_x": "3668690.06023",
    "final_y": "530771.10797",
    "longitude": "-90.10854490304123",
    "latitude": "29.953819199199952",
    "geocoded_column": {
      "latitude": "29.953819199199952",
      "longitude": "-90.10854490304123"
    }
  },
  {
    "service_request": "2023-987003",
    "request_type": "Trash/Recycling",
    "request_reason": "Request a Large Item Pick Up",
    "date_created": "2023-03-29T17:13:18.000",
    "date_modified": "2023-03-29T17:13:19.000",
    "request_status": "Pending",
    "responsible_agency": "Department of Sanitation",
    "final_address": "334 Millaudon St",
    "address_councildis": "A",
    "status": "Assigned to Contractor",
    "contractor": "Richards Disposal",
    "rowid": "987003",
    "final_x": "3661594.2599",
    "final_y": "524350.6487",
    "longitude": "-90.13116332446215",
    "latitude": "29.936371630388592",
    "geocoded_column": {
      "latitude": "29.936371630388592",
      "longitude": "-90.13116332446215"
    }
  },
  {
    "service_request": "2023-987001",
    "request_type": "Roads/Drainage",
    "request_reason": "Street Subsidence (Sinking)",
    "date_created": "2023-03-29T17:01:14.000",
    "date_modified": "2023-03-29T17:02:55.000",
    "request_status": "Pending",
    "responsible_agency": "Department of Public Works",
    "final_address": "GENERAL DE GAULLE DR & HOLIDAY DR",
    "address_councildis": "C",
    "status": "Pending",
    "rowid": "987001",
    "final_x": "3698595.0",
    "final_y": "519112.58",
    "longitude": "-90.01454170298932",
    "latitude": "29.920849468009546",
    "geocoded_column": {
      "latitude": "29.920849468009546",
      "longitude": "-90.01454170298932"
    }
  },
  {
    "service_request": "2023-987000",
    "request_type": "Traffic Signals/Signs/Striping/Streetlights",
    "request_reason": "Traffic Signal Malfunctioning/Damaged",
    "date_created": "2023-03-29T17:00:21.000",
    "date_modified": "2023-03-29T17:00:21.000",
    "request_status": "Pending",
    "responsible_agency": "Department of Public Works",
    "final_address": "TULANE AVE & S RAMPART ST & COMMON ST",
    "address_councildis": "B",
    "status": "Pending",
    "rowid": "987000",
    "final_x": "3679627.79",
    "final_y": "531022.73",
    "longitude": "-90.07399934305039",
    "latitude": "29.954185069998477",
    "geocoded_column": {
      "latitude": "29.954185069998477",
      "longitude": "-90.07399934305039"
    }
  },
  {
    "service_request": "2023-986999",
    "request_type": "Trash/Recycling",
    "request_reason": "Missed Trash Pick-Up",
    "date_created": "2023-03-29T16:57:56.000",
    "date_modified": "2023-03-29T16:57:57.000",
    "request_status": "Pending",
    "responsible_agency": "Department of Sanitation",
    "final_address": "13411 N Nemours St",
    "address_councildis": "E",
    "status": "Assigned to Contractor",
    "contractor": "Waste Pro",
    "rowid": "986999",
    "final_x": "3725212.37369",
    "final_y": "562707.875808",
    "longitude": "-89.92883730366425",
    "latitude": "30.039850434231838",
    "geocoded_column": {
      "latitude": "30.039850434231838",
      "longitude": "-89.92883730366425"
    }
  },
  {
    "service_request": "2023-986998",
    "request_type": "Trash/Recycling",
    "request_reason": "Repair Trash Cart",
    "date_created": "2023-03-29T16:52:21.000",
    "date_modified": "2023-03-29T16:52:22.000",
    "request_status": "Pending",
    "responsible_agency": "Department of Sanitation",
    "final_address": "14824 Curran Rd",
    "address_councildis": "E",
    "status": "Assigned to Contractor",
    "contractor": "Waste Pro",
    "rowid": "986998",
    "final_x": "3720537.48402",
    "final_y": "574009.438442",
    "longitude": "-89.9431778978276",
    "latitude": "30.07108175907431",
    "geocoded_column": {
      "latitude": "30.07108175907431",
      "longitude": "-89.9431778978276"
    }
  },
  {
    "service_request": "2023-986997",
    "request_type": "Trash/Recycling",
    "request_reason": "Request a Large Item Pick Up",
    "date_created": "2023-03-29T16:51:33.000",
    "date_modified": "2023-03-29T16:51:33.000",
    "request_status": "Pending",
    "responsible_agency": "Department of Sanitation",
    "final_address": "14824 Curran Rd",
    "address_councildis": "E",
    "status": "Assigned to Contractor",
    "contractor": "Waste Pro",
    "rowid": "986997",
    "final_x": "3720537.48402",
    "final_y": "574009.438442",
    "longitude": "-89.9431778978276",
    "latitude": "30.07108175907431",
    "geocoded_column": {
      "latitude": "30.07108175907431",
      "longitude": "-89.9431778978276"
    }
  },
  {
    "service_request": "2023-986996",
    "request_type": "Trash/Recycling",
    "request_reason": "Missed Trash Pick-Up",
    "date_created": "2023-03-29T16:51:22.000",
    "date_modified": "2023-03-29T16:51:23.000",
    "request_status": "Pending",
    "responsible_agency": "Department of Sanitation",
    "final_address": "2424 Hollygrove St",
    "address_councildis": "A",
    "status": "Assigned to Contractor",
    "contractor": "Richards Disposal",
    "rowid": "986996",
    "final_x": "3662635.14368",
    "final_y": "533895.095301",
    "longitude": "-90.12756011947071",
    "latitude": "29.962585722023558",
    "geocoded_column": {
      "latitude": "29.962585722023558",
      "longitude": "-90.12756011947071"
    }
  },
  {
    "service_request": "2023-986995",
    "request_type": "Traffic Signals/Signs/Striping/Streetlights",
    "request_reason": "Street Light Outage/Malfunction",
    "date_created": "2023-03-29T16:51:03.000",
    "date_modified": "2023-03-29T16:51:04.000",
    "request_status": "Pending",
    "responsible_agency": "Department of Public Works",
    "final_address": "5030 Warren Dr",
    "address_councildis": "E",
    "status": "Assigned to Contractor",
    "contractor": "Legacy Professional Services",
    "rowid": "986995",
    "final_x": "3713250.76875",
    "final_y": "557644.020507",
    "longitude": "-89.96683014478842",
    "latitude": "30.02632456974141",
    "geocoded_column": {
      "latitude": "30.02632456974141",
      "longitude": "-89.96683014478842"
    }
  },
  {
    "service_request": "2023-986993",
    "request_type": "Trash/Recycling",
    "request_reason": "Request a Large Item Pick Up",
    "date_created": "2023-03-29T16:49:59.000",
    "date_modified": "2023-03-29T16:50:00.000",
    "request_status": "Pending",
    "responsible_agency": "Department of Sanitation",
    "final_address": "3335 Dearmas St",
    "address_councildis": "C",
    "status": "Assigned to Contractor",
    "contractor": "Richards Disposal",
    "rowid": "986993",
    "final_x": "3696692.10109",
    "final_y": "526952.30611",
    "longitude": "-90.02026467482125",
    "latitude": "29.94246610845213",
    "geocoded_column": {
      "latitude": "29.94246610845213",
      "longitude": "-90.02026467482125"
    }
  },
  {
    "service_request": "2023-986992",
    "request_type": "Trash/Recycling",
    "request_reason": "Replace Trash Cart",
    "date_created": "2023-03-29T16:47:52.000",
    "date_modified": "2023-03-29T16:47:52.000",
    "request_status": "Pending",
    "responsible_agency": "Department of Sanitation",
    "final_address": "3107 Derby Pl",
    "address_councildis": "A",
    "status": "Assigned to Contractor",
    "contractor": "IV Waste",
    "rowid": "986992",
    "final_x": "3678593.53288",
    "final_y": "542920.393933",
    "longitude": "-90.0768531568821",
    "latitude": "29.98693078489907",
    "geocoded_column": {
      "latitude": "29.98693078489907",
      "longitude": "-90.0768531568821"
    }
  },
  {
    "service_request": "2023-986991",
    "request_type": "Traffic Signals/Signs/Striping/Streetlights",
    "request_reason": "Street Light Outage/Malfunction",
    "date_created": "2023-03-29T16:44:24.000",
    "date_modified": "2023-03-29T16:44:25.000",
    "request_status": "Pending",
    "responsible_agency": "Department of Public Works",
    "final_address": "8944 Jeannette St",
    "address_councildis": "A",
    "status": "Assigned to Contractor",
    "contractor": "Legacy Professional Services",
    "rowid": "986991",
    "final_x": "3660265.63891",
    "final_y": "531296.277506",
    "longitude": "-90.13512855353822",
    "latitude": "29.9555081614642",
    "geocoded_column": {
      "latitude": "29.9555081614642",
      "longitude": "-90.13512855353822"
    }
  },
  {
    "service_request": "2023-986990",
    "request_type": "Trash/Recycling",
    "request_reason": "Illegal Dumping",
    "date_created": "2023-03-29T16:43:28.000",
    "date_modified": "2023-03-29T16:43:28.000",
    "request_status": "Pending",
    "responsible_agency": "Department of Sanitation",
    "final_address": "4021 Erato St",
    "address_councildis": "B",
    "status": "Pending",
    "rowid": "986990",
    "final_x": "3671580.67905",
    "final_y": "531131.903234",
    "longitude": "-90.09940523395652",
    "latitude": "29.95472599173794",
    "geocoded_column": {
      "latitude": "29.95472599173794",
      "longitude": "-90.09940523395652"
    }
  },
  {
    "service_request": "2023-986989",
    "request_type": "Trash/Recycling",
    "request_reason": "Repair Trash Cart",
    "date_created": "2023-03-29T16:41:45.000",
    "date_modified": "2023-03-29T16:41:45.000",
    "request_status": "Pending",
    "responsible_agency": "Department of Sanitation",
    "final_address": "3337 River Oaks Dr",
    "address_councildis": "C",
    "status": "Assigned to Contractor",
    "contractor": "Richards Disposal",
    "rowid": "986989",
    "final_x": "3701361.721",
    "final_y": "518785.228471",
    "longitude": "-90.00582045768132",
    "latitude": "29.919861515300994",
    "geocoded_column": {
      "latitude": "29.919861515300994",
      "longitude": "-90.00582045768132"
    }
  },
  {
    "service_request": "2023-986988",
    "request_type": "Traffic Signals/Signs/Striping/Streetlights",
    "request_reason": "Street Light Outage/Malfunction",
    "date_created": "2023-03-29T16:38:44.000",
    "date_modified": "2023-03-29T16:38:45.000",
    "request_status": "Pending",
    "responsible_agency": "Department of Public Works",
    "final_address": "S LOPEZ ST & FONTAINEBLEAU DR",
    "address_councildis": "A",
    "status": "Assigned to Contractor",
    "contractor": "Legacy Professional Services",
    "rowid": "986988",
    "final_x": "3669257.0",
    "final_y": "529475.18",
    "longitude": "-90.10679853798263",
    "latitude": "29.950239146714456",
    "geocoded_column": {
      "latitude": "29.950239146714456",
      "longitude": "-90.10679853798263"
    }
  },
  {
    "service_request": "2023-986987",
    "request_type": "Safety & Permits",
    "request_reason": "Construction permit",
    "date_created": "2023-03-29T16:37:34.000",
    "date_modified": "2023-03-29T16:37:34.000",
    "request_status": "Pending",
    "responsible_agency": "Department of Code Enforcement",
    "final_address": "4151 State Street Dr",
    "address_councildis": "B",
    "status": "Pending",
    "rowid": "986987",
    "final_x": "3668462.46657",
    "final_y": "530940.30765",
    "longitude": "-90.10925784468098",
    "latitude": "29.954291130138568",
    "geocoded_column": {
      "latitude": "29.954291130138568",
      "longitude": "-90.10925784468098"
    }
  },
  {
    "service_request": "2023-986986",
    "request_type": "Trash/Recycling",
    "request_reason": "MIssed Recycling Pick-Up",
    "date_created": "2023-03-29T16:37:22.000",
    "date_modified": "2023-03-29T16:37:23.000",
    "request_status": "Pending",
    "responsible_agency": "Department of Sanitation",
    "final_address": "2416 Chelsea Dr",
    "address_councildis": "C",
    "status": "Assigned to Contractor",
    "contractor": "Richards Disposal",
    "rowid": "986986",
    "final_x": "3704839.45559",
    "final_y": "522512.508154",
    "longitude": "-89.9947055852752",
    "latitude": "29.92999899223042",
    "geocoded_column": {
      "latitude": "29.92999899223042",
      "longitude": "-89.9947055852752"
    }
  },
  {
    "service_request": "2023-986985",
    "request_type": "Trash/Recycling",
    "request_reason": "MIssed Recycling Pick-Up",
    "date_created": "2023-03-29T16:37:19.000",
    "date_modified": "2023-03-29T16:37:20.000",
    "request_status": "Pending",
    "responsible_agency": "Department of Sanitation",
    "final_address": "875 Filmore Ave",
    "address_councildis": "A",
    "status": "Assigned to Contractor",
    "contractor": "IV Waste",
    "rowid": "986985",
    "final_x": "3670168.50708",
    "final_y": "552000.410966",
    "longitude": "-90.10315689428745",
    "latitude": "30.012149013695623",
    "geocoded_column": {
      "latitude": "30.012149013695623",
      "longitude": "-90.10315689428745"
    }
  },
  {
    "service_request": "2023-986984",
    "request_type": "Trash/Recycling",
    "request_reason": "Replace Trash Cart",
    "date_created": "2023-03-29T16:34:44.000",
    "date_modified": "2023-03-29T16:34:45.000",
    "request_status": "Pending",
    "responsible_agency": "Department of Sanitation",
    "final_address": "3337 River Oaks Dr. New Orleans, LA 70131",
    "address_councildis": "C",
    "status": "Assigned to Contractor",
    "contractor": "Richards Disposal",
    "rowid": "986984",
    "final_x": "3701361.721",
    "final_y": "518785.228471",
    "longitude": "-90.00582045768132",
    "latitude": "29.919861515300994",
    "geocoded_column": {
      "latitude": "29.919861515300994",
      "longitude": "-90.00582045768132"
    }
  },
  {
    "service_request": "2023-986982",
    "request_type": "Trash/Recycling",
    "request_reason": "Request a Large Item Pick Up",
    "date_created": "2023-03-29T16:29:51.000",
    "date_modified": "2023-03-29T16:29:52.000",
    "request_status": "Pending",
    "responsible_agency": "Department of Sanitation",
    "final_address": "2633 Louisa St",
    "address_councildis": "D",
    "status": "Assigned to Contractor",
    "contractor": "IV Waste",
    "rowid": "986982",
    "final_x": "3691084.99984",
    "final_y": "541799.240012",
    "longitude": "-90.03743736768776",
    "latitude": "29.9834654641235",
    "geocoded_column": {
      "latitude": "29.9834654641235",
      "longitude": "-90.03743736768776"
    }
  },
  {
    "service_request": "2023-986981",
    "request_type": "Tax and Revenue",
    "request_reason": "Occupational License Tax",
    "date_created": "2023-03-29T16:29:02.000",
    "date_modified": "2023-03-29T16:29:03.000",
    "request_status": "Pending",
    "responsible_agency": "Bureau of Revenue",
    "final_address": "3712 Macarthur Blvd",
    "address_councildis": "C",
    "status": "Pending",
    "rowid": "986981",
    "final_x": "3697366.81226",
    "final_y": "520597.752312",
    "longitude": "-90.01836471027698",
    "latitude": "29.924971997384183",
    "geocoded_column": {
      "latitude": "29.924971997384183",
      "longitude": "-90.01836471027698"
    }
  },
  {
    "service_request": "2023-986980",
    "request_type": "Trash/Recycling",
    "request_reason": "Request a Large Item Pick Up",
    "date_created": "2023-03-29T16:24:33.000",
    "date_modified": "2023-03-29T16:24:34.000",
    "request_status": "Pending",
    "responsible_agency": "Department of Sanitation",
    "final_address": "3000 Dumaine St",
    "address_councildis": "A",
    "status": "Assigned to Contractor",
    "contractor": "Richards Disposal",
    "rowid": "986980",
    "final_x": "3676073.10158",
    "final_y": "538227.305737",
    "longitude": "-90.08497578691512",
    "latitude": "29.974102162911016",
    "geocoded_column": {
      "latitude": "29.974102162911016",
      "longitude": "-90.08497578691512"
    }
  },
  {
    "service_request": "2023-986979",
    "request_type": "Safety & Permits",
    "request_reason": "Licenses & Permits",
    "date_created": "2023-03-29T16:20:22.000",
    "date_modified": "2023-03-29T16:20:22.000",
    "request_status": "Pending",
    "responsible_agency": "Safety and Permits",
    "final_address": "918 Lowerline St",
    "address_councildis": "A",
    "status": "Pending",
    "rowid": "986979",
    "final_x": "3663154.81088",
    "final_y": "526115.246206",
    "longitude": "-90.12617789703778",
    "latitude": "29.941178600977725",
    "geocoded_column": {
      "latitude": "29.941178600977725",
      "longitude": "-90.12617789703778"
    }
  },
  {
    "service_request": "2023-986978",
    "request_type": "Trash/Recycling",
    "request_reason": "Repair Recycling Cart",
    "date_created": "2023-03-29T16:15:51.000",
    "date_modified": "2023-03-29T16:15:51.000",
    "request_status": "Pending",
    "responsible_agency": "Department of Sanitation",
    "final_address": "1107 Dante St",
    "address_councildis": "A",
    "status": "Pending",
    "rowid": "986978",
    "final_x": "3661283.40467",
    "final_y": "528645.422784",
    "longitude": "-90.13200255651924",
    "latitude": "29.948189859094228",
    "geocoded_column": {
      "latitude": "29.948189859094228",
      "longitude": "-90.13200255651924"
    }
  },
  {
    "service_request": "2023-986977",
    "request_type": "Trash/Recycling",
    "request_reason": "Start Trash Service",
    "date_created": "2023-03-29T16:15:03.000",
    "date_modified": "2023-03-29T16:15:04.000",
    "request_status": "Pending",
    "responsible_agency": "Department of Sanitation",
    "final_address": "330 Newton St",
    "address_councildis": "C",
    "status": "Assigned to Contractor",
    "contractor": "Richards Disposal",
    "rowid": "986977",
    "final_x": "3686453.95266",
    "final_y": "527970.608319",
    "longitude": "-90.05255283301311",
    "latitude": "29.94558472359371",
    "geocoded_column": {
      "latitude": "29.94558472359371",
      "longitude": "-90.05255283301311"
    }
  },
  {
    "service_request": "2023-986976",
    "request_type": "Trash/Recycling",
    "request_reason": "MIssed Recycling Pick-Up",
    "date_created": "2023-03-29T16:09:46.000",
    "date_modified": "2023-03-29T16:09:47.000",
    "request_status": "Pending",
    "responsible_agency": "Department of Sanitation",
    "final_address": "7366 Trapier Ave",
    "address_councildis": "E",
    "status": "Assigned to Contractor",
    "contractor": "Waste Pro",
    "rowid": "986976",
    "final_x": "3706784.71831",
    "final_y": "563042.739616",
    "longitude": "-89.98706149522862",
    "latitude": "30.041379368009434",
    "geocoded_column": {
      "latitude": "30.041379368009434",
      "longitude": "-89.98706149522862"
    }
  },
  {
    "service_request": "2023-986975",
    "request_type": "Trash/Recycling",
    "request_reason": "Request a Large Item Pick Up",
    "date_created": "2023-03-29T16:06:46.000",
    "date_modified": "2023-03-29T16:06:47.000",
    "request_status": "Pending",
    "responsible_agency": "Department of Sanitation",
    "final_address": "6003 Mandeville St",
    "address_councildis": "D",
    "status": "Assigned to Contractor",
    "contractor": "IV Waste",
    "rowid": "986975",
    "final_x": "3684320.27189",
    "final_y": "555078.707225",
    "longitude": "-90.05833718431359",
    "latitude": "30.020187846514442",
    "geocoded_column": {
      "latitude": "30.020187846514442",
      "longitude": "-90.05833718431359"
    }
  },
  {
    "service_request": "2023-986974",
    "request_type": "Roads/Drainage",
    "request_reason": "Pothole",
    "date_created": "2023-03-29T16:05:21.000",
    "date_modified": "2023-03-29T16:05:21.000",
    "request_status": "Pending",
    "responsible_agency": "Department of Public Works",
    "final_address": "I 10 E & ANNETTE ST & N ROMAN ST",
    "address_councildis": "D",
    "status": "Pending",
    "rowid": "986974",
    "final_x": "3682939.8",
    "final_y": "538727.28",
    "longitude": "-90.06327170497366",
    "latitude": "29.97526942829095",
    "geocoded_column": {
      "latitude": "29.97526942829095",
      "longitude": "-90.06327170497366"
    }
  },
  {
    "service_request": "2023-986973",
    "request_type": "Trash/Recycling",
    "request_reason": "Order Trash Cart",
    "date_created": "2023-03-29T16:03:24.000",
    "date_modified": "2023-03-29T16:03:25.000",
    "request_status": "Pending",
    "responsible_agency": "Department of Sanitation",
    "final_address": "1302 Ferry Pl",
    "address_councildis": "A",
    "status": "Assigned to Contractor",
    "contractor": "Richards Disposal",
    "rowid": "986973",
    "final_x": "3659998.45606",
    "final_y": "530693.797186",
    "longitude": "-90.13599210491391",
    "latitude": "29.95385921381323",
    "geocoded_column": {
      "latitude": "29.95385921381323",
      "longitude": "-90.13599210491391"
    }
  },
  {
    "service_request": "2023-986972",
    "request_type": "Trash/Recycling",
    "request_reason": "Missed Trash Pick-Up",
    "date_created": "2023-03-29T15:58:52.000",
    "date_modified": "2023-03-29T15:58:53.000",
    "request_status": "Pending",
    "responsible_agency": "Department of Sanitation",
    "final_address": "7700 Branch Dr",
    "address_councildis": "E",
    "status": "Assigned to Contractor",
    "contractor": "Waste Pro",
    "rowid": "986972",
    "final_x": "3714486.69842",
    "final_y": "568955.348581",
    "longitude": "-89.96249718935007",
    "latitude": "30.05738556494383",
    "geocoded_column": {
      "latitude": "30.05738556494383",
      "longitude": "-89.96249718935007"
    }
  },
  {
    "service_request": "2023-986971",
    "request_type": "Trash/Recycling",
    "request_reason": "Order Recycling Cart",
    "date_created": "2023-03-29T15:49:19.000",
    "date_modified": "2023-03-29T15:49:19.000",
    "request_status": "Pending",
    "responsible_agency": "Department of Sanitation",
    "final_address": "401 Treme St",
    "address_councildis": "C",
    "status": "Pending",
    "rowid": "986971",
    "final_x": "3680172.99714",
    "final_y": "533114.428548",
    "longitude": "-90.07220510561648",
    "latitude": "29.95992004533271",
    "geocoded_column": {
      "latitude": "29.95992004533271",
      "longitude": "-90.07220510561648"
    }
  },
  {
    "service_request": "2023-986968",
    "request_type": "Abandoned Vehicles",
    "request_reason": "Abandoned/Junk Vehicles",
    "date_created": "2023-03-29T15:46:59.000",
    "date_modified": "2023-03-29T15:49:40.000",
    "request_status": "Pending",
    "responsible_agency": "Department of Public Works",
    "final_address": "128 N Roman St",
    "address_councildis": "B",
    "status": "Pending",
    "rowid": "986968",
    "final_x": "3678051.23163",
    "final_y": "533447.377604",
    "longitude": "-90.07889366616236",
    "latitude": "29.96089958342062",
    "geocoded_column": {
      "latitude": "29.96089958342062",
      "longitude": "-90.07889366616236"
    }
  },
  {
    "service_request": "2023-986967",
    "request_type": "Traffic Signals/Signs/Striping/Streetlights",
    "request_reason": "Traffic Sign Missing/Damaged",
    "date_created": "2023-03-29T15:46:35.000",
    "date_modified": "2023-03-29T15:46:35.000",
    "request_status": "Pending",
    "responsible_agency": "Department of Public Works",
    "final_address": "4832 St Bernard Ave",
    "address_councildis": "D",
    "status": "Pending",
    "rowid": "986967",
    "final_x": "3676605.95195",
    "final_y": "549970.403924",
    "longitude": "-90.08288819092964",
    "latitude": "30.006375613002916",
    "geocoded_column": {
      "latitude": "30.006375613002916",
      "longitude": "-90.08288819092964"
    }
  },
  {
    "service_request": "2023-986965",
    "request_type": "Trash/Recycling",
    "request_reason": "Missed Trash Pick-Up",
    "date_created": "2023-03-29T15:44:32.000",
    "date_modified": "2023-03-29T15:44:33.000",
    "request_status": "Pending",
    "responsible_agency": "Department of Sanitation",
    "final_address": "11408 N St Andrews Cir",
    "address_councildis": "E",
    "status": "Assigned to Contractor",
    "contractor": "Waste Pro",
    "rowid": "986965",
    "final_x": "3718944.8974",
    "final_y": "560099.851357",
    "longitude": "-89.94874382413433",
    "latitude": "30.03288916829357",
    "geocoded_column": {
      "latitude": "30.03288916829357",
      "longitude": "-89.94874382413433"
    }
  },
  {
    "service_request": "2023-986964",
    "request_type": "Trash/Recycling",
    "request_reason": "Request a Large Item Pick Up",
    "date_created": "2023-03-29T15:40:25.000",
    "date_modified": "2023-03-29T15:40:25.000",
    "request_status": "Pending",
    "responsible_agency": "Department of Sanitation",
    "final_address": "2410 Palmer Ave",
    "address_councildis": "A",
    "status": "Assigned to Contractor",
    "contractor": "Richards Disposal",
    "rowid": "986964",
    "final_x": "3666315.65345",
    "final_y": "525685.750333",
    "longitude": "-90.11621289133215",
    "latitude": "29.939905683116457",
    "geocoded_column": {
      "latitude": "29.939905683116457",
      "longitude": "-90.11621289133215"
    }
  },
  {
    "service_request": "2023-986962",
    "request_type": "Parks & Parkways",
    "request_reason": "Request Tree Service (Right of Way/Public Property)",
    "date_created": "2023-03-29T15:40:22.000",
    "date_modified": "2023-03-29T15:40:22.000",
    "request_status": "Pending",
    "responsible_agency": "Department of Parks & Parkway",
    "final_address": "2139 N Broad St",
    "address_councildis": "D",
    "status": "Pending",
    "rowid": "986962",
    "final_x": "3680679.66011",
    "final_y": "542350.952141",
    "longitude": "-90.07028367207504",
    "latitude": "29.98530195476595",
    "geocoded_column": {
      "latitude": "29.98530195476595",
      "longitude": "-90.07028367207504"
    }
  },
  {
    "service_request": "2023-986961",
    "request_type": "Trash/Recycling",
    "request_reason": "Request a Large Item Pick Up",
    "date_created": "2023-03-29T15:39:41.000",
    "date_modified": "2023-03-29T15:39:41.000",
    "request_status": "Pending",
    "responsible_agency": "Department of Sanitation",
    "final_address": "224 S Solomon St",
    "address_councildis": "A",
    "status": "Assigned to Contractor",
    "contractor": "Richards Disposal",
    "rowid": "986961",
    "final_x": "3670230.47175",
    "final_y": "538187.778249",
    "longitude": "-90.1034295379666",
    "latitude": "29.974167207762566",
    "geocoded_column": {
      "latitude": "29.974167207762566",
      "longitude": "-90.1034295379666"
    }
  },
  {
    "service_request": "2023-986960",
    "request_type": "Trash/Recycling",
    "request_reason": "Missed Trash Pick-Up",
    "date_created": "2023-03-29T15:39:29.000",
    "date_modified": "2023-03-29T15:39:30.000",
    "request_status": "Pending",
    "responsible_agency": "Department of Sanitation",
    "final_address": "2011 Camp St",
    "address_councildis": "B",
    "status": "Assigned to Contractor",
    "contractor": "Richards Disposal",
    "rowid": "986960",
    "final_x": "3679182.50933",
    "final_y": "522834.092603",
    "longitude": "-90.07568915396513",
    "latitude": "29.931682488155037",
    "geocoded_column": {
      "latitude": "29.931682488155037",
      "longitude": "-90.07568915396513"
    }
  },
  {
    "service_request": "2023-986959",
    "request_type": "Abandoned Vehicles",
    "request_reason": "Abandoned/Junk Vehicles",
    "date_created": "2023-03-29T15:35:30.000",
    "date_modified": "2023-03-29T15:35:31.000",
    "request_status": "Pending",
    "responsible_agency": "Department of Public Works",
    "final_address": "1601 Ursulines Ave",
    "address_councildis": "D",
    "status": "Pending",
    "rowid": "986959",
    "final_x": "3680959.34696",
    "final_y": "535593.876038",
    "longitude": "-90.06963563861692",
    "latitude": "29.966713857973833",
    "geocoded_column": {
      "latitude": "29.966713857973833",
      "longitude": "-90.06963563861692"
    }
  },
  {
    "service_request": "2023-986958",
    "request_type": "Mosquito, Termite & Rodent Control",
    "request_reason": "Mosquito Complaint",
    "date_created": "2023-03-29T15:31:16.000",
    "date_modified": "2023-03-29T15:31:16.000",
    "request_status": "Pending",
    "responsible_agency": "Mosquito, Termite & Rodent Control Board",
    "final_address": "13220 St Helena Pl",
    "address_councildis": "E",
    "status": "Pending",
    "rowid": "986958",
    "final_x": "3726755.30784",
    "final_y": "564399.097185",
    "longitude": "-89.92389548294817",
    "latitude": "30.044448498567743",
    "geocoded_column": {
      "latitude": "30.044448498567743",
      "longitude": "-89.92389548294817"
    }
  },
  {
    "service_request": "2023-986957",
    "request_type": "Traffic Signals/Signs/Striping/Streetlights",
    "request_reason": "Street Light Outage/Malfunction",
    "date_created": "2023-03-29T15:28:23.000",
    "date_modified": "2023-03-29T15:28:24.000",
    "request_status": "Pending",
    "responsible_agency": "Department of Public Works",
    "final_address": "4446 Dale St",
    "address_councildis": "E",
    "status": "Assigned to Contractor",
    "contractor": "Legacy Professional Services",
    "rowid": "986957",
    "final_x": "3699498.2458",
    "final_y": "553454.122775",
    "longitude": "-90.01043908374783",
    "latitude": "30.015247743159478",
    "geocoded_column": {
      "latitude": "30.015247743159478",
      "longitude": "-90.01043908374783"
    }
  },
  {
    "service_request": "2023-986956",
    "request_type": "Trash/Recycling",
    "request_reason": "MIssed Recycling Pick-Up",
    "date_created": "2023-03-29T15:24:32.000",
    "date_modified": "2023-03-29T15:24:33.000",
    "request_status": "Pending",
    "responsible_agency": "Department of Sanitation",
    "final_address": "4820 Major Dr",
    "address_councildis": "E",
    "status": "Assigned to Contractor",
    "contractor": "Waste Pro",
    "rowid": "986956",
    "final_x": "3718110.12831",
    "final_y": "557400.715931",
    "longitude": "-89.95148460043231",
    "latitude": "30.025495339182406",
    "geocoded_column": {
      "latitude": "30.025495339182406",
      "longitude": "-89.95148460043231"
    }
  },
  {
    "service_request": "2023-986954",
    "request_type": "Traffic Signals/Signs/Striping/Streetlights",
    "request_reason": "Street Light Outage/Malfunction",
    "date_created": "2023-03-29T15:20:18.000",
    "date_modified": "2023-03-29T15:20:18.000",
    "request_status": "Pending",
    "responsible_agency": "Department of Public Works",
    "final_address": "4446 Dale St",
    "address_councildis": "E",
    "status": "Assigned to Contractor",
    "contractor": "Legacy Professional Services",
    "rowid": "986954",
    "final_x": "3699498.2458",
    "final_y": "553454.122775",
    "longitude": "-90.01043908374783",
    "latitude": "30.015247743159478",
    "geocoded_column": {
      "latitude": "30.015247743159478",
      "longitude": "-90.01043908374783"
    }
  },
  {
    "service_request": "2023-986953",
    "request_type": "Traffic Signals/Signs/Striping/Streetlights",
    "request_reason": "Street Light Outage/Malfunction",
    "date_created": "2023-03-29T15:18:50.000",
    "date_modified": "2023-03-29T15:18:51.000",
    "request_status": "Pending",
    "responsible_agency": "Department of Public Works",
    "final_address": "4446 Dale St",
    "address_councildis": "E",
    "status": "Assigned to Contractor",
    "contractor": "Legacy Professional Services",
    "rowid": "986953",
    "final_x": "3699498.2458",
    "final_y": "553454.122775",
    "longitude": "-90.01043908374783",
    "latitude": "30.015247743159478",
    "geocoded_column": {
      "latitude": "30.015247743159478",
      "longitude": "-90.01043908374783"
    }
  },
  {
    "service_request": "2023-986952",
    "request_type": "Trash/Recycling",
    "request_reason": "Order Trash Cart",
    "date_created": "2023-03-29T15:16:53.000",
    "date_modified": "2023-03-29T15:16:54.000",
    "request_status": "Pending",
    "responsible_agency": "Department of Sanitation",
    "final_address": "3940 Johnny Jackson Jr Blvd",
    "address_councildis": "D",
    "status": "Assigned to Contractor",
    "contractor": "IV Waste",
    "rowid": "986952",
    "final_x": "3691663.82249",
    "final_y": "547852.75381",
    "longitude": "-90.03539256699284",
    "latitude": "30.0000924221565",
    "geocoded_column": {
      "latitude": "30.0000924221565",
      "longitude": "-90.03539256699284"
    }
  },
  {
    "service_request": "2023-986951",
    "request_type": "Trash/Recycling",
    "request_reason": "MIssed Recycling Pick-Up",
    "date_created": "2023-03-29T15:14:12.000",
    "date_modified": "2023-03-29T15:14:12.000",
    "request_status": "Pending",
    "responsible_agency": "Department of Sanitation",
    "final_address": "1433 N Roman St",
    "address_councildis": "D",
    "status": "Assigned to Contractor",
    "contractor": "IV Waste",
    "rowid": "986951",
    "final_x": "3680829.36719",
    "final_y": "537266.426056",
    "longitude": "-90.06998787827882",
    "latitude": "29.97131673650215",
    "geocoded_column": {
      "latitude": "29.97131673650215",
      "longitude": "-90.06998787827882"
    }
  },
  {
    "service_request": "2023-986950",
    "request_type": "Trash/Recycling",
    "request_reason": "Request a Large Item Pick Up",
    "date_created": "2023-03-29T15:12:54.000",
    "date_modified": "2023-03-29T15:30:40.000",
    "case_close_date": "2023-03-29T10:30:40.000",
    "request_status": "Closed",
    "responsible_agency": "Department of Sanitation",
    "final_address": "1418 Lesseps St",
    "address_councildis": "D",
    "status": "Assigned to Contractor",
    "contractor": "IV Waste",
    "contractor_action": "Completed",
    "rowid": "986950",
    "final_x": "3692976.48483",
    "final_y": "536366.946119",
    "longitude": "-90.03165800511509",
    "latitude": "29.96846963867974",
    "geocoded_column": {
      "latitude": "29.96846963867974",
      "longitude": "-90.03165800511509"
    }
  },
  {
    "service_request": "2023-986949",
    "request_type": "Trash/Recycling",
    "request_reason": "Illegal Dumping",
    "date_created": "2023-03-29T15:11:37.000",
    "date_modified": "2023-03-29T15:11:37.000",
    "request_status": "Pending",
    "responsible_agency": "Department of Sanitation",
    "final_address": "1736 Port St",
    "address_councildis": "D",
    "status": "Pending",
    "rowid": "986949",
    "final_x": "3688041.23062",
    "final_y": "538936.236234",
    "longitude": "-90.04715266753841",
    "latitude": "29.975687519536496",
    "geocoded_column": {
      "latitude": "29.975687519536496",
      "longitude": "-90.04715266753841"
    }
  },
  {
    "service_request": "2023-986948",
    "request_type": "Trash/Recycling",
    "request_reason": "Illegal Dumping",
    "date_created": "2023-03-29T15:10:21.000",
    "date_modified": "2023-03-29T15:10:22.000",
    "request_status": "Pending",
    "responsible_agency": "Department of Sanitation",
    "final_address": "4015 Erato St",
    "address_councildis": "B",
    "status": "Pending",
    "rowid": "986948",
    "final_x": "3671628.94913",
    "final_y": "531101.137666",
    "longitude": "-90.09925386152464",
    "latitude": "29.954639967208667",
    "geocoded_column": {
      "latitude": "29.954639967208667",
      "longitude": "-90.09925386152464"
    }
  },
  {
    "service_request": "2023-986947",
    "request_type": "Trash/Recycling",
    "request_reason": "Return Recycling Cart",
    "date_created": "2023-03-29T15:09:26.000",
    "date_modified": "2023-03-29T15:09:27.000",
    "request_status": "Pending",
    "responsible_agency": "Department of Sanitation",
    "final_address": "1117 Dublin St",
    "address_councildis": "A",
    "status": "Pending",
    "rowid": "986947",
    "final_x": "3661591.56723",
    "final_y": "528432.696064",
    "longitude": "-90.13103660388168",
    "latitude": "29.947596041274178",
    "geocoded_column": {
      "latitude": "29.947596041274178",
      "longitude": "-90.13103660388168"
    }
  },
  {
    "service_request": "2023-986946",
    "request_type": "Trash/Recycling",
    "request_reason": "Return Trash Cart",
    "date_created": "2023-03-29T15:08:34.000",
    "date_modified": "2023-03-29T15:08:35.000",
    "request_status": "Pending",
    "responsible_agency": "Department of Sanitation",
    "final_address": "1117 Dublin St",
    "address_councildis": "A",
    "status": "Assigned to Contractor",
    "contractor": "Richards Disposal",
    "rowid": "986946",
    "final_x": "3661591.56723",
    "final_y": "528432.696064",
    "longitude": "-90.13103660388168",
    "latitude": "29.947596041274178",
    "geocoded_column": {
      "latitude": "29.947596041274178",
      "longitude": "-90.13103660388168"
    }
  },
  {
    "service_request": "2023-986945",
    "request_type": "Trash/Recycling",
    "request_reason": "Request a Large Item Pick Up",
    "date_created": "2023-03-29T15:03:36.000",
    "date_modified": "2023-03-29T15:03:37.000",
    "request_status": "Pending",
    "responsible_agency": "Department of Sanitation",
    "final_address": "2311 Octavia St",
    "address_councildis": "A",
    "status": "Assigned to Contractor",
    "contractor": "Richards Disposal",
    "rowid": "986945",
    "final_x": "3667673.35738",
    "final_y": "524169.378172",
    "longitude": "-90.11197743534515",
    "latitude": "29.935696421926075",
    "geocoded_column": {
      "latitude": "29.935696421926075",
      "longitude": "-90.11197743534515"
    }
  },
  {
    "service_request": "2023-986944",
    "request_type": "Trash/Recycling",
    "request_reason": "Request a Large Item Pick Up",
    "date_created": "2023-03-29T15:02:07.000",
    "date_modified": "2023-03-29T15:02:08.000",
    "request_status": "Pending",
    "responsible_agency": "Department of Sanitation",
    "final_address": "2527 Nashville Ave",
    "address_councildis": "A",
    "status": "Assigned to Contractor",
    "contractor": "Richards Disposal",
    "rowid": "986944",
    "final_x": "3667284.13191",
    "final_y": "525401.375869",
    "longitude": "-90.11316481242056",
    "latitude": "29.93909542263155",
    "geocoded_column": {
      "latitude": "29.93909542263155",
      "longitude": "-90.11316481242056"
    }
  },
  {
    "service_request": "2023-986943",
    "request_type": "Trash/Recycling",
    "request_reason": "MIssed Recycling Pick-Up",
    "date_created": "2023-03-29T15:02:03.000",
    "date_modified": "2023-03-29T15:02:04.000",
    "request_status": "Pending",
    "responsible_agency": "Department of Sanitation",
    "final_address": "4217 Lasalle St, New Orleans, Louisiana, 70115",
    "address_councildis": "B",
    "status": "Assigned to Contractor",
    "contractor": "Richards Disposal",
    "rowid": "986943",
    "final_x": "3671159.99828",
    "final_y": "523799.825979",
    "longitude": "-90.10098258387504",
    "latitude": "29.93457762272055",
    "geocoded_column": {
      "latitude": "29.93457762272055",
      "longitude": "-90.10098258387504"
    }
  },
  {
    "service_request": "2023-986942",
    "request_type": "Trash/Recycling",
    "request_reason": "Repair Trash Cart",
    "date_created": "2023-03-29T14:57:21.000",
    "date_modified": "2023-03-29T14:57:22.000",
    "request_status": "Pending",
    "responsible_agency": "Department of Sanitation",
    "final_address": "4707 Camelia St",
    "address_councildis": "E",
    "status": "Assigned to Contractor",
    "contractor": "Waste Pro",
    "rowid": "986942",
    "final_x": "3701615.47505",
    "final_y": "554019.600216",
    "longitude": "-90.00372894587628",
    "latitude": "30.016735209217504",
    "geocoded_column": {
      "latitude": "30.016735209217504",
      "longitude": "-90.00372894587628"
    }
  },
  {
    "service_request": "2023-986941",
    "request_type": "Trash/Recycling",
    "request_reason": "Order Recycling Cart",
    "date_created": "2023-03-29T14:57:07.000",
    "date_modified": "2023-03-29T14:57:07.000",
    "request_status": "Pending",
    "responsible_agency": "Department of Sanitation",
    "final_address": "4912 Baccich St",
    "address_councildis": "D",
    "status": "Pending",
    "rowid": "986941",
    "final_x": "3687650.17334",
    "final_y": "551117.333973",
    "longitude": "-90.04795617049737",
    "latitude": "30.00919322863764",
    "geocoded_column": {
      "latitude": "30.00919322863764",
      "longitude": "-90.04795617049737"
    }
  },
  {
    "service_request": "2023-986940",
    "request_type": "Roads/Drainage",
    "request_reason": "Pothole",
    "date_created": "2023-03-29T14:53:21.000",
    "date_modified": "2023-03-29T14:53:21.000",
    "request_status": "Pending",
    "responsible_agency": "Department of Public Works",
    "final_address": "2824 Republic St",
    "address_councildis": "D",
    "status": "Pending",
    "rowid": "986940",
    "final_x": "3680636.24443",
    "final_y": "542852.306317",
    "longitude": "-90.07040335017467",
    "latitude": "29.986681818877425",
    "geocoded_column": {
      "latitude": "29.986681818877425",
      "longitude": "-90.07040335017467"
    }
  },
  {
    "service_request": "2023-986939",
    "request_type": "Mosquito, Termite & Rodent Control",
    "request_reason": "Non-Rodent Complaint (Mice, Possums, Snakes)",
    "date_created": "2023-03-29T14:53:04.000",
    "date_modified": "2023-03-29T14:53:04.000",
    "request_status": "Pending",
    "responsible_agency": "Mosquito, Termite & Rodent Control Board",
    "final_address": "2404 Lavender St",
    "address_councildis": "D",
    "status": "Pending",
    "rowid": "986939",
    "final_x": "3686037.62191",
    "final_y": "546813.699729",
    "longitude": "-90.05320265929743",
    "latitude": "29.997409433523266",
    "geocoded_column": {
      "latitude": "29.997409433523266",
      "longitude": "-90.05320265929743"
    }
  },
  {
    "service_request": "2023-986937",
    "request_type": "Abandoned Vehicles",
    "request_reason": "Abandoned/Junk Vehicles",
    "date_created": "2023-03-29T14:52:28.000",
    "date_modified": "2023-03-29T14:54:34.000",
    "request_status": "Pending",
    "responsible_agency": "Department of Public Works",
    "final_address": "7101 Crowder Blvd",
    "address_councildis": "E",
    "status": "Pending",
    "rowid": "986937",
    "final_x": "3704432.9009",
    "final_y": "559813.708957",
    "longitude": "-89.99461325229983",
    "latitude": "30.032576570097962",
    "geocoded_column": {
      "latitude": "30.032576570097962",
      "longitude": "-89.99461325229983"
    }
  },
  {
    "service_request": "2023-986938",
    "request_type": "Property Maintenance",
    "request_reason": "Property Maintenance",
    "date_created": "2023-03-29T14:52:28.000",
    "date_modified": "2023-03-29T14:52:28.000",
    "request_status": "Pending",
    "responsible_agency": "Department of Code Enforcement",
    "final_address": "2404 Lavender St",
    "address_councildis": "D",
    "status": "Pending",
    "rowid": "986938",
    "final_x": "3686037.62191",
    "final_y": "546813.699729",
    "longitude": "-90.05320265929743",
    "latitude": "29.997409433523266",
    "geocoded_column": {
      "latitude": "29.997409433523266",
      "longitude": "-90.05320265929743"
    }
  },
  {
    "service_request": "2023-986936",
    "request_type": "Trash/Recycling",
    "request_reason": "Missed Trash Pick-Up",
    "date_created": "2023-03-29T14:50:35.000",
    "date_modified": "2023-03-29T15:01:48.000",
    "case_close_date": "2023-03-29T10:01:48.000",
    "request_status": "Closed",
    "responsible_agency": "Department of Sanitation",
    "final_address": "4758 Knight Dr",
    "address_councildis": "E",
    "status": "Assigned to Contractor",
    "contractor": "Waste Pro",
    "contractor_action": "Completed",
    "rowid": "986936",
    "final_x": "3708048.16721",
    "final_y": "555674.870041",
    "longitude": "-89.98334291484727",
    "latitude": "30.021079748697414",
    "geocoded_column": {
      "latitude": "30.021079748697414",
      "longitude": "-89.98334291484727"
    }
  },
  {
    "service_request": "2023-986935",
    "request_type": "Trash/Recycling",
    "request_reason": "Illegal Dumping",
    "date_created": "2023-03-29T14:42:48.000",
    "date_modified": "2023-03-29T14:42:48.000",
    "request_status": "Pending",
    "responsible_agency": "Department of Sanitation",
    "final_address": "3201 Sullen Pl",
    "address_councildis": "C",
    "status": "Pending",
    "rowid": "986935",
    "final_x": "3707708.52427",
    "final_y": "519006.885239",
    "longitude": "-89.98577864236549",
    "latitude": "29.920267283048474",
    "geocoded_column": {
      "latitude": "29.920267283048474",
      "longitude": "-89.98577864236549"
    }
  },
  {
    "service_request": "2023-986934",
    "request_type": "Trash/Recycling",
    "request_reason": "Repair Trash Cart",
    "date_created": "2023-03-29T14:41:05.000",
    "date_modified": "2023-03-29T14:41:06.000",
    "request_status": "Pending",
    "responsible_agency": "Department of Sanitation",
    "final_address": "1927 Elizardi Blvd",
    "address_councildis": "C",
    "status": "Assigned to Contractor",
    "contractor": "Richards Disposal",
    "rowid": "986934",
    "final_x": "3694651.73814",
    "final_y": "523515.043067",
    "longitude": "-90.0268302729443",
    "latitude": "29.933078949485306",
    "geocoded_column": {
      "latitude": "29.933078949485306",
      "longitude": "-90.0268302729443"
    }
  },
  {
    "service_request": "2023-986933",
    "request_type": "Trash/Recycling",
    "request_reason": "Damaged Caused By Contractor",
    "date_created": "2023-03-29T14:40:29.000",
    "date_modified": "2023-03-29T14:40:29.000",
    "request_status": "Pending",
    "responsible_agency": "Department of Sanitation",
    "final_address": "3930 General Taylor St",
    "address_councildis": "B",
    "status": "Assigned to Contractor",
    "contractor": "Richards Disposal",
    "rowid": "986933",
    "final_x": "3670688.3707",
    "final_y": "529133.707584",
    "longitude": "-90.10229059490663",
    "latitude": "29.94925800227631",
    "geocoded_column": {
      "latitude": "29.94925800227631",
      "longitude": "-90.10229059490663"
    }
  },
  {
    "service_request": "2023-986932",
    "request_type": "Trash/Recycling",
    "request_reason": "Request a Large Item Pick Up",
    "date_created": "2023-03-29T14:40:26.000",
    "date_modified": "2023-03-29T14:40:27.000",
    "request_status": "Pending",
    "responsible_agency": "Department of Sanitation",
    "final_address": "11220 Fernley Dr",
    "address_councildis": "E",
    "status": "Assigned to Contractor",
    "contractor": "Waste Pro",
    "rowid": "986932",
    "final_x": "3717278.82501",
    "final_y": "559668.267165",
    "longitude": "-89.95402511749978",
    "latitude": "30.031757735993537",
    "geocoded_column": {
      "latitude": "30.031757735993537",
      "longitude": "-89.95402511749978"
    }
  },
  {
    "service_request": "2023-986931",
    "request_type": "Trash/Recycling",
    "request_reason": "Repair Trash Cart",
    "date_created": "2023-03-29T14:40:21.000",
    "date_modified": "2023-03-29T14:40:21.000",
    "request_status": "Pending",
    "responsible_agency": "Department of Sanitation",
    "final_address": "1925 Elizardi Blvd",
    "address_councildis": "C",
    "status": "Assigned to Contractor",
    "contractor": "Richards Disposal",
    "rowid": "986931",
    "final_x": "3694651.73814",
    "final_y": "523537.382267",
    "longitude": "-90.02682946882864",
    "latitude": "29.93314037464768",
    "geocoded_column": {
      "latitude": "29.93314037464768",
      "longitude": "-90.02682946882864"
    }
  },
  {
    "service_request": "2023-986930",
    "request_type": "Roads/Drainage",
    "request_reason": "Pothole",
    "date_created": "2023-03-29T14:38:38.000",
    "date_modified": "2023-03-29T14:42:10.000",
    "request_status": "Pending",
    "responsible_agency": "Department of Public Works",
    "final_address": "3001 Abundance Ct",
    "address_councildis": "D",
    "status": "Pending",
    "rowid": "986930",
    "final_x": "3690429.37616",
    "final_y": "543789.178638",
    "longitude": "-90.03943719049737",
    "latitude": "29.988957453184977",
    "geocoded_column": {
      "latitude": "29.988957453184977",
      "longitude": "-90.03943719049737"
    }
  },
  {
    "service_request": "2023-986928",
    "request_type": "Trash/Recycling",
    "request_reason": "Missed Trash Pick-Up",
    "date_created": "2023-03-29T14:35:20.000",
    "date_modified": "2023-03-29T14:35:21.000",
    "request_status": "Pending",
    "responsible_agency": "Department of Sanitation",
    "final_address": "4741 Major Dr",
    "address_councildis": "E",
    "status": "Assigned to Contractor",
    "contractor": "Waste Pro",
    "rowid": "986928",
    "final_x": "3718332.65452",
    "final_y": "556945.161178",
    "longitude": "-89.95079882664871",
    "latitude": "30.024235365060548",
    "geocoded_column": {
      "latitude": "30.024235365060548",
      "longitude": "-89.95079882664871"
    }
  },
  {
    "service_request": "2023-986927",
    "request_type": "Abandoned Vehicles",
    "request_reason": "Abandoned/Junk Vehicles",
    "date_created": "2023-03-29T14:27:11.000",
    "date_modified": "2023-03-29T14:27:11.000",
    "request_status": "Pending",
    "responsible_agency": "Department of Public Works",
    "final_address": "38 Park Timbers Dr",
    "address_councildis": "C",
    "status": "Pending",
    "rowid": "986927",
    "final_x": "3699268.2824",
    "final_y": "517306.024565",
    "longitude": "-90.01248220493157",
    "latitude": "29.915860731358332",
    "geocoded_column": {
      "latitude": "29.915860731358332",
      "longitude": "-90.01248220493157"
    }
  },
  {
    "service_request": "2023-986926",
    "request_type": "Trash/Recycling",
    "request_reason": "Request a Large Item Pick Up",
    "date_created": "2023-03-29T14:26:33.000",
    "date_modified": "2023-03-29T14:26:33.000",
    "request_status": "Pending",
    "responsible_agency": "Department of Sanitation",
    "final_address": "2535 Orleans Ave",
    "address_councildis": "D",
    "status": "Assigned to Contractor",
    "contractor": "Richards Disposal",
    "rowid": "986926",
    "final_x": "3677399.36789",
    "final_y": "536625.123911",
    "longitude": "-90.08084244251212",
    "latitude": "29.96965691376763",
    "geocoded_column": {
      "latitude": "29.96965691376763",
      "longitude": "-90.08084244251212"
    }
  },
  {
    "service_request": "2023-986925",
    "request_type": "Trash/Recycling",
    "request_reason": "MIssed Recycling Pick-Up",
    "date_created": "2023-03-29T14:26:06.000",
    "date_modified": "2023-03-29T14:26:07.000",
    "request_status": "Pending",
    "responsible_agency": "Department of Sanitation",
    "final_address": "10901 Morrison Rd",
    "address_councildis": "E",
    "status": "Assigned to Contractor",
    "contractor": "Waste Pro",
    "rowid": "986925",
    "final_x": "3710752.20824",
    "final_y": "564858.67101",
    "longitude": "-89.97445486473423",
    "latitude": "30.046243680097923",
    "geocoded_column": {
      "latitude": "30.046243680097923",
      "longitude": "-89.97445486473423"
    }
  },
  {
    "service_request": "2023-986924",
    "request_type": "Trash/Recycling",
    "request_reason": "Request a Large Item Pick Up",
    "date_created": "2023-03-29T14:25:47.000",
    "date_modified": "2023-03-29T14:25:48.000",
    "request_status": "Pending",
    "responsible_agency": "Department of Sanitation",
    "final_address": "11131 Woodvine Ln",
    "address_councildis": "E",
    "status": "Assigned to Contractor",
    "contractor": "Waste Pro",
    "rowid": "986924",
    "final_x": "3716143.64888",
    "final_y": "559693.850269",
    "longitude": "-89.95761132360735",
    "latitude": "30.03186560317619",
    "geocoded_column": {
      "latitude": "30.03186560317619",
      "longitude": "-89.95761132360735"
    }
  },
  {
    "service_request": "2023-986923",
    "request_type": "Traffic Signals/Signs/Striping/Streetlights",
    "request_reason": "Striping/Road Surface Markings",
    "date_created": "2023-03-29T14:22:19.000",
    "date_modified": "2023-03-29T14:22:19.000",
    "request_status": "Pending",
    "responsible_agency": "Department of Public Works",
    "final_address": "LAUREL ST & UPPERLINE ST",
    "address_councildis": "B",
    "status": "Pending",
    "rowid": "986923",
    "final_x": "3668971.3",
    "final_y": "517834.18",
    "longitude": "-90.10809366247253",
    "latitude": "29.91823853763636",
    "geocoded_column": {
      "latitude": "29.91823853763636",
      "longitude": "-90.10809366247253"
    }
  },
  {
    "service_request": "2023-986922",
    "request_type": "Traffic Signals/Signs/Striping/Streetlights",
    "request_reason": "Request for Stop Sign",
    "date_created": "2023-03-29T14:21:42.000",
    "date_modified": "2023-03-29T14:21:42.000",
    "request_status": "Pending",
    "responsible_agency": "Department of Public Works",
    "final_address": "LAUREL ST & UPPERLINE ST",
    "address_councildis": "B",
    "status": "Pending",
    "rowid": "986922",
    "final_x": "3668971.3",
    "final_y": "517834.18",
    "longitude": "-90.10809366247253",
    "latitude": "29.91823853763636",
    "geocoded_column": {
      "latitude": "29.91823853763636",
      "longitude": "-90.10809366247253"
    }
  },
  {
    "service_request": "2023-986921",
    "request_type": "Trash/Recycling",
    "request_reason": "Illegal Dumping",
    "date_created": "2023-03-29T14:20:13.000",
    "date_modified": "2023-03-29T14:20:13.000",
    "request_status": "Pending",
    "responsible_agency": "Department of Sanitation",
    "final_address": "1342 Spain St",
    "address_councildis": "C",
    "status": "Pending",
    "rowid": "986921",
    "final_x": "3686020.28201",
    "final_y": "537464.916744",
    "longitude": "-90.05358727243568",
    "latitude": "29.971704126207488",
    "geocoded_column": {
      "latitude": "29.971704126207488",
      "longitude": "-90.05358727243568"
    }
  },
  {
    "service_request": "2023-986920",
    "request_type": "Trash/Recycling",
    "request_reason": "Illegal Dumping",
    "date_created": "2023-03-29T14:18:57.000",
    "date_modified": "2023-03-29T14:18:57.000",
    "request_status": "Pending",
    "responsible_agency": "Department of Sanitation",
    "final_address": "2343 N Villere St",
    "address_councildis": "C",
    "status": "Pending",
    "rowid": "986920",
    "final_x": "3686087.10626",
    "final_y": "537538.182664",
    "longitude": "-90.05337364700308",
    "latitude": "29.97190352956304",
    "geocoded_column": {
      "latitude": "29.97190352956304",
      "longitude": "-90.05337364700308"
    }
  },
  {
    "service_request": "2023-986919",
    "request_type": "Trash/Recycling",
    "request_reason": "Order Trash Cart",
    "date_created": "2023-03-29T14:18:06.000",
    "date_modified": "2023-03-29T14:18:30.000",
    "request_status": "Pending",
    "responsible_agency": "Department of Sanitation",
    "final_address": "8 Winners Cir",
    "address_councildis": "E",
    "status": "Assigned to Contractor",
    "contractor": "Waste Pro",
    "rowid": "986919",
    "final_x": "3715752.87333",
    "final_y": "570389.800423",
    "longitude": "-89.9584406205512",
    "latitude": "30.06128800270891",
    "geocoded_column": {
      "latitude": "30.06128800270891",
      "longitude": "-89.9584406205512"
    }
  },
  {
    "service_request": "2023-986918",
    "request_type": "Abandoned Vehicles",
    "request_reason": "Abandoned/Junk Vehicles",
    "date_created": "2023-03-29T14:16:42.000",
    "date_modified": "2023-03-29T14:19:53.000",
    "request_status": "Pending",
    "responsible_agency": "Department of Public Works",
    "final_address": "PASTEUR BLVD & PRENTISS AVE",
    "address_councildis": "D",
    "status": "Pending",
    "rowid": "986918",
    "final_x": "3682866.6",
    "final_y": "553714.38",
    "longitude": "-90.06297812202158",
    "latitude": "30.0164808419012",
    "geocoded_column": {
      "latitude": "30.0164808419012",
      "longitude": "-90.06297812202158"
    }
  },
  {
    "service_request": "2023-986917",
    "request_type": "Property Maintenance",
    "request_reason": "Property Maintenance",
    "date_created": "2023-03-29T14:15:38.000",
    "date_modified": "2023-03-29T14:15:38.000",
    "request_status": "Pending",
    "responsible_agency": "Department of Code Enforcement",
    "final_address": "2101 St Anthony St",
    "address_councildis": "D",
    "status": "Pending",
    "rowid": "986917",
    "final_x": "3683299.71234",
    "final_y": "539919.536586",
    "longitude": "-90.0620932321007",
    "latitude": "29.97853674370028",
    "geocoded_column": {
      "latitude": "29.97853674370028",
      "longitude": "-90.0620932321007"
    }
  },
  {
    "service_request": "2023-986916",
    "request_type": "Trash/Recycling",
    "request_reason": "Request a Large Item Pick Up",
    "date_created": "2023-03-29T14:13:31.000",
    "date_modified": "2023-03-29T14:13:31.000",
    "request_status": "Pending",
    "responsible_agency": "Department of Sanitation",
    "final_address": "825 Eleonore St",
    "address_councildis": "A",
    "status": "Assigned to Contractor",
    "contractor": "Richards Disposal",
    "rowid": "986916",
    "final_x": "3665308.90151",
    "final_y": "519268.400311",
    "longitude": "-90.11960597714935",
    "latitude": "29.92228936915911",
    "geocoded_column": {
      "latitude": "29.92228936915911",
      "longitude": "-90.11960597714935"
    }
  },
  {
    "service_request": "2023-986915",
    "request_type": "Trash/Recycling",
    "request_reason": "Missed Trash Pick-Up",
    "date_created": "2023-03-29T14:09:45.000",
    "date_modified": "2023-03-29T14:09:46.000",
    "request_status": "Pending",
    "responsible_agency": "Department of Sanitation",
    "final_address": "3375 Desaix Blvd",
    "address_councildis": "D",
    "status": "Assigned to Contractor",
    "contractor": "IV Waste",
    "rowid": "986915",
    "final_x": "3677017.0781",
    "final_y": "543742.789262",
    "longitude": "-90.08180423272297",
    "latitude": "29.989239523919565",
    "geocoded_column": {
      "latitude": "29.989239523919565",
      "longitude": "-90.08180423272297"
    }
  },
  {
    "service_request": "2023-986914",
    "request_type": "Trash/Recycling",
    "request_reason": "Missed Trash Pick-Up",
    "date_created": "2023-03-29T13:59:59.000",
    "date_modified": "2023-03-29T15:16:51.000",
    "case_close_date": "2023-03-29T10:16:51.000",
    "request_status": "Closed",
    "responsible_agency": "Department of Sanitation",
    "final_address": "4556 Knight Dr",
    "address_councildis": "E",
    "status": "Assigned to Contractor",
    "contractor": "Waste Pro",
    "contractor_action": "Completed",
    "rowid": "986914",
    "final_x": "3708172.08472",
    "final_y": "554458.884952",
    "longitude": "-89.98299665281266",
    "latitude": "30.01773224705908",
    "geocoded_column": {
      "latitude": "30.01773224705908",
      "longitude": "-89.98299665281266"
    }
  },
  {
    "service_request": "2023-986913",
    "request_type": "Traffic Signals/Signs/Striping/Streetlights",
    "request_reason": "Street Light Outage/Malfunction",
    "date_created": "2023-03-29T13:57:00.000",
    "date_modified": "2023-03-29T14:03:02.000",
    "request_status": "Pending",
    "responsible_agency": "Department of Public Works",
    "final_address": "1525 Dufossat St, New Orleans, Louisiana, 70115",
    "address_councildis": "B",
    "status": "Assigned to Contractor",
    "contractor": "Legacy Professional Services",
    "rowid": "986913",
    "final_x": "3668230.52967",
    "final_y": "520677.213561",
    "longitude": "-90.11033610104198",
    "latitude": "29.926077741361667",
    "geocoded_column": {
      "latitude": "29.926077741361667",
      "longitude": "-90.11033610104198"
    }
  },
  {
    "service_request": "2023-986912",
    "request_type": "Trash/Recycling",
    "request_reason": "Missed Trash Pick-Up",
    "date_created": "2023-03-29T13:55:45.000",
    "date_modified": "2023-03-29T13:55:46.000",
    "request_status": "Pending",
    "responsible_agency": "Department of Sanitation",
    "final_address": "5324 Dryades St",
    "address_councildis": "B",
    "status": "Assigned to Contractor",
    "contractor": "Richards Disposal",
    "rowid": "986912",
    "final_x": "3667670.50599",
    "final_y": "521780.03385",
    "longitude": "-90.11206683464569",
    "latitude": "29.929126571034345",
    "geocoded_column": {
      "latitude": "29.929126571034345",
      "longitude": "-90.11206683464569"
    }
  },
  {
    "service_request": "2023-986911",
    "request_type": "Trash/Recycling",
    "request_reason": "Missed Trash Pick-Up",
    "date_created": "2023-03-29T13:55:24.000",
    "date_modified": "2023-03-29T13:55:24.000",
    "request_status": "Pending",
    "responsible_agency": "Department of Sanitation",
    "final_address": "10310 Deerfield Dr",
    "address_councildis": "E",
    "status": "Assigned to Contractor",
    "contractor": "Waste Pro",
    "rowid": "986911",
    "final_x": "3710183.09489",
    "final_y": "563530.097568",
    "longitude": "-89.9763032665622",
    "latitude": "30.04260918197349",
    "geocoded_column": {
      "latitude": "30.04260918197349",
      "longitude": "-89.9763032665622"
    }
  },
  {
    "service_request": "2023-986910",
    "request_type": "Traffic Signals/Signs/Striping/Streetlights",
    "request_reason": "Traffic Signal Malfunctioning/Damaged",
    "date_created": "2023-03-29T13:45:32.000",
    "date_modified": "2023-03-29T13:45:32.000",
    "request_status": "Pending",
    "responsible_agency": "Department of Public Works",
    "final_address": "MARTIN LUTHER KING JR BLVD & S CLAIBORNE AVE",
    "address_councildis": "B",
    "status": "Pending",
    "rowid": "986910",
    "final_x": "3675010.8",
    "final_y": "528134.58",
    "longitude": "-90.08867702288131",
    "latitude": "29.946382334051407",
    "geocoded_column": {
      "latitude": "29.946382334051407",
      "longitude": "-90.08867702288131"
    }
  },
  {
    "service_request": "2023-986909",
    "request_type": "Trash/Recycling",
    "request_reason": "Order Recycling Cart",
    "date_created": "2023-03-29T13:44:57.000",
    "date_modified": "2023-03-29T13:44:57.000",
    "request_status": "Pending",
    "responsible_agency": "Department of Sanitation",
    "final_address": "228 N Alexander St",
    "address_councildis": "A",
    "status": "Pending",
    "rowid": "986909",
    "final_x": "3670438.55406",
    "final_y": "539679.839242",
    "longitude": "-90.10272175529498",
    "latitude": "29.978263728124162",
    "geocoded_column": {
      "latitude": "29.978263728124162",
      "longitude": "-90.10272175529498"
    }
  },
  {
    "service_request": "2023-986908",
    "request_type": "Abandoned Vehicles",
    "request_reason": "Abandoned/Junk Vehicles",
    "date_created": "2023-03-29T13:44:36.000",
    "date_modified": "2023-03-29T13:44:37.000",
    "request_status": "Pending",
    "responsible_agency": "Department of Public Works",
    "final_address": "7833 S Claiborne Ave",
    "address_councildis": "A",
    "status": "Pending",
    "rowid": "986908",
    "final_x": "3665566.53095",
    "final_y": "531017.240578",
    "longitude": "-90.11839951754914",
    "latitude": "29.95458741831327",
    "geocoded_column": {
      "latitude": "29.95458741831327",
      "longitude": "-90.11839951754914"
    }
  },
  {
    "service_request": "2023-986907",
    "request_type": "Abandoned Vehicles",
    "request_reason": "Abandoned/Junk Vehicles",
    "date_created": "2023-03-29T13:39:11.000",
    "date_modified": "2023-03-29T13:39:11.000",
    "request_status": "Pending",
    "responsible_agency": "Department of Public Works",
    "final_address": "2723 Marengo St",
    "address_councildis": "B",
    "status": "Pending",
    "rowid": "986907",
    "final_x": "3671595.0802",
    "final_y": "525061.064829",
    "longitude": "-90.09956616417654",
    "latitude": "29.93803274757495",
    "geocoded_column": {
      "latitude": "29.93803274757495",
      "longitude": "-90.09956616417654"
    }
  },
  {
    "service_request": "2023-986906",
    "request_type": "Traffic Signals/Signs/Striping/Streetlights",
    "request_reason": "Traffic Signal Malfunctioning/Damaged",
    "date_created": "2023-03-29T13:38:43.000",
    "date_modified": "2023-03-29T13:38:43.000",
    "request_status": "Pending",
    "responsible_agency": "Department of Public Works",
    "final_address": "2013 S Claiborne Ave",
    "address_councildis": "B",
    "status": "Pending",
    "rowid": "986906",
    "final_x": "3674831.07694",
    "final_y": "528137.760063",
    "longitude": "-90.08924436349899",
    "latitude": "29.946396444911223",
    "geocoded_column": {
      "latitude": "29.946396444911223",
      "longitude": "-90.08924436349899"
    }
  },
  {
    "service_request": "2023-986905",
    "request_type": "Trash/Recycling",
    "request_reason": "Order Recycling Cart",
    "date_created": "2023-03-29T13:37:08.000",
    "date_modified": "2023-03-29T13:37:08.000",
    "request_status": "Pending",
    "responsible_agency": "Department of Sanitation",
    "final_address": "226 N Alexander St",
    "address_councildis": "A",
    "status": "Pending",
    "rowid": "986905",
    "final_x": "3670429.58215",
    "final_y": "539671.558858",
    "longitude": "-90.10275037276143",
    "latitude": "29.978241224818877",
    "geocoded_column": {
      "latitude": "29.978241224818877",
      "longitude": "-90.10275037276143"
    }
  },
  {
    "service_request": "2023-986904",
    "request_type": "Trash/Recycling",
    "request_reason": "Request a Large Item Pick Up",
    "date_created": "2023-03-29T13:36:38.000",
    "date_modified": "2023-03-29T13:37:57.000",
    "request_status": "Pending",
    "responsible_agency": "Department of Sanitation",
    "final_address": "LAST ST & HAMILTON ST",
    "address_councildis": "A",
    "status": "Assigned to Contractor",
    "contractor": "Richards Disposal",
    "rowid": "986904",
    "final_x": "3667160.0",
    "final_y": "539330.08",
    "longitude": "-90.1130884120373",
    "latitude": "29.97739841876997",
    "geocoded_column": {
      "latitude": "29.97739841876997",
      "longitude": "-90.1130884120373"
    }
  },
  {
    "service_request": "2023-986903",
    "request_type": "Trash/Recycling",
    "request_reason": "Request a Large Item Pick Up",
    "date_created": "2023-03-29T13:35:56.000",
    "date_modified": "2023-03-29T14:31:07.000",
    "request_status": "Pending",
    "responsible_agency": "Department of Sanitation",
    "final_address": "4230 Murano Rd",
    "address_councildis": "E",
    "status": "Assigned to Contractor",
    "contractor": "Waste Pro",
    "rowid": "986903",
    "final_x": "3760978.03753",
    "final_y": "572861.900969",
    "longitude": "-89.81538464358258",
    "latitude": "30.066515488816762",
    "geocoded_column": {
      "latitude": "30.066515488816762",
      "longitude": "-89.81538464358258"
    }
  },
  {
    "service_request": "2023-986902",
    "request_type": "Trash/Recycling",
    "request_reason": "Illegal Dumping",
    "date_created": "2023-03-29T13:32:00.000",
    "date_modified": "2023-03-29T13:33:45.000",
    "request_status": "Pending",
    "responsible_agency": "Department of Sanitation",
    "final_address": "2100 BLK Carnot St",
    "address_councildis": "D",
    "status": "Pending",
    "rowid": "986902",
    "final_x": "3683314.14974",
    "final_y": "549881.672006",
    "longitude": "-90.06169845025487",
    "latitude": "30.005928636354565",
    "geocoded_column": {
      "latitude": "30.005928636354565",
      "longitude": "-90.06169845025487"
    }
  },
  {
    "service_request": "2023-986901",
    "request_type": "Traffic Signals/Signs/Striping/Streetlights",
    "request_reason": "Street Light Outage/Malfunction",
    "date_created": "2023-03-29T13:29:20.000",
    "date_modified": "2023-03-29T13:29:21.000",
    "request_status": "Pending",
    "responsible_agency": "Department of Public Works",
    "final_address": "2200 BLK Terpsichore St",
    "address_councildis": "B",
    "status": "Assigned to Contractor",
    "contractor": "Legacy Professional Services",
    "rowid": "986901",
    "final_x": "3676640.57942",
    "final_y": "526781.607314",
    "longitude": "-90.08357782443936",
    "latitude": "29.942613328024024",
    "geocoded_column": {
      "latitude": "29.942613328024024",
      "longitude": "-90.08357782443936"
    }
  },
  {
    "service_request": "2023-986899",
    "request_type": "Trash/Recycling",
    "request_reason": "Request a Large Item Pick Up",
    "date_created": "2023-03-29T13:23:33.000",
    "date_modified": "2023-03-29T13:23:34.000",
    "request_status": "Pending",
    "responsible_agency": "Department of Sanitation",
    "final_address": "5408 Hawthorne Pl",
    "address_councildis": "A",
    "status": "Assigned to Contractor",
    "contractor": "IV Waste",
    "rowid": "986899",
    "final_x": "3667705.42433",
    "final_y": "543156.867917",
    "longitude": "-90.11123686813889",
    "latitude": "29.98790480795361",
    "geocoded_column": {
      "latitude": "29.98790480795361",
      "longitude": "-90.11123686813889"
    }
  },
  {
    "service_request": "2023-986898",
    "request_type": "Property Maintenance",
    "request_reason": "Property Maintenance",
    "date_created": "2023-03-29T13:17:10.000",
    "date_modified": "2023-03-29T13:17:10.000",
    "request_status": "Pending",
    "responsible_agency": "Department of Code Enforcement",
    "final_address": "2010 Simon Bolivar Ave",
    "address_councildis": "B",
    "status": "Pending",
    "rowid": "986898",
    "final_x": "3676758.77262",
    "final_y": "525798.209981",
    "longitude": "-90.08323853383163",
    "latitude": "29.939905764468737",
    "geocoded_column": {
      "latitude": "29.939905764468737",
      "longitude": "-90.08323853383163"
    }
  },
  {
    "service_request": "2023-986897",
    "request_type": "Property Maintenance",
    "request_reason": "Property Maintenance",
    "date_created": "2023-03-29T13:15:43.000",
    "date_modified": "2023-03-29T13:15:43.000",
    "request_status": "Pending",
    "responsible_agency": "Department of Code Enforcement",
    "final_address": "2010 Simon Bolivar Ave",
    "address_councildis": "B",
    "status": "Pending",
    "rowid": "986897",
    "final_x": "3676758.77262",
    "final_y": "525798.209981",
    "longitude": "-90.08323853383163",
    "latitude": "29.939905764468737",
    "geocoded_column": {
      "latitude": "29.939905764468737",
      "longitude": "-90.08323853383163"
    }
  },
  {
    "service_request": "2023-986896",
    "request_type": "Roads/Drainage",
    "request_reason": "Catch Basin - Broken/Damage",
    "date_created": "2023-03-29T13:13:40.000",
    "date_modified": "2023-03-29T13:13:40.000",
    "request_status": "Pending",
    "responsible_agency": "Department of Public Works",
    "final_address": "636 N Broad St",
    "address_councildis": "D",
    "status": "Pending",
    "rowid": "986896",
    "final_x": "3676604.44891",
    "final_y": "536633.581447",
    "longitude": "-90.08335257723559",
    "latitude": "29.96970403713755",
    "geocoded_column": {
      "latitude": "29.96970403713755",
      "longitude": "-90.08335257723559"
    }
  },
  {
    "service_request": "2023-986895",
    "request_type": "Trash/Recycling",
    "request_reason": "Repair Trash Cart",
    "date_created": "2023-03-29T13:12:04.000",
    "date_modified": "2023-03-29T13:12:04.000",
    "request_status": "Pending",
    "responsible_agency": "Department of Sanitation",
    "final_address": "6110 E Muirfield Cir",
    "address_councildis": "E",
    "status": "Assigned to Contractor",
    "contractor": "Waste Pro",
    "rowid": "986895",
    "final_x": "3718728.67813",
    "final_y": "566486.388003",
    "longitude": "-89.949183294494",
    "latitude": "30.05045672117778",
    "geocoded_column": {
      "latitude": "30.05045672117778",
      "longitude": "-89.949183294494"
    }
  },
  {
    "service_request": "2023-986893",
    "request_type": "Trash/Recycling",
    "request_reason": "Request a Large Item Pick Up",
    "date_created": "2023-03-29T13:10:49.000",
    "date_modified": "2023-03-29T13:10:50.000",
    "request_status": "Pending",
    "responsible_agency": "Department of Sanitation",
    "final_address": "327 N Murat St",
    "address_councildis": "A",
    "status": "Assigned to Contractor",
    "contractor": "Richards Disposal",
    "rowid": "986893",
    "final_x": "3670307.92615",
    "final_y": "540257.689483",
    "longitude": "-90.10311473186046",
    "latitude": "29.979856477233803",
    "geocoded_column": {
      "latitude": "29.979856477233803",
      "longitude": "-90.10311473186046"
    }
  },
  {
    "service_request": "2023-986892",
    "request_type": "Trash/Recycling",
    "request_reason": "Illegal Dumping",
    "date_created": "2023-03-29T13:09:25.000",
    "date_modified": "2023-03-29T13:09:26.000",
    "request_status": "Pending",
    "responsible_agency": "Department of Sanitation",
    "final_address": "SULLEN PL & STRATFORD PL",
    "address_councildis": "C",
    "status": "Pending",
    "rowid": "986892",
    "final_x": "3707506.4",
    "final_y": "516189.08",
    "longitude": "-89.98652119182015",
    "latitude": "29.912525831551587",
    "geocoded_column": {
      "latitude": "29.912525831551587",
      "longitude": "-89.98652119182015"
    }
  },
  {
    "service_request": "2023-986891",
    "request_type": "Abandoned Vehicles",
    "request_reason": "Abandoned/Junk Vehicles",
    "date_created": "2023-03-29T13:04:35.000",
    "date_modified": "2023-03-29T13:04:36.000",
    "request_status": "Pending",
    "responsible_agency": "Department of Public Works",
    "final_address": "1117 Lizardi St",
    "address_councildis": "E",
    "status": "Pending",
    "rowid": "986891",
    "final_x": "3696682.4017",
    "final_y": "534336.690565",
    "longitude": "-90.02002808277547",
    "latitude": "29.962770879840868",
    "geocoded_column": {
      "latitude": "29.962770879840868",
      "longitude": "-90.02002808277547"
    }
  },
  {
    "service_request": "2023-986890",
    "request_type": "Traffic Signals/Signs/Striping/Streetlights",
    "request_reason": "Street Light Outage/Malfunction",
    "date_created": "2023-03-29T13:03:50.000",
    "date_modified": "2023-03-29T13:07:58.000",
    "request_status": "Pending",
    "responsible_agency": "Department of Public Works",
    "final_address": "Pembrook Dr, New Orleans, Louisiana, 70131",
    "address_councildis": "C",
    "status": "Assigned to Contractor",
    "contractor": "Legacy Professional Services",
    "rowid": "986890",
    "final_x": "3704268.12554",
    "final_y": "520942.231225",
    "longitude": "-89.99656699560458",
    "latitude": "29.92569961819515",
    "geocoded_column": {
      "latitude": "29.92569961819515",
      "longitude": "-89.99656699560458"
    }
  },
  {
    "service_request": "2023-986889",
    "request_type": "Trash/Recycling",
    "request_reason": "Request a Large Item Pick Up",
    "date_created": "2023-03-29T12:58:55.000",
    "date_modified": "2023-03-29T12:58:55.000",
    "request_status": "Pending",
    "responsible_agency": "Department of Sanitation",
    "final_address": "4503 Pauger St",
    "address_councildis": "D",
    "status": "Assigned to Contractor",
    "contractor": "IV Waste",
    "rowid": "986889",
    "final_x": "3682874.94863",
    "final_y": "549160.126675",
    "longitude": "-90.06311125863235",
    "latitude": "30.003958041547286",
    "geocoded_column": {
      "latitude": "30.003958041547286",
      "longitude": "-90.06311125863235"
    }
  },
  {
    "service_request": "2023-986887",
    "request_type": "Parks & Parkways",
    "request_reason": "Request Tree Service (Right of Way/Public Property)",
    "date_created": "2023-03-29T12:57:49.000",
    "date_modified": "2023-03-29T12:57:49.000",
    "request_status": "Pending",
    "responsible_agency": "Department of Parks & Parkway",
    "final_address": "2 Westpark Ct",
    "address_councildis": "C",
    "status": "Pending",
    "rowid": "986887",
    "final_x": "3696112.57674",
    "final_y": "521718.718714",
    "longitude": "-90.02228341563978",
    "latitude": "29.92809379111836",
    "geocoded_column": {
      "latitude": "29.92809379111836",
      "longitude": "-90.02228341563978"
    }
  },