[
  {
    "service_request": "2023-1008393",
    "request_type": "Roads/Drainage",
    "request_reason": "Catch Basin - Clogged",
    "date_created": "2023-06-13T23:03:04.000",
    "date_modified": "2023-06-13T23:03:04.000",
    "request_status": "Pending",
    "responsible_agency": "Department of Public Works",
    "final_address": "9400 BLK Palm St",
    "address_councildis": "A",
    "status": "Pending",
    "rowid": "1008393",
    "final_x": "3664203.7959",
    "final_y": "537893.272426",
    "longitude": "-90.12247308513783",
    "latitude": "29.973533908599165",
    "geocoded_column": {
      "latitude": "29.973533908599165",
      "longitude": "-90.12247308513783"
    }
  },
  {
    "service_request": "2023-1008392",
    "request_type": "Trash/Recycling",
    "request_reason": "MIssed Recycling Pick-Up",
    "date_created": "2023-06-13T22:57:05.000",
    "date_modified": "2023-06-13T22:57:06.000",
    "request_status": "Pending",
    "responsible_agency": "Department of Sanitation",
    "final_address": "9408 Palm St",
    "address_councildis": "A",
    "status": "Assigned to Contractor",
    "contractor": "Richards Disposal",
    "rowid": "1008392",
    "final_x": "3664198.11546",
    "final_y": "537835.589001",
    "longitude": "-90.12249295035443",
    "latitude": "29.97337546338181",
    "geocoded_column": {
      "latitude": "29.97337546338181",
      "longitude": "-90.12249295035443"
    }
  },
  {
    "service_request": "2023-1008391",
    "request_type": "Traffic Signals/Signs/Striping/Streetlights",
    "request_reason": "Street Light Outage/Malfunction",
    "date_created": "2023-06-13T22:52:50.000",
    "date_modified": "2023-06-13T22:52:51.000",
    "request_status": "Pending",
    "responsible_agency": "Department of Public Works",
    "final_address": "215 River Oaks Dr",
    "address_councildis": "C",
    "status": "Assigned to Contractor",
    "contractor": "Legacy Professional Services",
    "rowid": "1008391",
    "final_x": "3701533.81181",
    "final_y": "522996.860859",
    "longitude": "-90.00512315567958",
    "latitude": "29.931436567242155",
    "geocoded_column": {
      "latitude": "29.931436567242155",
      "longitude": "-90.00512315567958"
    }
  },
  {
    "service_request": "2023-1008390",
    "request_type": "Abandoned Vehicles",
    "request_reason": "Vehicle Blocking Your Driveway",
    "date_created": "2023-06-13T22:25:26.000",
    "date_modified": "2023-06-13T22:25:26.000",
    "request_status": "Pending",
    "responsible_agency": "Department of Public Works",
    "final_address": "4518 LaSalle St",
    "address_councildis": "B",
    "status": "Pending",
    "rowid": "1008390",
    "final_x": "3670007.9689",
    "final_y": "523603.660411",
    "longitude": "-90.10462616626022",
    "latitude": "29.934072248879055",
    "geocoded_column": {
      "latitude": "29.934072248879055",
      "longitude": "-90.10462616626022"
    }
  },
  {
    "service_request": "2023-1008389",
    "request_type": "Traffic Signals/Signs/Striping/Streetlights",
    "request_reason": "Street Light Outage/Malfunction",
    "date_created": "2023-06-13T22:07:31.000",
    "date_modified": "2023-06-13T22:07:32.000",
    "request_status": "Pending",
    "responsible_agency": "Department of Public Works",
    "final_address": "STROELITZ ST & DANTE ST",
    "address_councildis": "A",
    "status": "Assigned to Contractor",
    "contractor": "Legacy Professional Services",
    "rowid": "1008389",
    "final_x": "3667416.3",
    "final_y": "535438.78",
    "longitude": "-90.11240988201207",
    "latitude": "29.96669113582929",
    "geocoded_column": {
      "latitude": "29.96669113582929",
      "longitude": "-90.11240988201207"
    }
  },
  {
    "service_request": "2023-1008388",
    "request_type": "Traffic Signals/Signs/Striping/Streetlights",
    "request_reason": "Street Light Outage/Malfunction",
    "date_created": "2023-06-13T21:47:00.000",
    "date_modified": "2023-06-13T21:47:01.000",
    "request_status": "Pending",
    "responsible_agency": "Department of Public Works",
    "final_address": "2459 Behrman Hwy",
    "address_councildis": "C",
    "status": "Assigned to Contractor",
    "contractor": "Legacy Professional Services",
    "rowid": "1008388",
    "final_x": "3692172.09046",
    "final_y": "521171.875193",
    "longitude": "-90.03474215110283",
    "latitude": "29.926713540462703",
    "geocoded_column": {
      "latitude": "29.926713540462703",
      "longitude": "-90.03474215110283"
    }
  },
  {
    "service_request": "2023-1008387",
    "request_type": "Trash/Recycling",
    "request_reason": "Replace Trash Cart",
    "date_created": "2023-06-13T21:44:30.000",
    "date_modified": "2023-06-13T21:44:30.000",
    "request_status": "Pending",
    "responsible_agency": "Department of Sanitation",
    "final_address": "4028 Annunciation St",
    "address_councildis": "B",
    "status": "Assigned to Contractor",
    "contractor": "Richards Disposal",
    "rowid": "1008387",
    "final_x": "3672379.08065",
    "final_y": "517830.757238",
    "longitude": "-90.09733722860796",
    "latitude": "29.918128490286563",
    "geocoded_column": {
      "latitude": "29.918128490286563",
      "longitude": "-90.09733722860796"
    }
  },
  {
    "service_request": "2023-1008386",
    "request_type": "Traffic Signals/Signs/Striping/Streetlights",
    "request_reason": "Street Light Outage/Malfunction",
    "date_created": "2023-06-13T21:29:11.000",
    "date_modified": "2023-06-13T21:29:12.000",
    "request_status": "Pending",
    "responsible_agency": "Department of Public Works",
    "final_address": "11014 Curran Rd",
    "address_councildis": "E",
    "status": "Assigned to Contractor",
    "contractor": "Legacy Professional Services",
    "rowid": "1008386",
    "final_x": "3710490.90232",
    "final_y": "566038.539427",
    "longitude": "-89.97523652021039",
    "latitude": "30.049496360609922",
    "geocoded_column": {
      "latitude": "30.049496360609922",
      "longitude": "-89.97523652021039"
    }
  },
  {
    "service_request": "2023-1008385",
    "request_type": "Roads/Drainage",
    "request_reason": "Man hole cover issue",
    "date_created": "2023-06-13T21:28:31.000",
    "date_modified": "2023-06-13T21:28:32.000",
    "request_status": "Pending",
    "responsible_agency": "Department of Public Works",
    "final_address": "ST CHARLES AVE & CANAL ST & ROYAL ST",
    "address_councildis": "B",
    "status": "Pending",
    "rowid": "1008385",
    "final_x": "3681162.9",
    "final_y": "530640.88",
    "longitude": "-90.06916538739762",
    "latitude": "29.9530886310985",
    "geocoded_column": {
      "latitude": "29.9530886310985",
      "longitude": "-90.06916538739762"
    }
  },
  {
    "service_request": "2023-1008384",
    "request_type": "Traffic Signals/Signs/Striping/Streetlights",
    "request_reason": "Street Light Outage/Malfunction",
    "date_created": "2023-06-13T21:26:30.000",
    "date_modified": "2023-06-13T21:26:31.000",
    "request_status": "Pending",
    "responsible_agency": "Department of Public Works",
    "final_address": "11014 Curran Rd",
    "address_councildis": "E",
    "status": "Assigned to Contractor",
    "contractor": "Legacy Professional Services",
    "rowid": "1008384",
    "final_x": "3710490.90232",
    "final_y": "566038.539427",
    "longitude": "-89.97523652021039",
    "latitude": "30.049496360609922",
    "geocoded_column": {
      "latitude": "30.049496360609922",
      "longitude": "-89.97523652021039"
    }
  },
  {
    "service_request": "2023-1008383",
    "request_type": "Trash/Recycling",
    "request_reason": "Order Recycling Cart",
    "date_created": "2023-06-13T20:36:52.000",
    "date_modified": "2023-06-13T20:36:52.000",
    "request_status": "Pending",
    "responsible_agency": "Department of Sanitation",
    "final_address": "6801 General Haig St",
    "address_councildis": "A",
    "status": "Pending",
    "rowid": "1008383",
    "final_x": "3671082.19291",
    "final_y": "552554.036438",
    "longitude": "-90.1002513344404",
    "latitude": "30.013644284001014",
    "geocoded_column": {
      "latitude": "30.013644284001014",
      "longitude": "-90.1002513344404"
    }
  },
  {
    "service_request": "2023-1008382",
    "request_type": "Trash/Recycling",
    "request_reason": "Missed Trash Pick-Up",
    "date_created": "2023-06-13T20:28:44.000",
    "date_modified": "2023-06-13T20:28:45.000",
    "request_status": "Pending",
    "responsible_agency": "Department of Sanitation",
    "final_address": "7670 Branch Dr",
    "address_councildis": "E",
    "status": "Assigned to Contractor",
    "contractor": "Waste Pro",
    "rowid": "1008382",
    "final_x": "3714555.95851",
    "final_y": "568863.263397",
    "longitude": "-89.9622817526227",
    "latitude": "30.057130090056642",
    "geocoded_column": {
      "latitude": "30.057130090056642",
      "longitude": "-89.9622817526227"
    }
  },
  {
    "service_request": "2023-1008381",
    "request_type": "Abandoned Vehicles",
    "request_reason": "Abandoned/Junk Vehicles",
    "date_created": "2023-06-13T20:10:47.000",
    "date_modified": "2023-06-13T20:10:47.000",
    "request_status": "Pending",
    "responsible_agency": "Department of Public Works",
    "final_address": "4120 Willow St",
    "address_councildis": "B",
    "status": "Pending",
    "rowid": "1008381",
    "final_x": "3671389.22676",
    "final_y": "525498.176125",
    "longitude": "-90.1002012117108",
    "latitude": "29.939240754878195",
    "geocoded_column": {
      "latitude": "29.939240754878195",
      "longitude": "-90.1002012117108"
    }
  },
  {
    "service_request": "2023-1008380",
    "request_type": "Trash/Recycling",
    "request_reason": "Missed Trash Pick-Up",
    "date_created": "2023-06-13T20:09:01.000",
    "date_modified": "2023-06-13T20:09:02.000",
    "request_status": "Pending",
    "responsible_agency": "Department of Sanitation",
    "final_address": "4154 State Street Dr",
    "address_councildis": "B",
    "status": "Assigned to Contractor",
    "contractor": "Richards Disposal",
    "rowid": "1008380",
    "final_x": "3668430.94798",
    "final_y": "531092.962242",
    "longitude": "-90.1093522192121",
    "latitude": "29.95471180599587",
    "geocoded_column": {
      "latitude": "29.95471180599587",
      "longitude": "-90.1093522192121"
    }
  },
  {
    "service_request": "2023-1008379",
    "request_type": "Property Maintenance",
    "request_reason": "Property Maintenance",
    "date_created": "2023-06-13T20:01:17.000",
    "date_modified": "2023-06-13T20:01:18.000",
    "request_status": "Pending",
    "responsible_agency": "Department of Code Enforcement",
    "final_address": "11230 S Parkwood Ct",
    "address_councildis": "E",
    "status": "Pending",
    "rowid": "1008379",
    "final_x": "3716782.30412",
    "final_y": "558963.209116",
    "longitude": "-89.95562092073904",
    "latitude": "30.02983553403715",
    "geocoded_column": {
      "latitude": "30.02983553403715",
      "longitude": "-89.95562092073904"
    }
  },
  {
    "service_request": "2023-1008378",
    "request_type": "Trash/Recycling",
    "request_reason": "MIssed Recycling Pick-Up",
    "date_created": "2023-06-13T19:49:48.000",
    "date_modified": "2023-06-13T19:49:48.000",
    "request_status": "Pending",
    "responsible_agency": "Department of Sanitation",
    "final_address": "428 S Bernadotte St",
    "address_councildis": "A",
    "status": "Assigned to Contractor",
    "contractor": "Richards Disposal",
    "rowid": "1008378",
    "final_x": "3667953.85025",
    "final_y": "538871.206281",
    "longitude": "-90.11059662548136",
    "latitude": "29.976113400903962",
    "geocoded_column": {
      "latitude": "29.976113400903962",
      "longitude": "-90.11059662548136"
    }
  },
  {
    "service_request": "2023-1008377",
    "request_type": "Traffic Signals/Signs/Striping/Streetlights",
    "request_reason": "Street Light Outage/Malfunction",
    "date_created": "2023-06-13T19:49:13.000",
    "date_modified": "2023-06-13T19:49:14.000",
    "request_status": "Pending",
    "responsible_agency": "Department of Public Works",
    "final_address": "10942 S Hardy St",
    "address_councildis": "E",
    "status": "Assigned to Contractor",
    "contractor": "Legacy Professional Services",
    "rowid": "1008377",
    "final_x": "3713129.49893",
    "final_y": "561641.270559",
    "longitude": "-89.96706273271425",
    "latitude": "30.037319391155414",
    "geocoded_column": {
      "latitude": "30.037319391155414",
      "longitude": "-89.96706273271425"
    }
  },
  {
    "service_request": "2023-1008376",
    "request_type": "Trash/Recycling",
    "request_reason": "MIssed Recycling Pick-Up",
    "date_created": "2023-06-13T19:45:15.000",
    "date_modified": "2023-06-13T19:45:15.000",
    "request_status": "Pending",
    "responsible_agency": "Department of Sanitation",
    "final_address": "745 S Genois St",
    "address_councildis": "B",
    "status": "Assigned to Contractor",
    "contractor": "Richards Disposal",
    "rowid": "1008376",
    "final_x": "3670907.48359",
    "final_y": "535033.38247",
    "longitude": "-90.1013984815006",
    "latitude": "29.965473680370117",
    "geocoded_column": {
      "latitude": "29.965473680370117",
      "longitude": "-90.1013984815006"
    }
  },
  {
    "service_request": "2023-1008375",
    "request_type": "Trash/Recycling",
    "request_reason": "Start Trash Service",
    "date_created": "2023-06-13T19:44:30.000",
    "date_modified": "2023-06-13T19:44:31.000",
    "request_status": "Pending",
    "responsible_agency": "Department of Sanitation",
    "final_address": "917 N Rocheblave St",
    "address_councildis": "D",
    "status": "Assigned to Contractor",
    "contractor": "Richards Disposal",
    "rowid": "1008375",
    "final_x": "3678028.24162",
    "final_y": "537046.895944",
    "longitude": "-90.07884182024289",
    "latitude": "29.9707977263233",
    "geocoded_column": {
      "latitude": "29.9707977263233",
      "longitude": "-90.07884182024289"
    }
  },
  {
    "service_request": "2023-1008374",
    "request_type": "Trash/Recycling",
    "request_reason": "Illegal Dumping",
    "date_created": "2023-06-13T19:29:22.000",
    "date_modified": "2023-06-13T19:29:22.000",
    "request_status": "Pending",
    "responsible_agency": "Department of Sanitation",
    "final_address": "BAUDIN ST & S NORMAN C FRANCIS PKWY",
    "address_councildis": "B",
    "status": "Pending",
    "rowid": "1008374",
    "final_x": "3672170.8",
    "final_y": "535509.28",
    "longitude": "-90.09739276551453",
    "latitude": "29.966744831526487",
    "geocoded_column": {
      "latitude": "29.966744831526487",
      "longitude": "-90.09739276551453"
    }
  },
  {
    "service_request": "2023-1008373",
    "request_type": "Trash/Recycling",
    "request_reason": "Illegal Dumping",
    "date_created": "2023-06-13T19:27:28.000",
    "date_modified": "2023-06-13T19:27:28.000",
    "request_status": "Pending",
    "responsible_agency": "Department of Sanitation",
    "final_address": "BAUDIN ST & S NORMAN C FRANCIS PKWY",
    "address_councildis": "B",
    "status": "Pending",
    "rowid": "1008373",
    "final_x": "3672170.8",
    "final_y": "535509.28",
    "longitude": "-90.09739276551453",
    "latitude": "29.966744831526487",
    "geocoded_column": {
      "latitude": "29.966744831526487",
      "longitude": "-90.09739276551453"
    }
  },
  {
    "service_request": "2023-1008372",
    "request_type": "Trash/Recycling",
    "request_reason": "Repair Trash Cart",
    "date_created": "2023-06-13T19:09:50.000",
    "date_modified": "2023-06-13T19:09:50.000",
    "request_status": "Pending",
    "responsible_agency": "Department of Sanitation",
    "final_address": "926 Esplanade Ave",
    "address_councildis": "C",
    "status": "Assigned to Contractor",
    "contractor": "Empire Services",
    "rowid": "1008372",
    "final_x": "3683257.6989",
    "final_y": "534939.562566",
    "longitude": "-90.06240038284064",
    "latitude": "29.964844824180176",
    "geocoded_column": {
      "latitude": "29.964844824180176",
      "longitude": "-90.06240038284064"
    }
  },
  {
    "service_request": "2023-1008371",
    "request_type": "Trash/Recycling",
    "request_reason": "Request a Large Item Pick Up",
    "date_created": "2023-06-13T19:01:21.000",
    "date_modified": "2023-06-13T19:01:22.000",
    "request_status": "Pending",
    "responsible_agency": "Department of Sanitation",
    "final_address": "1723 Clio St",
    "address_councildis": "B",
    "status": "Assigned to Contractor",
    "contractor": "Richards Disposal",
    "rowid": "1008371",
    "final_x": "3679170.11061",
    "final_y": "526746.58067",
    "longitude": "-90.0755927205323",
    "latitude": "29.94244091253882",
    "geocoded_column": {
      "latitude": "29.94244091253882",
      "longitude": "-90.0755927205323"
    }
  },
  {
    "service_request": "2023-1008369",
    "request_type": "Abandoned Vehicles",
    "request_reason": "Abandoned/Junk Vehicles",
    "date_created": "2023-06-13T18:46:01.000",
    "date_modified": "2023-06-13T18:46:01.000",
    "request_status": "Pending",
    "responsible_agency": "Department of Public Works",
    "final_address": "5100 BLK Conti St",
    "address_councildis": "A",
    "status": "Pending",
    "rowid": "1008369",
    "final_x": "3668779.53412",
    "final_y": "541568.848408",
    "longitude": "-90.10789774843714",
    "latitude": "29.98350675158076",
    "geocoded_column": {
      "latitude": "29.98350675158076",
      "longitude": "-90.10789774843714"
    }
  },
  {
    "service_request": "2023-1008368",
    "request_type": "Trash/Recycling",
    "request_reason": "Request a Large Item Pick Up",
    "date_created": "2023-06-13T18:42:16.000",
    "date_modified": "2023-06-13T18:42:17.000",
    "request_status": "Pending",
    "responsible_agency": "Department of Sanitation",
    "final_address": "4624 Charlene Dr",
    "address_councildis": "E",
    "status": "Assigned to Contractor",
    "contractor": "Waste Pro",
    "rowid": "1008368",
    "final_x": "3707930.75934",
    "final_y": "554674.717464",
    "longitude": "-89.98375110809992",
    "latitude": "30.018333520397995",
    "geocoded_column": {
      "latitude": "30.018333520397995",
      "longitude": "-89.98375110809992"
    }
  },
  {
    "service_request": "2023-1008367",
    "request_type": "Trash/Recycling",
    "request_reason": "Replace Recycling Cart",
    "date_created": "2023-06-13T18:22:46.000",
    "date_modified": "2023-06-13T18:22:46.000",
    "request_status": "Pending",
    "responsible_agency": "Department of Sanitation",
    "final_address": "4503 S Galvez St",
    "address_councildis": "B",
    "status": "Pending",
    "rowid": "1008367",
    "final_x": "3669733.59502",
    "final_y": "527545.712319",
    "longitude": "-90.1053589869403",
    "latitude": "29.944919704046228",
    "geocoded_column": {
      "latitude": "29.944919704046228",
      "longitude": "-90.1053589869403"
    }
  },
  {
    "service_request": "2023-1008366",
    "request_type": "Trash/Recycling",
    "request_reason": "Request a Large Item Pick Up",
    "date_created": "2023-06-13T18:18:48.000",
    "date_modified": "2023-06-13T18:18:49.000",
    "request_status": "Pending",
    "responsible_agency": "Department of Sanitation",
    "final_address": "3800 BLK Havana Pl",
    "address_councildis": "D",
    "status": "Assigned to Contractor",
    "contractor": "IV Waste",
    "rowid": "1008366",
    "final_x": "3680623.59902",
    "final_y": "546143.120428",
    "longitude": "-90.07032871925512",
    "latitude": "29.9957307806577",
    "geocoded_column": {
      "latitude": "29.9957307806577",
      "longitude": "-90.07032871925512"
    }
  },
  {
    "service_request": "2023-1008365",
    "request_type": "Trash/Recycling",
    "request_reason": "Missed Trash Pick-Up",
    "date_created": "2023-06-13T18:13:15.000",
    "date_modified": "2023-06-13T18:13:16.000",
    "request_status": "Pending",
    "responsible_agency": "Department of Sanitation",
    "final_address": "3217 Cadiz St",
    "address_councildis": "B",
    "status": "Assigned to Contractor",
    "contractor": "Richards Disposal",
    "rowid": "1008365",
    "final_x": "3669554.59156",
    "final_y": "526666.726654",
    "longitude": "-90.1059538843088",
    "latitude": "29.94250805254452",
    "geocoded_column": {
      "latitude": "29.94250805254452",
      "longitude": "-90.1059538843088"
    }
  },
  {
    "service_request": "2023-1008364",
    "request_type": "Trash/Recycling",
    "request_reason": "Missed Trash Pick-Up",
    "date_created": "2023-06-13T18:02:37.000",
    "date_modified": "2023-06-13T18:02:38.000",
    "request_status": "Pending",
    "responsible_agency": "Department of Sanitation",
    "final_address": "800 Crystal St",
    "address_councildis": "D",
    "status": "Assigned to Contractor",
    "contractor": "IV Waste",
    "rowid": "1008364",
    "final_x": "3670405.58254",
    "final_y": "556141.845402",
    "longitude": "-90.10226729009332",
    "latitude": "30.023529485688933",
    "geocoded_column": {
      "latitude": "30.023529485688933",
      "longitude": "-90.10226729009332"
    }
  },
  {
    "service_request": "2023-1008363",
    "request_type": "Trash/Recycling",
    "request_reason": "Missed Trash Pick-Up",
    "date_created": "2023-06-13T18:01:59.000",
    "date_modified": "2023-06-13T18:02:00.000",
    "request_status": "Pending",
    "responsible_agency": "Department of Sanitation",
    "final_address": "60 Morrison Ct",
    "address_councildis": "E",
    "status": "Assigned to Contractor",
    "contractor": "Waste Pro",
    "rowid": "1008363",
    "final_x": "3704015.4723",
    "final_y": "561412.990558",
    "longitude": "-89.99587336010275",
    "latitude": "30.036987371511188",
    "geocoded_column": {
      "latitude": "30.036987371511188",
      "longitude": "-89.99587336010275"
    }
  },
  {
    "service_request": "2023-1008362",
    "request_type": "Trash/Recycling",
    "request_reason": "Request a Large Item Pick Up",
    "date_created": "2023-06-13T17:58:37.000",
    "date_modified": "2023-06-13T17:58:38.000",
    "request_status": "Pending",
    "responsible_agency": "Department of Sanitation",
    "final_address": "2426 Prentiss Ave",
    "address_councildis": "D",
    "status": "Assigned to Contractor",
    "contractor": "IV Waste",
    "rowid": "1008362",
    "final_x": "3685306.22684",
    "final_y": "553861.116119",
    "longitude": "-90.05526479158169",
    "latitude": "30.016809716372254",
    "geocoded_column": {
      "latitude": "30.016809716372254",
      "longitude": "-90.05526479158169"
    }
  },
  {
    "service_request": "2023-1008361",
    "request_type": "Trash/Recycling",
    "request_reason": "Missed Trash Pick-Up",
    "date_created": "2023-06-13T17:54:29.000",
    "date_modified": "2023-06-13T17:54:30.000",
    "request_status": "Pending",
    "responsible_agency": "Department of Sanitation",
    "final_address": "8710 Scottsdale Dr",
    "address_councildis": "E",
    "status": "Assigned to Contractor",
    "contractor": "Waste Pro",
    "rowid": "1008361",
    "final_x": "3704928.1562",
    "final_y": "561737.181215",
    "longitude": "-89.99297711663168",
    "latitude": "30.03784944459812",
    "geocoded_column": {
      "latitude": "30.03784944459812",
      "longitude": "-89.99297711663168"
    }
  },
  {
    "service_request": "2023-1008360",
    "request_type": "Trash/Recycling",
    "request_reason": "MIssed Recycling Pick-Up",
    "date_created": "2023-06-13T17:54:24.000",
    "date_modified": "2023-06-13T17:54:25.000",
    "request_status": "Pending",
    "responsible_agency": "Department of Sanitation",
    "final_address": "332 S Diamond St, New Orleans, Louisiana, 70130",
    "address_councildis": "B",
    "status": "Assigned to Contractor",
    "contractor": "Empire Services",
    "rowid": "1008360",
    "final_x": "3681996.4612",
    "final_y": "526765.101374",
    "longitude": "-90.06666865160659",
    "latitude": "29.942406230937358",
    "geocoded_column": {
      "latitude": "29.942406230937358",
      "longitude": "-90.06666865160659"
    }
  },
  {
    "service_request": "2023-1008359",
    "request_type": "Trash/Recycling",
    "request_reason": "Request a Large Item Pick Up",
    "date_created": "2023-06-13T17:41:50.000",
    "date_modified": "2023-06-13T17:41:51.000",
    "request_status": "Pending",
    "responsible_agency": "Department of Sanitation",
    "final_address": "5520 Wingate Dr",
    "address_councildis": "D",
    "status": "Assigned to Contractor",
    "contractor": "IV Waste",
    "rowid": "1008359",
    "final_x": "3681271.35439",
    "final_y": "553379.970647",
    "longitude": "-90.06803007767462",
    "latitude": "30.01560987128206",
    "geocoded_column": {
      "latitude": "30.01560987128206",
      "longitude": "-90.06803007767462"
    }
  },
  {
    "service_request": "2023-1008358",
    "request_type": "Parks & Parkways",
    "request_reason": "Request Tree Service (Right of Way/Public Property)",
    "date_created": "2023-06-13T17:32:45.000",
    "date_modified": "2023-06-13T17:32:45.000",
    "request_status": "Pending",
    "responsible_agency": "Department of Parks & Parkway",
    "final_address": "6615 Argonne Blvd",
    "address_councildis": "A",
    "status": "Pending",
    "rowid": "1008358",
    "final_x": "3670604.76263",
    "final_y": "551357.605205",
    "longitude": "-90.10180039819696",
    "latitude": "30.010368639035526",
    "geocoded_column": {
      "latitude": "30.010368639035526",
      "longitude": "-90.10180039819696"
    }
  },
  {
    "service_request": "2023-1008357",
    "request_type": "Traffic Signals/Signs/Striping/Streetlights",
    "request_reason": "Street Light Outage/Malfunction",
    "date_created": "2023-06-13T17:21:26.000",
    "date_modified": "2023-06-13T17:21:27.000",
    "request_status": "Pending",
    "responsible_agency": "Department of Public Works",
    "final_address": "1525 Seville Dr",
    "address_councildis": "D",
    "status": "Assigned to Contractor",
    "contractor": "Legacy Professional Services",
    "rowid": "1008357",
    "final_x": "3678995.36072",
    "final_y": "551340.667349",
    "longitude": "-90.0752919202952",
    "latitude": "30.010071431941046",
    "geocoded_column": {
      "latitude": "30.010071431941046",
      "longitude": "-90.0752919202952"
    }
  },
  {
    "service_request": "2023-1008356",
    "request_type": "Abandoned Vehicles",
    "request_reason": "Abandoned/Junk Vehicles",
    "date_created": "2023-06-13T17:14:52.000",
    "date_modified": "2023-06-13T17:14:52.000",
    "request_status": "Pending",
    "responsible_agency": "Department of Public Works",
    "final_address": "10200 Almonaster Ave",
    "address_councildis": "E",
    "status": "Inspected",
    "rowid": "1008356",
    "final_x": "3713684.56383",
    "final_y": "551626.395989",
    "longitude": "-89.96568637555853",
    "latitude": "30.00976423388402",
    "geocoded_column": {
      "latitude": "30.00976423388402",
      "longitude": "-89.96568637555853"
    }
  },
  {
    "service_request": "2023-1008355",
    "request_type": "Trash/Recycling",
    "request_reason": "Request a Large Item Pick Up",
    "date_created": "2023-06-13T16:54:46.000",
    "date_modified": "2023-06-13T16:54:46.000",
    "request_status": "Pending",
    "responsible_agency": "Department of Sanitation",
    "final_address": "4384 Genoa St",
    "address_councildis": "E",
    "status": "Assigned to Contractor",
    "contractor": "Waste Pro",
    "rowid": "1008355",
    "final_x": "3761126.94557",
    "final_y": "574147.522538",
    "longitude": "-89.81486007833128",
    "latitude": "30.070044930530692",
    "geocoded_column": {
      "latitude": "30.070044930530692",
      "longitude": "-89.81486007833128"
    }
  },
  {
    "service_request": "2023-1008354",
    "request_type": "Trash/Recycling",
    "request_reason": "Start Trash Service",
    "date_created": "2023-06-13T16:54:21.000",
    "date_modified": "2023-06-13T16:54:22.000",
    "request_status": "Pending",
    "responsible_agency": "Department of Sanitation",
    "final_address": "3201 Danneel St",
    "address_councildis": "B",
    "status": "Assigned to Contractor",
    "contractor": "Richards Disposal",
    "rowid": "1008354",
    "final_x": "3674160.42984",
    "final_y": "523137.750203",
    "longitude": "-90.09153292457593",
    "latitude": "29.932668057475244",
    "geocoded_column": {
      "latitude": "29.932668057475244",
      "longitude": "-90.09153292457593"
    }
  },
  {
    "service_request": "2023-1008353",
    "request_type": "Roads/Drainage",
    "request_reason": "Catch Basin - Clogged",
    "date_created": "2023-06-13T16:54:14.000",
    "date_modified": "2023-06-13T16:54:14.000",
    "request_status": "Pending",
    "responsible_agency": "Department of Public Works",
    "final_address": "1243 St Charles Ave",
    "address_councildis": "B",
    "status": "Pending",
    "rowid": "1008353",
    "final_x": "3679495.41634",
    "final_y": "526131.335422",
    "longitude": "-90.07458699533005",
    "latitude": "29.94073937009951",
    "geocoded_column": {
      "latitude": "29.94073937009951",
      "longitude": "-90.07458699533005"
    }
  },
  {
    "service_request": "2023-1008352",
    "request_type": "Roads/Drainage",
    "request_reason": "Pothole",
    "date_created": "2023-06-13T16:48:30.000",
    "date_modified": "2023-06-13T16:48:31.000",
    "request_status": "Pending",
    "responsible_agency": "Department of Public Works",
    "final_address": "600 BLK Harrison Ave",
    "address_councildis": "A",
    "status": "Pending",
    "rowid": "1008352",
    "final_x": "3668506.39294",
    "final_y": "549248.510871",
    "longitude": "-90.10850118853503",
    "latitude": "30.004631212383213",
    "geocoded_column": {
      "latitude": "30.004631212383213",
      "longitude": "-90.10850118853503"
    }
  },
  {
    "service_request": "2023-1008351",
    "request_type": "Trash/Recycling",
    "request_reason": "Replace Recycling Cart",
    "date_created": "2023-06-13T16:45:45.000",
    "date_modified": "2023-06-13T16:45:45.000",
    "request_status": "Pending",
    "responsible_agency": "Department of Sanitation",
    "final_address": "9709 Andover Dr",
    "address_councildis": "E",
    "status": "Pending",
    "rowid": "1008351",
    "final_x": "3708410.95435",
    "final_y": "561842.722719",
    "longitude": "-89.98196677868674",
    "latitude": "30.038027161507333",
    "geocoded_column": {
      "latitude": "30.038027161507333",
      "longitude": "-89.98196677868674"
    }
  },
  {
    "service_request": "2023-1008350",
    "request_type": "Trash/Recycling",
    "request_reason": "Replace Recycling Cart",
    "date_created": "2023-06-13T16:45:24.000",
    "date_modified": "2023-06-13T16:45:24.000",
    "request_status": "Pending",
    "responsible_agency": "Department of Sanitation",
    "final_address": "9709 Andover Dr",
    "address_councildis": "E",
    "status": "Pending",
    "rowid": "1008350",
    "final_x": "3708410.95435",
    "final_y": "561842.722719",
    "longitude": "-89.98196677868674",
    "latitude": "30.038027161507333",
    "geocoded_column": {
      "latitude": "30.038027161507333",
      "longitude": "-89.98196677868674"
    }
  },
  {
    "service_request": "2023-1008349",
    "request_type": "Trash/Recycling",
    "request_reason": "Replace Recycling Cart",
    "date_created": "2023-06-13T16:44:44.000",
    "date_modified": "2023-06-13T16:44:44.000",
    "request_status": "Pending",
    "responsible_agency": "Department of Sanitation",
    "final_address": "9709 Andover Dr",
    "address_councildis": "E",
    "status": "Pending",
    "rowid": "1008349",
    "final_x": "3708410.95435",
    "final_y": "561842.722719",
    "longitude": "-89.98196677868674",
    "latitude": "30.038027161507333",
    "geocoded_column": {
      "latitude": "30.038027161507333",
      "longitude": "-89.98196677868674"
    }
  },
  {
    "service_request": "2023-1008348",
    "request_type": "Trash/Recycling",
    "request_reason": "Repair Trash Cart",
    "date_created": "2023-06-13T16:44:34.000",
    "date_modified": "2023-06-13T16:44:35.000",
    "request_status": "Pending",
    "responsible_agency": "Department of Sanitation",
    "final_address": "3309 Delachaise St",
    "address_councildis": "B",
    "status": "Assigned to Contractor",
    "contractor": "Richards Disposal",
    "rowid": "1008348",
    "final_x": "3671585.82516",
    "final_y": "527166.903871",
    "longitude": "-90.0995237958986",
    "latitude": "29.943823393712517",
    "geocoded_column": {
      "latitude": "29.943823393712517",
      "longitude": "-90.0995237958986"
    }
  },
  {
    "service_request": "2023-1008347",
    "request_type": "Trash/Recycling",
    "request_reason": "Replace Recycling Cart",
    "date_created": "2023-06-13T16:44:18.000",
    "date_modified": "2023-06-13T16:44:18.000",
    "request_status": "Pending",
    "responsible_agency": "Department of Sanitation",
    "final_address": "9709 Andover Dr",
    "address_councildis": "E",
    "status": "Pending",
    "rowid": "1008347",
    "final_x": "3708410.95435",
    "final_y": "561842.722719",
    "longitude": "-89.98196677868674",
    "latitude": "30.038027161507333",
    "geocoded_column": {
      "latitude": "30.038027161507333",
      "longitude": "-89.98196677868674"
    }
  },
  {
    "service_request": "2023-1008346",
    "request_type": "Roads/Drainage",
    "request_reason": "Pothole",
    "date_created": "2023-06-13T16:43:35.000",
    "date_modified": "2023-06-13T16:43:35.000",
    "request_status": "Pending",
    "responsible_agency": "Department of Public Works",
    "final_address": "3101 Jena St",
    "address_councildis": "B",
    "status": "Pending",
    "rowid": "1008346",
    "final_x": "3669952.55054",
    "final_y": "526250.123838",
    "longitude": "-90.10471153655884",
    "latitude": "29.941350802720606",
    "geocoded_column": {
      "latitude": "29.941350802720606",
      "longitude": "-90.10471153655884"
    }
  },
  {
    "service_request": "2023-1008345",
    "request_type": "Trash/Recycling",
    "request_reason": "Replace Recycling Cart",
    "date_created": "2023-06-13T16:41:58.000",
    "date_modified": "2023-06-13T16:41:58.000",
    "request_status": "Pending",
    "responsible_agency": "Department of Sanitation",
    "final_address": "9709 Andover Dr",
    "address_councildis": "E",
    "status": "Pending",
    "rowid": "1008345",
    "final_x": "3708410.95435",
    "final_y": "561842.722719",
    "longitude": "-89.98196677868674",
    "latitude": "30.038027161507333",
    "geocoded_column": {
      "latitude": "30.038027161507333",
      "longitude": "-89.98196677868674"
    }
  },
  {
    "service_request": "2023-1008344",
    "request_type": "Traffic Signals/Signs/Striping/Streetlights",
    "request_reason": "Traffic Signal Malfunctioning/Damaged",
    "date_created": "2023-06-13T16:40:01.000",
    "date_modified": "2023-06-13T16:40:01.000",
    "request_status": "Pending",
    "responsible_agency": "Department of Public Works",
    "final_address": "EARHART BLVD & MAGNOLIA ST",
    "address_councildis": "B",
    "status": "Pending",
    "rowid": "1008344",
    "final_x": "3676590.5",
    "final_y": "528721.38",
    "longitude": "-90.08366914458753",
    "latitude": "29.947948562397546",
    "geocoded_column": {
      "latitude": "29.947948562397546",
      "longitude": "-90.08366914458753"
    }
  },
  {
    "service_request": "2023-1008343",
    "request_type": "Trash/Recycling",
    "request_reason": "Missed Trash Pick-Up",
    "date_created": "2023-06-13T16:39:04.000",
    "date_modified": "2023-06-13T16:39:05.000",
    "request_status": "Pending",
    "responsible_agency": "Department of Sanitation",
    "final_address": "1213 Leboeuf St",
    "address_councildis": "C",
    "status": "Assigned to Contractor",
    "contractor": "Richards Disposal",
    "rowid": "1008343",
    "final_x": "3689671.17231",
    "final_y": "526930.260542",
    "longitude": "-90.04243205871867",
    "latitude": "29.94262484998496",
    "geocoded_column": {
      "latitude": "29.94262484998496",
      "longitude": "-90.04243205871867"
    }
  },
  {
    "service_request": "2023-1008342",
    "request_type": "Trash/Recycling",
    "request_reason": "Replace Recycling Cart",
    "date_created": "2023-06-13T16:38:58.000",
    "date_modified": "2023-06-13T16:38:58.000",
    "request_status": "Pending",
    "responsible_agency": "Department of Sanitation",
    "final_address": "9709 Andover Dr",
    "address_councildis": "E",
    "status": "Pending",
    "rowid": "1008342",
    "final_x": "3708410.95435",
    "final_y": "561842.722719",
    "longitude": "-89.98196677868674",
    "latitude": "30.038027161507333",
    "geocoded_column": {
      "latitude": "30.038027161507333",
      "longitude": "-89.98196677868674"
    }
  },
  {
    "service_request": "2023-1008341",
    "request_type": "Trash/Recycling",
    "request_reason": "Order Trash Cart",
    "date_created": "2023-06-13T16:37:10.000",
    "date_modified": "2023-06-13T16:39:02.000",
    "request_status": "Pending",
    "responsible_agency": "Department of Sanitation",
    "final_address": "16 N Oak Ridge Ct",
    "address_councildis": "E",
    "status": "Assigned to Contractor",
    "contractor": "Waste Pro",
    "rowid": "1008341",
    "final_x": "3713360.80798",
    "final_y": "567900.147813",
    "longitude": "-89.96609573886805",
    "latitude": "30.0545211833638",
    "geocoded_column": {
      "latitude": "30.0545211833638",
      "longitude": "-89.96609573886805"
    }
  },
  {
    "service_request": "2023-1008340",
    "request_type": "Trash/Recycling",
    "request_reason": "Replace Recycling Cart",
    "date_created": "2023-06-13T16:35:19.000",
    "date_modified": "2023-06-13T16:35:19.000",
    "request_status": "Pending",
    "responsible_agency": "Department of Sanitation",
    "final_address": "2325 St Roch Ave",
    "address_councildis": "D",
    "status": "Pending",
    "rowid": "1008340",
    "final_x": "3686193.26262",
    "final_y": "541056.922764",
    "longitude": "-90.05291420983312",
    "latitude": "29.981575567450268",
    "geocoded_column": {
      "latitude": "29.981575567450268",
      "longitude": "-90.05291420983312"
    }
  },
  {
    "service_request": "2023-1008339",
    "request_type": "Trash/Recycling",
    "request_reason": "Repair Trash Cart",
    "date_created": "2023-06-13T16:33:51.000",
    "date_modified": "2023-06-13T16:33:51.000",
    "request_status": "Pending",
    "responsible_agency": "Department of Sanitation",
    "final_address": "4619 Virgilian St",
    "address_councildis": "D",
    "status": "Assigned to Contractor",
    "contractor": "Waste Pro",
    "rowid": "1008339",
    "final_x": "3697620.72413",
    "final_y": "553106.653847",
    "longitude": "-90.01638375684254",
    "latitude": "30.014351802976137",
    "geocoded_column": {
      "latitude": "30.014351802976137",
      "longitude": "-90.01638375684254"
    }
  },
  {
    "service_request": "2023-1008338",
    "request_type": "Trash/Recycling",
    "request_reason": "Replace Recycling Cart",
    "date_created": "2023-06-13T16:33:16.000",
    "date_modified": "2023-06-13T16:33:16.000",
    "request_status": "Pending",
    "responsible_agency": "Department of Sanitation",
    "final_address": "9709 Andover Dr",
    "address_councildis": "E",
    "status": "Pending",
    "rowid": "1008338",
    "final_x": "3708410.95435",
    "final_y": "561842.722719",
    "longitude": "-89.98196677868674",
    "latitude": "30.038027161507333",
    "geocoded_column": {
      "latitude": "30.038027161507333",
      "longitude": "-89.98196677868674"
    }
  },
  {
    "service_request": "2023-1008337",
    "request_type": "Trash/Recycling",
    "request_reason": "Replace Trash Cart",
    "date_created": "2023-06-13T16:31:42.000",
    "date_modified": "2023-06-13T16:31:43.000",
    "request_status": "Pending",
    "responsible_agency": "Department of Sanitation",
    "final_address": "2325 St Roch Ave",
    "address_councildis": "D",
    "status": "Assigned to Contractor",
    "contractor": "IV Waste",
    "rowid": "1008337",
    "final_x": "3686193.26262",
    "final_y": "541056.922764",
    "longitude": "-90.05291420983312",
    "latitude": "29.981575567450268",
    "geocoded_column": {
      "latitude": "29.981575567450268",
      "longitude": "-90.05291420983312"
    }
  },
  {
    "service_request": "2023-1008336",
    "request_type": "Roads/Drainage",
    "request_reason": "Catch Basin - Clogged",
    "date_created": "2023-06-13T16:29:47.000",
    "date_modified": "2023-06-13T16:29:47.000",
    "request_status": "Pending",
    "responsible_agency": "Department of Public Works",
    "final_address": "520 Royal St",
    "address_councildis": "C",
    "status": "Pending",
    "rowid": "1008336",
    "final_x": "3682235.7405",
    "final_y": "531999.850627",
    "longitude": "-90.06573035805727",
    "latitude": "29.956792749551518",
    "geocoded_column": {
      "latitude": "29.956792749551518",
      "longitude": "-90.06573035805727"
    }
  },
  {
    "service_request": "2023-1008335",
    "request_type": "Trash/Recycling",
    "request_reason": "Order Trash Cart",
    "date_created": "2023-06-13T16:21:33.000",
    "date_modified": "2023-06-13T16:21:34.000",
    "request_status": "Pending",
    "responsible_agency": "Department of Sanitation",
    "final_address": "6900 Yorktown Dr",
    "address_councildis": "E",
    "status": "Assigned to Contractor",
    "contractor": "Waste Pro",
    "rowid": "1008335",
    "final_x": "3706373.14942",
    "final_y": "560020.116253",
    "longitude": "-89.98847430703314",
    "latitude": "30.03308163650069",
    "geocoded_column": {
      "latitude": "30.03308163650069",
      "longitude": "-89.98847430703314"
    }
  },
  {
    "service_request": "2023-1008333",
    "request_type": "Trash/Recycling",
    "request_reason": "Illegal Dumping",
    "date_created": "2023-06-13T16:08:15.000",
    "date_modified": "2023-06-13T16:08:42.000",
    "request_status": "Pending",
    "responsible_agency": "Department of Sanitation",
    "final_address": "5600 New England Dr",
    "address_councildis": "E",
    "status": "Pending",
    "rowid": "1008333",
    "final_x": "3723588.85503",
    "final_y": "564122.439713",
    "longitude": "-89.93391345737024",
    "latitude": "30.04379451899168",
    "geocoded_column": {
      "latitude": "30.04379451899168",
      "longitude": "-89.93391345737024"
    }
  },
  {
    "service_request": "2023-1008332",
    "request_type": "Trash/Recycling",
    "request_reason": "Illegal Dumping",
    "date_created": "2023-06-13T16:04:34.000",
    "date_modified": "2023-06-13T16:04:35.000",
    "request_status": "Pending",
    "responsible_agency": "Department of Sanitation",
    "final_address": "BULLARD AVE & I 10 E",
    "address_councildis": "E",
    "status": "Pending",
    "rowid": "1008332",
    "final_x": "3714957.1",
    "final_y": "564837.08",
    "longitude": "-89.96116621349518",
    "latitude": "30.046046528688773",
    "geocoded_column": {
      "latitude": "30.046046528688773",
      "longitude": "-89.96116621349518"
    }
  },
  {
    "service_request": "2023-1008331",
    "request_type": "Trash/Recycling",
    "request_reason": "Request a Large Item Pick Up",
    "date_created": "2023-06-13T15:50:28.000",
    "date_modified": "2023-06-13T15:50:29.000",
    "request_status": "Pending",
    "responsible_agency": "Department of Sanitation",
    "final_address": "4406 Stemway Dr",
    "address_councildis": "D",
    "status": "Assigned to Contractor",
    "contractor": "Waste Pro",
    "rowid": "1008331",
    "final_x": "3697017.01143",
    "final_y": "552437.65583",
    "longitude": "-90.01831543632352",
    "latitude": "30.01253137488796",
    "geocoded_column": {
      "latitude": "30.01253137488796",
      "longitude": "-90.01831543632352"
    }
  },
  {
    "service_request": "2023-1008330",
    "request_type": "Trash/Recycling",
    "request_reason": "Missed Trash Pick-Up",
    "date_created": "2023-06-13T15:45:54.000",
    "date_modified": "2023-06-13T15:45:55.000",
    "request_status": "Pending",
    "responsible_agency": "Department of Sanitation",
    "final_address": "6351 Eastover Dr",
    "address_councildis": "E",
    "status": "Assigned to Contractor",
    "contractor": "Waste Pro",
    "rowid": "1008330",
    "final_x": "3718135.65279",
    "final_y": "563729.552929",
    "longitude": "-89.95116272015393",
    "latitude": "30.04289623787628",
    "geocoded_column": {
      "latitude": "30.04289623787628",
      "longitude": "-89.95116272015393"
    }
  },
  {
    "service_request": "2023-1008329",
    "request_type": "Trash/Recycling",
    "request_reason": "Replace Recycling Cart",
    "date_created": "2023-06-13T15:42:40.000",
    "date_modified": "2023-06-13T15:42:40.000",
    "request_status": "Pending",
    "responsible_agency": "Department of Sanitation",
    "final_address": "0 BLK Allard Blvd",
    "address_councildis": "A",
    "status": "Pending",
    "rowid": "1008329",
    "final_x": "3672821.79572",
    "final_y": "540498.945693",
    "longitude": "-90.09516664976555",
    "latitude": "29.98044539706053",
    "geocoded_column": {
      "latitude": "29.98044539706053",
      "longitude": "-90.09516664976555"
    }
  },
  {
    "service_request": "2023-1008328",
    "request_type": "Roads/Drainage",
    "request_reason": "Catch Basin - Clogged",
    "date_created": "2023-06-13T15:42:21.000",
    "date_modified": "2023-06-13T15:42:21.000",
    "request_status": "Pending",
    "responsible_agency": "Department of Public Works",
    "final_address": "2201 St Bernard Ave",
    "address_councildis": "D",
    "status": "Pending",
    "rowid": "1008328",
    "final_x": "3681110.06171",
    "final_y": "540034.974987",
    "longitude": "-90.0690049300393",
    "latitude": "29.97892077432437",
    "geocoded_column": {
      "latitude": "29.97892077432437",
      "longitude": "-90.0690049300393"
    }
  },
  {
    "service_request": "2023-1008327",
    "request_type": "Trash/Recycling",
    "request_reason": "Missed Trash Pick-Up",
    "date_created": "2023-06-13T15:40:57.000",
    "date_modified": "2023-06-13T15:40:58.000",
    "request_status": "Pending",
    "responsible_agency": "Department of Sanitation",
    "final_address": "4975 Sandalwood St",
    "address_councildis": "E",
    "status": "Assigned to Contractor",
    "contractor": "Waste Pro",
    "rowid": "1008327",
    "final_x": "3712158.37182",
    "final_y": "557631.500827",
    "longitude": "-89.97028242555685",
    "latitude": "30.026325921536625",
    "geocoded_column": {
      "latitude": "30.026325921536625",
      "longitude": "-89.97028242555685"
    }
  },
  {
    "service_request": "2023-1008326",
    "request_type": "Trash/Recycling",
    "request_reason": "Request a Large Item Pick Up",
    "date_created": "2023-06-13T15:32:43.000",
    "date_modified": "2023-06-13T15:32:44.000",
    "request_status": "Pending",
    "responsible_agency": "Department of Sanitation",
    "final_address": "920 Music St",
    "address_councildis": "C",
    "status": "Assigned to Contractor",
    "contractor": "IV Waste",
    "rowid": "1008326",
    "final_x": "3686863.08297",
    "final_y": "535912.566215",
    "longitude": "-90.050980450747",
    "latitude": "29.96740979491691",
    "geocoded_column": {
      "latitude": "29.96740979491691",
      "longitude": "-90.050980450747"
    }
  },
  {
    "service_request": "2023-1008325",
    "request_type": "Abandoned Vehicles",
    "request_reason": "Abandoned/Junk Vehicles",
    "date_created": "2023-06-13T15:31:50.000",
    "date_modified": "2023-06-13T15:31:51.000",
    "request_status": "Pending",
    "responsible_agency": "Department of Public Works",
    "final_address": "6001 Mandeville St",
    "address_councildis": "D",
    "status": "Pending",
    "rowid": "1008325",
    "final_x": "3684326.50319",
    "final_y": "555065.799577",
    "longitude": "-90.05831794919816",
    "latitude": "30.020152164580328",
    "geocoded_column": {
      "latitude": "30.020152164580328",
      "longitude": "-90.05831794919816"
    }
  },
  {
    "service_request": "2023-1008324",
    "request_type": "Abandoned Vehicles",
    "request_reason": "Abandoned/Junk Vehicles",
    "date_created": "2023-06-13T15:26:20.000",
    "date_modified": "2023-06-13T15:26:20.000",
    "request_status": "Pending",
    "responsible_agency": "Department of Public Works",
    "final_address": "2808 Constance St",
    "address_councildis": "B",
    "status": "Pending",
    "rowid": "1008324",
    "final_x": "3677206.86242",
    "final_y": "520451.181496",
    "longitude": "-90.0820082020566",
    "latitude": "29.9251897346837",
    "geocoded_column": {
      "latitude": "29.9251897346837",
      "longitude": "-90.0820082020566"
    }
  },
  {
    "service_request": "2023-1008323",
    "request_type": "Roads/Drainage",
    "request_reason": "Catch Basin - Clogged",
    "date_created": "2023-06-13T15:25:35.000",
    "date_modified": "2023-06-13T15:25:35.000",
    "request_status": "Pending",
    "responsible_agency": "Department of Public Works",
    "final_address": "1403 France St",
    "address_councildis": "D",
    "status": "Pending",
    "rowid": "1008323",
    "final_x": "3692704.36989",
    "final_y": "536303.629831",
    "longitude": "-90.03251962425257",
    "latitude": "29.968304038275473",
    "geocoded_column": {
      "latitude": "29.968304038275473",
      "longitude": "-90.03251962425257"
    }
  },
  {
    "service_request": "2023-1008322",
    "request_type": "Trash/Recycling",
    "request_reason": "Request a Large Item Pick Up",
    "date_created": "2023-06-13T15:24:25.000",
    "date_modified": "2023-06-13T15:24:26.000",
    "request_status": "Pending",
    "responsible_agency": "Department of Sanitation",
    "final_address": "7301 E Renaissance Ct",
    "address_councildis": "E",
    "status": "Assigned to Contractor",
    "contractor": "Waste Pro",
    "rowid": "1008322",
    "final_x": "3716916.04895",
    "final_y": "568494.442533",
    "longitude": "-89.95483595368867",
    "latitude": "30.05603812598959",
    "geocoded_column": {
      "latitude": "30.05603812598959",
      "longitude": "-89.95483595368867"
    }
  },
  {
    "service_request": "2023-1008321",
    "request_type": "Trash/Recycling",
    "request_reason": "Request a Large Item Pick Up",
    "date_created": "2023-06-13T15:24:22.000",
    "date_modified": "2023-06-13T15:24:23.000",
    "request_status": "Pending",
    "responsible_agency": "Department of Sanitation",
    "final_address": "4710 Banks St",
    "address_councildis": "A",
    "status": "Assigned to Contractor",
    "contractor": "Richards Disposal",
    "rowid": "1008321",
    "final_x": "3668261.39885",
    "final_y": "538904.025546",
    "longitude": "-90.10962418693082",
    "latitude": "29.976194615218084",
    "geocoded_column": {
      "latitude": "29.976194615218084",
      "longitude": "-90.10962418693082"
    }
  },
  {
    "service_request": "2023-1008320",
    "request_type": "Trash/Recycling",
    "request_reason": "Repair Trash Cart",
    "date_created": "2023-06-13T15:20:04.000",
    "date_modified": "2023-06-13T15:20:04.000",
    "request_status": "Pending",
    "responsible_agency": "Department of Sanitation",
    "final_address": "2820 General Ogden St",
    "address_councildis": "A",
    "status": "Assigned to Contractor",
    "contractor": "Richards Disposal",
    "rowid": "1008320",
    "final_x": "3663844.78695",
    "final_y": "534692.447686",
    "longitude": "-90.12371363195767",
    "latitude": "29.964743123440464",
    "geocoded_column": {
      "latitude": "29.964743123440464",
      "longitude": "-90.12371363195767"
    }
  },
  {
    "service_request": "2023-1008319",
    "request_type": "Trash/Recycling",
    "request_reason": "Order Recycling Cart",
    "date_created": "2023-06-13T15:19:56.000",
    "date_modified": "2023-06-13T15:19:56.000",
    "request_status": "Pending",
    "responsible_agency": "Department of Sanitation",
    "final_address": "8401 Curran Rd",
    "address_councildis": "E",
    "status": "Pending",
    "rowid": "1008319",
    "final_x": "3703397.79127",
    "final_y": "562257.090143",
    "longitude": "-89.99779426205508",
    "latitude": "30.039328123715922",
    "geocoded_column": {
      "latitude": "30.039328123715922",
      "longitude": "-89.99779426205508"
    }
  },
  {
    "service_request": "2023-1008318",
    "request_type": "Trash/Recycling",
    "request_reason": "MIssed Recycling Pick-Up",
    "date_created": "2023-06-13T15:18:23.000",
    "date_modified": "2023-06-13T15:18:23.000",
    "request_status": "Pending",
    "responsible_agency": "Department of Sanitation",
    "final_address": "4207 DHemecourt St",
    "address_councildis": "A",
    "status": "Assigned to Contractor",
    "contractor": "Richards Disposal",
    "rowid": "1008318",
    "final_x": "3669340.8258",
    "final_y": "537229.64244",
    "longitude": "-90.10627165861945",
    "latitude": "29.97155888294836",
    "geocoded_column": {
      "latitude": "29.97155888294836",
      "longitude": "-90.10627165861945"
    }
  },
  {
    "service_request": "2023-1008317",
    "request_type": "Trash/Recycling",
    "request_reason": "Order Recycling Cart",
    "date_created": "2023-06-13T15:18:03.000",
    "date_modified": "2023-06-13T15:18:04.000",
    "request_status": "Pending",
    "responsible_agency": "Department of Sanitation",
    "final_address": "7771 Wales St",
    "address_councildis": "E",
    "status": "Pending",
    "rowid": "1008317",
    "final_x": "3701122.91901",
    "final_y": "561888.963615",
    "longitude": "-90.00499696650326",
    "latitude": "30.038388629253344",
    "geocoded_column": {
      "latitude": "30.038388629253344",
      "longitude": "-90.00499696650326"
    }
  },
  {
    "service_request": "2023-1008316",
    "request_type": "Trash/Recycling",
    "request_reason": "Order Trash Cart",
    "date_created": "2023-06-13T15:17:58.000",
    "date_modified": "2023-06-13T15:17:59.000",
    "request_status": "Pending",
    "responsible_agency": "Department of Sanitation",
    "final_address": "4535 Longfellow Dr",
    "address_councildis": "E",
    "status": "Assigned to Contractor",
    "contractor": "Waste Pro",
    "rowid": "1008316",
    "final_x": "3709801.13982",
    "final_y": "554704.682968",
    "longitude": "-89.97784033575496",
    "latitude": "30.01835520822851",
    "geocoded_column": {
      "latitude": "30.01835520822851",
      "longitude": "-89.97784033575496"
    }
  },
  {
    "service_request": "2023-1008315",
    "request_type": "Trash/Recycling",
    "request_reason": "MIssed Recycling Pick-Up",
    "date_created": "2023-06-13T15:12:26.000",
    "date_modified": "2023-06-13T15:12:26.000",
    "request_status": "Pending",
    "responsible_agency": "Department of Sanitation",
    "final_address": "2009 Lawrence St",
    "address_councildis": "C",
    "status": "Assigned to Contractor",
    "contractor": "Richards Disposal",
    "rowid": "1008315",
    "final_x": "3691544.26236",
    "final_y": "525427.355901",
    "longitude": "-90.03657199981699",
    "latitude": "29.938434219272324",
    "geocoded_column": {
      "latitude": "29.938434219272324",
      "longitude": "-90.03657199981699"
    }
  },
  {
    "service_request": "2023-1008314",
    "request_type": "Abandoned Vehicles",
    "request_reason": "Abandoned/Junk Vehicles",
    "date_created": "2023-06-13T15:12:16.000",
    "date_modified": "2023-06-13T15:12:16.000",
    "request_status": "Pending",
    "responsible_agency": "Department of Public Works",
    "final_address": "1537 N Roman St",
    "address_councildis": "D",
    "status": "Pending",
    "rowid": "1008314",
    "final_x": "3681316.97276",
    "final_y": "537887.645257",
    "longitude": "-90.06842629471447",
    "latitude": "29.97301008330557",
    "geocoded_column": {
      "latitude": "29.97301008330557",
      "longitude": "-90.06842629471447"
    }
  },
  {
    "service_request": "2023-1008313",
    "request_type": "Roads/Drainage",
    "request_reason": "Catch Basin - Clogged",
    "date_created": "2023-06-13T15:11:06.000",
    "date_modified": "2023-06-13T15:11:06.000",
    "request_status": "Pending",
    "responsible_agency": "Department of Public Works",
    "final_address": "1125 Kabel Dr",
    "address_councildis": "C",
    "status": "Pending",
    "rowid": "1008313",
    "final_x": "3700699.41015",
    "final_y": "523339.124795",
    "longitude": "-90.00774474323761",
    "latitude": "29.932404242880217",
    "geocoded_column": {
      "latitude": "29.932404242880217",
      "longitude": "-90.00774474323761"
    }
  },
  {
    "service_request": "2023-1008312",
    "request_type": "Abandoned Vehicles",
    "request_reason": "Abandoned/Junk Vehicles",
    "date_created": "2023-06-13T15:06:51.000",
    "date_modified": "2023-06-13T15:06:51.000",
    "request_status": "Pending",
    "responsible_agency": "Department of Public Works",
    "final_address": "4432 Duplessis St",
    "address_councildis": "D",
    "status": "Pending",
    "rowid": "1008312",
    "final_x": "3678165.95579",
    "final_y": "548765.104531",
    "longitude": "-90.07800146328995",
    "latitude": "30.003014566299086",
    "geocoded_column": {
      "latitude": "30.003014566299086",
      "longitude": "-90.07800146328995"
    }
  },
  {
    "service_request": "2023-1008311",
    "request_type": "Trash/Recycling",
    "request_reason": "Repair Trash Cart",
    "date_created": "2023-06-13T15:03:14.000",
    "date_modified": "2023-06-13T15:03:15.000",
    "request_status": "Pending",
    "responsible_agency": "Department of Sanitation",
    "final_address": "2823 Josephine St",
    "address_councildis": "B",
    "status": "Assigned to Contractor",
    "contractor": "Richards Disposal",
    "rowid": "1008311",
    "final_x": "3675241.1979",
    "final_y": "527477.034815",
    "longitude": "-90.08797213903733",
    "latitude": "29.94456741831509",
    "geocoded_column": {
      "latitude": "29.94456741831509",
      "longitude": "-90.08797213903733"
    }
  },
  {
    "service_request": "2023-1008310",
    "request_type": "Trash/Recycling",
    "request_reason": "Illegal Dumping",
    "date_created": "2023-06-13T14:58:24.000",
    "date_modified": "2023-06-13T14:58:24.000",
    "request_status": "Pending",
    "responsible_agency": "Department of Sanitation",
    "final_address": "2412 Danneel St",
    "address_councildis": "B",
    "status": "Pending",
    "rowid": "1008310",
    "final_x": "3676075.73281",
    "final_y": "524312.450428",
    "longitude": "-90.08544607789858",
    "latitude": "29.93584088544618",
    "geocoded_column": {
      "latitude": "29.93584088544618",
      "longitude": "-90.08544607789858"
    }
  },
  {
    "service_request": "2023-1008309",
    "request_type": "Trash/Recycling",
    "request_reason": "Illegal Dumping",
    "date_created": "2023-06-13T14:58:23.000",
    "date_modified": "2023-06-13T14:58:23.000",
    "request_status": "Pending",
    "responsible_agency": "Department of Sanitation",
    "final_address": "2412 Danneel St",
    "address_councildis": "B",
    "status": "Pending",
    "rowid": "1008309",
    "final_x": "3676075.73281",
    "final_y": "524312.450428",
    "longitude": "-90.08544607789858",
    "latitude": "29.93584088544618",
    "geocoded_column": {
      "latitude": "29.93584088544618",
      "longitude": "-90.08544607789858"
    }
  },
  {
    "service_request": "2023-1008308",
    "request_type": "Trash/Recycling",
    "request_reason": "Repair Trash Cart",
    "date_created": "2023-06-13T14:52:59.000",
    "date_modified": "2023-06-13T14:53:00.000",
    "request_status": "Pending",
    "responsible_agency": "Department of Sanitation",
    "final_address": "8528 Pritchard Pl",
    "address_councildis": "A",
    "status": "Assigned to Contractor",
    "contractor": "Richards Disposal",
    "rowid": "1008308",
    "final_x": "3664759.29831",
    "final_y": "534016.246213",
    "longitude": "-90.12084825039743",
    "latitude": "29.962857214232894",
    "geocoded_column": {
      "latitude": "29.962857214232894",
      "longitude": "-90.12084825039743"
    }
  },
  {
    "service_request": "2023-1008307",
    "request_type": "Trash/Recycling",
    "request_reason": "Repair Trash Cart",
    "date_created": "2023-06-13T14:50:18.000",
    "date_modified": "2023-06-13T14:50:18.000",
    "request_status": "Pending",
    "responsible_agency": "Department of Sanitation",
    "final_address": "6617 Lake Willow Dr Apt C",
    "address_councildis": "E",
    "status": "Assigned to Contractor",
    "contractor": "Waste Pro",
    "rowid": "1008307",
    "final_x": "3704128.6001",
    "final_y": "559699.088157",
    "longitude": "-89.99557908865951",
    "latitude": "30.032271179720613",
    "geocoded_column": {
      "latitude": "30.032271179720613",
      "longitude": "-89.99557908865951"
    }
  },
  {
    "service_request": "2023-1008306",
    "request_type": "Trash/Recycling",
    "request_reason": "Request a Large Item Pick Up",
    "date_created": "2023-06-13T14:47:45.000",
    "date_modified": "2023-06-13T14:47:46.000",
    "request_status": "Pending",
    "responsible_agency": "Department of Sanitation",
    "final_address": "8002 Cohn St",
    "address_councildis": "A",
    "status": "Assigned to Contractor",
    "contractor": "Richards Disposal",
    "rowid": "1008306",
    "final_x": "3663883.72839",
    "final_y": "529887.555329",
    "longitude": "-90.12375083334992",
    "latitude": "29.951530103922668",
    "geocoded_column": {
      "latitude": "29.951530103922668",
      "longitude": "-90.12375083334992"
    }
  },
  {
    "service_request": "2023-1008305",
    "request_type": "Trash/Recycling",
    "request_reason": "Missed Trash Pick-Up",
    "date_created": "2023-06-13T14:40:38.000",
    "date_modified": "2023-06-13T14:40:39.000",
    "request_status": "Pending",
    "responsible_agency": "Department of Sanitation",
    "final_address": "308 River Oaks Dr",
    "address_councildis": "C",
    "status": "Assigned to Contractor",
    "contractor": "Richards Disposal",
    "rowid": "1008305",
    "final_x": "3701625.74775",
    "final_y": "522578.530426",
    "longitude": "-90.0048482382677",
    "latitude": "29.93028337318351",
    "geocoded_column": {
      "latitude": "29.93028337318351",
      "longitude": "-90.0048482382677"
    }
  },
  {
    "service_request": "2023-1008304",
    "request_type": "Parks & Parkways",
    "request_reason": "Request Tree Service (Right of Way/Public Property)",
    "date_created": "2023-06-13T14:39:53.000",
    "date_modified": "2023-06-13T14:46:52.000",
    "request_status": "Pending",
    "responsible_agency": "Department of Parks & Parkway",
    "final_address": "5730 Vermillion Blvd",
    "address_councildis": "D",
    "status": "Pending",
    "rowid": "1008304",
    "final_x": "3683040.88949",
    "final_y": "554233.243992",
    "longitude": "-90.06240925921837",
    "latitude": "30.017902213925662",
    "geocoded_column": {
      "latitude": "30.017902213925662",
      "longitude": "-90.06240925921837"
    }
  },
  {
    "service_request": "2023-1008303",
    "request_type": "Trash/Recycling",
    "request_reason": "Request a Large Item Pick Up",
    "date_created": "2023-06-13T14:34:34.000",
    "date_modified": "2023-06-13T14:34:35.000",
    "request_status": "Pending",
    "responsible_agency": "Department of Sanitation",
    "final_address": "1315 St Andrew St",
    "address_councildis": "B",
    "status": "Assigned to Contractor",
    "contractor": "Richards Disposal",
    "rowid": "1008303",
    "final_x": "3678976.02146",
    "final_y": "523267.033787",
    "longitude": "-90.07632601935202",
    "latitude": "29.93287916439355",
    "geocoded_column": {
      "latitude": "29.93287916439355",
      "longitude": "-90.07632601935202"
    }
  },
  {
    "service_request": "2023-1008302",
    "request_type": "Trash/Recycling",
    "request_reason": "Start Trash Service",
    "date_created": "2023-06-13T14:30:29.000",
    "date_modified": "2023-06-13T14:30:30.000",
    "request_status": "Pending",
    "responsible_agency": "Department of Sanitation",
    "final_address": "6104 Bellaire Dr",
    "address_councildis": "A",
    "status": "Assigned to Contractor",
    "contractor": "IV Waste",
    "rowid": "1008302",
    "final_x": "3664232.60186",
    "final_y": "548271.081618",
    "longitude": "-90.12203563263493",
    "latitude": "30.002068541386844",
    "geocoded_column": {
      "latitude": "30.002068541386844",
      "longitude": "-90.12203563263493"
    }
  },
  {
    "service_request": "2023-1008301",
    "request_type": "Trash/Recycling",
    "request_reason": "Request a Large Item Pick Up",
    "date_created": "2023-06-13T14:30:12.000",
    "date_modified": "2023-06-13T14:30:13.000",
    "request_status": "Pending",
    "responsible_agency": "Department of Sanitation",
    "final_address": "4320 Pauger St",
    "address_councildis": "D",
    "status": "Assigned to Contractor",
    "contractor": "IV Waste",
    "rowid": "1008301",
    "final_x": "3682834.72239",
    "final_y": "548612.261587",
    "longitude": "-90.06325752477606",
    "latitude": "30.002452835563677",
    "geocoded_column": {
      "latitude": "30.002452835563677",
      "longitude": "-90.06325752477606"
    }
  },
  {
    "service_request": "2023-1008300",
    "request_type": "Trash/Recycling",
    "request_reason": "Repair Trash Cart",
    "date_created": "2023-06-13T14:22:38.000",
    "date_modified": "2023-06-13T14:22:39.000",
    "request_status": "Pending",
    "responsible_agency": "Department of Sanitation",
    "final_address": "4111 St Charles Ave",
    "address_councildis": "B",
    "status": "Assigned to Contractor",
    "contractor": "Richards Disposal",
    "rowid": "1008300",
    "final_x": "3671794.10913",
    "final_y": "521031.432121",
    "longitude": "-90.0990748469357",
    "latitude": "29.926946662978473",
    "geocoded_column": {
      "latitude": "29.926946662978473",
      "longitude": "-90.0990748469357"
    }
  },
  {
    "service_request": "2023-1008298",
    "request_type": "Trash/Recycling",
    "request_reason": "Request a Large Item Pick Up",
    "date_created": "2023-06-13T14:20:24.000",
    "date_modified": "2023-06-13T14:20:25.000",
    "request_status": "Pending",
    "responsible_agency": "Department of Sanitation",
    "final_address": "1009 Poland Ave",
    "address_councildis": "C",
    "status": "Assigned to Contractor",
    "contractor": "IV Waste",
    "rowid": "1008298",
    "final_x": "3693011.97277",
    "final_y": "534640.65511",
    "longitude": "-90.03160786668269",
    "latitude": "29.963721839173296",
    "geocoded_column": {
      "latitude": "29.963721839173296",
      "longitude": "-90.03160786668269"
    }
  },
  {
    "service_request": "2023-1008297",
    "request_type": "Abandoned Vehicles",
    "request_reason": "Abandoned/Junk Vehicles",
    "date_created": "2023-06-13T14:17:59.000",
    "date_modified": "2023-06-13T14:17:59.000",
    "request_status": "Pending",
    "responsible_agency": "Department of Public Works",
    "final_address": "2000 Almonaster Ave",
    "address_councildis": "D",
    "status": "Inspected",
    "rowid": "1008297",
    "final_x": "3687864.71785",
    "final_y": "539920.207626",
    "longitude": "-90.04767527406993",
    "latitude": "29.978398540367188",
    "geocoded_column": {
      "latitude": "29.978398540367188",
      "longitude": "-90.04767527406993"
    }
  },
  {
    "service_request": "2023-1008296",
    "request_type": "Trash/Recycling",
    "request_reason": "Repair Recycling Cart",
    "date_created": "2023-06-13T14:15:43.000",
    "date_modified": "2023-06-13T14:15:43.000",
    "request_status": "Pending",
    "responsible_agency": "Department of Sanitation",
    "final_address": "2531 S Carrollton Ave",
    "address_councildis": "A",
    "status": "Pending",
    "rowid": "1008296",
    "final_x": "3665420.79789",
    "final_y": "531892.245251",
    "longitude": "-90.11883040285228",
    "latitude": "29.95699764390129",
    "geocoded_column": {
      "latitude": "29.95699764390129",
      "longitude": "-90.11883040285228"
    }
  },
  {
    "service_request": "2023-1008295",
    "request_type": "Trash/Recycling",
    "request_reason": "Order Trash Cart",
    "date_created": "2023-06-13T14:14:55.000",
    "date_modified": "2023-06-13T14:14:56.000",
    "request_status": "Pending",
    "responsible_agency": "Department of Sanitation",
    "final_address": "7856 Sand St",
    "address_councildis": "E",
    "status": "Assigned to Contractor",
    "contractor": "Waste Pro",
    "rowid": "1008295",
    "final_x": "3720029.30713",
    "final_y": "574338.335467",
    "longitude": "-89.94477177741439",
    "latitude": "30.072003029055022",
    "geocoded_column": {
      "latitude": "30.072003029055022",
      "longitude": "-89.94477177741439"
    }
  },
  {
    "service_request": "2023-1008294",
    "request_type": "Trash/Recycling",
    "request_reason": "Repair Trash Cart",
    "date_created": "2023-06-13T14:13:39.000",
    "date_modified": "2023-06-13T14:13:40.000",
    "request_status": "Pending",
    "responsible_agency": "Department of Sanitation",
    "final_address": "4848 Laine Ave",
    "address_councildis": "E",
    "status": "Assigned to Contractor",
    "contractor": "Waste Pro",
    "rowid": "1008294",
    "final_x": "3705552.22199",
    "final_y": "556108.09097",
    "longitude": "-89.99121329559699",
    "latitude": "30.02235155899645",
    "geocoded_column": {
      "latitude": "30.02235155899645",
      "longitude": "-89.99121329559699"
    }
  },
  {
    "service_request": "2023-1008293",
    "request_type": "Trash/Recycling",
    "request_reason": "Request a Large Item Pick Up",
    "date_created": "2023-06-13T14:13:32.000",
    "date_modified": "2023-06-13T14:13:33.000",
    "request_status": "Pending",
    "responsible_agency": "Department of Sanitation",
    "final_address": "2933 Elmwood Park Dr",
    "address_councildis": "C",
    "status": "Assigned to Contractor",
    "contractor": "Richards Disposal",
    "rowid": "1008293",
    "final_x": "3693437.84784",
    "final_y": "519608.648312",
    "longitude": "-90.03080260975871",
    "latitude": "29.922375689986517",
    "geocoded_column": {
      "latitude": "29.922375689986517",
      "longitude": "-90.03080260975871"
    }
  },
  {
    "service_request": "2023-1008292",
    "request_type": "Trash/Recycling",
    "request_reason": "Repair Trash Cart",
    "date_created": "2023-06-13T14:12:15.000",
    "date_modified": "2023-06-13T14:12:16.000",
    "request_status": "Pending",
    "responsible_agency": "Department of Sanitation",
    "final_address": "4330 Dodt Ave",
    "address_councildis": "E",
    "status": "Assigned to Contractor",
    "contractor": "Waste Pro",
    "rowid": "1008292",
    "final_x": "3705557.18833",
    "final_y": "553270.323543",
    "longitude": "-89.99130262222643",
    "latitude": "30.014548632977476",
    "geocoded_column": {
      "latitude": "30.014548632977476",
      "longitude": "-89.99130262222643"
    }
  },
  {
    "service_request": "2023-1008291",
    "request_type": "Trash/Recycling",
    "request_reason": "Repair Trash Cart",
    "date_created": "2023-06-13T14:10:42.000",
    "date_modified": "2023-06-13T14:11:12.000",
    "request_status": "Pending",
    "responsible_agency": "Department of Sanitation",
    "final_address": "4541 Bonita Dr",
    "address_councildis": "E",
    "status": "Assigned to Contractor",
    "contractor": "Waste Pro",
    "rowid": "1008291",
    "final_x": "3704653.45361",
    "final_y": "554006.61596",
    "longitude": "-89.99413076909279",
    "latitude": "30.01660222780017",
    "geocoded_column": {
      "latitude": "30.01660222780017",
      "longitude": "-89.99413076909279"
    }
  },
  {
    "service_request": "2023-1008290",
    "request_type": "Abandoned Vehicles",
    "request_reason": "Abandoned/Junk Vehicles",
    "date_created": "2023-06-13T14:10:04.000",
    "date_modified": "2023-06-13T14:10:04.000",
    "request_status": "Pending",
    "responsible_agency": "Department of Public Works",
    "final_address": "1500 BLK Franklin Ave",
    "address_councildis": "C",
    "status": "Inspected",
    "rowid": "1008290",
    "final_x": "3687430.50634",
    "final_y": "537992.562254",
    "longitude": "-90.04911490342015",
    "latitude": "29.973111583184693",
    "geocoded_column": {
      "latitude": "29.973111583184693",
      "longitude": "-90.04911490342015"
    }
  },
  {
    "service_request": "2023-1008289",
    "request_type": "Trash/Recycling",
    "request_reason": "Request a Large Item Pick Up",
    "date_created": "2023-06-13T14:09:10.000",
    "date_modified": "2023-06-13T14:09:11.000",
    "request_status": "Pending",
    "responsible_agency": "Department of Sanitation",
    "final_address": "2005 Rev. John Raphael, Jr. Way Apt A",
    "address_councildis": "B",
    "status": "Assigned to Contractor",
    "contractor": "Richards Disposal",
    "rowid": "1008289",
    "final_x": "3676168.2932",
    "final_y": "526433.066046",
    "longitude": "-90.08508093092436",
    "latitude": "29.941669109989284",
    "geocoded_column": {
      "latitude": "29.941669109989284",
      "longitude": "-90.08508093092436"
    }
  },
  {
    "service_request": "2023-1008288",
    "request_type": "Trash/Recycling",
    "request_reason": "Request a Large Item Pick Up",
    "date_created": "2023-06-13T14:06:49.000",
    "date_modified": "2023-06-13T14:06:50.000",
    "request_status": "Pending",
    "responsible_agency": "Department of Sanitation",
    "final_address": "4827 Evangeline Dr",
    "address_councildis": "E",
    "status": "Assigned to Contractor",
    "contractor": "Waste Pro",
    "rowid": "1008288",
    "final_x": "3709121.46885",
    "final_y": "556294.380378",
    "longitude": "-89.9799284973336",
    "latitude": "30.02274834684033",
    "geocoded_column": {
      "latitude": "30.02274834684033",
      "longitude": "-89.9799284973336"
    }
  },
  {
    "service_request": "2023-1008287",
    "request_type": "Trash/Recycling",
    "request_reason": "Order Recycling Cart",
    "date_created": "2023-06-13T14:02:42.000",
    "date_modified": "2023-06-13T14:02:42.000",
    "request_status": "Pending",
    "responsible_agency": "Department of Sanitation",
    "final_address": "832 Navarre St",
    "address_councildis": "A",
    "status": "Pending",
    "rowid": "1008287",
    "final_x": "3668955.29466",
    "final_y": "543735.040398",
    "longitude": "-90.10726939234578",
    "latitude": "29.98945787114798",
    "geocoded_column": {
      "latitude": "29.98945787114798",
      "longitude": "-90.10726939234578"
    }
  },
  {
    "service_request": "2023-1008286",
    "request_type": "Abandoned Vehicles",
    "request_reason": "Abandoned/Junk Vehicles",
    "date_created": "2023-06-13T14:02:24.000",
    "date_modified": "2023-06-13T14:30:37.000",
    "request_status": "Pending",
    "responsible_agency": "Department of Public Works",
    "final_address": "2600 BLK N Robertson St",
    "address_councildis": "C",
    "status": "Inspected",
    "rowid": "1008286",
    "final_x": "3687641.33826",
    "final_y": "537887.75308",
    "longitude": "-90.0484527680529",
    "latitude": "29.972816895825716",
    "geocoded_column": {
      "latitude": "29.972816895825716",
      "longitude": "-90.0484527680529"
    }
  },
  {
    "service_request": "2023-1008285",
    "request_type": "Trash/Recycling",
    "request_reason": "Order Recycling Cart",
    "date_created": "2023-06-13T13:59:56.000",
    "date_modified": "2023-06-13T13:59:56.000",
    "request_status": "Pending",
    "responsible_agency": "Department of Sanitation",
    "final_address": "832 Navarre St",
    "address_councildis": "A",
    "status": "Pending",
    "rowid": "1008285",
    "final_x": "3668955.29466",
    "final_y": "543735.040398",
    "longitude": "-90.10726939234578",
    "latitude": "29.98945787114798",
    "geocoded_column": {
      "latitude": "29.98945787114798",
      "longitude": "-90.10726939234578"
    }
  },
  {
    "service_request": "2023-1008284",
    "request_type": "Trash/Recycling",
    "request_reason": "Order Recycling Cart",
    "date_created": "2023-06-13T13:59:55.000",
    "date_modified": "2023-06-13T13:59:55.000",
    "request_status": "Pending",
    "responsible_agency": "Department of Sanitation",
    "final_address": "2630 Dauphine St",
    "address_councildis": "C",
    "status": "Pending",
    "rowid": "1008284",
    "final_x": "3687065.9871",
    "final_y": "535237.56775",
    "longitude": "-90.05036354523168",
    "latitude": "29.965547538645733",
    "geocoded_column": {
      "latitude": "29.965547538645733",
      "longitude": "-90.05036354523168"
    }
  },
  {
    "service_request": "2023-1008282",
    "request_type": "Abandoned Vehicles",
    "request_reason": "Abandoned/Junk Vehicles",
    "date_created": "2023-06-13T13:58:51.000",
    "date_modified": "2023-06-13T13:58:51.000",
    "request_status": "Pending",
    "responsible_agency": "Department of Public Works",
    "final_address": "2600 BLK N Robertson St",
    "address_councildis": "C",
    "status": "Inspected",
    "rowid": "1008282",
    "final_x": "3687641.33826",
    "final_y": "537887.75308",
    "longitude": "-90.0484527680529",
    "latitude": "29.972816895825716",
    "geocoded_column": {
      "latitude": "29.972816895825716",
      "longitude": "-90.0484527680529"
    }
  },
  {
    "service_request": "2023-1008281",
    "request_type": "Trash/Recycling",
    "request_reason": "Return Trash Cart",
    "date_created": "2023-06-13T13:57:19.000",
    "date_modified": "2023-06-13T13:57:49.000",
    "request_status": "Pending",
    "responsible_agency": "Department of Sanitation",
    "final_address": "4256 Vincennes Pl",
    "address_councildis": "B",
    "status": "Assigned to Contractor",
    "contractor": "Richards Disposal",
    "rowid": "1008281",
    "final_x": "3668819.6146",
    "final_y": "531759.910531",
    "longitude": "-90.10810243700307",
    "latitude": "29.95653427301452",
    "geocoded_column": {
      "latitude": "29.95653427301452",
      "longitude": "-90.10810243700307"
    }
  },
  {
    "service_request": "2023-1008280",
    "request_type": "Trash/Recycling",
    "request_reason": "Order Recycling Cart",
    "date_created": "2023-06-13T13:53:07.000",
    "date_modified": "2023-06-13T13:53:08.000",
    "request_status": "Pending",
    "responsible_agency": "Department of Sanitation",
    "final_address": "832 Navarre St",
    "address_councildis": "A",
    "status": "Pending",
    "rowid": "1008280",
    "final_x": "3668955.29466",
    "final_y": "543735.040398",
    "longitude": "-90.10726939234578",
    "latitude": "29.98945787114798",
    "geocoded_column": {
      "latitude": "29.98945787114798",
      "longitude": "-90.10726939234578"
    }
  },
  {
    "service_request": "2023-1008279",
    "request_type": "Traffic Signals/Signs/Striping/Streetlights",
    "request_reason": "Street Light Outage/Malfunction",
    "date_created": "2023-06-13T13:49:39.000",
    "date_modified": "2023-06-13T13:49:40.000",
    "request_status": "Pending",
    "responsible_agency": "Department of Public Works",
    "final_address": "608 Forstall St",
    "address_councildis": "E",
    "status": "Assigned to Contractor",
    "contractor": "Legacy Professional Services",
    "rowid": "1008279",
    "final_x": "3695728.82506",
    "final_y": "532468.332228",
    "longitude": "-90.02310680319609",
    "latitude": "29.957663571677404",
    "geocoded_column": {
      "latitude": "29.957663571677404",
      "longitude": "-90.02310680319609"
    }
  },
  {
    "service_request": "2023-1008278",
    "request_type": "Trash/Recycling",
    "request_reason": "MIssed Recycling Pick-Up",
    "date_created": "2023-06-13T13:48:29.000",
    "date_modified": "2023-06-13T13:48:30.000",
    "request_status": "Pending",
    "responsible_agency": "Department of Sanitation",
    "final_address": "1101 Casa Calvo St",
    "address_councildis": "C",
    "status": "Assigned to Contractor",
    "contractor": "Richards Disposal",
    "rowid": "1008278",
    "final_x": "3692070.148",
    "final_y": "527373.510591",
    "longitude": "-90.03484210538876",
    "latitude": "29.94376910275946",
    "geocoded_column": {
      "latitude": "29.94376910275946",
      "longitude": "-90.03484210538876"
    }
  },
  {
    "service_request": "2023-1008277",
    "request_type": "Roads/Drainage",
    "request_reason": "Catch Basin - Broken/Damage",
    "date_created": "2023-06-13T13:48:15.000",
    "date_modified": "2023-06-13T13:48:15.000",
    "request_status": "Pending",
    "responsible_agency": "Department of Public Works",
    "final_address": "7407 St Charles Ave",
    "address_councildis": "A",
    "status": "Pending",
    "rowid": "1008277",
    "final_x": "3662511.61133",
    "final_y": "525187.071357",
    "longitude": "-90.12823942795234",
    "latitude": "29.938645031628575",
    "geocoded_column": {
      "latitude": "29.938645031628575",
      "longitude": "-90.12823942795234"
    }
  },
  {
    "service_request": "2023-1008276",
    "request_type": "Traffic Signals/Signs/Striping/Streetlights",
    "request_reason": "Traffic Sign Missing/Damaged",
    "date_created": "2023-06-13T13:41:24.000",
    "date_modified": "2023-06-13T13:41:24.000",
    "request_status": "Pending",
    "responsible_agency": "Department of Public Works",
    "final_address": "S CLAIBORNE AVE & OCTAVIA ST",
    "address_councildis": "A",
    "status": "Pending",
    "rowid": "1008276",
    "final_x": "3668135.7",
    "final_y": "526543.28",
    "longitude": "-90.11043782429692",
    "latitude": "29.942210329042013",
    "geocoded_column": {
      "latitude": "29.942210329042013",
      "longitude": "-90.11043782429692"
    }
  },
  {
    "service_request": "2023-1008275",
    "request_type": "Abandoned Vehicles",
    "request_reason": "Abandoned/Junk Vehicles",
    "date_created": "2023-06-13T13:37:24.000",
    "date_modified": "2023-06-13T13:37:24.000",
    "request_status": "Pending",
    "responsible_agency": "Department of Public Works",
    "final_address": "3251 St Ferdinand St Apt D320",
    "address_councildis": "D",
    "status": "Pending",
    "rowid": "1008275",
    "final_x": "3689901.82672",
    "final_y": "544682.447183",
    "longitude": "-90.04107173375824",
    "latitude": "29.99142998961359",
    "geocoded_column": {
      "latitude": "29.99142998961359",
      "longitude": "-90.04107173375824"
    }
  },
  {
    "service_request": "2023-1008274",
    "request_type": "Trash/Recycling",
    "request_reason": "Request a Large Item Pick Up",
    "date_created": "2023-06-13T13:30:53.000",
    "date_modified": "2023-06-13T13:30:54.000",
    "request_status": "Pending",
    "responsible_agency": "Department of Sanitation",
    "final_address": "2504 Marengo St",
    "address_councildis": "B",
    "status": "Assigned to Contractor",
    "contractor": "Richards Disposal",
    "rowid": "1008274",
    "final_x": "3671582.50318",
    "final_y": "524211.073084",
    "longitude": "-90.09963476361426",
    "latitude": "29.935695917941676",
    "geocoded_column": {
      "latitude": "29.935695917941676",
      "longitude": "-90.09963476361426"
    }
  },
  {
    "service_request": "2023-1008273",
    "request_type": "Trash/Recycling",
    "request_reason": "Request a Large Item Pick Up",
    "date_created": "2023-06-13T13:23:07.000",
    "date_modified": "2023-06-13T13:23:08.000",
    "request_status": "Pending",
    "responsible_agency": "Department of Sanitation",
    "final_address": "2708 N Rampart St",
    "address_councildis": "C",
    "status": "Assigned to Contractor",
    "contractor": "IV Waste",
    "rowid": "1008273",
    "final_x": "3687387.8054",
    "final_y": "535908.958279",
    "longitude": "-90.04932350025751",
    "latitude": "29.96738371693504",
    "geocoded_column": {
      "latitude": "29.96738371693504",
      "longitude": "-90.04932350025751"
    }
  },
  {
    "service_request": "2023-1008272",
    "request_type": "Trash/Recycling",
    "request_reason": "Request a Large Item Pick Up",
    "date_created": "2023-06-13T13:22:45.000",
    "date_modified": "2023-06-13T13:22:45.000",
    "request_status": "Closed",
    "responsible_agency": "Department of Sanitation",
    "final_address": "2504 Marengo St, New Orleans, Louisiana, 70115",
    "address_councildis": "B",
    "status": "Resolved",
    "rowid": "1008272",
    "final_x": "3671582.50318",
    "final_y": "524211.073084",
    "longitude": "-90.09963476361426",
    "latitude": "29.935695917941676",
    "geocoded_column": {
      "latitude": "29.935695917941676",
      "longitude": "-90.09963476361426"
    }
  },
  {
    "service_request": "2023-1008271",
    "request_type": "Trash/Recycling",
    "request_reason": "Order Trash Cart",
    "date_created": "2023-06-13T13:21:27.000",
    "date_modified": "2023-06-13T13:21:28.000",
    "request_status": "Pending",
    "responsible_agency": "Department of Sanitation",
    "final_address": "6869 Milne Blvd",
    "address_councildis": "A",
    "status": "Assigned to Contractor",
    "contractor": "IV Waste",
    "rowid": "1008271",
    "final_x": "3667712.72257",
    "final_y": "553349.380119",
    "longitude": "-90.11087033890576",
    "latitude": "30.01593047120175",
    "geocoded_column": {
      "latitude": "30.01593047120175",
      "longitude": "-90.11087033890576"
    }
  },
  {
    "service_request": "2023-1008270",
    "request_type": "Property Maintenance",
    "request_reason": "Property Maintenance",
    "date_created": "2023-06-13T13:17:46.000",
    "date_modified": "2023-06-13T13:17:47.000",
    "request_status": "Pending",
    "responsible_agency": "Department of Code Enforcement",
    "final_address": "760 Harrison Ave",
    "address_councildis": "A",
    "status": "Pending",
    "rowid": "1008270",
    "final_x": "3669127.11316",
    "final_y": "549118.469139",
    "longitude": "-90.10654460468272",
    "latitude": "30.004255384142354",
    "geocoded_column": {
      "latitude": "30.004255384142354",
      "longitude": "-90.10654460468272"
    }
  },
  {
    "service_request": "2023-1008269",
    "request_type": "Mosquito, Termite & Rodent Control",
    "request_reason": "Rodent Complaint (Rats)",
    "date_created": "2023-06-13T13:16:36.000",
    "date_modified": "2023-06-13T13:16:36.000",
    "request_status": "Pending",
    "responsible_agency": "Mosquito, Termite & Rodent Control Board",
    "final_address": "100 BLK Marais St",
    "address_councildis": "C",
    "status": "Pending",
    "rowid": "1008269",
    "final_x": "3679337.30369",
    "final_y": "532374.966206",
    "longitude": "-90.07486968718854",
    "latitude": "29.95791203853399",
    "geocoded_column": {
      "latitude": "29.95791203853399",
      "longitude": "-90.07486968718854"
    }
  },
  {
    "service_request": "2023-1008268",
    "request_type": "Trash/Recycling",
    "request_reason": "Order Recycling Cart",
    "date_created": "2023-06-13T13:15:15.000",
    "date_modified": "2023-06-13T13:15:15.000",
    "request_status": "Pending",
    "responsible_agency": "Department of Sanitation",
    "final_address": "2112 France St",
    "address_councildis": "D",
    "status": "Pending",
    "rowid": "1008268",
    "final_x": "3693322.7903",
    "final_y": "539047.209354",
    "longitude": "-90.03046811627196",
    "latitude": "29.975828587644294",
    "geocoded_column": {
      "latitude": "29.975828587644294",
      "longitude": "-90.03046811627196"
    }
  },
  {
    "service_request": "2023-1008267",
    "request_type": "Trash/Recycling",
    "request_reason": "Missed Trash Pick-Up",
    "date_created": "2023-06-13T13:14:15.000",
    "date_modified": "2023-06-13T13:14:15.000",
    "request_status": "Pending",
    "responsible_agency": "Department of Sanitation",
    "final_address": "2000 BLK Peniston St",
    "address_councildis": "B",
    "status": "Assigned to Contractor",
    "contractor": "Richards Disposal",
    "rowid": "1008267",
    "final_x": "3672505.48632",
    "final_y": "522680.042682",
    "longitude": "-90.09677304916785",
    "latitude": "29.9314587223002",
    "geocoded_column": {
      "latitude": "29.9314587223002",
      "longitude": "-90.09677304916785"
    }
  },
  {
    "service_request": "2023-1008266",
    "request_type": "Property Maintenance",
    "request_reason": "Property Maintenance",
    "date_created": "2023-06-13T13:14:04.000",
    "date_modified": "2023-06-13T13:14:04.000",
    "request_status": "Pending",
    "responsible_agency": "Department of Code Enforcement",
    "final_address": "100 BLK Marais St",
    "address_councildis": "C",
    "status": "Pending",
    "rowid": "1008266",
    "final_x": "3679337.30369",
    "final_y": "532374.966206",
    "longitude": "-90.07486968718854",
    "latitude": "29.95791203853399",
    "geocoded_column": {
      "latitude": "29.95791203853399",
      "longitude": "-90.07486968718854"
    }
  },
  {
    "service_request": "2023-1008265",
    "request_type": "Trash/Recycling",
    "request_reason": "Missed Trash Pick-Up",
    "date_created": "2023-06-13T13:13:35.000",
    "date_modified": "2023-06-13T13:13:37.000",
    "request_status": "Pending",
    "responsible_agency": "Department of Sanitation",
    "final_address": "5120 Perrier St",
    "address_councildis": "B",
    "status": "Assigned to Contractor",
    "contractor": "Richards Disposal",
    "rowid": "1008265",
    "final_x": "3668208.97396",
    "final_y": "519871.294008",
    "longitude": "-90.11043129790426",
    "latitude": "29.923862350547914",
    "geocoded_column": {
      "latitude": "29.923862350547914",
      "longitude": "-90.11043129790426"
    }
  },
  {
    "service_request": "2023-1008264",
    "request_type": "Roads/Drainage",
    "request_reason": "Catch Basin - Broken/Damage",
    "date_created": "2023-06-13T13:13:02.000",
    "date_modified": "2023-06-13T13:13:02.000",
    "request_status": "Pending",
    "responsible_agency": "Department of Public Works",
    "final_address": "6238 Memphis St",
    "address_councildis": "A",
    "status": "Pending",
    "rowid": "1008264",
    "final_x": "3669268.51911",
    "final_y": "548886.437523",
    "longitude": "-90.10610572698643",
    "latitude": "30.00361321446988",
    "geocoded_column": {
      "latitude": "30.00361321446988",
      "longitude": "-90.10610572698643"
    }
  },
  {
    "service_request": "2023-1008263",
    "request_type": "Property Maintenance",
    "request_reason": "Property Maintenance",
    "date_created": "2023-06-13T13:11:42.000",
    "date_modified": "2023-06-13T13:11:42.000",
    "request_status": "Pending",
    "responsible_agency": "Department of Code Enforcement",
    "final_address": "100 BLK Marais St",
    "address_councildis": "C",
    "status": "Pending",
    "rowid": "1008263",
    "final_x": "3679337.30369",
    "final_y": "532374.966206",
    "longitude": "-90.07486968718854",
    "latitude": "29.95791203853399",
    "geocoded_column": {
      "latitude": "29.95791203853399",
      "longitude": "-90.07486968718854"
    }
  },
  {
    "service_request": "2023-1008262",
    "request_type": "Trash/Recycling",
    "request_reason": "Request a Large Item Pick Up",
    "date_created": "2023-06-13T13:11:22.000",
    "date_modified": "2023-06-13T13:11:22.000",
    "request_status": "Pending",
    "responsible_agency": "Department of Sanitation",
    "final_address": "416 Elmira Ave",
    "address_councildis": "C",
    "status": "Assigned to Contractor",
    "contractor": "Richards Disposal",
    "rowid": "1008262",
    "final_x": "3688269.18735",
    "final_y": "530169.202561",
    "longitude": "-90.04674361712001",
    "latitude": "29.95157418982283",
    "geocoded_column": {
      "latitude": "29.95157418982283",
      "longitude": "-90.04674361712001"
    }
  },
  {
    "service_request": "2023-1008261",
    "request_type": "Abandoned Vehicles",
    "request_reason": "Abandoned/Junk Vehicles",
    "date_created": "2023-06-13T13:09:00.000",
    "date_modified": "2023-06-13T13:09:01.000",
    "request_status": "Pending",
    "responsible_agency": "Department of Public Works",
    "final_address": "1729 Coliseum St",
    "address_councildis": "B",
    "status": "Pending",
    "rowid": "1008261",
    "final_x": "3679563.39887",
    "final_y": "524305.470844",
    "longitude": "-90.07443569619629",
    "latitude": "29.935716793162175",
    "geocoded_column": {
      "latitude": "29.935716793162175",
      "longitude": "-90.07443569619629"
    }
  },
  {
    "service_request": "2023-1008260",
    "request_type": "Trash/Recycling",
    "request_reason": "MIssed Recycling Pick-Up",
    "date_created": "2023-06-13T13:07:19.000",
    "date_modified": "2023-06-13T13:07:19.000",
    "request_status": "Pending",
    "responsible_agency": "Department of Sanitation",
    "final_address": "707 Patterson St",
    "address_councildis": "C",
    "status": "Assigned to Contractor",
    "contractor": "Richards Disposal",
    "rowid": "1008260",
    "final_x": "3687672.17161",
    "final_y": "531374.351491",
    "longitude": "-90.04858603312414",
    "latitude": "29.95490635435793",
    "geocoded_column": {
      "latitude": "29.95490635435793",
      "longitude": "-90.04858603312414"
    }
  },
  {
    "service_request": "2023-1008259",
    "request_type": "Property Maintenance",
    "request_reason": "Property Maintenance",
    "date_created": "2023-06-13T13:06:28.000",
    "date_modified": "2023-06-13T13:06:28.000",
    "request_status": "Pending",
    "responsible_agency": "Department of Code Enforcement",
    "final_address": "3511 St Ferdinand St",
    "address_councildis": "D",
    "status": "Pending",
    "rowid": "1008259",
    "final_x": "3690088.2696",
    "final_y": "545882.648848",
    "longitude": "-90.04044002709249",
    "latitude": "29.994724327576098",
    "geocoded_column": {
      "latitude": "29.994724327576098",
      "longitude": "-90.04044002709249"
    }
  },
  {
    "service_request": "2023-1008258",
    "request_type": "Abandoned Vehicles",
    "request_reason": "Abandoned/Junk Vehicles",
    "date_created": "2023-06-13T13:03:47.000",
    "date_modified": "2023-06-13T13:12:15.000",
    "request_status": "Pending",
    "responsible_agency": "Department of Public Works",
    "final_address": "1300 BLK Reynes St",
    "address_councildis": "E",
    "status": "Inspected",
    "rowid": "1008258",
    "final_x": "3696224.9356",
    "final_y": "535183.643003",
    "longitude": "-90.02144207221455",
    "latitude": "29.965114107656532",
    "geocoded_column": {
      "latitude": "29.965114107656532",
      "longitude": "-90.02144207221455"
    }
  },
  {
    "service_request": "2023-1008257",
    "request_type": "Property Maintenance",
    "request_reason": "Property Maintenance",
    "date_created": "2023-06-13T13:02:44.000",
    "date_modified": "2023-06-13T13:02:44.000",
    "request_status": "Pending",
    "responsible_agency": "Department of Code Enforcement",
    "final_address": "3435 St Ferdinand St",
    "address_councildis": "D",
    "status": "Pending",
    "rowid": "1008257",
    "final_x": "3690103.04848",
    "final_y": "545638.384656",
    "longitude": "-90.04040204902348",
    "latitude": "29.994052230921994",
    "geocoded_column": {
      "latitude": "29.994052230921994",
      "longitude": "-90.04040204902348"
    }
  },
  {
    "service_request": "2023-1008256",
    "request_type": "Trash/Recycling",
    "request_reason": "Request a Large Item Pick Up",
    "date_created": "2023-06-13T13:01:49.000",
    "date_modified": "2023-06-13T13:01:50.000",
    "request_status": "Pending",
    "responsible_agency": "Department of Sanitation",
    "final_address": "2512 General Pershing St",
    "address_councildis": "B",
    "status": "Assigned to Contractor",
    "contractor": "Richards Disposal",
    "rowid": "1008256",
    "final_x": "3670879.45543",
    "final_y": "524182.569212",
    "longitude": "-90.10185526753742",
    "latitude": "29.93563833654085",
    "geocoded_column": {
      "latitude": "29.93563833654085",
      "longitude": "-90.10185526753742"
    }
  },
  {
    "service_request": "2023-1008255",
    "request_type": "Abandoned Vehicles",
    "request_reason": "Abandoned/Junk Vehicles",
    "date_created": "2023-06-13T13:00:24.000",
    "date_modified": "2023-06-13T13:00:24.000",
    "request_status": "Pending",
    "responsible_agency": "Department of Public Works",
    "final_address": "528 S Telemachus St",
    "address_councildis": "B",
    "status": "Pending",
    "rowid": "1008255",
    "final_x": "3671282.98196",
    "final_y": "535881.426247",
    "longitude": "-90.10018385001499",
    "latitude": "29.967794410643435",
    "geocoded_column": {
      "latitude": "29.967794410643435",
      "longitude": "-90.10018385001499"
    }
  },
  {
    "service_request": "2023-1008254",
    "request_type": "Property Maintenance",
    "request_reason": "Property Maintenance",
    "date_created": "2023-06-13T12:58:39.000",
    "date_modified": "2023-06-13T12:58:39.000",
    "request_status": "Pending",
    "responsible_agency": "Department of Code Enforcement",
    "final_address": "3431 St Ferdinand St",
    "address_councildis": "D",
    "status": "Pending",
    "rowid": "1008254",
    "final_x": "3690113.33308",
    "final_y": "545593.689872",
    "longitude": "-90.04037115463701",
    "latitude": "29.99392901733876",
    "geocoded_column": {
      "latitude": "29.99392901733876",
      "longitude": "-90.04037115463701"
    }
  },
  {
    "service_request": "2023-1008253",
    "request_type": "Roads/Drainage",
    "request_reason": "Pothole",
    "date_created": "2023-06-13T12:55:47.000",
    "date_modified": "2023-06-13T12:57:32.000",
    "request_status": "Pending",
    "responsible_agency": "Department of Public Works",
    "final_address": "6600 Belgrade St",
    "address_councildis": "C",
    "status": "Inspected",
    "rowid": "1008253",
    "final_x": "3708694.84491",
    "final_y": "520188.825528",
    "longitude": "-89.98262134611504",
    "latitude": "29.92348527325995",
    "geocoded_column": {
      "latitude": "29.92348527325995",
      "longitude": "-89.98262134611504"
    }
  },
  {
    "service_request": "2023-1008252",
    "request_type": "Trash/Recycling",
    "request_reason": "Request a Large Item Pick Up",
    "date_created": "2023-06-13T12:55:47.000",
    "date_modified": "2023-06-13T12:55:47.000",
    "request_status": "Pending",
    "responsible_agency": "Department of Sanitation",
    "final_address": "7724 Green St",
    "address_councildis": "A",
    "status": "Assigned to Contractor",
    "contractor": "Richards Disposal",
    "rowid": "1008252",
    "final_x": "3664057.68967",
    "final_y": "528786.764416",
    "longitude": "-90.12323825239633",
    "latitude": "29.9484982335566",
    "geocoded_column": {
      "latitude": "29.9484982335566",
      "longitude": "-90.12323825239633"
    }
  },