[
  {
    "service_request": "2023-1047079",
    "request_type": "Trash/Recycling",
    "request_reason": "Request a Large Item Pick Up",
    "date_created": "2023-10-30T23:21:39.000",
    "date_modified": "2023-10-30T23:21:39.000",
    "request_status": "Pending",
    "responsible_agency": "Department of Sanitation",
    "status": "Assigned to Contractor",
    "rowid": "1047079",
    "longitude": "0.0",
    "latitude": "0.0",
    "geocoded_column": {
      "latitude": "0.0",
      "longitude": "0.0"
    }
  },
  {
    "service_request": "2023-1047078",
    "request_type": "Trash/Recycling",
    "request_reason": "Request a Large Item Pick Up",
    "date_created": "2023-10-30T23:13:13.000",
    "date_modified": "2023-10-30T23:13:13.000",
    "request_status": "Pending",
    "responsible_agency": "Department of Sanitation",
    "final_address": "4443 Arts St",
    "address_councildis": "D",
    "status": "Assigned to Contractor",
    "contractor": "IV Waste",
    "rowid": "1047078",
    "final_x": "3686074.66492",
    "final_y": "549250.176979",
    "longitude": "-90.05299964038981",
    "latitude": "30.00410772806479",
    "geocoded_column": {
      "latitude": "30.00410772806479",
      "longitude": "-90.05299964038981"
    }
  },
  {
    "service_request": "2023-1047077",
    "request_type": "Property Maintenance",
    "request_reason": "Property Maintenance",
    "date_created": "2023-10-30T23:11:05.000",
    "date_modified": "2023-10-30T23:11:05.000",
    "request_status": "Pending",
    "responsible_agency": "Department of Code Enforcement",
    "final_address": "BULLARD AVE & TURNAROUND",
    "address_councildis": "E",
    "status": "Pending",
    "rowid": "1047077",
    "final_x": "3712229.7",
    "final_y": "568674.28",
    "longitude": "-89.96964176035029",
    "latitude": "30.05668679254452",
    "geocoded_column": {
      "latitude": "30.05668679254452",
      "longitude": "-89.96964176035029"
    }
  },
  {
    "service_request": "2023-1047076",
    "request_type": "Property Maintenance",
    "request_reason": "Property Maintenance",
    "date_created": "2023-10-30T22:53:26.000",
    "date_modified": "2023-10-30T22:53:26.000",
    "request_status": "Pending",
    "responsible_agency": "Department of Code Enforcement",
    "final_address": "BULLARD AVE & I 10 W",
    "address_councildis": "E",
    "status": "Pending",
    "rowid": "1047076",
    "final_x": "3714912.0",
    "final_y": "564900.48",
    "longitude": "-89.96130635148693",
    "latitude": "30.046222337858797",
    "geocoded_column": {
      "latitude": "30.046222337858797",
      "longitude": "-89.96130635148693"
    }
  },
  {
    "service_request": "2023-1047075",
    "request_type": "Trash/Recycling",
    "request_reason": "Repair Recycling Cart",
    "date_created": "2023-10-30T22:50:31.000",
    "date_modified": "2023-10-30T22:50:31.000",
    "request_status": "Pending",
    "responsible_agency": "Department of Sanitation",
    "final_address": "4443 Arts St",
    "address_councildis": "D",
    "status": "Pending",
    "rowid": "1047075",
    "final_x": "3686074.66492",
    "final_y": "549250.176979",
    "longitude": "-90.05299964038981",
    "latitude": "30.00410772806479",
    "geocoded_column": {
      "latitude": "30.00410772806479",
      "longitude": "-90.05299964038981"
    }
  },
  {
    "service_request": "2023-1047074",
    "request_type": "Property Maintenance",
    "request_reason": "Property Maintenance",
    "date_created": "2023-10-30T22:39:21.000",
    "date_modified": "2023-10-30T22:39:21.000",
    "request_status": "Pending",
    "responsible_agency": "Department of Code Enforcement",
    "final_address": "1860 Burgundy St",
    "address_councildis": "C",
    "status": "Pending",
    "rowid": "1047074",
    "final_x": "3683867.46351",
    "final_y": "535454.942598",
    "longitude": "-90.06045670835087",
    "latitude": "29.96624333054572",
    "geocoded_column": {
      "latitude": "29.96624333054572",
      "longitude": "-90.06045670835087"
    }
  },
  {
    "service_request": "2023-1047073",
    "request_type": "Trash/Recycling",
    "request_reason": "Order Recycling Cart",
    "date_created": "2023-10-30T22:16:25.000",
    "date_modified": "2023-10-30T22:16:25.000",
    "request_status": "Pending",
    "responsible_agency": "Department of Sanitation",
    "final_address": "1602 Tita St",
    "address_councildis": "C",
    "status": "Pending",
    "rowid": "1047073",
    "final_x": "3695686.30422",
    "final_y": "525459.018429",
    "longitude": "-90.02349408265997",
    "latitude": "29.938391737163514",
    "geocoded_column": {
      "latitude": "29.938391737163514",
      "longitude": "-90.02349408265997"
    }
  },
  {
    "service_request": "2023-1047072",
    "request_type": "Roads/Drainage",
    "request_reason": "Man hole cover issue",
    "date_created": "2023-10-30T22:14:20.000",
    "date_modified": "2023-10-30T22:14:20.000",
    "request_status": "Pending",
    "responsible_agency": "Department of Public Works",
    "final_address": "2125 Spain St",
    "address_councildis": "D",
    "status": "Pending",
    "rowid": "1047072",
    "final_x": "3685856.83644",
    "final_y": "540307.623883",
    "longitude": "-90.05400322154013",
    "latitude": "29.979525592472694",
    "geocoded_column": {
      "latitude": "29.979525592472694",
      "longitude": "-90.05400322154013"
    }
  },
  {
    "service_request": "2023-1047070",
    "request_type": "Trash/Recycling",
    "request_reason": "Request a Large Item Pick Up",
    "date_created": "2023-10-30T21:18:04.000",
    "date_modified": "2023-10-30T21:18:05.000",
    "request_status": "Pending",
    "responsible_agency": "Department of Sanitation",
    "final_address": "615 Washington Ave",
    "address_councildis": "B",
    "status": "Assigned to Contractor",
    "contractor": "Richards Disposal",
    "rowid": "1047070",
    "final_x": "3678027.84091",
    "final_y": "519438.717175",
    "longitude": "-90.07945160750324",
    "latitude": "29.92238110838138",
    "geocoded_column": {
      "latitude": "29.92238110838138",
      "longitude": "-90.07945160750324"
    }
  },
  {
    "service_request": "2023-1047069",
    "request_type": "Traffic Signals/Signs/Striping/Streetlights",
    "request_reason": "Street Light Outage/Malfunction",
    "date_created": "2023-10-30T21:07:43.000",
    "date_modified": "2023-10-30T21:07:44.000",
    "request_status": "Pending",
    "responsible_agency": "Department of Public Works",
    "final_address": "3731 Rue Denise",
    "address_councildis": "C",
    "status": "Assigned to Contractor",
    "contractor": "Legacy Professional Services",
    "rowid": "1047069",
    "final_x": "3704196.63249",
    "final_y": "516725.776757",
    "longitude": "-89.99694790975862",
    "latitude": "29.914108118355582",
    "geocoded_column": {
      "latitude": "29.914108118355582",
      "longitude": "-89.99694790975862"
    }
  },
  {
    "service_request": "2023-1047068",
    "request_type": "Traffic Signals/Signs/Striping/Streetlights",
    "request_reason": "Street Light Outage/Malfunction",
    "date_created": "2023-10-30T20:58:45.000",
    "date_modified": "2023-10-30T20:58:46.000",
    "request_status": "Pending",
    "responsible_agency": "Department of Public Works",
    "final_address": "7800 Mackenzie St",
    "address_councildis": "E",
    "status": "Assigned to Contractor",
    "contractor": "Legacy Professional Services",
    "rowid": "1047068",
    "final_x": "3710589.21387",
    "final_y": "566647.958947",
    "longitude": "-89.9749029631766",
    "latitude": "30.051168813493895",
    "geocoded_column": {
      "latitude": "30.051168813493895",
      "longitude": "-89.9749029631766"
    }
  },
  {
    "service_request": "2023-1047067",
    "request_type": "Trash/Recycling",
    "request_reason": "Request a Large Item Pick Up",
    "date_created": "2023-10-30T20:36:06.000",
    "date_modified": "2023-10-30T20:36:07.000",
    "request_status": "Pending",
    "responsible_agency": "Department of Sanitation",
    "final_address": "19 Yosemite Dr",
    "address_councildis": "C",
    "status": "Assigned to Contractor",
    "contractor": "Richards Disposal",
    "rowid": "1047067",
    "final_x": "3699738.83056",
    "final_y": "517575.066806",
    "longitude": "-90.01098718251737",
    "latitude": "29.916585582884764",
    "geocoded_column": {
      "latitude": "29.916585582884764",
      "longitude": "-90.01098718251737"
    }
  },
  {
    "service_request": "2023-1047066",
    "request_type": "Roads/Drainage",
    "request_reason": "Pothole",
    "date_created": "2023-10-30T20:14:22.000",
    "date_modified": "2023-10-30T20:14:22.000",
    "request_status": "Pending",
    "responsible_agency": "Department of Public Works",
    "final_address": "6218 Camp St",
    "address_councildis": "A",
    "status": "Pending",
    "rowid": "1047066",
    "final_x": "3663735.52493",
    "final_y": "519935.705976",
    "longitude": "-90.12455028280617",
    "latitude": "29.924169983324653",
    "geocoded_column": {
      "latitude": "29.924169983324653",
      "longitude": "-90.12455028280617"
    }
  },
  {
    "service_request": "2023-1047065",
    "request_type": "Roads/Drainage",
    "request_reason": "Pothole",
    "date_created": "2023-10-30T20:10:57.000",
    "date_modified": "2023-10-30T20:10:57.000",
    "request_status": "Pending",
    "responsible_agency": "Department of Public Works",
    "final_address": "6125 Pitt St",
    "address_councildis": "A",
    "status": "Pending",
    "rowid": "1047065",
    "final_x": "3664701.78119",
    "final_y": "521470.575801",
    "longitude": "-90.1214488946833",
    "latitude": "29.92836232888595",
    "geocoded_column": {
      "latitude": "29.92836232888595",
      "longitude": "-90.1214488946833"
    }
  },
  {
    "service_request": "2023-1047064",
    "request_type": "Roads/Drainage",
    "request_reason": "Pothole",
    "date_created": "2023-10-30T20:06:24.000",
    "date_modified": "2023-10-30T20:06:24.000",
    "request_status": "Pending",
    "responsible_agency": "Department of Public Works",
    "final_address": "1525 Eleonore St",
    "address_councildis": "A",
    "status": "Pending",
    "rowid": "1047064",
    "final_x": "3665916.94823",
    "final_y": "521918.417722",
    "longitude": "-90.11759786279285",
    "latitude": "29.929558357498486",
    "geocoded_column": {
      "latitude": "29.929558357498486",
      "longitude": "-90.11759786279285"
    }
  },
  {
    "service_request": "2023-1047063",
    "request_type": "Traffic Signals/Signs/Striping/Streetlights",
    "request_reason": "Street Light Outage/Malfunction",
    "date_created": "2023-10-30T20:04:43.000",
    "date_modified": "2023-10-30T20:04:44.000",
    "request_status": "Pending",
    "responsible_agency": "Department of Public Works",
    "final_address": "4300 BLK S Galvez St",
    "address_councildis": "B",
    "status": "Assigned to Contractor",
    "contractor": "Legacy Professional Services",
    "rowid": "1047063",
    "final_x": "3670403.56368",
    "final_y": "527557.677612",
    "longitude": "-90.1032432802103",
    "latitude": "29.94493284529157",
    "geocoded_column": {
      "latitude": "29.94493284529157",
      "longitude": "-90.1032432802103"
    }
  },
  {
    "service_request": "2023-1047062",
    "request_type": "Traffic Signals/Signs/Striping/Streetlights",
    "request_reason": "Street Light Outage/Malfunction",
    "date_created": "2023-10-30T19:30:16.000",
    "date_modified": "2023-10-30T19:30:17.000",
    "request_status": "Pending",
    "responsible_agency": "Department of Public Works",
    "final_address": "6964 Canal Blvd",
    "address_councildis": "A",
    "status": "Assigned to Contractor",
    "contractor": "Legacy Professional Services",
    "rowid": "1047062",
    "final_x": "3668912.08775",
    "final_y": "553849.650199",
    "longitude": "-90.107063953249",
    "latitude": "30.01727079895317",
    "geocoded_column": {
      "latitude": "30.01727079895317",
      "longitude": "-90.107063953249"
    }
  },
  {
    "service_request": "2023-1047061",
    "request_type": "Abandoned Vehicles",
    "request_reason": "Abandoned/Junk Vehicles",
    "date_created": "2023-10-30T19:21:47.000",
    "date_modified": "2023-10-30T19:21:47.000",
    "request_status": "Pending",
    "responsible_agency": "Department of Public Works",
    "final_address": "4322 Prytania St",
    "address_councildis": "B",
    "status": "Pending",
    "rowid": "1047061",
    "final_x": "3671109.93403",
    "final_y": "520294.39148",
    "longitude": "-90.10125963034605",
    "latitude": "29.924940283264156",
    "geocoded_column": {
      "latitude": "29.924940283264156",
      "longitude": "-90.10125963034605"
    }
  },
  {
    "service_request": "2023-1047060",
    "request_type": "Traffic Signals/Signs/Striping/Streetlights",
    "request_reason": "Street Light Outage/Malfunction",
    "date_created": "2023-10-30T19:12:13.000",
    "date_modified": "2023-10-30T19:12:14.000",
    "request_status": "Pending",
    "responsible_agency": "Department of Public Works",
    "final_address": "2376 Jay St",
    "address_councildis": "D",
    "status": "Assigned to Contractor",
    "contractor": "Legacy Professional Services",
    "rowid": "1047060",
    "final_x": "3684707.15087",
    "final_y": "557282.078107",
    "longitude": "-90.05703722352781",
    "latitude": "30.02623445945361",
    "geocoded_column": {
      "latitude": "30.02623445945361",
      "longitude": "-90.05703722352781"
    }
  },
  {
    "service_request": "2023-1047059",
    "request_type": "Roads/Drainage",
    "request_reason": "Pothole",
    "date_created": "2023-10-30T19:01:51.000",
    "date_modified": "2023-10-30T19:01:51.000",
    "request_status": "Pending",
    "responsible_agency": "Department of Public Works",
    "final_address": "10 Congress St",
    "address_councildis": "D",
    "status": "Pending",
    "rowid": "1047059",
    "final_x": "3691487.61238",
    "final_y": "539176.770762",
    "longitude": "-90.03625947435012",
    "latitude": "29.976242083931574",
    "geocoded_column": {
      "latitude": "29.976242083931574",
      "longitude": "-90.03625947435012"
    }
  },
  {
    "service_request": "2023-1047058",
    "request_type": "Trash/Recycling",
    "request_reason": "Start Trash Service",
    "date_created": "2023-10-30T18:56:41.000",
    "date_modified": "2023-10-30T18:56:42.000",
    "request_status": "Pending",
    "responsible_agency": "Department of Sanitation",
    "final_address": "2819 Annette St",
    "address_councildis": "D",
    "status": "Assigned to Contractor",
    "contractor": "IV Waste",
    "rowid": "1047058",
    "final_x": "3682655.53858",
    "final_y": "542633.113997",
    "longitude": "-90.06403282932618",
    "latitude": "29.98601776540078",
    "geocoded_column": {
      "latitude": "29.98601776540078",
      "longitude": "-90.06403282932618"
    }
  },
  {
    "service_request": "2023-1047057",
    "request_type": "Trash/Recycling",
    "request_reason": "Start Trash Service",
    "date_created": "2023-10-30T18:55:35.000",
    "date_modified": "2023-10-30T18:55:35.000",
    "request_status": "Pending",
    "responsible_agency": "Department of Sanitation",
    "final_address": "2817 Annette St",
    "address_councildis": "D",
    "status": "Assigned to Contractor",
    "contractor": "IV Waste",
    "rowid": "1047057",
    "final_x": "3682655.63893",
    "final_y": "542621.721037",
    "longitude": "-90.0640329109924",
    "latitude": "29.98598643571604",
    "geocoded_column": {
      "latitude": "29.98598643571604",
      "longitude": "-90.0640329109924"
    }
  },
  {
    "service_request": "2023-1047056",
    "request_type": "Property Maintenance",
    "request_reason": "Property Maintenance",
    "date_created": "2023-10-30T18:43:09.000",
    "date_modified": "2023-10-30T18:43:09.000",
    "request_status": "Pending",
    "responsible_agency": "Department of Code Enforcement",
    "final_address": "4923 Perrault Walk",
    "address_councildis": "E",
    "status": "Pending",
    "rowid": "1047056",
    "final_x": "3709754.65861",
    "final_y": "556780.875482",
    "longitude": "-89.97790959925578",
    "latitude": "30.024065438518235",
    "geocoded_column": {
      "latitude": "30.024065438518235",
      "longitude": "-89.97790959925578"
    }
  },
  {
    "service_request": "2023-1047055",
    "request_type": "Trash/Recycling",
    "request_reason": "Request a Large Item Pick Up",
    "date_created": "2023-10-30T18:37:09.000",
    "date_modified": "2023-10-30T18:37:10.000",
    "request_status": "Pending",
    "responsible_agency": "Department of Sanitation",
    "final_address": "6231 Milne Blvd",
    "address_councildis": "A",
    "status": "Assigned to Contractor",
    "contractor": "IV Waste",
    "rowid": "1047055",
    "final_x": "3667259.92609",
    "final_y": "548967.200147",
    "longitude": "-90.11244850409281",
    "latitude": "30.003894282793837",
    "geocoded_column": {
      "latitude": "30.003894282793837",
      "longitude": "-90.11244850409281"
    }
  },
  {
    "service_request": "2023-1047054",
    "request_type": "Property Maintenance",
    "request_reason": "Property Maintenance",
    "date_created": "2023-10-30T18:15:24.000",
    "date_modified": "2023-10-30T18:15:24.000",
    "request_status": "Pending",
    "responsible_agency": "Department of Code Enforcement",
    "final_address": "2434 Barracks St",
    "address_councildis": "D",
    "status": "Pending",
    "rowid": "1047054",
    "final_x": "3678862.05422",
    "final_y": "538037.867977",
    "longitude": "-90.07617419971481",
    "latitude": "29.97349743182189",
    "geocoded_column": {
      "latitude": "29.97349743182189",
      "longitude": "-90.07617419971481"
    }
  },
  {
    "service_request": "2023-1047053",
    "request_type": "Trash/Recycling",
    "request_reason": "Request a Large Item Pick Up",
    "date_created": "2023-10-30T18:11:15.000",
    "date_modified": "2023-10-30T18:11:16.000",
    "request_status": "Pending",
    "responsible_agency": "Department of Sanitation",
    "final_address": "11283 Winrock Dr",
    "address_councildis": "E",
    "status": "Assigned to Contractor",
    "contractor": "Waste Pro",
    "rowid": "1047053",
    "final_x": "3716681.44594",
    "final_y": "561706.381535",
    "longitude": "-89.95583541936485",
    "latitude": "30.037381488445696",
    "geocoded_column": {
      "latitude": "30.037381488445696",
      "longitude": "-89.95583541936485"
    }
  },
  {
    "service_request": "2023-1047052",
    "request_type": "Trash/Recycling",
    "request_reason": "Request a Large Item Pick Up",
    "date_created": "2023-10-30T18:09:32.000",
    "date_modified": "2023-10-30T18:09:33.000",
    "request_status": "Pending",
    "responsible_agency": "Department of Sanitation",
    "final_address": "11283 Winrock Dr",
    "address_councildis": "E",
    "status": "Assigned to Contractor",
    "contractor": "Waste Pro",
    "rowid": "1047052",
    "final_x": "3716681.44594",
    "final_y": "561706.381535",
    "longitude": "-89.95583541936485",
    "latitude": "30.037381488445696",
    "geocoded_column": {
      "latitude": "30.037381488445696",
      "longitude": "-89.95583541936485"
    }
  },
  {
    "service_request": "2023-1047051",
    "request_type": "Safety & Permits",
    "request_reason": "Licenses & Permits",
    "date_created": "2023-10-30T18:00:12.000",
    "date_modified": "2023-10-30T18:00:12.000",
    "request_status": "Pending",
    "responsible_agency": "Safety and Permits",
    "final_address": "1443 N Roman St",
    "address_councildis": "D",
    "status": "Pending",
    "rowid": "1047051",
    "final_x": "3680930.1604",
    "final_y": "537387.672392",
    "longitude": "-90.06966533643815",
    "latitude": "29.971647066052427",
    "geocoded_column": {
      "latitude": "29.971647066052427",
      "longitude": "-90.06966533643815"
    }
  },
  {
    "service_request": "2023-1047049",
    "request_type": "Roads/Drainage",
    "request_reason": "Street Subsidence (Sinking)",
    "date_created": "2023-10-30T17:53:38.000",
    "date_modified": "2023-10-30T17:53:38.000",
    "request_status": "Pending",
    "responsible_agency": "Department of Public Works",
    "final_address": "4759 Redwood St",
    "address_councildis": "E",
    "status": "Pending",
    "rowid": "1047049",
    "final_x": "3712551.85899",
    "final_y": "556305.51593",
    "longitude": "-89.96908895105487",
    "latitude": "30.022667109979054",
    "geocoded_column": {
      "latitude": "30.022667109979054",
      "longitude": "-89.96908895105487"
    }
  },
  {
    "service_request": "2023-1047048",
    "request_type": "Property Maintenance",
    "request_reason": "Property Maintenance",
    "date_created": "2023-10-30T17:49:26.000",
    "date_modified": "2023-10-30T17:49:26.000",
    "request_status": "Pending",
    "responsible_agency": "Department of Code Enforcement",
    "final_address": "1901 Bodenger Blvd",
    "address_councildis": "C",
    "status": "Pending",
    "rowid": "1047048",
    "final_x": "3688384.17155",
    "final_y": "524917.439356",
    "longitude": "-90.04656677351039",
    "latitude": "29.937130079628847",
    "geocoded_column": {
      "latitude": "29.937130079628847",
      "longitude": "-90.04656677351039"
    }
  },
  {
    "service_request": "2023-1047047",
    "request_type": "Property Maintenance",
    "request_reason": "Property Maintenance",
    "date_created": "2023-10-30T17:42:48.000",
    "date_modified": "2023-10-30T17:42:48.000",
    "request_status": "Pending",
    "responsible_agency": "Department of Code Enforcement",
    "final_address": "9212 Olive St",
    "address_councildis": "A",
    "status": "Pending",
    "rowid": "1047047",
    "final_x": "3664264.18036",
    "final_y": "536844.66164",
    "longitude": "-90.12231737854734",
    "latitude": "29.970648821767938",
    "geocoded_column": {
      "latitude": "29.970648821767938",
      "longitude": "-90.12231737854734"
    }
  },
  {
    "service_request": "2023-1047046",
    "request_type": "Roads/Drainage",
    "request_reason": "Debris in Roadway",
    "date_created": "2023-10-30T17:40:29.000",
    "date_modified": "2023-10-30T17:40:29.000",
    "request_status": "Pending",
    "responsible_agency": "Department of Public Works",
    "final_address": "9235 Olive St",
    "address_councildis": "A",
    "status": "Pending",
    "rowid": "1047046",
    "final_x": "3664209.91296",
    "final_y": "536996.97108",
    "longitude": "-90.12248367921805",
    "latitude": "29.971069199260093",
    "geocoded_column": {
      "latitude": "29.971069199260093",
      "longitude": "-90.12248367921805"
    }
  },
  {
    "service_request": "2023-1047045",
    "request_type": "Roads/Drainage",
    "request_reason": "Street Subsidence (Sinking)",
    "date_created": "2023-10-30T17:36:14.000",
    "date_modified": "2023-10-30T17:36:14.000",
    "request_status": "Pending",
    "responsible_agency": "Department of Public Works",
    "final_address": "3419 Cherry St",
    "address_councildis": "A",
    "status": "Pending",
    "rowid": "1047045",
    "final_x": "3664254.88045",
    "final_y": "537114.446216",
    "longitude": "-90.12233774429816",
    "latitude": "29.9713909103089",
    "geocoded_column": {
      "latitude": "29.9713909103089",
      "longitude": "-90.12233774429816"
    }
  },
  {
    "service_request": "2023-1047044",
    "request_type": "Trash/Recycling",
    "request_reason": "Replace Trash Cart",
    "date_created": "2023-10-30T17:35:06.000",
    "date_modified": "2023-10-30T17:35:06.000",
    "request_status": "Pending",
    "responsible_agency": "Department of Sanitation",
    "final_address": "5252 General Diaz St",
    "address_councildis": "A",
    "status": "Assigned to Contractor",
    "contractor": "IV Waste",
    "rowid": "1047044",
    "final_x": "3668916.01588",
    "final_y": "542478.697933",
    "longitude": "-90.10743592015419",
    "latitude": "29.98600451399992",
    "geocoded_column": {
      "latitude": "29.98600451399992",
      "longitude": "-90.10743592015419"
    }
  },
  {
    "service_request": "2023-1047043",
    "request_type": "Trash/Recycling",
    "request_reason": "Missed Trash Pick-Up",
    "date_created": "2023-10-30T17:33:43.000",
    "date_modified": "2023-10-30T17:33:43.000",
    "request_status": "Pending",
    "responsible_agency": "Department of Sanitation",
    "final_address": "5252 General Diaz St",
    "address_councildis": "A",
    "status": "Assigned to Contractor",
    "contractor": "IV Waste",
    "rowid": "1047043",
    "final_x": "3668916.01588",
    "final_y": "542478.697933",
    "longitude": "-90.10743592015419",
    "latitude": "29.98600451399992",
    "geocoded_column": {
      "latitude": "29.98600451399992",
      "longitude": "-90.10743592015419"
    }
  },
  {
    "service_request": "2023-1047042",
    "request_type": "Roads/Drainage",
    "request_reason": "Pothole",
    "date_created": "2023-10-30T17:30:35.000",
    "date_modified": "2023-10-30T17:30:35.000",
    "request_status": "Pending",
    "responsible_agency": "Department of Public Works",
    "final_address": "4216 Chestnut St",
    "address_councildis": "B",
    "status": "Pending",
    "rowid": "1047042",
    "final_x": "3671574.31393",
    "final_y": "519539.203703",
    "longitude": "-90.09981939416457",
    "latitude": "29.922850019854593",
    "geocoded_column": {
      "latitude": "29.922850019854593",
      "longitude": "-90.09981939416457"
    }
  },
  {
    "service_request": "2023-1047040",
    "request_type": "Traffic Signals/Signs/Striping/Streetlights",
    "request_reason": "Street Light Outage/Malfunction",
    "date_created": "2023-10-30T17:17:53.000",
    "date_modified": "2023-10-30T17:17:54.000",
    "request_status": "Pending",
    "responsible_agency": "Department of Public Works",
    "final_address": "1520 Dufossat St",
    "address_councildis": "B",
    "status": "Assigned to Contractor",
    "contractor": "Legacy Professional Services",
    "rowid": "1047040",
    "final_x": "3668021.84634",
    "final_y": "520604.332856",
    "longitude": "-90.1109973100833",
    "latitude": "29.925883465381688",
    "geocoded_column": {
      "latitude": "29.925883465381688",
      "longitude": "-90.1109973100833"
    }
  },
  {
    "service_request": "2023-1047039",
    "request_type": "Traffic Signals/Signs/Striping/Streetlights",
    "request_reason": "Traffic Sign Missing/Damaged",
    "date_created": "2023-10-30T17:17:42.000",
    "date_modified": "2023-10-30T17:17:42.000",
    "request_status": "Pending",
    "responsible_agency": "Department of Public Works",
    "final_address": "3124 Gravier St",
    "address_councildis": "B",
    "status": "Pending",
    "rowid": "1047039",
    "final_x": "3672329.8475",
    "final_y": "534137.943429",
    "longitude": "-90.09693722243955",
    "latitude": "29.962969397411786",
    "geocoded_column": {
      "latitude": "29.962969397411786",
      "longitude": "-90.09693722243955"
    }
  },
  {
    "service_request": "2023-1047038",
    "request_type": "Traffic Signals/Signs/Striping/Streetlights",
    "request_reason": "Request for Stop Sign",
    "date_created": "2023-10-30T17:16:51.000",
    "date_modified": "2023-10-30T17:16:51.000",
    "request_status": "Pending",
    "responsible_agency": "Department of Public Works",
    "final_address": "4036 Vincennes Pl",
    "address_councildis": "B",
    "status": "Pending",
    "rowid": "1047038",
    "final_x": "3668447.2281",
    "final_y": "530448.084866",
    "longitude": "-90.10932256462821",
    "latitude": "29.95293812635065",
    "geocoded_column": {
      "latitude": "29.95293812635065",
      "longitude": "-90.10932256462821"
    }
  },
  {
    "service_request": "2023-1047037",
    "request_type": "Traffic Signals/Signs/Striping/Streetlights",
    "request_reason": "Street Light Outage/Malfunction",
    "date_created": "2023-10-30T17:14:06.000",
    "date_modified": "2023-10-30T17:14:07.000",
    "request_status": "Pending",
    "responsible_agency": "Department of Public Works",
    "final_address": "1520 Dufossat St",
    "address_councildis": "B",
    "status": "Assigned to Contractor",
    "contractor": "Legacy Professional Services",
    "rowid": "1047037",
    "final_x": "3668021.84634",
    "final_y": "520604.332856",
    "longitude": "-90.1109973100833",
    "latitude": "29.925883465381688",
    "geocoded_column": {
      "latitude": "29.925883465381688",
      "longitude": "-90.1109973100833"
    }
  },
  {
    "service_request": "2023-1047036",
    "request_type": "Trash/Recycling",
    "request_reason": "Request a Large Item Pick Up",
    "date_created": "2023-10-30T17:02:34.000",
    "date_modified": "2023-10-30T17:02:35.000",
    "request_status": "Pending",
    "responsible_agency": "Department of Sanitation",
    "final_address": "2228 Delachaise St",
    "address_councildis": "B",
    "status": "Assigned to Contractor",
    "contractor": "Richards Disposal",
    "rowid": "1047036",
    "final_x": "3672856.44219",
    "final_y": "523548.383739",
    "longitude": "-90.09563551161291",
    "latitude": "29.93383596055463",
    "geocoded_column": {
      "latitude": "29.93383596055463",
      "longitude": "-90.09563551161291"
    }
  },
  {
    "service_request": "2023-1047035",
    "request_type": "Trash/Recycling",
    "request_reason": "Replace Trash Cart",
    "date_created": "2023-10-30T16:52:20.000",
    "date_modified": "2023-10-30T16:52:21.000",
    "request_status": "Pending",
    "responsible_agency": "Department of Sanitation",
    "final_address": "3608 Havana St",
    "address_councildis": "D",
    "status": "Assigned to Contractor",
    "contractor": "IV Waste",
    "rowid": "1047035",
    "final_x": "3680776.54184",
    "final_y": "545679.799504",
    "longitude": "-90.06986172476225",
    "latitude": "29.994452175994443",
    "geocoded_column": {
      "latitude": "29.994452175994443",
      "longitude": "-90.06986172476225"
    }
  },
  {
    "service_request": "2023-1047034",
    "request_type": "Trash/Recycling",
    "request_reason": "Replace Trash Cart",
    "date_created": "2023-10-30T16:46:24.000",
    "date_modified": "2023-10-30T16:46:24.000",
    "request_status": "Pending",
    "responsible_agency": "Department of Sanitation",
    "final_address": "1930 Annunciation St Unit S",
    "address_councildis": "B",
    "status": "Assigned to Contractor",
    "contractor": "Richards Disposal",
    "rowid": "1047034",
    "final_x": "3680419.03458",
    "final_y": "521842.921978",
    "longitude": "-90.07182003425964",
    "latitude": "29.928919718981607",
    "geocoded_column": {
      "latitude": "29.928919718981607",
      "longitude": "-90.07182003425964"
    }
  },
  {
    "service_request": "2023-1047033",
    "request_type": "Traffic Signals/Signs/Striping/Streetlights",
    "request_reason": "Request for Stop Sign",
    "date_created": "2023-10-30T16:44:10.000",
    "date_modified": "2023-10-30T16:44:10.000",
    "request_status": "Pending",
    "responsible_agency": "Department of Public Works",
    "final_address": "4037 Vincennes Pl",
    "address_councildis": "B",
    "status": "Pending",
    "rowid": "1047033",
    "final_x": "3668600.58778",
    "final_y": "530404.712258",
    "longitude": "-90.10883978438432",
    "latitude": "29.95281436043083",
    "geocoded_column": {
      "latitude": "29.95281436043083",
      "longitude": "-90.10883978438432"
    }
  },
  {
    "service_request": "2023-1047032",
    "request_type": "Traffic Signals/Signs/Striping/Streetlights",
    "request_reason": "Request for Traffic Calming due to Speeding",
    "date_created": "2023-10-30T16:40:57.000",
    "date_modified": "2023-10-30T16:40:57.000",
    "request_status": "Pending",
    "responsible_agency": "Department of Public Works",
    "final_address": "4037 Vincennes Pl",
    "address_councildis": "B",
    "status": "Pending",
    "rowid": "1047032",
    "final_x": "3668600.58778",
    "final_y": "530404.712258",
    "longitude": "-90.10883978438432",
    "latitude": "29.95281436043083",
    "geocoded_column": {
      "latitude": "29.95281436043083",
      "longitude": "-90.10883978438432"
    }
  },
  {
    "service_request": "2023-1047031",
    "request_type": "Trash/Recycling",
    "request_reason": "Request a Large Item Pick Up",
    "date_created": "2023-10-30T16:33:12.000",
    "date_modified": "2023-10-30T16:33:57.000",
    "request_status": "Pending",
    "responsible_agency": "Department of Sanitation",
    "final_address": "532 Burgundy St",
    "address_councildis": "C",
    "status": "Assigned to Contractor",
    "contractor": "Empire Services",
    "rowid": "1047031",
    "final_x": "3681408.5204",
    "final_y": "532705.342212",
    "longitude": "-90.06831785930844",
    "latitude": "29.958757748524246",
    "geocoded_column": {
      "latitude": "29.958757748524246",
      "longitude": "-90.06831785930844"
    }
  },
  {
    "service_request": "2023-1047030",
    "request_type": "Trash/Recycling",
    "request_reason": "Request a Large Item Pick Up",
    "date_created": "2023-10-30T16:30:28.000",
    "date_modified": "2023-10-30T16:30:29.000",
    "request_status": "Pending",
    "responsible_agency": "Department of Sanitation",
    "final_address": "4522 America St",
    "address_councildis": "E",
    "status": "Assigned to Contractor",
    "contractor": "Waste Pro",
    "rowid": "1047030",
    "final_x": "3699778.82922",
    "final_y": "553840.541719",
    "longitude": "-90.00953847209826",
    "latitude": "30.016301338546658",
    "geocoded_column": {
      "latitude": "30.016301338546658",
      "longitude": "-90.00953847209826"
    }
  },
  {
    "service_request": "2023-1047029",
    "request_type": "Trash/Recycling",
    "request_reason": "Replace Trash Cart",
    "date_created": "2023-10-30T16:29:26.000",
    "date_modified": "2023-10-30T16:29:27.000",
    "request_status": "Pending",
    "responsible_agency": "Department of Sanitation",
    "final_address": "8732 Palm St",
    "address_councildis": "A",
    "status": "Assigned to Contractor",
    "contractor": "Richards Disposal",
    "rowid": "1047029",
    "final_x": "3665931.85664",
    "final_y": "536270.682311",
    "longitude": "-90.11706987791042",
    "latitude": "29.969022000016494",
    "geocoded_column": {
      "latitude": "29.969022000016494",
      "longitude": "-90.11706987791042"
    }
  },
  {
    "service_request": "2023-1047028",
    "request_type": "Abandoned Vehicles",
    "request_reason": "Abandoned/Junk Vehicles",
    "date_created": "2023-10-30T16:29:10.000",
    "date_modified": "2023-10-30T16:29:10.000",
    "request_status": "Pending",
    "responsible_agency": "Department of Public Works",
    "final_address": "2000 Alvar St",
    "address_councildis": "D",
    "status": "Inspected",
    "rowid": "1047028",
    "final_x": "3692292.12662",
    "final_y": "538817.164873",
    "longitude": "-90.03373147155258",
    "latitude": "29.975228230274976",
    "geocoded_column": {
      "latitude": "29.975228230274976",
      "longitude": "-90.03373147155258"
    }
  },
  {
    "service_request": "2023-1047027",
    "request_type": "Traffic Signals/Signs/Striping/Streetlights",
    "request_reason": "Additional signage",
    "date_created": "2023-10-30T16:28:36.000",
    "date_modified": "2023-10-30T16:28:36.000",
    "request_status": "Pending",
    "responsible_agency": "Department of Public Works",
    "final_address": "CAMP ST & HARMONY ST",
    "address_councildis": "B",
    "status": "Pending",
    "rowid": "1047027",
    "final_x": "3675622.6",
    "final_y": "520327.51",
    "longitude": "-90.08701346523067",
    "latitude": "29.924897155277435",
    "geocoded_column": {
      "latitude": "29.924897155277435",
      "longitude": "-90.08701346523067"
    }
  },
  {
    "service_request": "2023-1047026",
    "request_type": "Trash/Recycling",
    "request_reason": "Missed Trash Pick-Up",
    "date_created": "2023-10-30T16:27:59.000",
    "date_modified": "2023-10-30T16:27:59.000",
    "request_status": "Pending",
    "responsible_agency": "Department of Sanitation",
    "final_address": "1624 Hollygrove St",
    "address_councildis": "A",
    "status": "Assigned to Contractor",
    "contractor": "Richards Disposal",
    "rowid": "1047026",
    "final_x": "3660658.95098",
    "final_y": "531723.039299",
    "longitude": "-90.13387250246369",
    "latitude": "29.956670303974434",
    "geocoded_column": {
      "latitude": "29.956670303974434",
      "longitude": "-90.13387250246369"
    }
  },
  {
    "service_request": "2023-1047025",
    "request_type": "Traffic Signals/Signs/Striping/Streetlights",
    "request_reason": "Street Light Outage/Malfunction",
    "date_created": "2023-10-30T16:27:39.000",
    "date_modified": "2023-10-30T16:27:39.000",
    "request_status": "Pending",
    "responsible_agency": "Department of Public Works",
    "final_address": "2227 Chestnut St",
    "address_councildis": "B",
    "status": "Assigned to Contractor",
    "contractor": "Legacy Professional Services",
    "rowid": "1047025",
    "final_x": "3678179.64302",
    "final_y": "522525.489594",
    "longitude": "-90.07886575599632",
    "latitude": "29.93086415896054",
    "geocoded_column": {
      "latitude": "29.93086415896054",
      "longitude": "-90.07886575599632"
    }
  },
  {
    "service_request": "2023-1047024",
    "request_type": "Trash/Recycling",
    "request_reason": "Request a Large Item Pick Up",
    "date_created": "2023-10-30T16:27:08.000",
    "date_modified": "2023-10-30T16:27:09.000",
    "request_status": "Pending",
    "responsible_agency": "Department of Sanitation",
    "final_address": "7525 Edward St",
    "address_councildis": "E",
    "status": "Assigned to Contractor",
    "contractor": "Waste Pro",
    "rowid": "1047024",
    "final_x": "3701215.26545",
    "final_y": "560710.253726",
    "longitude": "-90.00474832042549",
    "latitude": "30.035144692770455",
    "geocoded_column": {
      "latitude": "30.035144692770455",
      "longitude": "-90.00474832042549"
    }
  },
  {
    "service_request": "2023-1047023",
    "request_type": "Graffiti Removal",
    "request_reason": "Graffiti Removal",
    "date_created": "2023-10-30T16:22:56.000",
    "date_modified": "2023-10-30T16:22:56.000",
    "request_status": "Pending",
    "responsible_agency": "Department of Code Enforcement",
    "final_address": "118 City Park Ave",
    "address_councildis": "A",
    "status": "Pending",
    "rowid": "1047023",
    "final_x": "3667651.43245",
    "final_y": "540854.232907",
    "longitude": "-90.1114849682831",
    "latitude": "29.98157492613766",
    "geocoded_column": {
      "latitude": "29.98157492613766",
      "longitude": "-90.1114849682831"
    }
  },
  {
    "service_request": "2023-1047022",
    "request_type": "Trash/Recycling",
    "request_reason": "Order Recycling Cart",
    "date_created": "2023-10-30T16:17:37.000",
    "date_modified": "2023-10-30T16:17:37.000",
    "request_status": "Pending",
    "responsible_agency": "Department of Sanitation",
    "final_address": "5916 Marshal Foch St",
    "address_councildis": "A",
    "status": "Pending",
    "rowid": "1047022",
    "final_x": "3669682.92282",
    "final_y": "546664.443921",
    "longitude": "-90.10487181232624",
    "latitude": "29.997491293610445",
    "geocoded_column": {
      "latitude": "29.997491293610445",
      "longitude": "-90.10487181232624"
    }
  },
  {
    "service_request": "2023-1047021",
    "request_type": "Graffiti Removal",
    "request_reason": "Graffiti Removal",
    "date_created": "2023-10-30T16:17:17.000",
    "date_modified": "2023-10-30T16:20:27.000",
    "case_close_date": "2023-10-30T11:20:27.000",
    "request_status": "Closed",
    "responsible_agency": "Department of Code Enforcement",
    "final_address": "118 City Park Ave",
    "address_councildis": "A",
    "status": "Invalid Request",
    "rowid": "1047021",
    "final_x": "3667651.43245",
    "final_y": "540854.232907",
    "longitude": "-90.1114849682831",
    "latitude": "29.98157492613766",
    "geocoded_column": {
      "latitude": "29.98157492613766",
      "longitude": "-90.1114849682831"
    }
  },
  {
    "service_request": "2023-1047020",
    "request_type": "Trash/Recycling",
    "request_reason": "Repair Trash Cart",
    "date_created": "2023-10-30T16:16:54.000",
    "date_modified": "2023-10-30T16:16:54.000",
    "request_status": "Pending",
    "responsible_agency": "Department of Sanitation",
    "final_address": "1653 Paul Morphy St",
    "address_councildis": "D",
    "status": "Assigned to Contractor",
    "contractor": "IV Waste",
    "rowid": "1047020",
    "final_x": "3679041.41666",
    "final_y": "540768.284491",
    "longitude": "-90.07551307599347",
    "latitude": "29.980999721496755",
    "geocoded_column": {
      "latitude": "29.980999721496755",
      "longitude": "-90.07551307599347"
    }
  },
  {
    "service_request": "2023-1047019",
    "request_type": "Trash/Recycling",
    "request_reason": "Replace Recycling Cart",
    "date_created": "2023-10-30T16:16:48.000",
    "date_modified": "2023-10-30T16:16:48.000",
    "request_status": "Pending",
    "responsible_agency": "Department of Sanitation",
    "final_address": "6107 Laurel St",
    "address_councildis": "A",
    "status": "Pending",
    "rowid": "1047019",
    "final_x": "3663701.74695",
    "final_y": "518502.321527",
    "longitude": "-90.12470463489285",
    "latitude": "29.920229603405406",
    "geocoded_column": {
      "latitude": "29.920229603405406",
      "longitude": "-90.12470463489285"
    }
  },
  {
    "service_request": "2023-1047018",
    "request_type": "Trash/Recycling",
    "request_reason": "Request a Large Item Pick Up",
    "date_created": "2023-10-30T16:14:47.000",
    "date_modified": "2023-10-30T16:14:48.000",
    "request_status": "Pending",
    "responsible_agency": "Department of Sanitation",
    "final_address": "1653 Paul Morphy St",
    "address_councildis": "D",
    "status": "Assigned to Contractor",
    "contractor": "IV Waste",
    "rowid": "1047018",
    "final_x": "3679041.41666",
    "final_y": "540768.284491",
    "longitude": "-90.07551307599347",
    "latitude": "29.980999721496755",
    "geocoded_column": {
      "latitude": "29.980999721496755",
      "longitude": "-90.07551307599347"
    }
  },
  {
    "service_request": "2023-1047017",
    "request_type": "Trash/Recycling",
    "request_reason": "Replace Trash Cart",
    "date_created": "2023-10-30T16:12:21.000",
    "date_modified": "2023-10-30T16:12:21.000",
    "request_status": "Pending",
    "responsible_agency": "Department of Sanitation",
    "status": "Assigned to Contractor",
    "rowid": "1047017",
    "longitude": "0.0",
    "latitude": "0.0",
    "geocoded_column": {
      "latitude": "0.0",
      "longitude": "0.0"
    }
  },
  {
    "service_request": "2023-1047016",
    "request_type": "Abandoned Vehicles",
    "request_reason": "Abandoned/Junk Vehicles",
    "date_created": "2023-10-30T16:11:10.000",
    "date_modified": "2023-10-30T16:11:10.000",
    "request_status": "Pending",
    "responsible_agency": "Department of Public Works",
    "final_address": "501 S Genois St",
    "address_councildis": "B",
    "status": "Pending",
    "rowid": "1047016",
    "final_x": "3671577.35591",
    "final_y": "535914.252935",
    "longitude": "-90.09925308988012",
    "latitude": "29.967875958693643",
    "geocoded_column": {
      "latitude": "29.967875958693643",
      "longitude": "-90.09925308988012"
    }
  },
  {
    "service_request": "2023-1047015",
    "request_type": "Trash/Recycling",
    "request_reason": "Order Trash Cart",
    "date_created": "2023-10-30T16:06:10.000",
    "date_modified": "2023-10-30T16:06:11.000",
    "request_status": "Pending",
    "responsible_agency": "Department of Sanitation",
    "final_address": "702 Tricou St",
    "address_councildis": "E",
    "status": "Assigned to Contractor",
    "contractor": "Waste Pro",
    "rowid": "1047015",
    "final_x": "3699548.33303",
    "final_y": "531685.962243",
    "longitude": "-90.01107449508602",
    "latitude": "29.955391688796368",
    "geocoded_column": {
      "latitude": "29.955391688796368",
      "longitude": "-90.01107449508602"
    }
  },
  {
    "service_request": "2023-1047014",
    "request_type": "Trash/Recycling",
    "request_reason": "Order Trash Cart",
    "date_created": "2023-10-30T16:05:50.000",
    "date_modified": "2023-10-30T16:05:51.000",
    "request_status": "Pending",
    "responsible_agency": "Department of Sanitation",
    "final_address": "700 Tricou St",
    "address_councildis": "E",
    "status": "Assigned to Contractor",
    "contractor": "Waste Pro",
    "rowid": "1047014",
    "final_x": "3699542.77744",
    "final_y": "531675.406723",
    "longitude": "-90.01109242212566",
    "latitude": "29.95536284113603",
    "geocoded_column": {
      "latitude": "29.95536284113603",
      "longitude": "-90.01109242212566"
    }
  },
  {
    "service_request": "2023-1047013",
    "request_type": "Trash/Recycling",
    "request_reason": "Request a Large Item Pick Up",
    "date_created": "2023-10-30T16:05:00.000",
    "date_modified": "2023-10-30T16:05:00.000",
    "request_status": "Pending",
    "responsible_agency": "Department of Sanitation",
    "final_address": "150 E Greenbrier Dr",
    "address_councildis": "E",
    "status": "Assigned to Contractor",
    "contractor": "Waste Pro",
    "rowid": "1047013",
    "final_x": "3717053.72664",
    "final_y": "565193.51325",
    "longitude": "-89.95452633318611",
    "latitude": "30.0469573717979",
    "geocoded_column": {
      "latitude": "30.0469573717979",
      "longitude": "-89.95452633318611"
    }
  },
  {
    "service_request": "2023-1047012",
    "request_type": "Traffic Signals/Signs/Striping/Streetlights",
    "request_reason": "Street Light Outage/Malfunction",
    "date_created": "2023-10-30T16:00:38.000",
    "date_modified": "2023-10-30T16:00:38.000",
    "request_status": "Pending",
    "responsible_agency": "Department of Public Works",
    "final_address": "1983 Law St",
    "address_councildis": "D",
    "status": "Assigned to Contractor",
    "contractor": "Legacy Professional Services",
    "rowid": "1047012",
    "final_x": "3682094.06255",
    "final_y": "541666.252812",
    "longitude": "-90.06584009096275",
    "latitude": "29.983376326770564",
    "geocoded_column": {
      "latitude": "29.983376326770564",
      "longitude": "-90.06584009096275"
    }
  },
  {
    "service_request": "2023-1047011",
    "request_type": "Trash/Recycling",
    "request_reason": "Request a Large Item Pick Up",
    "date_created": "2023-10-30T15:57:24.000",
    "date_modified": "2023-10-30T15:57:25.000",
    "request_status": "Pending",
    "responsible_agency": "Department of Sanitation",
    "final_address": "7710 Sandpiper Dr",
    "address_councildis": "E",
    "status": "Assigned to Contractor",
    "contractor": "Waste Pro",
    "rowid": "1047011",
    "final_x": "3715649.61816",
    "final_y": "569931.468838",
    "longitude": "-89.958784384936",
    "latitude": "30.06003118679438",
    "geocoded_column": {
      "latitude": "30.06003118679438",
      "longitude": "-89.958784384936"
    }
  },
  {
    "service_request": "2023-1047010",
    "request_type": "Roads/Drainage",
    "request_reason": "Pothole",
    "date_created": "2023-10-30T15:56:46.000",
    "date_modified": "2023-10-30T15:56:47.000",
    "request_status": "Pending",
    "responsible_agency": "Department of Public Works",
    "final_address": "CANAL ST & N NORMAN C FRANCIS PKWY & S NORMAN C FRANCIS PKWY",
    "address_councildis": "B",
    "status": "Pending",
    "rowid": "1047010",
    "final_x": "3673171.0",
    "final_y": "536825.08",
    "longitude": "-90.09418919581252",
    "latitude": "29.97033313521366",
    "geocoded_column": {
      "latitude": "29.97033313521366",
      "longitude": "-90.09418919581252"
    }
  },
  {
    "service_request": "2023-1047009",
    "request_type": "Utility Poles",
    "request_reason": "Utility Pole Leaning",
    "date_created": "2023-10-30T15:52:43.000",
    "date_modified": "2023-10-30T15:52:48.000",
    "request_status": "Pending",
    "responsible_agency": "Utility Company Collective",
    "final_address": "2326 Magazine St",
    "address_councildis": "B",
    "status": "Pending",
    "rowid": "1047009",
    "final_x": "3678385.21966",
    "final_y": "521673.417017",
    "longitude": "-90.07824624233683",
    "latitude": "29.928515047729633",
    "geocoded_column": {
      "latitude": "29.928515047729633",
      "longitude": "-90.07824624233683"
    }
  },
  {
    "service_request": "2023-1047008",
    "request_type": "Trash/Recycling",
    "request_reason": "Missed Trash Pick-Up",
    "date_created": "2023-10-30T15:48:00.000",
    "date_modified": "2023-10-30T15:48:01.000",
    "request_status": "Pending",
    "responsible_agency": "Department of Sanitation",
    "final_address": "6500 BLK Coventry St",
    "address_councildis": "E",
    "status": "Assigned to Contractor",
    "contractor": "Waste Pro",
    "rowid": "1047008",
    "final_x": "3697837.95829",
    "final_y": "559371.000468",
    "longitude": "-90.0154697732435",
    "latitude": "30.031569503627853",
    "geocoded_column": {
      "latitude": "30.031569503627853",
      "longitude": "-90.0154697732435"
    }
  },
  {
    "service_request": "2023-1047007",
    "request_type": "Roads/Drainage",
    "request_reason": "Debris in Roadway",
    "date_created": "2023-10-30T15:46:24.000",
    "date_modified": "2023-10-30T15:46:25.000",
    "request_status": "Pending",
    "responsible_agency": "Department of Public Works",
    "final_address": "3700 BLK Orleans Ave",
    "address_councildis": "A",
    "status": "Pending",
    "rowid": "1047007",
    "final_x": "3673572.4248",
    "final_y": "539387.63197",
    "longitude": "-90.09283383641939",
    "latitude": "29.977367339960853",
    "geocoded_column": {
      "latitude": "29.977367339960853",
      "longitude": "-90.09283383641939"
    }
  },
  {
    "service_request": "2023-1047006",
    "request_type": "Trash/Recycling",
    "request_reason": "Request a Large Item Pick Up",
    "date_created": "2023-10-30T15:45:12.000",
    "date_modified": "2023-10-30T15:45:13.000",
    "request_status": "Pending",
    "responsible_agency": "Department of Sanitation",
    "final_address": "2400 Magazine St",
    "address_councildis": "B",
    "status": "Assigned to Contractor",
    "contractor": "Richards Disposal",
    "rowid": "1047006",
    "final_x": "3678071.20245",
    "final_y": "521434.307385",
    "longitude": "-90.07924578920101",
    "latitude": "29.927867028146228",
    "geocoded_column": {
      "latitude": "29.927867028146228",
      "longitude": "-90.07924578920101"
    }
  },
  {
    "service_request": "2023-1047005",
    "request_type": "Trash/Recycling",
    "request_reason": "Replace Trash Cart",
    "date_created": "2023-10-30T15:44:52.000",
    "date_modified": "2023-10-30T15:44:53.000",
    "request_status": "Pending",
    "responsible_agency": "Department of Sanitation",
    "final_address": "55 Pratt Dr",
    "address_councildis": "D",
    "status": "Assigned to Contractor",
    "contractor": "IV Waste",
    "rowid": "1047005",
    "final_x": "3680683.37448",
    "final_y": "549867.657684",
    "longitude": "-90.07001017581659",
    "latitude": "30.005970117948312",
    "geocoded_column": {
      "latitude": "30.005970117948312",
      "longitude": "-90.07001017581659"
    }
  },
  {
    "service_request": "2023-1047004",
    "request_type": "Trash/Recycling",
    "request_reason": "Repair Trash Cart",
    "date_created": "2023-10-30T15:43:51.000",
    "date_modified": "2023-10-30T15:43:52.000",
    "request_status": "Pending",
    "responsible_agency": "Department of Sanitation",
    "final_address": "2217 Cadiz St",
    "address_councildis": "B",
    "status": "Assigned to Contractor",
    "contractor": "Richards Disposal",
    "rowid": "1047004",
    "final_x": "3669916.86529",
    "final_y": "523059.006075",
    "longitude": "-90.10493221116795",
    "latitude": "29.932577310323396",
    "geocoded_column": {
      "latitude": "29.932577310323396",
      "longitude": "-90.10493221116795"
    }
  },
  {
    "service_request": "2023-1047003",
    "request_type": "Trash/Recycling",
    "request_reason": "MIssed Recycling Pick-Up",
    "date_created": "2023-10-30T15:40:50.000",
    "date_modified": "2023-10-30T15:40:52.000",
    "request_status": "Pending",
    "responsible_agency": "Department of Sanitation",
    "final_address": "14052 Quail Creek Ln",
    "address_councildis": "E",
    "status": "Assigned to Contractor",
    "contractor": "Waste Pro",
    "rowid": "1047003",
    "final_x": "3719043.08741",
    "final_y": "572294.255273",
    "longitude": "-89.94796763246278",
    "latitude": "30.066415493608865",
    "geocoded_column": {
      "latitude": "30.066415493608865",
      "longitude": "-89.94796763246278"
    }
  },
  {
    "service_request": "2023-1047002",
    "request_type": "Trash/Recycling",
    "request_reason": "Replace Trash Cart",
    "date_created": "2023-10-30T15:40:30.000",
    "date_modified": "2023-10-30T15:40:31.000",
    "request_status": "Pending",
    "responsible_agency": "Department of Sanitation",
    "final_address": "3877 Wall Blvd",
    "address_councildis": "C",
    "status": "Assigned to Contractor",
    "contractor": "Richards Disposal",
    "rowid": "1047002",
    "final_x": "3698582.31018",
    "final_y": "523616.583227",
    "longitude": "-90.01441811385787",
    "latitude": "29.933234333089068",
    "geocoded_column": {
      "latitude": "29.933234333089068",
      "longitude": "-90.01441811385787"
    }
  },
  {
    "service_request": "2023-1047001",
    "request_type": "Trash/Recycling",
    "request_reason": "Request a Large Item Pick Up",
    "date_created": "2023-10-30T15:36:06.000",
    "date_modified": "2023-10-30T15:36:07.000",
    "case_close_date": "2023-10-24T19:00:00.000",
    "request_status": "Pending",
    "responsible_agency": "Department of Sanitation",
    "final_address": "1525 Clio St",
    "address_councildis": "B",
    "status": "Assigned to Contractor",
    "contractor": "Richards Disposal",
    "rowid": "1047001",
    "final_x": "3680003.84296",
    "final_y": "526221.26835",
    "longitude": "-90.07297868179003",
    "latitude": "29.94097128839909",
    "geocoded_column": {
      "latitude": "29.94097128839909",
      "longitude": "-90.07297868179003"
    }
  },
  {
    "service_request": "2023-1047000",
    "request_type": "Property Maintenance",
    "request_reason": "Property Maintenance",
    "date_created": "2023-10-30T15:35:01.000",
    "date_modified": "2023-10-30T15:35:01.000",
    "request_status": "Pending",
    "responsible_agency": "Department of Code Enforcement",
    "final_address": "1548 Cleveland Ave",
    "address_councildis": "B",
    "status": "Pending",
    "rowid": "1047000",
    "final_x": "3678547.40354",
    "final_y": "532075.957315",
    "longitude": "-90.07737431755554",
    "latitude": "29.957113695703185",
    "geocoded_column": {
      "latitude": "29.957113695703185",
      "longitude": "-90.07737431755554"
    }
  },
  {
    "service_request": "2023-1046999",
    "request_type": "Traffic Signals/Signs/Striping/Streetlights",
    "request_reason": "Traffic Sign Missing/Damaged",
    "date_created": "2023-10-30T15:31:32.000",
    "date_modified": "2023-10-30T15:31:32.000",
    "request_status": "Pending",
    "responsible_agency": "Department of Public Works",
    "final_address": "EARHART BLVD & GENERAL OGDEN ST",
    "address_councildis": "A",
    "status": "Pending",
    "rowid": "1046999",
    "final_x": "3663962.2",
    "final_y": "534780.48",
    "longitude": "-90.12333991213892",
    "latitude": "29.964981774711223",
    "geocoded_column": {
      "latitude": "29.964981774711223",
      "longitude": "-90.12333991213892"
    }
  },
  {
    "service_request": "2023-1046998",
    "request_type": "Trash/Recycling",
    "request_reason": "Request a Large Item Pick Up",
    "date_created": "2023-10-30T15:30:22.000",
    "date_modified": "2023-10-30T15:30:23.000",
    "request_status": "Pending",
    "responsible_agency": "Department of Sanitation",
    "final_address": "4025 S Inwood Ave",
    "address_councildis": "C",
    "status": "Assigned to Contractor",
    "contractor": "Richards Disposal",
    "rowid": "1046998",
    "final_x": "3705218.04164",
    "final_y": "513258.71717",
    "longitude": "-89.99385195556103",
    "latitude": "29.904542097348198",
    "geocoded_column": {
      "latitude": "29.904542097348198",
      "longitude": "-89.99385195556103"
    }
  },
  {
    "service_request": "2023-1046997",
    "request_type": "Trash/Recycling",
    "request_reason": "Order Trash Cart",
    "date_created": "2023-10-30T15:26:37.000",
    "date_modified": "2023-10-30T15:27:59.000",
    "request_status": "Pending",
    "responsible_agency": "Department of Sanitation",
    "final_address": "832 St Ann St",
    "address_councildis": "C",
    "status": "Assigned to Contractor",
    "contractor": "Empire Services",
    "rowid": "1046997",
    "final_x": "3682263.19458",
    "final_y": "533111.51706",
    "longitude": "-90.06560482999998",
    "latitude": "29.95984861823733",
    "geocoded_column": {
      "latitude": "29.95984861823733",
      "longitude": "-90.06560482999998"
    }
  },
  {
    "service_request": "2023-1046996",
    "request_type": "Roads/Drainage",
    "request_reason": "Pothole",
    "date_created": "2023-10-30T15:26:18.000",
    "date_modified": "2023-10-30T15:26:18.000",
    "request_status": "Pending",
    "responsible_agency": "Department of Public Works",
    "final_address": "1312 Milan St",
    "address_councildis": "B",
    "status": "Pending",
    "rowid": "1046996",
    "final_x": "3671625.82823",
    "final_y": "520286.919608",
    "longitude": "-90.09963137110304",
    "latitude": "29.92490447494246",
    "geocoded_column": {
      "latitude": "29.92490447494246",
      "longitude": "-90.09963137110304"
    }
  },
  {
    "service_request": "2023-1046995",
    "request_type": "Trash/Recycling",
    "request_reason": "Order Trash Cart",
    "date_created": "2023-10-30T15:26:02.000",
    "date_modified": "2023-10-30T15:26:03.000",
    "request_status": "Pending",
    "responsible_agency": "Department of Sanitation",
    "final_address": "830 St Ann St",
    "address_councildis": "C",
    "status": "Assigned to Contractor",
    "contractor": "Empire Services",
    "rowid": "1046995",
    "final_x": "3682268.52309",
    "final_y": "533107.14778",
    "longitude": "-90.06558815641672",
    "latitude": "29.959836442106447",
    "geocoded_column": {
      "latitude": "29.959836442106447",
      "longitude": "-90.06558815641672"
    }
  },
  {
    "service_request": "2023-1046994",
    "request_type": "Trash/Recycling",
    "request_reason": "Illegal Dumping",
    "date_created": "2023-10-30T15:18:30.000",
    "date_modified": "2023-10-30T15:18:31.000",
    "request_status": "Pending",
    "responsible_agency": "Department of Sanitation",
    "final_address": "5301 Press Dr",
    "address_councildis": "D",
    "status": "Pending",
    "rowid": "1046994",
    "final_x": "3689389.56361",
    "final_y": "552990.037847",
    "longitude": "-90.0423942055325",
    "latitude": "30.014288708112943",
    "geocoded_column": {
      "latitude": "30.014288708112943",
      "longitude": "-90.0423942055325"
    }
  },
  {
    "service_request": "2023-1046993",
    "request_type": "Trash/Recycling",
    "request_reason": "Request a Large Item Pick Up",
    "date_created": "2023-10-30T15:17:16.000",
    "date_modified": "2023-10-30T15:17:17.000",
    "request_status": "Pending",
    "responsible_agency": "Department of Sanitation",
    "final_address": "2130 Forstall St",
    "address_councildis": "E",
    "status": "Assigned to Contractor",
    "contractor": "Waste Pro",
    "rowid": "1046993",
    "final_x": "3697352.3352",
    "final_y": "538215.910089",
    "longitude": "-90.01777188655122",
    "latitude": "29.973416216608296",
    "geocoded_column": {
      "latitude": "29.973416216608296",
      "longitude": "-90.01777188655122"
    }
  },
  {
    "service_request": "2023-1046992",
    "request_type": "Trash/Recycling",
    "request_reason": "Repair Trash Cart",
    "date_created": "2023-10-30T15:15:36.000",
    "date_modified": "2023-10-30T15:17:16.000",
    "request_status": "Pending",
    "responsible_agency": "Department of Sanitation",
    "final_address": "11 Lake Breeze Dr",
    "address_councildis": "E",
    "status": "Assigned to Contractor",
    "contractor": "Waste Pro",
    "rowid": "1046992",
    "final_x": "3763078.46358",
    "final_y": "571970.093352",
    "longitude": "-89.80878256307348",
    "latitude": "30.06398675393083",
    "geocoded_column": {
      "latitude": "30.06398675393083",
      "longitude": "-89.80878256307348"
    }
  },
  {
    "service_request": "2023-1046991",
    "request_type": "Trash/Recycling",
    "request_reason": "Request a Large Item Pick Up",
    "date_created": "2023-10-30T15:14:38.000",
    "date_modified": "2023-10-30T15:14:39.000",
    "request_status": "Pending",
    "responsible_agency": "Department of Sanitation",
    "final_address": "7806 Marquis St",
    "address_councildis": "E",
    "status": "Assigned to Contractor",
    "contractor": "Waste Pro",
    "rowid": "1046991",
    "final_x": "3710842.18795",
    "final_y": "566805.692387",
    "longitude": "-89.97409748968109",
    "latitude": "30.051594267780448",
    "geocoded_column": {
      "latitude": "30.051594267780448",
      "longitude": "-89.97409748968109"
    }
  },
  {
    "service_request": "2023-1046990",
    "request_type": "Trash/Recycling",
    "request_reason": "Request a Large Item Pick Up",
    "date_created": "2023-10-30T15:11:23.000",
    "date_modified": "2023-10-30T15:11:23.000",
    "request_status": "Pending",
    "responsible_agency": "Department of Sanitation",
    "final_address": "3761 Pauger St",
    "address_councildis": "D",
    "status": "Assigned to Contractor",
    "contractor": "IV Waste",
    "rowid": "1046990",
    "final_x": "3683285.95746",
    "final_y": "544145.031182",
    "longitude": "-90.06198860082179",
    "latitude": "29.990155786095354",
    "geocoded_column": {
      "latitude": "29.990155786095354",
      "longitude": "-90.06198860082179"
    }
  },
  {
    "service_request": "2023-1046989",
    "request_type": "Abandoned Vehicles",
    "request_reason": "Abandoned/Junk Vehicles",
    "date_created": "2023-10-30T15:06:05.000",
    "date_modified": "2023-10-30T15:06:05.000",
    "request_status": "Pending",
    "responsible_agency": "Department of Public Works",
    "final_address": "2049 Pelopidas St",
    "address_councildis": "D",
    "status": "Pending",
    "rowid": "1046989",
    "final_x": "3683074.06856",
    "final_y": "548049.428434",
    "longitude": "-90.06252112072076",
    "latitude": "30.000897949562376",
    "geocoded_column": {
      "latitude": "30.000897949562376",
      "longitude": "-90.06252112072076"
    }
  },
  {
    "service_request": "2023-1046988",
    "request_type": "Trash/Recycling",
    "request_reason": "Request a Large Item Pick Up",
    "date_created": "2023-10-30T15:05:14.000",
    "date_modified": "2023-10-30T15:05:15.000",
    "request_status": "Pending",
    "responsible_agency": "Department of Sanitation",
    "final_address": "4410 San Marco Rd",
    "address_councildis": "E",
    "status": "Assigned to Contractor",
    "contractor": "Waste Pro",
    "rowid": "1046988",
    "final_x": "3762388.79657",
    "final_y": "572774.260905",
    "longitude": "-89.81092881839653",
    "latitude": "30.066223056541155",
    "geocoded_column": {
      "latitude": "30.066223056541155",
      "longitude": "-89.81092881839653"
    }
  },
  {
    "service_request": "2023-1046987",
    "request_type": "Roads/Drainage",
    "request_reason": "Pothole",
    "date_created": "2023-10-30T15:03:55.000",
    "date_modified": "2023-10-30T15:03:55.000",
    "request_status": "Pending",
    "responsible_agency": "Department of Public Works",
    "final_address": "1421 Constantinople St",
    "address_councildis": "B",
    "status": "Pending",
    "rowid": "1046987",
    "final_x": "3672433.24257",
    "final_y": "520667.657465",
    "longitude": "-90.09706965638372",
    "latitude": "29.925927453713577",
    "geocoded_column": {
      "latitude": "29.925927453713577",
      "longitude": "-90.09706965638372"
    }
  },
  {
    "service_request": "2023-1046986",
    "request_type": "Trash/Recycling",
    "request_reason": "Repair Trash Cart",
    "date_created": "2023-10-30T15:01:29.000",
    "date_modified": "2023-10-30T15:04:37.000",
    "request_status": "Pending",
    "responsible_agency": "Department of Sanitation",
    "final_address": "3801 Dumaine St",
    "address_councildis": "A",
    "status": "Assigned to Contractor",
    "contractor": "Richards Disposal",
    "rowid": "1046986",
    "final_x": "3673798.4379",
    "final_y": "540138.517003",
    "longitude": "-90.09209432091295",
    "latitude": "29.979425287319387",
    "geocoded_column": {
      "latitude": "29.979425287319387",
      "longitude": "-90.09209432091295"
    }
  },
  {
    "service_request": "2023-1046985",
    "request_type": "Roads/Drainage",
    "request_reason": "Street Subsidence (Sinking)",
    "date_created": "2023-10-30T14:59:40.000",
    "date_modified": "2023-10-30T14:59:40.000",
    "request_status": "Pending",
    "responsible_agency": "Department of Public Works",
    "final_address": "5730 Pasteur Blvd",
    "address_councildis": "D",
    "status": "Pending",
    "rowid": "1046985",
    "final_x": "3682694.98671",
    "final_y": "554171.781272",
    "longitude": "-90.06350433005505",
    "latitude": "30.017743758708352",
    "geocoded_column": {
      "latitude": "30.017743758708352",
      "longitude": "-90.06350433005505"
    }
  },
  {
    "service_request": "2023-1046984",
    "request_type": "Trash/Recycling",
    "request_reason": "Request a Large Item Pick Up",
    "date_created": "2023-10-30T14:58:32.000",
    "date_modified": "2023-10-30T14:58:33.000",
    "request_status": "Pending",
    "responsible_agency": "Department of Sanitation",
    "final_address": "7301 Vanderkloot Ave",
    "address_councildis": "E",
    "status": "Assigned to Contractor",
    "contractor": "Waste Pro",
    "rowid": "1046984",
    "final_x": "3706452.41662",
    "final_y": "562395.451295",
    "longitude": "-89.98813569482301",
    "latitude": "30.039610312725838",
    "geocoded_column": {
      "latitude": "30.039610312725838",
      "longitude": "-89.98813569482301"
    }
  },
  {
    "service_request": "2023-1046983",
    "request_type": "Trash/Recycling",
    "request_reason": "Return Trash Cart",
    "date_created": "2023-10-30T14:58:05.000",
    "date_modified": "2023-10-30T15:00:08.000",
    "request_status": "Pending",
    "responsible_agency": "Department of Sanitation",
    "final_address": "3801 Dumaine St",
    "address_councildis": "A",
    "status": "Assigned to Contractor",
    "contractor": "Richards Disposal",
    "rowid": "1046983",
    "final_x": "3673798.4379",
    "final_y": "540138.517003",
    "longitude": "-90.09209432091295",
    "latitude": "29.979425287319387",
    "geocoded_column": {
      "latitude": "29.979425287319387",
      "longitude": "-90.09209432091295"
    }
  },
  {
    "service_request": "2023-1046982",
    "request_type": "Roads/Drainage",
    "request_reason": "Street Subsidence (Sinking)",
    "date_created": "2023-10-30T14:57:39.000",
    "date_modified": "2023-10-30T14:57:39.000",
    "request_status": "Pending",
    "responsible_agency": "Department of Public Works",
    "final_address": "5730 Pasteur Blvd",
    "address_councildis": "D",
    "status": "Pending",
    "rowid": "1046982",
    "final_x": "3682694.98671",
    "final_y": "554171.781272",
    "longitude": "-90.06350433005505",
    "latitude": "30.017743758708352",
    "geocoded_column": {
      "latitude": "30.017743758708352",
      "longitude": "-90.06350433005505"
    }
  },
  {
    "service_request": "2023-1046981",
    "request_type": "Traffic Signals/Signs/Striping/Streetlights",
    "request_reason": "Street Light Outage/Malfunction",
    "date_created": "2023-10-30T14:56:42.000",
    "date_modified": "2023-10-30T14:56:43.000",
    "request_status": "Pending",
    "responsible_agency": "Department of Public Works",
    "final_address": "6751 Louis Xiv St",
    "address_councildis": "A",
    "status": "Assigned to Contractor",
    "contractor": "Legacy Professional Services",
    "rowid": "1046981",
    "final_x": "3668640.07553",
    "final_y": "552450.269014",
    "longitude": "-90.10797068800228",
    "latitude": "30.013430996122185",
    "geocoded_column": {
      "latitude": "30.013430996122185",
      "longitude": "-90.10797068800228"
    }
  },
  {
    "service_request": "2023-1046978",
    "request_type": "Traffic Signals/Signs/Striping/Streetlights",
    "request_reason": "Additional signage",
    "date_created": "2023-10-30T14:51:22.000",
    "date_modified": "2023-10-30T14:51:23.000",
    "request_status": "Pending",
    "responsible_agency": "Department of Public Works",
    "final_address": "SAGE ST & FRANKLIN AVE",
    "address_councildis": "D",
    "status": "Pending",
    "rowid": "1046978",
    "final_x": "3687178.9",
    "final_y": "545484.28",
    "longitude": "-90.04964445677479",
    "latitude": "29.993718899466817",
    "geocoded_column": {
      "latitude": "29.993718899466817",
      "longitude": "-90.04964445677479"
    }
  },
  {
    "service_request": "2023-1046977",
    "request_type": "Trash/Recycling",
    "request_reason": "Request a Large Item Pick Up",
    "date_created": "2023-10-30T14:47:23.000",
    "date_modified": "2023-10-30T14:47:23.000",
    "request_status": "Pending",
    "responsible_agency": "Department of Sanitation",
    "final_address": "408 Delery St",
    "address_councildis": "E",
    "status": "Assigned to Contractor",
    "contractor": "Waste Pro",
    "rowid": "1046977",
    "final_x": "3699492.47204",
    "final_y": "530688.393346",
    "longitude": "-90.01128722616953",
    "latitude": "29.952650499734467",
    "geocoded_column": {
      "latitude": "29.952650499734467",
      "longitude": "-90.01128722616953"
    }
  },
  {
    "service_request": "2023-1046976",
    "request_type": "Trash/Recycling",
    "request_reason": "Dead Animal Pick Up",
    "date_created": "2023-10-30T14:45:31.000",
    "date_modified": "2023-10-30T14:45:32.000",
    "request_status": "Pending",
    "responsible_agency": "Department of Sanitation",
    "final_address": "CHEF MENTEUR HWY & DALE ST",
    "address_councildis": "E",
    "status": "Assigned to Contractor",
    "contractor": "Waste Pro",
    "rowid": "1046976",
    "final_x": "3699724.2",
    "final_y": "551982.28",
    "longitude": "-90.00977889450225",
    "latitude": "30.011193557350975",
    "geocoded_column": {
      "latitude": "30.011193557350975",
      "longitude": "-90.00977889450225"
    }
  },
  {
    "service_request": "2023-1046975",
    "request_type": "Trash/Recycling",
    "request_reason": "Missed Trash Pick-Up",
    "date_created": "2023-10-30T14:43:11.000",
    "date_modified": "2023-10-30T14:43:12.000",
    "request_status": "Pending",
    "responsible_agency": "Department of Sanitation",
    "final_address": "6872 Mayo Rd",
    "address_councildis": "E",
    "status": "Assigned to Contractor",
    "contractor": "Waste Pro",
    "rowid": "1046975",
    "final_x": "3701796.42244",
    "final_y": "557670.553435",
    "longitude": "-90.0030233069072",
    "latitude": "30.026768154926316",
    "geocoded_column": {
      "latitude": "30.026768154926316",
      "longitude": "-90.0030233069072"
    }
  },
  {
    "service_request": "2023-1046974",
    "request_type": "Property Maintenance",
    "request_reason": "Property Maintenance",
    "date_created": "2023-10-30T14:41:51.000",
    "date_modified": "2023-10-30T14:41:51.000",
    "request_status": "Pending",
    "responsible_agency": "Department of Code Enforcement",
    "final_address": "2716 St Anthony St",
    "address_councildis": "D",
    "status": "Pending",
    "rowid": "1046974",
    "final_x": "3682939.93167",
    "final_y": "542272.329613",
    "longitude": "-90.06314717704981",
    "latitude": "29.985017069967963",
    "geocoded_column": {
      "latitude": "29.985017069967963",
      "longitude": "-90.06314717704981"
    }
  },
  {
    "service_request": "2023-1046973",
    "request_type": "Abandoned Vehicles",
    "request_reason": "Abandoned/Junk Vehicles",
    "date_created": "2023-10-30T14:41:29.000",
    "date_modified": "2023-10-30T14:41:29.000",
    "request_status": "Pending",
    "responsible_agency": "Department of Public Works",
    "final_address": "6100 BLK Perrier St",
    "address_councildis": "A",
    "status": "Pending",
    "rowid": "1046973",
    "final_x": "3664440.697",
    "final_y": "520771.334557",
    "longitude": "-90.1222964135653",
    "latitude": "29.926447225677737",
    "geocoded_column": {
      "latitude": "29.926447225677737",
      "longitude": "-90.1222964135653"
    }
  },
  {
    "service_request": "2023-1046972",
    "request_type": "Trash/Recycling",
    "request_reason": "Repair Trash Cart",
    "date_created": "2023-10-30T14:40:44.000",
    "date_modified": "2023-10-30T14:40:44.000",
    "request_status": "Pending",
    "responsible_agency": "Department of Sanitation",
    "final_address": "3249 De Soto St",
    "address_councildis": "A",
    "status": "Assigned to Contractor",
    "contractor": "Richards Disposal",
    "rowid": "1046972",
    "final_x": "3675702.00609",
    "final_y": "540113.576523",
    "longitude": "-90.08608294747214",
    "latitude": "29.979299872930426",
    "geocoded_column": {
      "latitude": "29.979299872930426",
      "longitude": "-90.08608294747214"
    }
  },
  {
    "service_request": "2023-1046971",
    "request_type": "Trash/Recycling",
    "request_reason": "Request a Large Item Pick Up",
    "date_created": "2023-10-30T14:35:28.000",
    "date_modified": "2023-10-30T14:35:29.000",
    "request_status": "Pending",
    "responsible_agency": "Department of Sanitation",
    "final_address": "7841 Branch Dr",
    "address_councildis": "E",
    "status": "Assigned to Contractor",
    "contractor": "Waste Pro",
    "rowid": "1046971",
    "final_x": "3714217.54539",
    "final_y": "569458.44151",
    "longitude": "-89.96332892388374",
    "latitude": "30.058777714628157",
    "geocoded_column": {
      "latitude": "30.058777714628157",
      "longitude": "-89.96332892388374"
    }
  },
  {
    "service_request": "2023-1046970",
    "request_type": "Trash/Recycling",
    "request_reason": "Dead Animal Pick Up",
    "date_created": "2023-10-30T14:33:07.000",
    "date_modified": "2023-10-30T14:33:08.000",
    "request_status": "Pending",
    "responsible_agency": "Department of Sanitation",
    "final_address": "4801 N Prieur St",
    "address_councildis": "E",
    "status": "Assigned to Contractor",
    "contractor": "Waste Pro",
    "rowid": "1046970",
    "final_x": "3695934.49226",
    "final_y": "537505.585736",
    "longitude": "-90.02227537308657",
    "latitude": "29.971507763034353",
    "geocoded_column": {
      "latitude": "29.971507763034353",
      "longitude": "-90.02227537308657"
    }
  },
  {
    "service_request": "2023-1046969",
    "request_type": "Trash/Recycling",
    "request_reason": "Dead Animal Pick Up",
    "date_created": "2023-10-30T14:31:21.000",
    "date_modified": "2023-10-30T14:31:22.000",
    "request_status": "Pending",
    "responsible_agency": "Department of Sanitation",
    "final_address": "GORDON ST & N CLAIBORNE AVE",
    "address_councildis": "E",
    "status": "Assigned to Contractor",
    "contractor": "Waste Pro",
    "rowid": "1046969",
    "final_x": "3699871.2",
    "final_y": "535208.78",
    "longitude": "-90.00992652949054",
    "latitude": "29.965067932738656",
    "geocoded_column": {
      "latitude": "29.965067932738656",
      "longitude": "-90.00992652949054"
    }
  },
  {
    "service_request": "2023-1046968",
    "request_type": "Trash/Recycling",
    "request_reason": "Request a Large Item Pick Up",
    "date_created": "2023-10-30T14:30:50.000",
    "date_modified": "2023-10-30T14:30:51.000",
    "request_status": "Pending",
    "responsible_agency": "Department of Sanitation",
    "final_address": "3555 Roger Williams St",
    "address_councildis": "D",
    "status": "Assigned to Contractor",
    "contractor": "IV Waste",
    "rowid": "1046968",
    "final_x": "3675886.24705",
    "final_y": "544069.44091",
    "longitude": "-90.08536496372201",
    "latitude": "29.990171615703765",
    "geocoded_column": {
      "latitude": "29.990171615703765",
      "longitude": "-90.08536496372201"
    }
  },
  {
    "service_request": "2023-1046967",
    "request_type": "Trash/Recycling",
    "request_reason": "Dead Animal Pick Up",
    "date_created": "2023-10-30T14:29:32.000",
    "date_modified": "2023-10-30T14:30:27.000",
    "request_status": "Pending",
    "responsible_agency": "Department of Sanitation",
    "final_address": "TENNESSEE ST & N CLAIBORNE AVE",
    "address_councildis": "E",
    "status": "Assigned to Contractor",
    "contractor": "Waste Pro",
    "rowid": "1046967",
    "final_x": "3696177.3",
    "final_y": "536095.98",
    "longitude": "-90.02155951871875",
    "latitude": "29.967624209323066",
    "geocoded_column": {
      "latitude": "29.967624209323066",
      "longitude": "-90.02155951871875"
    }
  },
  {
    "service_request": "2023-1046966",
    "request_type": "Property Maintenance",
    "request_reason": "Property Maintenance",
    "date_created": "2023-10-30T14:24:39.000",
    "date_modified": "2023-10-30T14:24:39.000",
    "request_status": "Pending",
    "responsible_agency": "Department of Code Enforcement",
    "final_address": "9500 BLK Morrison Rd",
    "address_councildis": "E",
    "status": "Pending",
    "rowid": "1046966",
    "final_x": "3707179.51802",
    "final_y": "562737.511124",
    "longitude": "-89.98582514111526",
    "latitude": "30.040527350618838",
    "geocoded_column": {
      "latitude": "30.040527350618838",
      "longitude": "-89.98582514111526"
    }
  },
  {
    "service_request": "2023-1046965",
    "request_type": "Trash/Recycling",
    "request_reason": "Order Recycling Cart",
    "date_created": "2023-10-30T14:16:58.000",
    "date_modified": "2023-10-30T14:16:59.000",
    "request_status": "Pending",
    "responsible_agency": "Department of Sanitation",
    "final_address": "1517 Terpsichore St",
    "address_councildis": "B",
    "status": "Pending",
    "rowid": "1046965",
    "final_x": "3679379.00405",
    "final_y": "525102.939709",
    "longitude": "-90.07499018513589",
    "latitude": "29.93791513836607",
    "geocoded_column": {
      "latitude": "29.93791513836607",
      "longitude": "-90.07499018513589"
    }
  },
  {
    "service_request": "2023-1046964",
    "request_type": "Abandoned Vehicles",
    "request_reason": "Abandoned/Junk Vehicles",
    "date_created": "2023-10-30T14:12:58.000",
    "date_modified": "2023-10-30T14:12:58.000",
    "request_status": "Pending",
    "responsible_agency": "Department of Public Works",
    "final_address": "1319 Coliseum St",
    "address_councildis": "B",
    "status": "Pending",
    "rowid": "1046964",
    "final_x": "3679999.20712",
    "final_y": "525193.576061",
    "longitude": "-90.07302900527264",
    "latitude": "29.93814561582966",
    "geocoded_column": {
      "latitude": "29.93814561582966",
      "longitude": "-90.07302900527264"
    }
  },
  {
    "service_request": "2023-1046963",
    "request_type": "Traffic Signals/Signs/Striping/Streetlights",
    "request_reason": "Road Surface Marking Maintenance-Parking Lane",
    "date_created": "2023-10-30T14:10:46.000",
    "date_modified": "2023-10-30T14:10:46.000",
    "request_status": "Pending",
    "responsible_agency": "Department of Public Works",
    "final_address": "433 St Peter St",
    "address_councildis": "C",
    "status": "Pending",
    "rowid": "1046963",
    "final_x": "3683320.72853",
    "final_y": "531899.427651",
    "longitude": "-90.06230783379571",
    "latitude": "29.956483572268073",
    "geocoded_column": {
      "latitude": "29.956483572268073",
      "longitude": "-90.06230783379571"
    }
  },
  {
    "service_request": "2023-1046962",
    "request_type": "Trash/Recycling",
    "request_reason": "Missed Trash Pick-Up",
    "date_created": "2023-10-30T14:09:27.000",
    "date_modified": "2023-10-30T14:09:28.000",
    "request_status": "Pending",
    "responsible_agency": "Department of Sanitation",
    "final_address": "7046 Lake Willow Dr",
    "address_councildis": "E",
    "status": "Assigned to Contractor",
    "contractor": "Waste Pro",
    "rowid": "1046962",
    "final_x": "3702245.72721",
    "final_y": "559069.97398",
    "longitude": "-90.00155216452771",
    "latitude": "30.030601668775283",
    "geocoded_column": {
      "latitude": "30.030601668775283",
      "longitude": "-90.00155216452771"
    }
  },
  {
    "service_request": "2023-1046961",
    "request_type": "Traffic Signals/Signs/Striping/Streetlights",
    "request_reason": "Street Light Outage/Malfunction",
    "date_created": "2023-10-30T14:08:08.000",
    "date_modified": "2023-10-30T14:08:26.000",
    "request_status": "Pending",
    "responsible_agency": "Department of Public Works",
    "final_address": "9322 Grant St",
    "address_councildis": "E",
    "status": "Assigned to Contractor",
    "contractor": "Legacy Professional Services",
    "rowid": "1046961",
    "final_x": "3709867.61528",
    "final_y": "554755.779032",
    "longitude": "-89.97762838978446",
    "latitude": "30.018493540073653",
    "geocoded_column": {
      "latitude": "30.018493540073653",
      "longitude": "-89.97762838978446"
    }
  },
  {
    "service_request": "2023-1046960",
    "request_type": "Trash/Recycling",
    "request_reason": "Missed Trash Pick-Up",
    "date_created": "2023-10-30T14:05:55.000",
    "date_modified": "2023-10-30T14:28:06.000",
    "case_close_date": "2023-10-30T09:28:06.000",
    "request_status": "Closed",
    "responsible_agency": "Department of Sanitation",
    "final_address": "2319 Arts St",
    "address_councildis": "D",
    "status": "Invalid Request",
    "contractor": "IV Waste",
    "contractor_action": "Invalid Pick-Up",
    "rowid": "1046960",
    "final_x": "3686878.01929",
    "final_y": "541075.792076",
    "longitude": "-90.05075076761048",
    "latitude": "29.981606393803197",
    "geocoded_column": {
      "latitude": "29.981606393803197",
      "longitude": "-90.05075076761048"
    }
  },
  {
    "service_request": "2023-1046959",
    "request_type": "Trash/Recycling",
    "request_reason": "Missed Trash Pick-Up",
    "date_created": "2023-10-30T14:03:49.000",
    "date_modified": "2023-10-30T16:22:03.000",
    "case_close_date": "2023-10-30T11:22:03.000",
    "request_status": "Closed",
    "responsible_agency": "Department of Sanitation",
    "final_address": "2718 Eagle St",
    "address_councildis": "A",
    "status": "Resolved",
    "contractor": "Richards Disposal",
    "contractor_action": "Completed",
    "rowid": "1046959",
    "final_x": "3663837.66426",
    "final_y": "534175.424069",
    "longitude": "-90.12375336055202",
    "latitude": "29.96332168478945",
    "geocoded_column": {
      "latitude": "29.96332168478945",
      "longitude": "-90.12375336055202"
    }
  },
  {
    "service_request": "2023-1046958",
    "request_type": "Trash/Recycling",
    "request_reason": "Replace Trash Cart",
    "date_created": "2023-10-30T14:01:06.000",
    "date_modified": "2023-10-30T14:01:07.000",
    "request_status": "Pending",
    "responsible_agency": "Department of Sanitation",
    "final_address": "822 N Salcedo St",
    "address_councildis": "A",
    "status": "Assigned to Contractor",
    "contractor": "Richards Disposal",
    "rowid": "1046958",
    "final_x": "3675811.33166",
    "final_y": "538283.800457",
    "longitude": "-90.08580057446353",
    "latitude": "29.974265343242664",
    "geocoded_column": {
      "latitude": "29.974265343242664",
      "longitude": "-90.08580057446353"
    }
  },
  {
    "service_request": "2023-1046956",
    "request_type": "Parks & Parkways",
    "request_reason": "Request Tree Service (Right of Way/Public Property)",
    "date_created": "2023-10-30T13:52:50.000",
    "date_modified": "2023-10-30T13:52:51.000",
    "request_status": "Pending",
    "responsible_agency": "Department of Parks & Parkway",
    "final_address": "7001 Canal Blvd",
    "address_councildis": "A",
    "status": "Pending",
    "rowid": "1046956",
    "final_x": "3669265.01313",
    "final_y": "554076.031384",
    "longitude": "-90.10594118658952",
    "latitude": "30.017882876925274",
    "geocoded_column": {
      "latitude": "30.017882876925274",
      "longitude": "-90.10594118658952"
    }
  },
  {
    "service_request": "2023-1046955",
    "request_type": "Roads/Drainage",
    "request_reason": "Street Subsidence (Sinking)",
    "date_created": "2023-10-30T13:48:31.000",
    "date_modified": "2023-10-30T13:48:31.000",
    "request_status": "Pending",
    "responsible_agency": "Department of Public Works",
    "final_address": "7716 Coolidge Ct",
    "address_councildis": "B",
    "status": "Pending",
    "rowid": "1046955",
    "final_x": "3668297.76116",
    "final_y": "533419.565188",
    "longitude": "-90.10969432001428",
    "latitude": "29.961113109568704",
    "geocoded_column": {
      "latitude": "29.961113109568704",
      "longitude": "-90.10969432001428"
    }
  },
  {
    "service_request": "2023-1046954",
    "request_type": "Trash/Recycling",
    "request_reason": "Return Recycling Cart",
    "date_created": "2023-10-30T13:47:58.000",
    "date_modified": "2023-10-30T13:47:58.000",
    "request_status": "Pending",
    "responsible_agency": "Department of Sanitation",
    "final_address": "529 S Pierce St",
    "address_councildis": "A",
    "status": "Pending",
    "rowid": "1046954",
    "final_x": "3670277.26919",
    "final_y": "536603.691399",
    "longitude": "-90.10333544406156",
    "latitude": "29.969810120326446",
    "geocoded_column": {
      "latitude": "29.969810120326446",
      "longitude": "-90.10333544406156"
    }
  },
  {
    "service_request": "2023-1046953",
    "request_type": "Abandoned Vehicles",
    "request_reason": "Abandoned/Junk Vehicles",
    "date_created": "2023-10-30T13:46:24.000",
    "date_modified": "2023-10-30T13:46:24.000",
    "request_status": "Pending",
    "responsible_agency": "Department of Public Works",
    "final_address": "8636 Belfast St",
    "address_councildis": "A",
    "status": "Pending",
    "rowid": "1046953",
    "final_x": "3664041.60781",
    "final_y": "533717.255301",
    "longitude": "-90.12312460810702",
    "latitude": "29.96205594947757",
    "geocoded_column": {
      "latitude": "29.96205594947757",
      "longitude": "-90.12312460810702"
    }
  },
  {
    "service_request": "2023-1046952",
    "request_type": "Trash/Recycling",
    "request_reason": "Request a Large Item Pick Up",
    "date_created": "2023-10-30T13:45:51.000",
    "date_modified": "2023-10-30T13:45:52.000",
    "request_status": "Pending",
    "responsible_agency": "Department of Sanitation",
    "final_address": "837 Washington Ave",
    "address_councildis": "B",
    "status": "Assigned to Contractor",
    "contractor": "Richards Disposal",
    "rowid": "1046952",
    "final_x": "3677531.77646",
    "final_y": "520175.600504",
    "longitude": "-90.08099205923831",
    "latitude": "29.92442221582028",
    "geocoded_column": {
      "latitude": "29.92442221582028",
      "longitude": "-90.08099205923831"
    }
  },
  {
    "service_request": "2023-1046951",
    "request_type": "Trash/Recycling",
    "request_reason": "Request a Large Item Pick Up",
    "date_created": "2023-10-30T13:45:14.000",
    "date_modified": "2023-10-30T13:45:15.000",
    "request_status": "Pending",
    "responsible_agency": "Department of Sanitation",
    "final_address": "3925 Tchoupitoulas St",
    "address_councildis": "B",
    "status": "Assigned to Contractor",
    "contractor": "Richards Disposal",
    "rowid": "1046951",
    "final_x": "3673178.76161",
    "final_y": "517718.83359",
    "longitude": "-90.09481688323407",
    "latitude": "29.91779699293365",
    "geocoded_column": {
      "latitude": "29.91779699293365",
      "longitude": "-90.09481688323407"
    }
  },
  {
    "service_request": "2023-1046950",
    "request_type": "Trash/Recycling",
    "request_reason": "Request a Large Item Pick Up",
    "date_created": "2023-10-30T13:36:42.000",
    "date_modified": "2023-10-30T13:36:43.000",
    "request_status": "Pending",
    "responsible_agency": "Department of Sanitation",
    "final_address": "2129 Comet St",
    "address_councildis": "C",
    "status": "Assigned to Contractor",
    "contractor": "Richards Disposal",
    "rowid": "1046950",
    "final_x": "3700167.01828",
    "final_y": "523226.732859",
    "longitude": "-90.0094295446974",
    "latitude": "29.932112128666247",
    "geocoded_column": {
      "latitude": "29.932112128666247",
      "longitude": "-90.0094295446974"
    }
  },
  {
    "service_request": "2023-1046949",
    "request_type": "Abandoned Vehicles",
    "request_reason": "Abandoned/Junk Vehicles",
    "date_created": "2023-10-30T13:30:54.000",
    "date_modified": "2023-10-30T13:30:55.000",
    "request_status": "Pending",
    "responsible_agency": "Department of Public Works",
    "final_address": "29 Curtis Dr",
    "address_councildis": "E",
    "status": "Pending",
    "rowid": "1046949",
    "final_x": "3698163.57495",
    "final_y": "561151.098014",
    "longitude": "-90.01437606423181",
    "latitude": "30.036453783329165",
    "geocoded_column": {
      "latitude": "30.036453783329165",
      "longitude": "-90.01437606423181"
    }
  },
  {
    "service_request": "2023-1046948",
    "request_type": "Trash/Recycling",
    "request_reason": "Change Size of Trash Cart",
    "date_created": "2023-10-30T13:28:13.000",
    "date_modified": "2023-10-30T13:28:14.000",
    "request_status": "Pending",
    "responsible_agency": "Department of Sanitation",
    "final_address": "3055 Orleans Ave",
    "address_councildis": "A",
    "status": "Assigned to Contractor",
    "contractor": "Richards Disposal",
    "rowid": "1046948",
    "final_x": "3675416.18382",
    "final_y": "538109.440265",
    "longitude": "-90.0870545345888",
    "latitude": "29.973797735788725",
    "geocoded_column": {
      "latitude": "29.973797735788725",
      "longitude": "-90.0870545345888"
    }
  },
  {
    "service_request": "2023-1046947",
    "request_type": "Trash/Recycling",
    "request_reason": "Missed Trash Pick-Up",
    "date_created": "2023-10-30T13:27:09.000",
    "date_modified": "2023-10-30T13:27:09.000",
    "request_status": "Pending",
    "responsible_agency": "Department of Sanitation",
    "final_address": "7016 Lake Willow Dr",
    "address_councildis": "E",
    "status": "Assigned to Contractor",
    "contractor": "Waste Pro",
    "rowid": "1046947",
    "final_x": "3702400.71338",
    "final_y": "558778.17462",
    "longitude": "-90.00107313002258",
    "latitude": "30.02979437977346",
    "geocoded_column": {
      "latitude": "30.02979437977346",
      "longitude": "-90.00107313002258"
    }
  },
  {
    "service_request": "2023-1046946",
    "request_type": "Trash/Recycling",
    "request_reason": "Request a Large Item Pick Up",
    "date_created": "2023-10-30T13:26:20.000",
    "date_modified": "2023-10-30T13:26:21.000",
    "request_status": "Pending",
    "responsible_agency": "Department of Sanitation",
    "final_address": "12400 N Lake Carmel Dr",
    "address_councildis": "E",
    "status": "Assigned to Contractor",
    "contractor": "Waste Pro",
    "rowid": "1046946",
    "final_x": "3715367.01125",
    "final_y": "567568.389604",
    "longitude": "-89.95976722187062",
    "latitude": "30.053543010614035",
    "geocoded_column": {
      "latitude": "30.053543010614035",
      "longitude": "-89.95976722187062"
    }
  },
  {
    "service_request": "2023-1046945",
    "request_type": "Traffic Signals/Signs/Striping/Streetlights",
    "request_reason": "Traffic Signal Malfunctioning/Damaged",
    "date_created": "2023-10-30T13:25:57.000",
    "date_modified": "2023-10-30T13:25:57.000",
    "request_status": "Pending",
    "responsible_agency": "Department of Public Works",
    "final_address": "ST CHARLES AVE & CANAL ST & ROYAL ST",
    "address_councildis": "B",
    "status": "Pending",
    "rowid": "1046945",
    "final_x": "3681162.9",
    "final_y": "530640.88",
    "longitude": "-90.06916538739762",
    "latitude": "29.9530886310985",
    "geocoded_column": {
      "latitude": "29.9530886310985",
      "longitude": "-90.06916538739762"
    }
  },
  {
    "service_request": "2023-1046944",
    "request_type": "Property Maintenance",
    "request_reason": "Property Maintenance",
    "date_created": "2023-10-30T13:25:02.000",
    "date_modified": "2023-10-30T13:25:02.000",
    "request_status": "Pending",
    "responsible_agency": "Department of Code Enforcement",
    "final_address": "442 Leboeuf St",
    "address_councildis": "C",
    "status": "Pending",
    "rowid": "1046944",
    "final_x": "3689905.5766",
    "final_y": "529901.368641",
    "longitude": "-90.04158624286595",
    "latitude": "29.95078711522796",
    "geocoded_column": {
      "latitude": "29.95078711522796",
      "longitude": "-90.04158624286595"
    }
  },
  {
    "service_request": "2023-1046943",
    "request_type": "Property Maintenance",
    "request_reason": "Property Maintenance",
    "date_created": "2023-10-30T13:22:27.000",
    "date_modified": "2023-10-30T13:22:27.000",
    "request_status": "Pending",
    "responsible_agency": "Department of Code Enforcement",
    "final_address": "449 Leboeuf St",
    "address_councildis": "C",
    "status": "Pending",
    "rowid": "1046943",
    "final_x": "3689784.61161",
    "final_y": "529872.560257",
    "longitude": "-90.0419692126298",
    "latitude": "29.950711651199036",
    "geocoded_column": {
      "latitude": "29.950711651199036",
      "longitude": "-90.0419692126298"
    }
  },
  {
    "service_request": "2023-1046942",
    "request_type": "Trash/Recycling",
    "request_reason": "Return Trash Cart",
    "date_created": "2023-10-30T13:20:30.000",
    "date_modified": "2023-10-30T13:20:31.000",
    "request_status": "Pending",
    "responsible_agency": "Department of Sanitation",
    "final_address": "6242 Laurel St",
    "address_councildis": "A",
    "status": "Assigned to Contractor",
    "contractor": "Richards Disposal",
    "rowid": "1046942",
    "final_x": "3663097.02963",
    "final_y": "518698.718583",
    "longitude": "-90.12660692025906",
    "latitude": "29.920787159288313",
    "geocoded_column": {
      "latitude": "29.920787159288313",
      "longitude": "-90.12660692025906"
    }
  },
  {
    "service_request": "2023-1046941",
    "request_type": "Trash/Recycling",
    "request_reason": "Replace Trash Cart",
    "date_created": "2023-10-30T13:16:26.000",
    "date_modified": "2023-10-30T13:16:27.000",
    "request_status": "Pending",
    "responsible_agency": "Department of Sanitation",
    "final_address": "6460 Pontchartrain Blvd",
    "address_councildis": "A",
    "status": "Assigned to Contractor",
    "contractor": "IV Waste",
    "rowid": "1046941",
    "final_x": "3666219.45946",
    "final_y": "551156.506389",
    "longitude": "-90.115662030048",
    "latitude": "30.00994455631236",
    "geocoded_column": {
      "latitude": "30.00994455631236",
      "longitude": "-90.115662030048"
    }
  },
  {
    "service_request": "2023-1046940",
    "request_type": "Trash/Recycling",
    "request_reason": "Request a Large Item Pick Up",
    "date_created": "2023-10-30T13:11:27.000",
    "date_modified": "2023-10-30T13:11:28.000",
    "request_status": "Pending",
    "responsible_agency": "Department of Sanitation",
    "final_address": "6017 Cameron Blvd",
    "address_councildis": "D",
    "status": "Assigned to Contractor",
    "contractor": "IV Waste",
    "rowid": "1046940",
    "final_x": "3682504.46914",
    "final_y": "554956.460248",
    "longitude": "-90.0640788276794",
    "latitude": "30.019907142805103",
    "geocoded_column": {
      "latitude": "30.019907142805103",
      "longitude": "-90.0640788276794"
    }
  },
  {
    "service_request": "2023-1046939",
    "request_type": "Abandoned Vehicles",
    "request_reason": "Abandoned/Junk Vehicles",
    "date_created": "2023-10-30T13:09:27.000",
    "date_modified": "2023-10-30T13:09:27.000",
    "request_status": "Pending",
    "responsible_agency": "Department of Public Works",
    "final_address": "4964 Tulip St",
    "address_councildis": "E",
    "status": "Inspected",
    "rowid": "1046939",
    "final_x": "3701900.18205",
    "final_y": "555565.948441",
    "longitude": "-90.0027726637043",
    "latitude": "30.020977988292646",
    "geocoded_column": {
      "latitude": "30.020977988292646",
      "longitude": "-90.0027726637043"
    }
  },
  {
    "service_request": "2023-1046938",
    "request_type": "Trash/Recycling",
    "request_reason": "Request a Large Item Pick Up",
    "date_created": "2023-10-30T13:07:22.000",
    "date_modified": "2023-10-30T13:07:23.000",
    "request_status": "Pending",
    "responsible_agency": "Department of Sanitation",
    "final_address": "1833 St Anthony St",
    "address_councildis": "D",
    "status": "Assigned to Contractor",
    "contractor": "IV Waste",
    "rowid": "1046938",
    "final_x": "3683364.50101",
    "final_y": "539048.269898",
    "longitude": "-90.06191913933368",
    "latitude": "29.976139087985548",
    "geocoded_column": {
      "latitude": "29.976139087985548",
      "longitude": "-90.06191913933368"
    }
  },
  {
    "service_request": "2023-1046937",
    "request_type": "Trash/Recycling",
    "request_reason": "Request a Large Item Pick Up",
    "date_created": "2023-10-30T13:05:10.000",
    "date_modified": "2023-10-30T13:05:11.000",
    "request_status": "Pending",
    "responsible_agency": "Department of Sanitation",
    "final_address": "6320 Orleans Ave",
    "address_councildis": "A",
    "status": "Assigned to Contractor",
    "contractor": "IV Waste",
    "rowid": "1046937",
    "final_x": "3671024.27879",
    "final_y": "549287.741267",
    "longitude": "-90.10054534227785",
    "latitude": "30.00466483621735",
    "geocoded_column": {
      "latitude": "30.00466483621735",
      "longitude": "-90.10054534227785"
    }
  },
  {
    "service_request": "2023-1046936",
    "request_type": "Trash/Recycling",
    "request_reason": "Request a Large Item Pick Up",
    "date_created": "2023-10-30T13:01:10.000",
    "date_modified": "2023-10-30T13:01:10.000",
    "request_status": "Pending",
    "responsible_agency": "Department of Sanitation",
    "final_address": "4635 Baronne St",
    "address_councildis": "B",
    "status": "Assigned to Contractor",
    "contractor": "Richards Disposal",
    "rowid": "1046936",
    "final_x": "3669753.30945",
    "final_y": "521537.544953",
    "longitude": "-90.10550001274727",
    "latitude": "29.92839859950663",
    "geocoded_column": {
      "latitude": "29.92839859950663",
      "longitude": "-90.10550001274727"
    }
  },