[
  {
    "service_request": "2023-1010993",
    "request_type": "Trash/Recycling",
    "request_reason": "Illegal Dumping",
    "date_created": "2023-06-23T02:03:26.000",
    "date_modified": "2023-06-23T02:03:26.000",
    "request_status": "Pending",
    "responsible_agency": "Department of Sanitation",
    "final_address": "4730 Banks St",
    "address_councildis": "A",
    "status": "Pending",
    "rowid": "1010993",
    "final_x": "3668121.73498",
    "final_y": "538991.995786",
    "longitude": "-90.11006232197732",
    "latitude": "29.976440604315428",
    "geocoded_column": {
      "latitude": "29.976440604315428",
      "longitude": "-90.11006232197732"
    }
  },
  {
    "service_request": "2023-1010992",
    "request_type": "Traffic Signals/Signs/Striping/Streetlights",
    "request_reason": "Street Name Sign Damaged or Missing",
    "date_created": "2023-06-23T02:00:12.000",
    "date_modified": "2023-06-23T02:00:12.000",
    "request_status": "Pending",
    "responsible_agency": "Department of Public Works",
    "final_address": "4800 BLK Banks St",
    "address_councildis": "A",
    "status": "Pending",
    "rowid": "1010992",
    "final_x": "3667930.69265",
    "final_y": "539203.766196",
    "longitude": "-90.11065855667945",
    "latitude": "29.977028508337188",
    "geocoded_column": {
      "latitude": "29.977028508337188",
      "longitude": "-90.11065855667945"
    }
  },
  {
    "service_request": "2023-1010991",
    "request_type": "Property Maintenance",
    "request_reason": "Property Maintenance",
    "date_created": "2023-06-23T01:24:18.000",
    "date_modified": "2023-06-23T01:24:18.000",
    "request_status": "Pending",
    "responsible_agency": "Department of Code Enforcement",
    "final_address": "1222 General Pershing St",
    "address_councildis": "B",
    "status": "Pending",
    "rowid": "1010991",
    "final_x": "3671295.11342",
    "final_y": "520065.399416",
    "longitude": "-90.10068285428629",
    "latitude": "29.924305151856114",
    "geocoded_column": {
      "latitude": "29.924305151856114",
      "longitude": "-90.10068285428629"
    }
  },
  {
    "service_request": "2023-1010990",
    "request_type": "Roads/Drainage",
    "request_reason": "Pothole",
    "date_created": "2023-06-23T00:44:03.000",
    "date_modified": "2023-06-23T00:44:03.000",
    "request_status": "Pending",
    "responsible_agency": "Department of Public Works",
    "final_address": "1000 BLK Henry Clay Ave",
    "address_councildis": "A",
    "status": "Pending",
    "rowid": "1010990",
    "final_x": "3664095.43194",
    "final_y": "520367.701178",
    "longitude": "-90.12339977823859",
    "latitude": "29.925347389909206",
    "geocoded_column": {
      "latitude": "29.925347389909206",
      "longitude": "-90.12339977823859"
    }
  },
  {
    "service_request": "2023-1010987",
    "request_type": "Trash/Recycling",
    "request_reason": "Order Recycling Cart",
    "date_created": "2023-06-22T23:29:45.000",
    "date_modified": "2023-06-22T23:29:45.000",
    "request_status": "Pending",
    "responsible_agency": "Department of Sanitation",
    "final_address": "422 Belleville St",
    "address_councildis": "C",
    "status": "Pending",
    "rowid": "1010987",
    "final_x": "3687907.99011",
    "final_y": "530143.818753",
    "longitude": "-90.04788499923639",
    "latitude": "29.95151553977709",
    "geocoded_column": {
      "latitude": "29.95151553977709",
      "longitude": "-90.04788499923639"
    }
  },
  {
    "service_request": "2023-1010986",
    "request_type": "Trash/Recycling",
    "request_reason": "Request a Large Item Pick Up",
    "date_created": "2023-06-22T23:29:08.000",
    "date_modified": "2023-06-22T23:29:09.000",
    "request_status": "Pending",
    "responsible_agency": "Department of Sanitation",
    "final_address": "212 Alonzo St",
    "address_councildis": "A",
    "status": "Assigned to Contractor",
    "contractor": "Richards Disposal",
    "rowid": "1010986",
    "final_x": "3664471.77088",
    "final_y": "517167.838325",
    "longitude": "-90.12231854418529",
    "latitude": "29.916537834419888",
    "geocoded_column": {
      "latitude": "29.916537834419888",
      "longitude": "-90.12231854418529"
    }
  },
  {
    "service_request": "2023-1010985",
    "request_type": "Traffic Signals/Signs/Striping/Streetlights",
    "request_reason": "Street Name Sign Damaged or Missing",
    "date_created": "2023-06-22T22:59:15.000",
    "date_modified": "2023-06-22T22:59:15.000",
    "request_status": "Pending",
    "responsible_agency": "Department of Public Works",
    "final_address": "ST FERDINAND ST & URQUHART ST",
    "address_councildis": "C",
    "status": "Pending",
    "rowid": "1010985",
    "final_x": "3687910.0",
    "final_y": "537051.18",
    "longitude": "-90.04763393137445",
    "latitude": "29.970508326922374",
    "geocoded_column": {
      "latitude": "29.970508326922374",
      "longitude": "-90.04763393137445"
    }
  },
  {
    "service_request": "2023-1010984",
    "request_type": "Abandoned Vehicles",
    "request_reason": "Abandoned/Junk Vehicles",
    "date_created": "2023-06-22T22:06:30.000",
    "date_modified": "2023-06-22T22:06:31.000",
    "request_status": "Pending",
    "responsible_agency": "Department of Public Works",
    "final_address": "LAW ST & MUSIC ST",
    "address_councildis": "D",
    "status": "Pending",
    "rowid": "1010984",
    "final_x": "3686408.0",
    "final_y": "541978.18",
    "longitude": "-90.05220343764039",
    "latitude": "29.98410209895635",
    "geocoded_column": {
      "latitude": "29.98410209895635",
      "longitude": "-90.05220343764039"
    }
  },
  {
    "service_request": "2023-1010982",
    "request_type": "Trash/Recycling",
    "request_reason": "Order Recycling Cart",
    "date_created": "2023-06-22T21:33:44.000",
    "date_modified": "2023-06-22T21:33:44.000",
    "request_status": "Pending",
    "responsible_agency": "Department of Sanitation",
    "final_address": "3004 Ursulines Ave",
    "address_councildis": "A",
    "status": "Pending",
    "rowid": "1010982",
    "final_x": "3676455.70952",
    "final_y": "538970.18241",
    "longitude": "-90.08374183640882",
    "latitude": "29.976133352078264",
    "geocoded_column": {
      "latitude": "29.976133352078264",
      "longitude": "-90.08374183640882"
    }
  },
  {
    "service_request": "2023-1010981",
    "request_type": "Trash/Recycling",
    "request_reason": "Replace Trash Cart",
    "date_created": "2023-06-22T21:31:10.000",
    "date_modified": "2023-06-22T21:31:11.000",
    "request_status": "Pending",
    "responsible_agency": "Department of Sanitation",
    "final_address": "3004 Ursulines Ave",
    "address_councildis": "A",
    "status": "Assigned to Contractor",
    "contractor": "Richards Disposal",
    "rowid": "1010981",
    "final_x": "3676455.70952",
    "final_y": "538970.18241",
    "longitude": "-90.08374183640882",
    "latitude": "29.976133352078264",
    "geocoded_column": {
      "latitude": "29.976133352078264",
      "longitude": "-90.08374183640882"
    }
  },
  {
    "service_request": "2023-1010980",
    "request_type": "Trash/Recycling",
    "request_reason": "Repair Trash Cart",
    "date_created": "2023-06-22T20:41:31.000",
    "date_modified": "2023-06-22T20:41:31.000",
    "request_status": "Pending",
    "responsible_agency": "Department of Sanitation",
    "final_address": "2041 Selma St",
    "address_councildis": "D",
    "status": "Assigned to Contractor",
    "contractor": "IV Waste",
    "rowid": "1010980",
    "final_x": "3682813.27388",
    "final_y": "551513.865429",
    "longitude": "-90.06322367662776",
    "latitude": "30.01043185290598",
    "geocoded_column": {
      "latitude": "30.01043185290598",
      "longitude": "-90.06322367662776"
    }
  },
  {
    "service_request": "2023-1010979",
    "request_type": "Trash/Recycling",
    "request_reason": "Request a Large Item Pick Up",
    "date_created": "2023-06-22T20:05:49.000",
    "date_modified": "2023-06-22T20:05:50.000",
    "request_status": "Pending",
    "responsible_agency": "Department of Sanitation",
    "final_address": "1411 Farragut St",
    "address_councildis": "C",
    "status": "Assigned to Contractor",
    "contractor": "Richards Disposal",
    "rowid": "1010979",
    "final_x": "3692291.95529",
    "final_y": "526034.629566",
    "longitude": "-90.03418973057644",
    "latitude": "29.940080725989027",
    "geocoded_column": {
      "latitude": "29.940080725989027",
      "longitude": "-90.03418973057644"
    }
  },
  {
    "service_request": "2023-1010978",
    "request_type": "Trash/Recycling",
    "request_reason": "Replace Trash Cart",
    "date_created": "2023-06-22T20:03:09.000",
    "date_modified": "2023-06-22T20:03:10.000",
    "request_status": "Pending",
    "responsible_agency": "Department of Sanitation",
    "final_address": "5133 Coliseum St",
    "address_councildis": "B",
    "status": "Assigned to Contractor",
    "contractor": "Richards Disposal",
    "rowid": "1010978",
    "final_x": "3668116.26452",
    "final_y": "519694.649976",
    "longitude": "-90.11072989870819",
    "latitude": "29.923379355658273",
    "geocoded_column": {
      "latitude": "29.923379355658273",
      "longitude": "-90.11072989870819"
    }
  },
  {
    "service_request": "2023-1010977",
    "request_type": "Trash/Recycling",
    "request_reason": "Missed Trash Pick-Up",
    "date_created": "2023-06-22T19:47:37.000",
    "date_modified": "2023-06-22T19:47:38.000",
    "request_status": "Pending",
    "responsible_agency": "Department of Sanitation",
    "final_address": "26258 US-90, New Orleans, Louisiana, 70129",
    "status": "Assigned to Contractor",
    "rowid": "1010977",
    "longitude": "0.0",
    "latitude": "0.0",
    "geocoded_column": {
      "latitude": "0.0",
      "longitude": "0.0"
    }
  },
  {
    "service_request": "2023-1010976",
    "request_type": "Trash/Recycling",
    "request_reason": "Replace Trash Cart",
    "date_created": "2023-06-22T19:47:05.000",
    "date_modified": "2023-06-22T19:47:06.000",
    "request_status": "Pending",
    "responsible_agency": "Department of Sanitation",
    "final_address": "3804 Camp St",
    "address_councildis": "B",
    "status": "Assigned to Contractor",
    "contractor": "Richards Disposal",
    "rowid": "1010976",
    "final_x": "3673244.09268",
    "final_y": "519352.532599",
    "longitude": "-90.09455491935421",
    "latitude": "29.922287201897674",
    "geocoded_column": {
      "latitude": "29.922287201897674",
      "longitude": "-90.09455491935421"
    }
  },
  {
    "service_request": "2023-1010975",
    "request_type": "Trash/Recycling",
    "request_reason": "Replace Trash Cart",
    "date_created": "2023-06-22T19:42:52.000",
    "date_modified": "2023-06-22T19:42:53.000",
    "request_status": "Pending",
    "responsible_agency": "Department of Sanitation",
    "final_address": "10126 Rosewood Pl",
    "address_councildis": "E",
    "status": "Assigned to Contractor",
    "contractor": "Waste Pro",
    "rowid": "1010975",
    "final_x": "3712903.05003",
    "final_y": "557585.991963",
    "longitude": "-89.96793106841197",
    "latitude": "30.02617641179982",
    "geocoded_column": {
      "latitude": "30.02617641179982",
      "longitude": "-89.96793106841197"
    }
  },
  {
    "service_request": "2023-1010974",
    "request_type": "Trash/Recycling",
    "request_reason": "Replace Recycling Cart",
    "date_created": "2023-06-22T19:39:36.000",
    "date_modified": "2023-06-22T19:39:36.000",
    "request_status": "Pending",
    "responsible_agency": "Department of Sanitation",
    "final_address": "835 Olga St",
    "address_councildis": "A",
    "status": "Pending",
    "rowid": "1010974",
    "final_x": "3673300.89588",
    "final_y": "540089.353163",
    "longitude": "-90.09366743898387",
    "latitude": "29.97930491387052",
    "geocoded_column": {
      "latitude": "29.97930491387052",
      "longitude": "-90.09366743898387"
    }
  },
  {
    "service_request": "2023-1010973",
    "request_type": "Traffic Signals/Signs/Striping/Streetlights",
    "request_reason": "Street Light Outage/Malfunction",
    "date_created": "2023-06-22T19:30:46.000",
    "date_modified": "2023-06-22T19:30:47.000",
    "request_status": "Pending",
    "responsible_agency": "Department of Public Works",
    "final_address": "1001 Joseph St",
    "address_councildis": "A",
    "status": "Assigned to Contractor",
    "contractor": "Legacy Professional Services",
    "rowid": "1010973",
    "final_x": "3666344.52391",
    "final_y": "519695.708088",
    "longitude": "-90.11632260362437",
    "latitude": "29.92343412709596",
    "geocoded_column": {
      "latitude": "29.92343412709596",
      "longitude": "-90.11632260362437"
    }
  },
  {
    "service_request": "2023-1010972",
    "request_type": "Trash/Recycling",
    "request_reason": "Missed Trash Pick-Up",
    "date_created": "2023-06-22T19:28:50.000",
    "date_modified": "2023-06-22T19:28:51.000",
    "request_status": "Pending",
    "responsible_agency": "Department of Sanitation",
    "final_address": "4412 Majestic Oaks Dr",
    "address_councildis": "D",
    "status": "Assigned to Contractor",
    "contractor": "Waste Pro",
    "rowid": "1010972",
    "final_x": "3697802.99293",
    "final_y": "552569.316502",
    "longitude": "-90.01582740190253",
    "latitude": "30.012868566309358",
    "geocoded_column": {
      "latitude": "30.012868566309358",
      "longitude": "-90.01582740190253"
    }
  },
  {
    "service_request": "2023-1010971",
    "request_type": "Trash/Recycling",
    "request_reason": "Missed Trash Pick-Up",
    "date_created": "2023-06-22T19:26:38.000",
    "date_modified": "2023-06-22T19:26:39.000",
    "request_status": "Pending",
    "responsible_agency": "Department of Sanitation",
    "final_address": "4412 Majestic Oaks Dr",
    "address_councildis": "D",
    "status": "Assigned to Contractor",
    "contractor": "Waste Pro",
    "rowid": "1010971",
    "final_x": "3697802.99293",
    "final_y": "552569.316502",
    "longitude": "-90.01582740190253",
    "latitude": "30.012868566309358",
    "geocoded_column": {
      "latitude": "30.012868566309358",
      "longitude": "-90.01582740190253"
    }
  },
  {
    "service_request": "2023-1010970",
    "request_type": "Traffic Signals/Signs/Striping/Streetlights",
    "request_reason": "Street Light Outage/Malfunction",
    "date_created": "2023-06-22T19:24:07.000",
    "date_modified": "2023-06-22T19:24:08.000",
    "request_status": "Pending",
    "responsible_agency": "Department of Public Works",
    "final_address": "1302 Jefferson Ave",
    "address_councildis": "A",
    "status": "Assigned to Contractor",
    "contractor": "Legacy Professional Services",
    "rowid": "1010970",
    "final_x": "3666916.43745",
    "final_y": "520135.045624",
    "longitude": "-90.11450252833556",
    "latitude": "29.924625451798914",
    "geocoded_column": {
      "latitude": "29.924625451798914",
      "longitude": "-90.11450252833556"
    }
  },
  {
    "service_request": "2023-1010969",
    "request_type": "Roads/Drainage",
    "request_reason": "Ditch Issue",
    "date_created": "2023-06-22T19:06:12.000",
    "date_modified": "2023-06-22T19:06:12.000",
    "request_status": "Pending",
    "responsible_agency": "Department of Public Works",
    "final_address": "5900 Paris Ave",
    "address_councildis": "D",
    "status": "Pending",
    "rowid": "1010969",
    "final_x": "3678833.5115",
    "final_y": "554129.472472",
    "longitude": "-90.07570655719843",
    "latitude": "30.017744525214244",
    "geocoded_column": {
      "latitude": "30.017744525214244",
      "longitude": "-90.07570655719843"
    }
  },
  {
    "service_request": "2023-1010968",
    "request_type": "Traffic Signals/Signs/Striping/Streetlights",
    "request_reason": "Traffic Sign Missing/Damaged",
    "date_created": "2023-06-22T18:59:00.000",
    "date_modified": "2023-06-22T18:59:00.000",
    "request_status": "Pending",
    "responsible_agency": "Department of Public Works",
    "final_address": "5900 Paris Ave",
    "address_councildis": "D",
    "status": "Pending",
    "rowid": "1010968",
    "final_x": "3678833.5115",
    "final_y": "554129.472472",
    "longitude": "-90.07570655719843",
    "latitude": "30.017744525214244",
    "geocoded_column": {
      "latitude": "30.017744525214244",
      "longitude": "-90.07570655719843"
    }
  },
  {
    "service_request": "2023-1010967",
    "request_type": "Trash/Recycling",
    "request_reason": "Replace Trash Cart",
    "date_created": "2023-06-22T18:45:14.000",
    "date_modified": "2023-06-22T18:45:15.000",
    "request_status": "Pending",
    "responsible_agency": "Department of Sanitation",
    "final_address": "6029 Prytania St",
    "address_councildis": "A",
    "status": "Assigned to Contractor",
    "contractor": "Richards Disposal",
    "rowid": "1010967",
    "final_x": "3664986.29876",
    "final_y": "521023.658617",
    "longitude": "-90.12056566332073",
    "latitude": "29.92712517021718",
    "geocoded_column": {
      "latitude": "29.92712517021718",
      "longitude": "-90.12056566332073"
    }
  },
  {
    "service_request": "2023-1010966",
    "request_type": "Trash/Recycling",
    "request_reason": "Illegal Dumping",
    "date_created": "2023-06-22T18:41:09.000",
    "date_modified": "2023-06-22T18:41:09.000",
    "request_status": "Pending",
    "responsible_agency": "Department of Sanitation",
    "final_address": "819 Second St",
    "address_councildis": "B",
    "status": "Pending",
    "rowid": "1010966",
    "final_x": "3678364.14645",
    "final_y": "520574.92716",
    "longitude": "-90.07835074596552",
    "latitude": "29.925495193285062",
    "geocoded_column": {
      "latitude": "29.925495193285062",
      "longitude": "-90.07835074596552"
    }
  },
  {
    "service_request": "2023-1010965",
    "request_type": "Trash/Recycling",
    "request_reason": "Replace Trash Cart",
    "date_created": "2023-06-22T18:36:57.000",
    "date_modified": "2023-06-22T18:36:58.000",
    "request_status": "Pending",
    "responsible_agency": "Department of Sanitation",
    "final_address": "6029 Prytania St",
    "address_councildis": "A",
    "status": "Assigned to Contractor",
    "contractor": "Richards Disposal",
    "rowid": "1010965",
    "final_x": "3664986.29876",
    "final_y": "521023.658617",
    "longitude": "-90.12056566332073",
    "latitude": "29.92712517021718",
    "geocoded_column": {
      "latitude": "29.92712517021718",
      "longitude": "-90.12056566332073"
    }
  },
  {
    "service_request": "2023-1010964",
    "request_type": "Abandoned Vehicles",
    "request_reason": "Abandoned/Junk Vehicles",
    "date_created": "2023-06-22T18:34:34.000",
    "date_modified": "2023-06-22T18:34:34.000",
    "request_status": "Pending",
    "responsible_agency": "Department of Public Works",
    "final_address": "N PRIEUR ST & BENTON ST",
    "address_councildis": "E",
    "status": "Pending",
    "rowid": "1010964",
    "final_x": "3699962.0",
    "final_y": "536420.98",
    "longitude": "-90.0095955663988",
    "latitude": "29.968398163358167",
    "geocoded_column": {
      "latitude": "29.968398163358167",
      "longitude": "-90.0095955663988"
    }
  },
  {
    "service_request": "2023-1010963",
    "request_type": "Trash/Recycling",
    "request_reason": "Request a Large Item Pick Up",
    "date_created": "2023-06-22T18:30:51.000",
    "date_modified": "2023-06-22T18:30:52.000",
    "request_status": "Pending",
    "responsible_agency": "Department of Sanitation",
    "final_address": "8075 Driftwood Dr",
    "address_councildis": "E",
    "status": "Assigned to Contractor",
    "contractor": "Waste Pro",
    "rowid": "1010963",
    "final_x": "3702599.63396",
    "final_y": "561940.351711",
    "longitude": "-90.00032830084223",
    "latitude": "30.038482772678016",
    "geocoded_column": {
      "latitude": "30.038482772678016",
      "longitude": "-90.00032830084223"
    }
  },
  {
    "service_request": "2023-1010962",
    "request_type": "Abandoned Vehicles",
    "request_reason": "Abandoned/Junk Vehicles",
    "date_created": "2023-06-22T18:23:51.000",
    "date_modified": "2023-06-22T18:23:51.000",
    "request_status": "Pending",
    "responsible_agency": "Department of Public Works",
    "final_address": "2931 Dumaine St",
    "address_councildis": "A",
    "status": "Pending",
    "rowid": "1010962",
    "final_x": "3676258.59246",
    "final_y": "538257.882633",
    "longitude": "-90.08438891118377",
    "latitude": "29.97418068092786",
    "geocoded_column": {
      "latitude": "29.97418068092786",
      "longitude": "-90.08438891118377"
    }
  },
  {
    "service_request": "2023-1010961",
    "request_type": "Trash/Recycling",
    "request_reason": "Replace Trash Cart",
    "date_created": "2023-06-22T18:21:48.000",
    "date_modified": "2023-06-22T18:21:49.000",
    "request_status": "Pending",
    "responsible_agency": "Department of Sanitation",
    "final_address": "4100 General Ogden St",
    "address_councildis": "A",
    "status": "Assigned to Contractor",
    "contractor": "Richards Disposal",
    "rowid": "1010961",
    "final_x": "3666799.31367",
    "final_y": "537944.411977",
    "longitude": "-90.11427414439325",
    "latitude": "29.973598852385994",
    "geocoded_column": {
      "latitude": "29.973598852385994",
      "longitude": "-90.11427414439325"
    }
  },
  {
    "service_request": "2023-1010960",
    "request_type": "Trash/Recycling",
    "request_reason": "MIssed Recycling Pick-Up",
    "date_created": "2023-06-22T18:19:19.000",
    "date_modified": "2023-06-22T18:19:19.000",
    "request_status": "Pending",
    "responsible_agency": "Department of Sanitation",
    "final_address": "1107 Napoleon Ave",
    "address_councildis": "B",
    "status": "Assigned to Contractor",
    "contractor": "Richards Disposal",
    "rowid": "1010960",
    "final_x": "3671051.84206",
    "final_y": "519633.057976",
    "longitude": "-90.10146545166515",
    "latitude": "29.9231235443977",
    "geocoded_column": {
      "latitude": "29.9231235443977",
      "longitude": "-90.10146545166515"
    }
  },
  {
    "service_request": "2023-1010959",
    "request_type": "Trash/Recycling",
    "request_reason": "Missed Trash Pick-Up",
    "date_created": "2023-06-22T18:18:12.000",
    "date_modified": "2023-06-22T18:18:13.000",
    "request_status": "Pending",
    "responsible_agency": "Department of Sanitation",
    "final_address": "1107 Napoleon Ave",
    "address_councildis": "B",
    "status": "Assigned to Contractor",
    "contractor": "Richards Disposal",
    "rowid": "1010959",
    "final_x": "3671051.84206",
    "final_y": "519633.057976",
    "longitude": "-90.10146545166515",
    "latitude": "29.9231235443977",
    "geocoded_column": {
      "latitude": "29.9231235443977",
      "longitude": "-90.10146545166515"
    }
  },
  {
    "service_request": "2023-1010958",
    "request_type": "Trash/Recycling",
    "request_reason": "Missed Trash Pick-Up",
    "date_created": "2023-06-22T18:17:29.000",
    "date_modified": "2023-06-22T18:17:30.000",
    "request_status": "Pending",
    "responsible_agency": "Department of Sanitation",
    "final_address": "2356 Rousseau St",
    "address_councildis": "B",
    "status": "Assigned to Contractor",
    "contractor": "Richards Disposal",
    "rowid": "1010958",
    "final_x": "3679451.82946",
    "final_y": "519656.076088",
    "longitude": "-90.0749491212763",
    "latitude": "29.922935850911973",
    "geocoded_column": {
      "latitude": "29.922935850911973",
      "longitude": "-90.0749491212763"
    }
  },
  {
    "service_request": "2023-1010957",
    "request_type": "Trash/Recycling",
    "request_reason": "Missed Trash Pick-Up",
    "date_created": "2023-06-22T18:07:07.000",
    "date_modified": "2023-06-22T18:07:08.000",
    "request_status": "Pending",
    "responsible_agency": "Department of Sanitation",
    "final_address": "1719 Philip St",
    "address_councildis": "B",
    "status": "Assigned to Contractor",
    "contractor": "Richards Disposal",
    "rowid": "1010957",
    "final_x": "3676837.47669",
    "final_y": "523851.098811",
    "longitude": "-90.08305712939831",
    "latitude": "29.93454948683601",
    "geocoded_column": {
      "latitude": "29.93454948683601",
      "longitude": "-90.08305712939831"
    }
  },
  {
    "service_request": "2023-1010956",
    "request_type": "Property Maintenance",
    "request_reason": "Property Maintenance",
    "date_created": "2023-06-22T18:05:34.000",
    "date_modified": "2023-06-22T18:05:34.000",
    "request_status": "Pending",
    "responsible_agency": "Department of Code Enforcement",
    "final_address": "9214 Olive St",
    "address_councildis": "A",
    "status": "Pending",
    "rowid": "1010956",
    "final_x": "3664247.2066",
    "final_y": "536860.544584",
    "longitude": "-90.12237045383577",
    "latitude": "29.970692987865927",
    "geocoded_column": {
      "latitude": "29.970692987865927",
      "longitude": "-90.12237045383577"
    }
  },
  {
    "service_request": "2023-1010955",
    "request_type": "Property Maintenance",
    "request_reason": "Property Maintenance",
    "date_created": "2023-06-22T18:04:24.000",
    "date_modified": "2023-06-22T18:04:24.000",
    "request_status": "Pending",
    "responsible_agency": "Department of Code Enforcement",
    "final_address": "9212 Olive St",
    "address_councildis": "A",
    "status": "Pending",
    "rowid": "1010955",
    "final_x": "3664264.18036",
    "final_y": "536844.66164",
    "longitude": "-90.12231737854734",
    "latitude": "29.970648821767938",
    "geocoded_column": {
      "latitude": "29.970648821767938",
      "longitude": "-90.12231737854734"
    }
  },
  {
    "service_request": "2023-1010954",
    "request_type": "Health Related Request",
    "request_reason": "Request Health Records (Immunization, Lead and Health)",
    "date_created": "2023-06-22T18:02:13.000",
    "date_modified": "2023-06-22T18:02:13.000",
    "request_status": "Pending",
    "responsible_agency": "Health Department",
    "final_address": "0 BLK Beau Bassich Cir",
    "address_councildis": "A",
    "status": "Pending",
    "rowid": "1010954",
    "final_x": "3671482.23115",
    "final_y": "544665.421284",
    "longitude": "-90.09925585083496",
    "latitude": "29.991941509207017",
    "geocoded_column": {
      "latitude": "29.991941509207017",
      "longitude": "-90.09925585083496"
    }
  },
  {
    "service_request": "2023-1010953",
    "request_type": "Trash/Recycling",
    "request_reason": "Missed Trash Pick-Up",
    "date_created": "2023-06-22T17:56:04.000",
    "date_modified": "2023-06-22T17:56:05.000",
    "request_status": "Pending",
    "responsible_agency": "Department of Sanitation",
    "final_address": "2412 Felicity St",
    "address_councildis": "B",
    "status": "Assigned to Contractor",
    "contractor": "Richards Disposal",
    "rowid": "1010953",
    "final_x": "3676072.30638",
    "final_y": "526942.417662",
    "longitude": "-90.08536646647872",
    "latitude": "29.943072533909056",
    "geocoded_column": {
      "latitude": "29.943072533909056",
      "longitude": "-90.08536646647872"
    }
  },
  {
    "service_request": "2023-1010952",
    "request_type": "Trash/Recycling",
    "request_reason": "Missed Trash Pick-Up",
    "date_created": "2023-06-22T17:51:18.000",
    "date_modified": "2023-06-22T17:51:19.000",
    "request_status": "Pending",
    "responsible_agency": "Department of Sanitation",
    "final_address": "6717 Deanne St",
    "address_councildis": "D",
    "status": "Assigned to Contractor",
    "contractor": "Waste Pro",
    "rowid": "1010952",
    "final_x": "3696037.37021",
    "final_y": "555512.119833",
    "longitude": "-90.02129931882062",
    "latitude": "30.021015870409535",
    "geocoded_column": {
      "latitude": "30.021015870409535",
      "longitude": "-90.02129931882062"
    }
  },
  {
    "service_request": "2023-1010951",
    "request_type": "Property Maintenance",
    "request_reason": "Property Maintenance",
    "date_created": "2023-06-22T17:48:19.000",
    "date_modified": "2023-06-22T17:48:20.000",
    "request_status": "Pending",
    "responsible_agency": "Department of Code Enforcement",
    "final_address": "8850 Bunker Hill Rd",
    "address_councildis": "E",
    "status": "Pending",
    "rowid": "1010951",
    "final_x": "3706456.82481",
    "final_y": "559964.514461",
    "longitude": "-89.98821194961384",
    "latitude": "30.032926052780727",
    "geocoded_column": {
      "latitude": "30.032926052780727",
      "longitude": "-89.98821194961384"
    }
  },
  {
    "service_request": "2023-1010950",
    "request_type": "Trash/Recycling",
    "request_reason": "Replace Recycling Cart",
    "date_created": "2023-06-22T17:45:33.000",
    "date_modified": "2023-06-22T17:45:33.000",
    "request_status": "Pending",
    "responsible_agency": "Department of Sanitation",
    "final_address": "3300 Nashville Ave",
    "address_councildis": "A",
    "status": "Pending",
    "rowid": "1010950",
    "final_x": "3667890.3801",
    "final_y": "527864.099327",
    "longitude": "-90.1111678767513",
    "latitude": "29.94584935166562",
    "geocoded_column": {
      "latitude": "29.94584935166562",
      "longitude": "-90.1111678767513"
    }
  },
  {
    "service_request": "2023-1010949",
    "request_type": "Trash/Recycling",
    "request_reason": "MIssed Recycling Pick-Up",
    "date_created": "2023-06-22T17:43:32.000",
    "date_modified": "2023-06-22T17:43:32.000",
    "request_status": "Pending",
    "responsible_agency": "Department of Sanitation",
    "final_address": "4145 DHemecourt St",
    "address_councildis": "A",
    "status": "Assigned to Contractor",
    "contractor": "Richards Disposal",
    "rowid": "1010949",
    "final_x": "3669467.12743",
    "final_y": "537135.80468",
    "longitude": "-90.10587595281531",
    "latitude": "29.971297140941136",
    "geocoded_column": {
      "latitude": "29.971297140941136",
      "longitude": "-90.10587595281531"
    }
  },
  {
    "service_request": "2023-1010948",
    "request_type": "Trash/Recycling",
    "request_reason": "Missed Trash Pick-Up",
    "date_created": "2023-06-22T17:41:16.000",
    "date_modified": "2023-06-22T17:41:17.000",
    "request_status": "Pending",
    "responsible_agency": "Department of Sanitation",
    "final_address": "719 Philip St",
    "address_councildis": "B",
    "status": "Assigned to Contractor",
    "contractor": "Richards Disposal",
    "rowid": "1010948",
    "final_x": "3679362.60776",
    "final_y": "520831.810233",
    "longitude": "-90.075190008586",
    "latitude": "29.92617143067206",
    "geocoded_column": {
      "latitude": "29.92617143067206",
      "longitude": "-90.075190008586"
    }
  },
  {
    "service_request": "2023-1010947",
    "request_type": "Trash/Recycling",
    "request_reason": "Request a Large Item Pick Up",
    "date_created": "2023-06-22T17:41:01.000",
    "date_modified": "2023-06-22T17:41:02.000",
    "request_status": "Pending",
    "responsible_agency": "Department of Sanitation",
    "final_address": "4937 Papania Dr",
    "address_councildis": "E",
    "status": "Assigned to Contractor",
    "contractor": "Waste Pro",
    "rowid": "1010947",
    "final_x": "3715580.45938",
    "final_y": "557729.072795",
    "longitude": "-89.95946545834576",
    "latitude": "30.02648183012492",
    "geocoded_column": {
      "latitude": "30.02648183012492",
      "longitude": "-89.95946545834576"
    }
  },
  {
    "service_request": "2023-1010946",
    "request_type": "Traffic Signals/Signs/Striping/Streetlights",
    "request_reason": "Street Light Outage/Malfunction",
    "date_created": "2023-06-22T17:36:43.000",
    "date_modified": "2023-06-22T17:36:43.000",
    "request_status": "Pending",
    "responsible_agency": "Department of Public Works",
    "final_address": "6251 Caldwell Dr",
    "address_councildis": "D",
    "status": "Assigned to Contractor",
    "contractor": "Legacy Professional Services",
    "rowid": "1010946",
    "final_x": "3679387.23951",
    "final_y": "556401.787674",
    "longitude": "-90.07387807711093",
    "latitude": "30.023975842016238",
    "geocoded_column": {
      "latitude": "30.023975842016238",
      "longitude": "-90.07387807711093"
    }
  },
  {
    "service_request": "2023-1010945",
    "request_type": "Parks & Parkways",
    "request_reason": "Request Tree Service (Right of Way/Public Property)",
    "date_created": "2023-06-22T17:34:15.000",
    "date_modified": "2023-06-22T17:34:15.000",
    "request_status": "Pending",
    "responsible_agency": "Department of Parks & Parkway",
    "final_address": "239 S Pierce St",
    "address_councildis": "A",
    "status": "Pending",
    "rowid": "1010945",
    "final_x": "3670957.2018",
    "final_y": "537502.635656",
    "longitude": "-90.10115761984675",
    "latitude": "29.97226182811974",
    "geocoded_column": {
      "latitude": "29.97226182811974",
      "longitude": "-90.10115761984675"
    }
  },
  {
    "service_request": "2023-1010944",
    "request_type": "Property Maintenance",
    "request_reason": "Property Maintenance",
    "date_created": "2023-06-22T17:32:27.000",
    "date_modified": "2023-06-22T17:32:27.000",
    "request_status": "Pending",
    "responsible_agency": "Department of Code Enforcement",
    "final_address": "6901 Pritchard Pl",
    "address_councildis": "B",
    "status": "Pending",
    "rowid": "1010944",
    "final_x": "3668093.09537",
    "final_y": "531119.838786",
    "longitude": "-90.11041812550769",
    "latitude": "29.954795626696427",
    "geocoded_column": {
      "latitude": "29.954795626696427",
      "longitude": "-90.11041812550769"
    }
  },
  {
    "service_request": "2023-1010943",
    "request_type": "Traffic Signals/Signs/Striping/Streetlights",
    "request_reason": "Street Light Outage/Malfunction",
    "date_created": "2023-06-22T17:26:06.000",
    "date_modified": "2023-06-22T17:26:07.000",
    "request_status": "Pending",
    "responsible_agency": "Department of Public Works",
    "final_address": "6251 Caldwell Dr",
    "address_councildis": "D",
    "status": "Assigned to Contractor",
    "contractor": "Legacy Professional Services",
    "rowid": "1010943",
    "final_x": "3679387.23951",
    "final_y": "556401.787674",
    "longitude": "-90.07387807711093",
    "latitude": "30.023975842016238",
    "geocoded_column": {
      "latitude": "30.023975842016238",
      "longitude": "-90.07387807711093"
    }
  },
  {
    "service_request": "2023-1010942",
    "request_type": "Trash/Recycling",
    "request_reason": "Request a Large Item Pick Up",
    "date_created": "2023-06-22T17:20:42.000",
    "date_modified": "2023-06-22T17:20:43.000",
    "request_status": "Pending",
    "responsible_agency": "Department of Sanitation",
    "final_address": "1001 Joseph St",
    "address_councildis": "A",
    "status": "Assigned to Contractor",
    "contractor": "Richards Disposal",
    "rowid": "1010942",
    "final_x": "3666344.52391",
    "final_y": "519695.708088",
    "longitude": "-90.11632260362437",
    "latitude": "29.92343412709596",
    "geocoded_column": {
      "latitude": "29.92343412709596",
      "longitude": "-90.11632260362437"
    }
  },
  {
    "service_request": "2023-1010941",
    "request_type": "Trash/Recycling",
    "request_reason": "Missed Trash Pick-Up",
    "date_created": "2023-06-22T17:11:26.000",
    "date_modified": "2023-06-22T17:11:27.000",
    "request_status": "Pending",
    "responsible_agency": "Department of Sanitation",
    "final_address": "6716 Deanne St",
    "address_councildis": "D",
    "status": "Assigned to Contractor",
    "contractor": "Waste Pro",
    "rowid": "1010941",
    "final_x": "3695930.94941",
    "final_y": "555373.641561",
    "longitude": "-90.0216405852505",
    "latitude": "30.020638457703008",
    "geocoded_column": {
      "latitude": "30.020638457703008",
      "longitude": "-90.0216405852505"
    }
  },
  {
    "service_request": "2023-1010940",
    "request_type": "Abandoned Vehicles",
    "request_reason": "Abandoned/Junk Vehicles",
    "date_created": "2023-06-22T17:09:16.000",
    "date_modified": "2023-06-22T17:09:16.000",
    "request_status": "Pending",
    "responsible_agency": "Department of Public Works",
    "final_address": "2450 Dreux Ave",
    "address_councildis": "D",
    "status": "Pending",
    "rowid": "1010940",
    "final_x": "3685750.40668",
    "final_y": "552078.316374",
    "longitude": "-90.05392426726864",
    "latitude": "30.011894040571242",
    "geocoded_column": {
      "latitude": "30.011894040571242",
      "longitude": "-90.05392426726864"
    }
  },
  {
    "service_request": "2023-1010939",
    "request_type": "Abandoned Vehicles",
    "request_reason": "Abandoned/Junk Vehicles",
    "date_created": "2023-06-22T17:05:22.000",
    "date_modified": "2023-06-22T17:06:13.000",
    "request_status": "Pending",
    "responsible_agency": "Department of Public Works",
    "final_address": "MICHOUD BLVD & W CAVELIER DR",
    "address_councildis": "E",
    "status": "Pending",
    "rowid": "1010939",
    "final_x": "3724678.8",
    "final_y": "569370.08",
    "longitude": "-89.93026572775324",
    "latitude": "30.05818669137776",
    "geocoded_column": {
      "latitude": "30.05818669137776",
      "longitude": "-89.93026572775324"
    }
  },
  {
    "service_request": "2023-1010938",
    "request_type": "Traffic Signals/Signs/Striping/Streetlights",
    "request_reason": "Traffic Signal Malfunctioning/Damaged",
    "date_created": "2023-06-22T17:01:04.000",
    "date_modified": "2023-06-22T17:01:05.000",
    "request_status": "Pending",
    "responsible_agency": "Department of Public Works",
    "final_address": "ST CLAUDE AVE & FRANKLIN AVE",
    "address_councildis": "C",
    "status": "Pending",
    "rowid": "1010938",
    "final_x": "3687068.7",
    "final_y": "536547.68",
    "longitude": "-90.05030865196827",
    "latitude": "29.96914980739771",
    "geocoded_column": {
      "latitude": "29.96914980739771",
      "longitude": "-90.05030865196827"
    }
  },
  {
    "service_request": "2023-1010937",
    "request_type": "Safety & Permits",
    "request_reason": "Licenses & Permits",
    "date_created": "2023-06-22T16:59:19.000",
    "date_modified": "2023-06-22T16:59:20.000",
    "request_status": "Pending",
    "responsible_agency": "Safety and Permits",
    "final_address": "5588 Woodlawn Pl",
    "address_councildis": "A",
    "status": "Pending",
    "rowid": "1010937",
    "final_x": "3667409.66151",
    "final_y": "544583.414607",
    "longitude": "-90.1121230635022",
    "latitude": "29.991835995018857",
    "geocoded_column": {
      "latitude": "29.991835995018857",
      "longitude": "-90.1121230635022"
    }
  },
  {
    "service_request": "2023-1010936",
    "request_type": "Trash/Recycling",
    "request_reason": "Replace Trash Cart",
    "date_created": "2023-06-22T16:52:51.000",
    "date_modified": "2023-06-22T16:52:52.000",
    "request_status": "Pending",
    "responsible_agency": "Department of Sanitation",
    "final_address": "4914 Painters St, New Orleans, Louisiana, 70122",
    "address_councildis": "D",
    "status": "Assigned to Contractor",
    "contractor": "IV Waste",
    "rowid": "1010936",
    "final_x": "3686090.6447",
    "final_y": "551041.114581",
    "longitude": "-90.05288593205997",
    "latitude": "30.009031664278808",
    "geocoded_column": {
      "latitude": "30.009031664278808",
      "longitude": "-90.05288593205997"
    }
  },
  {
    "service_request": "2023-1010935",
    "request_type": "Trash/Recycling",
    "request_reason": "Request a Large Item Pick Up",
    "date_created": "2023-06-22T16:50:56.000",
    "date_modified": "2023-06-22T16:50:56.000",
    "request_status": "Pending",
    "responsible_agency": "Department of Sanitation",
    "final_address": "7236 Warfield St",
    "address_councildis": "E",
    "status": "Assigned to Contractor",
    "contractor": "Waste Pro",
    "rowid": "1010935",
    "final_x": "3702262.41994",
    "final_y": "553082.789975",
    "longitude": "-90.00171928527472",
    "latitude": "30.014138681050436",
    "geocoded_column": {
      "latitude": "30.014138681050436",
      "longitude": "-90.00171928527472"
    }
  },
  {
    "service_request": "2023-1010934",
    "request_type": "Trash/Recycling",
    "request_reason": "Order Trash Cart",
    "date_created": "2023-06-22T16:44:24.000",
    "date_modified": "2023-06-22T16:44:24.000",
    "request_status": "Pending",
    "responsible_agency": "Department of Sanitation",
    "final_address": "2538 Dreux Ave",
    "address_councildis": "D",
    "status": "Assigned to Contractor",
    "contractor": "IV Waste",
    "rowid": "1010934",
    "final_x": "3686450.18492",
    "final_y": "552171.93807",
    "longitude": "-90.05171006658314",
    "latitude": "30.012129963081676",
    "geocoded_column": {
      "latitude": "30.012129963081676",
      "longitude": "-90.05171006658314"
    }
  },
  {
    "service_request": "2023-1010933",
    "request_type": "Trash/Recycling",
    "request_reason": "MIssed Recycling Pick-Up",
    "date_created": "2023-06-22T16:43:42.000",
    "date_modified": "2023-06-22T16:44:24.000",
    "request_status": "Pending",
    "responsible_agency": "Department of Sanitation",
    "final_address": "4425 S Roman St",
    "address_councildis": "B",
    "status": "Assigned to Contractor",
    "contractor": "Richards Disposal",
    "rowid": "1010933",
    "final_x": "3669997.70855",
    "final_y": "526633.250814",
    "longitude": "-90.10455599205035",
    "latitude": "29.942402946116587",
    "geocoded_column": {
      "latitude": "29.942402946116587",
      "longitude": "-90.10455599205035"
    }
  },
  {
    "service_request": "2023-1010932",
    "request_type": "Trash/Recycling",
    "request_reason": "Request a Large Item Pick Up",
    "date_created": "2023-06-22T16:42:44.000",
    "date_modified": "2023-06-22T16:42:45.000",
    "request_status": "Pending",
    "responsible_agency": "Department of Sanitation",
    "final_address": "4724 Bonita Dr",
    "address_councildis": "E",
    "status": "Assigned to Contractor",
    "contractor": "Waste Pro",
    "rowid": "1010932",
    "final_x": "3704458.55057",
    "final_y": "555141.437337",
    "longitude": "-89.99470468679094",
    "latitude": "30.01972881223416",
    "geocoded_column": {
      "latitude": "30.01972881223416",
      "longitude": "-89.99470468679094"
    }
  },
  {
    "service_request": "2023-1010931",
    "request_type": "Trash/Recycling",
    "request_reason": "Missed Trash Pick-Up",
    "date_created": "2023-06-22T16:39:11.000",
    "date_modified": "2023-06-22T16:39:11.000",
    "request_status": "Pending",
    "responsible_agency": "Department of Sanitation",
    "final_address": "925 Cherokee St",
    "address_councildis": "A",
    "status": "Assigned to Contractor",
    "contractor": "Richards Disposal",
    "rowid": "1010931",
    "final_x": "3663027.84179",
    "final_y": "526328.298622",
    "longitude": "-90.12657168001252",
    "latitude": "29.941768104665808",
    "geocoded_column": {
      "latitude": "29.941768104665808",
      "longitude": "-90.12657168001252"
    }
  },
  {
    "service_request": "2023-1010930",
    "request_type": "Traffic Signals/Signs/Striping/Streetlights",
    "request_reason": "Street Light Outage/Malfunction",
    "date_created": "2023-06-22T16:38:51.000",
    "date_modified": "2023-06-22T16:38:52.000",
    "request_status": "Pending",
    "responsible_agency": "Department of Public Works",
    "final_address": "3300 BLK Roger Williams St",
    "address_councildis": "D",
    "status": "Assigned to Contractor",
    "contractor": "Legacy Professional Services",
    "rowid": "1010930",
    "final_x": "3677079.43091",
    "final_y": "543960.745199",
    "longitude": "-90.08159975744512",
    "latitude": "29.989836953924154",
    "geocoded_column": {
      "latitude": "29.989836953924154",
      "longitude": "-90.08159975744512"
    }
  },
  {
    "service_request": "2023-1010929",
    "request_type": "Traffic Signals/Signs/Striping/Streetlights",
    "request_reason": "Traffic Signal Malfunctioning/Damaged",
    "date_created": "2023-06-22T16:38:35.000",
    "date_modified": "2023-06-22T16:38:36.000",
    "request_status": "Pending",
    "responsible_agency": "Department of Public Works",
    "final_address": "GENTILLY BLVD & ST BERNARD AVE",
    "address_councildis": "A",
    "status": "Pending",
    "rowid": "1010929",
    "final_x": "3679197.4",
    "final_y": "543495.48",
    "longitude": "-90.07492581176469",
    "latitude": "29.988493849016464",
    "geocoded_column": {
      "latitude": "29.988493849016464",
      "longitude": "-90.07492581176469"
    }
  },
  {
    "service_request": "2023-1010928",
    "request_type": "Trash/Recycling",
    "request_reason": "Request a Large Item Pick Up",
    "date_created": "2023-06-22T16:33:40.000",
    "date_modified": "2023-06-22T16:33:40.000",
    "request_status": "Pending",
    "responsible_agency": "Department of Sanitation",
    "final_address": "3230 Nashville Ave",
    "address_councildis": "A",
    "status": "Assigned to Contractor",
    "contractor": "Richards Disposal",
    "rowid": "1010928",
    "final_x": "3667867.32545",
    "final_y": "527725.338623",
    "longitude": "-90.11124534092289",
    "latitude": "29.945468480840393",
    "geocoded_column": {
      "latitude": "29.945468480840393",
      "longitude": "-90.11124534092289"
    }
  },
  {
    "service_request": "2023-1010927",
    "request_type": "Trash/Recycling",
    "request_reason": "Dead Animal Pick Up",
    "date_created": "2023-06-22T16:27:25.000",
    "date_modified": "2023-06-22T16:27:26.000",
    "request_status": "Pending",
    "responsible_agency": "Department of Sanitation",
    "final_address": "6024 Hayne Blvd",
    "address_councildis": "E",
    "status": "Assigned to Contractor",
    "contractor": "Waste Pro",
    "rowid": "1010927",
    "final_x": "3694937.98563",
    "final_y": "559977.173789",
    "longitude": "-90.02461190556552",
    "latitude": "30.03332763892895",
    "geocoded_column": {
      "latitude": "30.03332763892895",
      "longitude": "-90.02461190556552"
    }
  },
  {
    "service_request": "2023-1010925",
    "request_type": "Property Maintenance",
    "request_reason": "Property Maintenance",
    "date_created": "2023-06-22T16:24:15.000",
    "date_modified": "2023-06-22T16:24:15.000",
    "request_status": "Pending",
    "responsible_agency": "Department of Code Enforcement",
    "final_address": "1810 Lamanche St",
    "address_councildis": "E",
    "status": "Pending",
    "rowid": "1010925",
    "final_x": "3699012.80388",
    "final_y": "536414.139207",
    "longitude": "-90.01259340409382",
    "latitude": "29.968409471173732",
    "geocoded_column": {
      "latitude": "29.968409471173732",
      "longitude": "-90.01259340409382"
    }
  },
  {
    "service_request": "2023-1010924",
    "request_type": "Abandoned Vehicles",
    "request_reason": "Abandoned/Junk Vehicles",
    "date_created": "2023-06-22T16:23:38.000",
    "date_modified": "2023-06-22T16:23:38.000",
    "request_status": "Pending",
    "responsible_agency": "Department of Public Works",
    "final_address": "2613 Urquhart St",
    "address_councildis": "C",
    "status": "Pending",
    "rowid": "1010924",
    "final_x": "3687416.0525",
    "final_y": "537204.556296",
    "longitude": "-90.04918844201286",
    "latitude": "29.97094528843149",
    "geocoded_column": {
      "latitude": "29.97094528843149",
      "longitude": "-90.04918844201286"
    }
  },
  {
    "service_request": "2023-1010922",
    "request_type": "Trash/Recycling",
    "request_reason": "Request a Large Item Pick Up",
    "date_created": "2023-06-22T16:23:18.000",
    "date_modified": "2023-06-22T16:23:19.000",
    "request_status": "Pending",
    "responsible_agency": "Department of Sanitation",
    "final_address": "2600 Jefferson Ave",
    "address_councildis": "A",
    "status": "Assigned to Contractor",
    "contractor": "Richards Disposal",
    "rowid": "1010922",
    "final_x": "3668040.69351",
    "final_y": "525022.496957",
    "longitude": "-90.11078901030767",
    "latitude": "29.93803145339935",
    "geocoded_column": {
      "latitude": "29.93803145339935",
      "longitude": "-90.11078901030767"
    }
  },
  {
    "service_request": "2023-1010923",
    "request_type": "Property Maintenance",
    "request_reason": "Property Maintenance",
    "date_created": "2023-06-22T16:23:18.000",
    "date_modified": "2023-06-22T16:23:18.000",
    "request_status": "Pending",
    "responsible_agency": "Department of Code Enforcement",
    "final_address": "1810 Lamanche St",
    "address_councildis": "E",
    "status": "Pending",
    "rowid": "1010923",
    "final_x": "3699012.80388",
    "final_y": "536414.139207",
    "longitude": "-90.01259340409382",
    "latitude": "29.968409471173732",
    "geocoded_column": {
      "latitude": "29.968409471173732",
      "longitude": "-90.01259340409382"
    }
  },
  {
    "service_request": "2023-1010921",
    "request_type": "Abandoned Vehicles",
    "request_reason": "Abandoned/Junk Vehicles",
    "date_created": "2023-06-22T16:23:15.000",
    "date_modified": "2023-06-22T16:28:15.000",
    "request_status": "Pending",
    "responsible_agency": "Department of Public Works",
    "final_address": "7532 Briarheath Dr",
    "address_councildis": "E",
    "status": "Pending",
    "rowid": "1010921",
    "final_x": "3714938.89976",
    "final_y": "566858.458852",
    "longitude": "-89.96114722948984",
    "latitude": "30.05160509564644",
    "geocoded_column": {
      "latitude": "30.05160509564644",
      "longitude": "-89.96114722948984"
    }
  },
  {
    "service_request": "2023-1010920",
    "request_type": "Roads/Drainage",
    "request_reason": "WaterMain Break",
    "date_created": "2023-06-22T16:20:07.000",
    "date_modified": "2023-06-22T16:20:07.000",
    "request_status": "Pending",
    "responsible_agency": "Department of Public Works",
    "final_address": "4970 Palace St",
    "address_councildis": "E",
    "status": "Pending",
    "rowid": "1010920",
    "final_x": "3728945.41293",
    "final_y": "562946.453664",
    "longitude": "-89.91703060725568",
    "latitude": "30.040380081068257",
    "geocoded_column": {
      "latitude": "30.040380081068257",
      "longitude": "-89.91703060725568"
    }
  },
  {
    "service_request": "2023-1010919",
    "request_type": "Property Maintenance",
    "request_reason": "Property Maintenance",
    "date_created": "2023-06-22T16:18:32.000",
    "date_modified": "2023-06-22T16:18:32.000",
    "request_status": "Pending",
    "responsible_agency": "Department of Code Enforcement",
    "final_address": "4431 Macarthur Blvd",
    "address_councildis": "C",
    "status": "Pending",
    "rowid": "1010919",
    "final_x": "3700270.09015",
    "final_y": "520176.40268",
    "longitude": "-90.00921543719888",
    "latitude": "29.923721497773414",
    "geocoded_column": {
      "latitude": "29.923721497773414",
      "longitude": "-90.00921543719888"
    }
  },
  {
    "service_request": "2023-1010918",
    "request_type": "Traffic Signals/Signs/Striping/Streetlights",
    "request_reason": "Street Light Outage/Malfunction",
    "date_created": "2023-06-22T16:18:19.000",
    "date_modified": "2023-06-22T16:18:20.000",
    "request_status": "Pending",
    "responsible_agency": "Department of Public Works",
    "final_address": "7105 E Tamaron Blvd",
    "address_councildis": "E",
    "status": "Assigned to Contractor",
    "contractor": "Legacy Professional Services",
    "rowid": "1010918",
    "final_x": "3718700.01023",
    "final_y": "568939.444069",
    "longitude": "-89.94918024516271",
    "latitude": "30.057202563244598",
    "geocoded_column": {
      "latitude": "30.057202563244598",
      "longitude": "-89.94918024516271"
    }
  },
  {
    "service_request": "2023-1010917",
    "request_type": "Trash/Recycling",
    "request_reason": "Missed Trash Pick-Up",
    "date_created": "2023-06-22T16:17:03.000",
    "date_modified": "2023-06-22T16:17:04.000",
    "request_status": "Pending",
    "responsible_agency": "Department of Sanitation",
    "final_address": "1100 BLK Cherokee St",
    "address_councildis": "A",
    "status": "Assigned to Contractor",
    "contractor": "Richards Disposal",
    "rowid": "1010917",
    "final_x": "3663416.65607",
    "final_y": "526809.834291",
    "longitude": "-90.12532807974183",
    "latitude": "29.94308090871167",
    "geocoded_column": {
      "latitude": "29.94308090871167",
      "longitude": "-90.12532807974183"
    }
  },
  {
    "service_request": "2023-1010916",
    "request_type": "Abandoned Vehicles",
    "request_reason": "Abandoned/Junk Vehicles",
    "date_created": "2023-06-22T16:16:14.000",
    "date_modified": "2023-06-22T16:18:08.000",
    "request_status": "Pending",
    "responsible_agency": "Department of Public Works",
    "final_address": "632 N Solomon St",
    "address_councildis": "A",
    "status": "Pending",
    "rowid": "1010916",
    "final_x": "3671859.80155",
    "final_y": "540351.766731",
    "longitude": "-90.09821005801987",
    "latitude": "29.980069252866436",
    "geocoded_column": {
      "latitude": "29.980069252866436",
      "longitude": "-90.09821005801987"
    }
  },
  {
    "service_request": "2023-1010915",
    "request_type": "Trash/Recycling",
    "request_reason": "Missed Trash Pick-Up",
    "date_created": "2023-06-22T16:12:37.000",
    "date_modified": "2023-06-22T16:12:38.000",
    "request_status": "Pending",
    "responsible_agency": "Department of Sanitation",
    "final_address": "1100 BLK Cherokee St",
    "address_councildis": "A",
    "status": "Assigned to Contractor",
    "contractor": "Richards Disposal",
    "rowid": "1010915",
    "final_x": "3663416.65607",
    "final_y": "526809.834291",
    "longitude": "-90.12532807974183",
    "latitude": "29.94308090871167",
    "geocoded_column": {
      "latitude": "29.94308090871167",
      "longitude": "-90.12532807974183"
    }
  },
  {
    "service_request": "2023-1010914",
    "request_type": "Roads/Drainage",
    "request_reason": "Pothole",
    "date_created": "2023-06-22T16:11:53.000",
    "date_modified": "2023-06-22T16:11:53.000",
    "request_status": "Pending",
    "responsible_agency": "Department of Public Works",
    "final_address": "6100 Chestnut St",
    "address_councildis": "A",
    "status": "Pending",
    "rowid": "1010914",
    "final_x": "3664283.73799",
    "final_y": "520042.781816",
    "longitude": "-90.1228161881209",
    "latitude": "29.92444849480173",
    "geocoded_column": {
      "latitude": "29.92444849480173",
      "longitude": "-90.1228161881209"
    }
  },
  {
    "service_request": "2023-1010913",
    "request_type": "Traffic Signals/Signs/Striping/Streetlights",
    "request_reason": "Street Light Outage/Malfunction",
    "date_created": "2023-06-22T16:10:56.000",
    "date_modified": "2023-06-22T16:10:56.000",
    "request_status": "Pending",
    "responsible_agency": "Department of Public Works",
    "final_address": "5500 Berkley Dr",
    "address_councildis": "C",
    "status": "Assigned to Contractor",
    "contractor": "Legacy Professional Services",
    "rowid": "1010913",
    "final_x": "3704270.55991",
    "final_y": "518224.83999",
    "longitude": "-89.99665937681215",
    "latitude": "29.91822765520754",
    "geocoded_column": {
      "latitude": "29.91822765520754",
      "longitude": "-89.99665937681215"
    }
  },
  {
    "service_request": "2023-1010912",
    "request_type": "Traffic Signals/Signs/Striping/Streetlights",
    "request_reason": "Street Light Outage/Malfunction",
    "date_created": "2023-06-22T16:09:16.000",
    "date_modified": "2023-06-22T16:09:17.000",
    "request_status": "Pending",
    "responsible_agency": "Department of Public Works",
    "final_address": "5400 BLK Berkley Dr",
    "address_councildis": "C",
    "status": "Assigned to Contractor",
    "contractor": "Legacy Professional Services",
    "rowid": "1010912",
    "final_x": "3704674.84882",
    "final_y": "518142.597689",
    "longitude": "-89.99538629588135",
    "latitude": "29.917988543067732",
    "geocoded_column": {
      "latitude": "29.917988543067732",
      "longitude": "-89.99538629588135"
    }
  },
  {
    "service_request": "2023-1010911",
    "request_type": "Trash/Recycling",
    "request_reason": "Request a Large Item Pick Up",
    "date_created": "2023-06-22T16:09:12.000",
    "date_modified": "2023-06-22T16:09:12.000",
    "request_status": "Pending",
    "responsible_agency": "Department of Sanitation",
    "final_address": "5860 Tullis Dr",
    "address_councildis": "C",
    "status": "Assigned to Contractor",
    "contractor": "Richards Disposal",
    "rowid": "1010911",
    "final_x": "3705631.52587",
    "final_y": "513212.002226",
    "longitude": "-89.99254872347977",
    "latitude": "29.90440034988051",
    "geocoded_column": {
      "latitude": "29.90440034988051",
      "longitude": "-89.99254872347977"
    }
  },
  {
    "service_request": "2023-1010910",
    "request_type": "Trash/Recycling",
    "request_reason": "Repair Trash Cart",
    "date_created": "2023-06-22T16:09:02.000",
    "date_modified": "2023-06-22T16:09:02.000",
    "request_status": "Pending",
    "responsible_agency": "Department of Sanitation",
    "final_address": "4751 Flake Ave",
    "address_councildis": "E",
    "status": "Assigned to Contractor",
    "contractor": "Waste Pro",
    "rowid": "1010910",
    "final_x": "3706185.3802",
    "final_y": "555554.714073",
    "longitude": "-89.98923319731071",
    "latitude": "30.02080958010261",
    "geocoded_column": {
      "latitude": "30.02080958010261",
      "longitude": "-89.98923319731071"
    }
  },
  {
    "service_request": "2023-1010909",
    "request_type": "Traffic Signals/Signs/Striping/Streetlights",
    "request_reason": "Street Name Sign Damaged or Missing",
    "date_created": "2023-06-22T16:02:22.000",
    "date_modified": "2023-06-22T16:02:22.000",
    "request_status": "Pending",
    "responsible_agency": "Department of Public Works",
    "final_address": "4200 BLK Elysian Fields Ave",
    "address_councildis": "D",
    "status": "Pending",
    "rowid": "1010909",
    "final_x": "3683999.18577",
    "final_y": "548269.711319",
    "longitude": "-90.05959087268708",
    "latitude": "30.001475404078565",
    "geocoded_column": {
      "latitude": "30.001475404078565",
      "longitude": "-90.05959087268708"
    }
  },
  {
    "service_request": "2023-1010908",
    "request_type": "Trash/Recycling",
    "request_reason": "Request a Large Item Pick Up",
    "date_created": "2023-06-22T15:58:42.000",
    "date_modified": "2023-06-22T15:58:43.000",
    "request_status": "Pending",
    "responsible_agency": "Department of Sanitation",
    "final_address": "4220 Dumaine St",
    "address_councildis": "A",
    "status": "Assigned to Contractor",
    "contractor": "Richards Disposal",
    "rowid": "1010908",
    "final_x": "3672215.83444",
    "final_y": "541208.930316",
    "longitude": "-90.09705634553518",
    "latitude": "29.982415602684235",
    "geocoded_column": {
      "latitude": "29.982415602684235",
      "longitude": "-90.09705634553518"
    }
  },
  {
    "service_request": "2023-1010907",
    "request_type": "Trash/Recycling",
    "request_reason": "Missed Trash Pick-Up",
    "date_created": "2023-06-22T15:56:59.000",
    "date_modified": "2023-06-22T15:57:00.000",
    "request_status": "Pending",
    "responsible_agency": "Department of Sanitation",
    "final_address": "5932 Press Dr",
    "address_councildis": "D",
    "status": "Assigned to Contractor",
    "contractor": "IV Waste",
    "rowid": "1010907",
    "final_x": "3688789.24124",
    "final_y": "555310.324761",
    "longitude": "-90.04420844265967",
    "latitude": "30.020687220444",
    "geocoded_column": {
      "latitude": "30.020687220444",
      "longitude": "-90.04420844265967"
    }
  },
  {
    "service_request": "2023-1010906",
    "request_type": "Property Maintenance",
    "request_reason": "Property Maintenance",
    "date_created": "2023-06-22T15:54:36.000",
    "date_modified": "2023-06-22T15:54:37.000",
    "request_status": "Pending",
    "responsible_agency": "Department of Code Enforcement",
    "final_address": "4742 Flake Ave",
    "address_councildis": "E",
    "status": "Pending",
    "rowid": "1010906",
    "final_x": "3706024.66321",
    "final_y": "555455.716953",
    "longitude": "-89.9897446796244",
    "latitude": "30.020542559098686",
    "geocoded_column": {
      "latitude": "30.020542559098686",
      "longitude": "-89.9897446796244"
    }
  },
  {
    "service_request": "2023-1010905",
    "request_type": "Trash/Recycling",
    "request_reason": "Request a Large Item Pick Up",
    "date_created": "2023-06-22T15:52:41.000",
    "date_modified": "2023-06-22T15:52:42.000",
    "request_status": "Pending",
    "responsible_agency": "Department of Sanitation",
    "final_address": "5921 N Derbigny St",
    "address_councildis": "E",
    "status": "Assigned to Contractor",
    "contractor": "Waste Pro",
    "rowid": "1010905",
    "final_x": "3699951.13207",
    "final_y": "535636.476742",
    "longitude": "-90.00965850763126",
    "latitude": "29.96624140662514",
    "geocoded_column": {
      "latitude": "29.96624140662514",
      "longitude": "-90.00965850763126"
    }
  },
  {
    "service_request": "2023-1010904",
    "request_type": "Trash/Recycling",
    "request_reason": "Repair Trash Cart",
    "date_created": "2023-06-22T15:50:39.000",
    "date_modified": "2023-06-22T15:50:40.000",
    "request_status": "Pending",
    "responsible_agency": "Department of Sanitation",
    "final_address": "1930 Tricou St",
    "address_councildis": "E",
    "status": "Assigned to Contractor",
    "contractor": "Waste Pro",
    "rowid": "1010904",
    "final_x": "3701342.58429",
    "final_y": "536159.378759",
    "longitude": "-90.00524522015431",
    "latitude": "29.967634927220825",
    "geocoded_column": {
      "latitude": "29.967634927220825",
      "longitude": "-90.00524522015431"
    }
  },
  {
    "service_request": "2023-1010903",
    "request_type": "Trash/Recycling",
    "request_reason": "Request a Large Item Pick Up",
    "date_created": "2023-06-22T15:49:40.000",
    "date_modified": "2023-06-22T15:49:40.000",
    "request_status": "Pending",
    "responsible_agency": "Department of Sanitation",
    "final_address": "5420 Magazine St",
    "address_councildis": "A",
    "status": "Assigned to Contractor",
    "contractor": "Richards Disposal",
    "rowid": "1010903",
    "final_x": "3666550.0249",
    "final_y": "518772.568183",
    "longitude": "-90.11570487722283",
    "latitude": "29.920889779503877",
    "geocoded_column": {
      "latitude": "29.920889779503877",
      "longitude": "-90.11570487722283"
    }
  },
  {
    "service_request": "2023-1010902",
    "request_type": "Trash/Recycling",
    "request_reason": "Request a Large Item Pick Up",
    "date_created": "2023-06-22T15:49:22.000",
    "date_modified": "2023-06-22T15:49:22.000",
    "request_status": "Pending",
    "responsible_agency": "Department of Sanitation",
    "final_address": "4646 Bonita Dr",
    "address_councildis": "E",
    "status": "Assigned to Contractor",
    "contractor": "Waste Pro",
    "rowid": "1010902",
    "final_x": "3704488.65585",
    "final_y": "554696.094936",
    "longitude": "-89.99462600448722",
    "latitude": "30.01850332498633",
    "geocoded_column": {
      "latitude": "30.01850332498633",
      "longitude": "-89.99462600448722"
    }
  },
  {
    "service_request": "2023-1010901",
    "request_type": "Property Maintenance",
    "request_reason": "Property Maintenance",
    "date_created": "2023-06-22T15:49:20.000",
    "date_modified": "2023-06-22T15:49:20.000",
    "request_status": "Pending",
    "responsible_agency": "Department of Code Enforcement",
    "final_address": "1450 N Johnson St",
    "address_councildis": "D",
    "status": "Pending",
    "rowid": "1010901",
    "final_x": "3680467.88239",
    "final_y": "537825.595849",
    "longitude": "-90.07111004462973",
    "latitude": "29.972865214623663",
    "geocoded_column": {
      "latitude": "29.972865214623663",
      "longitude": "-90.07111004462973"
    }
  },
  {
    "service_request": "2023-1010899",
    "request_type": "Trash/Recycling",
    "request_reason": "Missed Trash Pick-Up",
    "date_created": "2023-06-22T15:47:52.000",
    "date_modified": "2023-06-22T15:47:53.000",
    "request_status": "Pending",
    "responsible_agency": "Department of Sanitation",
    "final_address": "7208 Chef Menteur Hwy",
    "address_councildis": "E",
    "status": "Assigned to Contractor",
    "contractor": "Waste Pro",
    "rowid": "1010899",
    "final_x": "3701523.54237",
    "final_y": "552063.014166",
    "longitude": "-90.00409112692951",
    "latitude": "30.011358274280084",
    "geocoded_column": {
      "latitude": "30.011358274280084",
      "longitude": "-90.00409112692951"
    }
  },
  {
    "service_request": "2023-1010898",
    "request_type": "Property Maintenance",
    "request_reason": "Property Maintenance",
    "date_created": "2023-06-22T15:47:18.000",
    "date_modified": "2023-06-22T15:47:18.000",
    "request_status": "Pending",
    "responsible_agency": "Department of Code Enforcement",
    "final_address": "1450 N Johnson St",
    "address_councildis": "D",
    "status": "Pending",
    "rowid": "1010898",
    "final_x": "3680467.88239",
    "final_y": "537825.595849",
    "longitude": "-90.07111004462973",
    "latitude": "29.972865214623663",
    "geocoded_column": {
      "latitude": "29.972865214623663",
      "longitude": "-90.07111004462973"
    }
  },
  {
    "service_request": "2023-1010897",
    "request_type": "Trash/Recycling",
    "request_reason": "Request a Large Item Pick Up",
    "date_created": "2023-06-22T15:42:36.000",
    "date_modified": "2023-06-22T15:42:37.000",
    "request_status": "Pending",
    "responsible_agency": "Department of Sanitation",
    "final_address": "1452 Verna St",
    "address_councildis": "A",
    "status": "Assigned to Contractor",
    "contractor": "IV Waste",
    "rowid": "1010897",
    "final_x": "3675866.40865",
    "final_y": "541304.25934",
    "longitude": "-90.08552274589562",
    "latitude": "29.98256891898051",
    "geocoded_column": {
      "latitude": "29.98256891898051",
      "longitude": "-90.08552274589562"
    }
  },
  {
    "service_request": "2023-1010896",
    "request_type": "Trash/Recycling",
    "request_reason": "Repair Recycling Cart",
    "date_created": "2023-06-22T15:42:04.000",
    "date_modified": "2023-06-22T15:42:05.000",
    "request_status": "Pending",
    "responsible_agency": "Department of Sanitation",
    "final_address": "200 David St",
    "address_councildis": "A",
    "status": "Pending",
    "rowid": "1010896",
    "final_x": "3671201.75918",
    "final_y": "538854.597769",
    "longitude": "-90.10033931920289",
    "latitude": "29.975972033738785",
    "geocoded_column": {
      "latitude": "29.975972033738785",
      "longitude": "-90.10033931920289"
    }
  },
  {
    "service_request": "2023-1010895",
    "request_type": "Trash/Recycling",
    "request_reason": "Repair Trash Cart",
    "date_created": "2023-06-22T15:41:27.000",
    "date_modified": "2023-06-22T15:41:27.000",
    "request_status": "Pending",
    "responsible_agency": "Department of Sanitation",
    "final_address": "200 David St",
    "address_councildis": "A",
    "status": "Assigned to Contractor",
    "contractor": "Richards Disposal",
    "rowid": "1010895",
    "final_x": "3671201.75918",
    "final_y": "538854.597769",
    "longitude": "-90.10033931920289",
    "latitude": "29.975972033738785",
    "geocoded_column": {
      "latitude": "29.975972033738785",
      "longitude": "-90.10033931920289"
    }
  },
  {
    "service_request": "2023-1010894",
    "request_type": "Trash/Recycling",
    "request_reason": "Repair Trash Cart",
    "date_created": "2023-06-22T15:41:00.000",
    "date_modified": "2023-06-22T15:41:01.000",
    "request_status": "Pending",
    "responsible_agency": "Department of Sanitation",
    "final_address": "200 David St",
    "address_councildis": "A",
    "status": "Assigned to Contractor",
    "contractor": "Richards Disposal",
    "rowid": "1010894",
    "final_x": "3671201.75918",
    "final_y": "538854.597769",
    "longitude": "-90.10033931920289",
    "latitude": "29.975972033738785",
    "geocoded_column": {
      "latitude": "29.975972033738785",
      "longitude": "-90.10033931920289"
    }
  },
  {
    "service_request": "2023-1010893",
    "request_type": "Trash/Recycling",
    "request_reason": "Missed Trash Pick-Up",
    "date_created": "2023-06-22T15:40:21.000",
    "date_modified": "2023-06-22T15:40:22.000",
    "request_status": "Pending",
    "responsible_agency": "Department of Sanitation",
    "final_address": "1368 Constance St",
    "address_councildis": "B",
    "status": "Assigned to Contractor",
    "contractor": "Richards Disposal",
    "rowid": "1010893",
    "final_x": "3680798.42715",
    "final_y": "524587.2887",
    "longitude": "-90.07052689103854",
    "latitude": "29.93645433127923",
    "geocoded_column": {
      "latitude": "29.93645433127923",
      "longitude": "-90.07052689103854"
    }
  },
  {
    "service_request": "2023-1010892",
    "request_type": "Trash/Recycling",
    "request_reason": "Missed Trash Pick-Up",
    "date_created": "2023-06-22T15:29:23.000",
    "date_modified": "2023-06-22T15:29:23.000",
    "request_status": "Pending",
    "responsible_agency": "Department of Sanitation",
    "final_address": "1566 N Prieur St, New Orleans, Louisiana, 70116",
    "address_councildis": "D",
    "status": "Assigned to Contractor",
    "contractor": "IV Waste",
    "rowid": "1010892",
    "final_x": "3681296.45192",
    "final_y": "538247.875721",
    "longitude": "-90.06847854503071",
    "latitude": "29.974001215328972",
    "geocoded_column": {
      "latitude": "29.974001215328972",
      "longitude": "-90.06847854503071"
    }
  },
  {
    "service_request": "2023-1010891",
    "request_type": "Trash/Recycling",
    "request_reason": "Illegal Dumping",
    "date_created": "2023-06-22T15:26:30.000",
    "date_modified": "2023-06-22T15:26:30.000",
    "request_status": "Pending",
    "responsible_agency": "Department of Sanitation",
    "final_address": "4100 BLK Frenchmen St",
    "address_councildis": "D",
    "status": "Pending",
    "rowid": "1010891",
    "final_x": "3683656.98239",
    "final_y": "547871.185541",
    "longitude": "-90.06068590743834",
    "latitude": "30.000390056564466",
    "geocoded_column": {
      "latitude": "30.000390056564466",
      "longitude": "-90.06068590743834"
    }
  },
  {
    "service_request": "2023-1010890",
    "request_type": "Roads/Drainage",
    "request_reason": "Street Flooding / Drainage",
    "date_created": "2023-06-22T15:23:21.000",
    "date_modified": "2023-06-22T15:23:21.000",
    "request_status": "Pending",
    "responsible_agency": "Department of Public Works",
    "final_address": "3875 General De Gaulle Dr",
    "address_councildis": "C",
    "status": "Pending",
    "rowid": "1010890",
    "final_x": "3698225.51869",
    "final_y": "519297.489591",
    "longitude": "-90.0157012683258",
    "latitude": "29.9213695941961",
    "geocoded_column": {
      "latitude": "29.9213695941961",
      "longitude": "-90.0157012683258"
    }
  },
  {
    "service_request": "2023-1010889",
    "request_type": "Abandoned Vehicles",
    "request_reason": "Abandoned/Junk Vehicles",
    "date_created": "2023-06-22T15:22:08.000",
    "date_modified": "2023-06-22T15:22:08.000",
    "request_status": "Pending",
    "responsible_agency": "Department of Public Works",
    "final_address": "7339 Read Blvd",
    "address_councildis": "E",
    "status": "Inspected",
    "rowid": "1010889",
    "final_x": "3709334.13656",
    "final_y": "563189.417888",
    "longitude": "-89.97899901383505",
    "latitude": "30.041700067131046",
    "geocoded_column": {
      "latitude": "30.041700067131046",
      "longitude": "-89.97899901383505"
    }
  },
  {
    "service_request": "2023-1010888",
    "request_type": "Abandoned Vehicles",
    "request_reason": "Abandoned/Junk Vehicles",
    "date_created": "2023-06-22T15:16:29.000",
    "date_modified": "2023-06-22T15:16:29.000",
    "request_status": "Pending",
    "responsible_agency": "Department of Public Works",
    "final_address": "201 S Gayoso St, New Orleans, Louisiana, 70119",
    "address_councildis": "B",
    "status": "Pending",
    "rowid": "1010888",
    "final_x": "3674008.52878",
    "final_y": "535506.597702",
    "longitude": "-90.09158930832939",
    "latitude": "29.96668282345407",
    "geocoded_column": {
      "latitude": "29.96668282345407",
      "longitude": "-90.09158930832939"
    }
  },
  {
    "service_request": "2023-1010887",
    "request_type": "Trash/Recycling",
    "request_reason": "Return Recycling Cart",
    "date_created": "2023-06-22T15:12:22.000",
    "date_modified": "2023-06-22T15:12:22.000",
    "request_status": "Pending",
    "responsible_agency": "Department of Sanitation",
    "final_address": "1036 Cadiz St",
    "address_councildis": "B",
    "status": "Pending",
    "rowid": "1010887",
    "final_x": "3670198.15809",
    "final_y": "519379.487095",
    "longitude": "-90.10416879768147",
    "latitude": "29.922451513327665",
    "geocoded_column": {
      "latitude": "29.922451513327665",
      "longitude": "-90.10416879768147"
    }
  },
  {
    "service_request": "2023-1010886",
    "request_type": "Traffic Signals/Signs/Striping/Streetlights",
    "request_reason": "Traffic Signal Malfunctioning/Damaged",
    "date_created": "2023-06-22T15:10:54.000",
    "date_modified": "2023-06-22T15:19:03.000",
    "case_close_date": "2023-06-22T10:19:03.000",
    "request_status": "Closed",
    "responsible_agency": "Department of Public Works",
    "final_address": "CHEF MENTEUR HWY & I 510 N",
    "address_councildis": "E",
    "status": "Duplicate Request",
    "rowid": "1010886",
    "final_x": "3721964.4",
    "final_y": "557972.78",
    "longitude": "-89.93928382991413",
    "latitude": "30.026939914988635",
    "geocoded_column": {
      "latitude": "30.026939914988635",
      "longitude": "-89.93928382991413"
    }
  },
  {
    "service_request": "2023-1010885",
    "request_type": "Property Maintenance",
    "request_reason": "Property Maintenance",
    "date_created": "2023-06-22T15:09:52.000",
    "date_modified": "2023-06-22T15:09:53.000",
    "request_status": "Pending",
    "responsible_agency": "Department of Code Enforcement",
    "final_address": "2830 S Roman St",
    "address_councildis": "B",
    "status": "Pending",
    "rowid": "1010885",
    "final_x": "3672548.76891",
    "final_y": "527137.940159",
    "longitude": "-90.09648450291058",
    "latitude": "29.943715207322782",
    "geocoded_column": {
      "latitude": "29.943715207322782",
      "longitude": "-90.09648450291058"
    }
  },
  {
    "service_request": "2023-1010884",
    "request_type": "Trash/Recycling",
    "request_reason": "Request a Large Item Pick Up",
    "date_created": "2023-06-22T14:56:38.000",
    "date_modified": "2023-06-22T14:56:39.000",
    "request_status": "Pending",
    "responsible_agency": "Department of Sanitation",
    "final_address": "2416 Bienville Ave",
    "address_councildis": "B",
    "status": "Assigned to Contractor",
    "contractor": "Richards Disposal",
    "rowid": "1010884",
    "final_x": "3676740.50299",
    "final_y": "534955.861894",
    "longitude": "-90.08298072250993",
    "latitude": "29.96508679662959",
    "geocoded_column": {
      "latitude": "29.96508679662959",
      "longitude": "-90.08298072250993"
    }
  },
  {
    "service_request": "2023-1010883",
    "request_type": "Traffic Signals/Signs/Striping/Streetlights",
    "request_reason": "Street Light Outage/Malfunction",
    "date_created": "2023-06-22T14:47:11.000",
    "date_modified": "2023-06-22T14:47:35.000",
    "request_status": "Pending",
    "responsible_agency": "Department of Public Works",
    "final_address": "1724 Nie Prkwy",
    "address_councildis": "C",
    "status": "Assigned to Contractor",
    "contractor": "Legacy Professional Services",
    "rowid": "1010883",
    "final_x": "3701258.86813",
    "final_y": "524411.534076",
    "longitude": "-90.00593937809985",
    "latitude": "29.935335187044284",
    "geocoded_column": {
      "latitude": "29.935335187044284",
      "longitude": "-90.00593937809985"
    }
  },
  {
    "service_request": "2023-1010882",
    "request_type": "Abandoned Vehicles",
    "request_reason": "Abandoned/Junk Vehicles",
    "date_created": "2023-06-22T14:46:19.000",
    "date_modified": "2023-06-22T14:46:19.000",
    "request_status": "Pending",
    "responsible_agency": "Department of Public Works",
    "final_address": "7520 W Laverne St",
    "address_councildis": "D",
    "status": "Pending",
    "rowid": "1010882",
    "final_x": "3695193.01763",
    "final_y": "558382.802076",
    "longitude": "-90.02386356044055",
    "latitude": "30.028935714293628",
    "geocoded_column": {
      "latitude": "30.028935714293628",
      "longitude": "-90.02386356044055"
    }
  },
  {
    "service_request": "2023-1010881",
    "request_type": "Trash/Recycling",
    "request_reason": "Repair Recycling Cart",
    "date_created": "2023-06-22T14:43:55.000",
    "date_modified": "2023-06-22T14:43:55.000",
    "request_status": "Pending",
    "responsible_agency": "Department of Sanitation",
    "final_address": "3636 Octavia St",
    "address_councildis": "A",
    "status": "Pending",
    "rowid": "1010881",
    "final_x": "3668617.65089",
    "final_y": "528984.686848",
    "longitude": "-90.10883382265975",
    "latitude": "29.94890925309402",
    "geocoded_column": {
      "latitude": "29.94890925309402",
      "longitude": "-90.10883382265975"
    }
  },
  {
    "service_request": "2023-1010880",
    "request_type": "Trash/Recycling",
    "request_reason": "Request a Large Item Pick Up",
    "date_created": "2023-06-22T14:43:53.000",
    "date_modified": "2023-06-22T14:43:55.000",
    "request_status": "Pending",
    "responsible_agency": "Department of Sanitation",
    "final_address": "3139 Burgundy St",
    "address_councildis": "C",
    "status": "Assigned to Contractor",
    "contractor": "IV Waste",
    "rowid": "1010880",
    "final_x": "3689105.33846",
    "final_y": "535162.289286",
    "longitude": "-90.04392605396511",
    "latitude": "29.96527760558944",
    "geocoded_column": {
      "latitude": "29.96527760558944",
      "longitude": "-90.04392605396511"
    }
  },
  {
    "service_request": "2023-1010879",
    "request_type": "Property Maintenance",
    "request_reason": "Property Maintenance",
    "date_created": "2023-06-22T14:43:44.000",
    "date_modified": "2023-06-22T14:43:44.000",
    "request_status": "Pending",
    "responsible_agency": "Department of Code Enforcement",
    "final_address": "6840 Farwood Rd",
    "address_councildis": "E",
    "status": "Pending",
    "rowid": "1010879",
    "final_x": "3700783.17437",
    "final_y": "557026.791962",
    "longitude": "-90.00624860440114",
    "latitude": "30.025030365439378",
    "geocoded_column": {
      "latitude": "30.025030365439378",
      "longitude": "-90.00624860440114"
    }
  },
  {
    "service_request": "2023-1010878",
    "request_type": "Trash/Recycling",
    "request_reason": "Repair Trash Cart",
    "date_created": "2023-06-22T14:42:08.000",
    "date_modified": "2023-06-22T14:42:09.000",
    "request_status": "Pending",
    "responsible_agency": "Department of Sanitation",
    "final_address": "1802 Annunciation St",
    "address_councildis": "B",
    "status": "Assigned to Contractor",
    "contractor": "Richards Disposal",
    "rowid": "1010878",
    "final_x": "3680756.6884",
    "final_y": "522188.424954",
    "longitude": "-90.07074211130102",
    "latitude": "29.92985951263366",
    "geocoded_column": {
      "latitude": "29.92985951263366",
      "longitude": "-90.07074211130102"
    }
  },
  {
    "service_request": "2023-1010877",
    "request_type": "Trash/Recycling",
    "request_reason": "Order Recycling Cart",
    "date_created": "2023-06-22T14:41:27.000",
    "date_modified": "2023-06-22T14:41:27.000",
    "request_status": "Pending",
    "responsible_agency": "Department of Sanitation",
    "final_address": "6317 Eads St",
    "address_councildis": "D",
    "status": "Pending",
    "rowid": "1010877",
    "final_x": "3686720.10204",
    "final_y": "556562.843994",
    "longitude": "-90.05070199454505",
    "latitude": "30.024195029457967",
    "geocoded_column": {
      "latitude": "30.024195029457967",
      "longitude": "-90.05070199454505"
    }
  },
  {
    "service_request": "2023-1010876",
    "request_type": "Trash/Recycling",
    "request_reason": "Request a Large Item Pick Up",
    "date_created": "2023-06-22T14:40:41.000",
    "date_modified": "2023-06-22T14:40:41.000",
    "request_status": "Pending",
    "responsible_agency": "Department of Sanitation",
    "final_address": "2522 Joseph St",
    "address_councildis": "A",
    "status": "Assigned to Contractor",
    "contractor": "Richards Disposal",
    "rowid": "1010876",
    "final_x": "3667429.82445",
    "final_y": "525331.159421",
    "longitude": "-90.11270720332563",
    "latitude": "29.938898083224938",
    "geocoded_column": {
      "latitude": "29.938898083224938",
      "longitude": "-90.11270720332563"
    }
  },
  {
    "service_request": "2023-1010875",
    "request_type": "Trash/Recycling",
    "request_reason": "Request a Large Item Pick Up",
    "date_created": "2023-06-22T14:40:30.000",
    "date_modified": "2023-06-22T14:40:31.000",
    "request_status": "Pending",
    "responsible_agency": "Department of Sanitation",
    "final_address": "4126 Copernicus St",
    "address_councildis": "C",
    "status": "Assigned to Contractor",
    "contractor": "Richards Disposal",
    "rowid": "1010875",
    "final_x": "3699221.4936",
    "final_y": "523315.464251",
    "longitude": "-90.01241122405335",
    "latitude": "29.932386114438852",
    "geocoded_column": {
      "latitude": "29.932386114438852",
      "longitude": "-90.01241122405335"
    }
  },
  {
    "service_request": "2023-1010874",
    "request_type": "Property Maintenance",
    "request_reason": "Property Maintenance",
    "date_created": "2023-06-22T14:40:18.000",
    "date_modified": "2023-06-22T14:40:18.000",
    "request_status": "Pending",
    "responsible_agency": "Department of Code Enforcement",
    "final_address": "6840 Farwood Rd",
    "address_councildis": "E",
    "status": "Pending",
    "rowid": "1010874",
    "final_x": "3700783.17437",
    "final_y": "557026.791962",
    "longitude": "-90.00624860440114",
    "latitude": "30.025030365439378",
    "geocoded_column": {
      "latitude": "30.025030365439378",
      "longitude": "-90.00624860440114"
    }
  },
  {
    "service_request": "2023-1010873",
    "request_type": "Trash/Recycling",
    "request_reason": "MIssed Recycling Pick-Up",
    "date_created": "2023-06-22T14:37:37.000",
    "date_modified": "2023-06-22T14:37:37.000",
    "request_status": "Pending",
    "responsible_agency": "Department of Sanitation",
    "final_address": "1500 BLK Simon Bolivar Ave",
    "address_councildis": "B",
    "status": "Assigned to Contractor",
    "contractor": "Richards Disposal",
    "rowid": "1010873",
    "final_x": "3677250.69533",
    "final_y": "526559.080856",
    "longitude": "-90.08165922021188",
    "latitude": "29.941983142145045",
    "geocoded_column": {
      "latitude": "29.941983142145045",
      "longitude": "-90.08165922021188"
    }
  },
  {
    "service_request": "2023-1010872",
    "request_type": "Traffic Signals/Signs/Striping/Streetlights",
    "request_reason": "Traffic Signal Malfunctioning/Damaged",
    "date_created": "2023-06-22T14:37:09.000",
    "date_modified": "2023-06-22T14:37:09.000",
    "request_status": "Pending",
    "responsible_agency": "Department of Public Works",
    "final_address": "GENTILLY BLVD & ST BERNARD AVE",
    "address_councildis": "A",
    "status": "Pending",
    "rowid": "1010872",
    "final_x": "3679197.4",
    "final_y": "543495.48",
    "longitude": "-90.07492581176469",
    "latitude": "29.988493849016464",
    "geocoded_column": {
      "latitude": "29.988493849016464",
      "longitude": "-90.07492581176469"
    }
  },
  {
    "service_request": "2023-1010871",
    "request_type": "Parks & Parkways",
    "request_reason": "Request Tree Service (Right of Way/Public Property)",
    "date_created": "2023-06-22T14:36:27.000",
    "date_modified": "2023-06-22T14:36:28.000",
    "request_status": "Pending",
    "responsible_agency": "Department of Parks & Parkway",
    "final_address": "7329 Freret St",
    "address_councildis": "A",
    "status": "Pending",
    "rowid": "1010871",
    "final_x": "3663336.63283",
    "final_y": "526232.57523",
    "longitude": "-90.12559994405672",
    "latitude": "29.941495950090044",
    "geocoded_column": {
      "latitude": "29.941495950090044",
      "longitude": "-90.12559994405672"
    }
  },
  {
    "service_request": "2023-1010870",
    "request_type": "Property Maintenance",
    "request_reason": "Property Maintenance",
    "date_created": "2023-06-22T14:32:50.000",
    "date_modified": "2023-06-22T14:32:50.000",
    "request_status": "Pending",
    "responsible_agency": "Department of Code Enforcement",
    "final_address": "2634 Allen Toussaint Blvd, New Orleans, Louisiana, 70122",
    "address_councildis": "D",
    "status": "Pending",
    "rowid": "1010870",
    "final_x": "3686674.83343",
    "final_y": "555913.413913",
    "longitude": "-90.05086800223796",
    "latitude": "30.022410731150238",
    "geocoded_column": {
      "latitude": "30.022410731150238",
      "longitude": "-90.05086800223796"
    }
  },
  {
    "service_request": "2023-1010869",
    "request_type": "Abandoned Vehicles",
    "request_reason": "Abandoned/Junk Vehicles",
    "date_created": "2023-06-22T14:31:04.000",
    "date_modified": "2023-06-22T14:31:04.000",
    "request_status": "Pending",
    "responsible_agency": "Department of Public Works",
    "final_address": "1001 Carondelet St",
    "address_councildis": "B",
    "status": "Pending",
    "rowid": "1010869",
    "final_x": "3679631.12911",
    "final_y": "527191.203903",
    "longitude": "-90.07412175403779",
    "latitude": "29.94364955596976",
    "geocoded_column": {
      "latitude": "29.94364955596976",
      "longitude": "-90.07412175403779"
    }
  },
  {
    "service_request": "2023-1010868",
    "request_type": "Traffic Signals/Signs/Striping/Streetlights",
    "request_reason": "Street Light Outage/Malfunction",
    "date_created": "2023-06-22T14:12:34.000",
    "date_modified": "2023-06-22T14:12:35.000",
    "request_status": "Pending",
    "responsible_agency": "Department of Public Works",
    "final_address": "6620 Louis Xiv St",
    "address_councildis": "A",
    "status": "Assigned to Contractor",
    "contractor": "Legacy Professional Services",
    "rowid": "1010868",
    "final_x": "3668400.53697",
    "final_y": "551610.077525",
    "longitude": "-90.1087558760874",
    "latitude": "30.01112780616014",
    "geocoded_column": {
      "latitude": "30.01112780616014",
      "longitude": "-90.1087558760874"
    }
  },
  {
    "service_request": "2023-1010867",
    "request_type": "Trash/Recycling",
    "request_reason": "Request a Large Item Pick Up",
    "date_created": "2023-06-22T14:09:10.000",
    "date_modified": "2023-06-22T14:09:11.000",
    "request_status": "Pending",
    "responsible_agency": "Department of Sanitation",
    "final_address": "1702 Independence St",
    "address_councildis": "D",
    "status": "Assigned to Contractor",
    "contractor": "IV Waste",
    "rowid": "1010867",
    "final_x": "3691477.51267",
    "final_y": "537811.049608",
    "longitude": "-90.0363401954967",
    "latitude": "29.972487149834638",
    "geocoded_column": {
      "latitude": "29.972487149834638",
      "longitude": "-90.0363401954967"
    }
  },
  {
    "service_request": "2023-1010866",
    "request_type": "Traffic Signals/Signs/Striping/Streetlights",
    "request_reason": "Street Light Outage/Malfunction",
    "date_created": "2023-06-22T14:07:30.000",
    "date_modified": "2023-06-22T14:07:31.000",
    "request_status": "Pending",
    "responsible_agency": "Department of Public Works",
    "final_address": "4628 Francisco Verrett Dr",
    "address_councildis": "E",
    "status": "Assigned to Contractor",
    "contractor": "Legacy Professional Services",
    "rowid": "1010866",
    "final_x": "3704251.68561",
    "final_y": "554524.417176",
    "longitude": "-89.99538107187308",
    "latitude": "30.018038887550087",
    "geocoded_column": {
      "latitude": "30.018038887550087",
      "longitude": "-89.99538107187308"
    }
  },
  {
    "service_request": "2023-1010865",
    "request_type": "Trash/Recycling",
    "request_reason": "Request a Large Item Pick Up",
    "date_created": "2023-06-22T14:04:39.000",
    "date_modified": "2023-06-22T14:04:40.000",
    "request_status": "Pending",
    "responsible_agency": "Department of Sanitation",
    "final_address": "3002 Robert St",
    "address_councildis": "B",
    "status": "Assigned to Contractor",
    "contractor": "Richards Disposal",
    "rowid": "1010865",
    "final_x": "3668823.26702",
    "final_y": "526318.678398",
    "longitude": "-90.10827459892369",
    "latitude": "29.941572552186354",
    "geocoded_column": {
      "latitude": "29.941572552186354",
      "longitude": "-90.10827459892369"
    }
  },
  {
    "service_request": "2023-1010864",
    "request_type": "Traffic Signals/Signs/Striping/Streetlights",
    "request_reason": "Street Light Outage/Malfunction",
    "date_created": "2023-06-22T14:03:46.000",
    "date_modified": "2023-06-22T14:03:47.000",
    "request_status": "Pending",
    "responsible_agency": "Department of Public Works",
    "final_address": "3330 Mansfield Ave",
    "address_councildis": "C",
    "status": "Assigned to Contractor",
    "contractor": "Legacy Professional Services",
    "rowid": "1010864",
    "final_x": "3709145.22622",
    "final_y": "518361.746678",
    "longitude": "-89.981267727357",
    "latitude": "29.918446840510832",
    "geocoded_column": {
      "latitude": "29.918446840510832",
      "longitude": "-89.981267727357"
    }
  },
  {
    "service_request": "2023-1010863",
    "request_type": "Abandoned Vehicles",
    "request_reason": "Abandoned/Junk Vehicles",
    "date_created": "2023-06-22T13:57:11.000",
    "date_modified": "2023-06-22T13:57:11.000",
    "request_status": "Pending",
    "responsible_agency": "Department of Public Works",
    "final_address": "218 S Salcedo St",
    "address_councildis": "B",
    "status": "Pending",
    "rowid": "1010863",
    "final_x": "3673789.96347",
    "final_y": "535557.49479",
    "longitude": "-90.09227779648101",
    "latitude": "29.966829284286664",
    "geocoded_column": {
      "latitude": "29.966829284286664",
      "longitude": "-90.09227779648101"
    }
  },
  {
    "service_request": "2023-1010862",
    "request_type": "Trash/Recycling",
    "request_reason": "Damaged Caused By Contractor",
    "date_created": "2023-06-22T13:55:11.000",
    "date_modified": "2023-06-22T13:55:12.000",
    "request_status": "Pending",
    "responsible_agency": "Department of Sanitation",
    "final_address": "4649 Franklin Ave",
    "address_councildis": "D",
    "status": "Assigned to Contractor",
    "contractor": "IV Waste",
    "rowid": "1010862",
    "final_x": "3686933.53206",
    "final_y": "550084.647572",
    "longitude": "-90.0502568121593",
    "latitude": "30.006375803014585",
    "geocoded_column": {
      "latitude": "30.006375803014585",
      "longitude": "-90.0502568121593"
    }
  },
  {
    "service_request": "2023-1010861",
    "request_type": "Abandoned Vehicles",
    "request_reason": "Abandoned/Junk Vehicles",
    "date_created": "2023-06-22T13:54:53.000",
    "date_modified": "2023-06-22T13:54:53.000",
    "request_status": "Pending",
    "responsible_agency": "Department of Public Works",
    "final_address": "3500 BLK Broadway St",
    "address_councildis": "B",
    "status": "Pending",
    "rowid": "1010861",
    "final_x": "3668840.90113",
    "final_y": "533412.721676",
    "longitude": "-90.10797940882165",
    "latitude": "29.961078332473694",
    "geocoded_column": {
      "latitude": "29.961078332473694",
      "longitude": "-90.10797940882165"
    }
  },
  {
    "service_request": "2023-1010860",
    "request_type": "Trash/Recycling",
    "request_reason": "Replace Recycling Cart",
    "date_created": "2023-06-22T13:54:28.000",
    "date_modified": "2023-06-22T13:54:28.000",
    "request_status": "Pending",
    "responsible_agency": "Department of Sanitation",
    "final_address": "1222 Kentucky St",
    "address_councildis": "D",
    "status": "Pending",
    "rowid": "1010860",
    "final_x": "3693381.73168",
    "final_y": "535500.158086",
    "longitude": "-90.03040934690831",
    "latitude": "29.966073613662505",
    "geocoded_column": {
      "latitude": "29.966073613662505",
      "longitude": "-90.03040934690831"
    }
  },
  {
    "service_request": "2023-1010858",
    "request_type": "Trash/Recycling",
    "request_reason": "Repair Trash Cart",
    "date_created": "2023-06-22T13:51:23.000",
    "date_modified": "2023-06-22T13:51:23.000",
    "request_status": "Pending",
    "responsible_agency": "Department of Sanitation",
    "final_address": "1803 Eighth St",
    "address_councildis": "B",
    "status": "Assigned to Contractor",
    "contractor": "Richards Disposal",
    "rowid": "1010858",
    "final_x": "3674580.15304",
    "final_y": "522598.712058",
    "longitude": "-90.09022635261367",
    "latitude": "29.931173363311583",
    "geocoded_column": {
      "latitude": "29.931173363311583",
      "longitude": "-90.09022635261367"
    }
  },
  {
    "service_request": "2023-1010857",
    "request_type": "Parks & Parkways",
    "request_reason": "Request Tree Service (Right of Way/Public Property)",
    "date_created": "2023-06-22T13:50:39.000",
    "date_modified": "2023-06-22T13:50:40.000",
    "request_status": "Pending",
    "responsible_agency": "Department of Parks & Parkway",
    "final_address": "1354 Allen Toussaint Blvd",
    "address_councildis": "D",
    "status": "Pending",
    "rowid": "1010857",
    "final_x": "3677345.71054",
    "final_y": "555061.052377",
    "longitude": "-90.08037524581339",
    "latitude": "30.0203508492645",
    "geocoded_column": {
      "latitude": "30.0203508492645",
      "longitude": "-90.08037524581339"
    }
  },
  {
    "service_request": "2023-1010856",
    "request_type": "Trash/Recycling",
    "request_reason": "MIssed Recycling Pick-Up",
    "date_created": "2023-06-22T13:48:19.000",
    "date_modified": "2023-06-22T13:48:19.000",
    "request_status": "Pending",
    "responsible_agency": "Department of Sanitation",
    "final_address": "747 S Genois St",
    "address_councildis": "B",
    "status": "Assigned to Contractor",
    "contractor": "Richards Disposal",
    "rowid": "1010856",
    "final_x": "3670901.85537",
    "final_y": "535018.57031",
    "longitude": "-90.10141675811427",
    "latitude": "29.965433118263814",
    "geocoded_column": {
      "latitude": "29.965433118263814",
      "longitude": "-90.10141675811427"
    }
  },
  {
    "service_request": "2023-1010855",
    "request_type": "Roads/Drainage",
    "request_reason": "Pothole",
    "date_created": "2023-06-22T13:44:06.000",
    "date_modified": "2023-06-22T13:44:07.000",
    "request_status": "Pending",
    "responsible_agency": "Department of Public Works",
    "final_address": "3211 Gravier St",
    "address_councildis": "B",
    "status": "Pending",
    "rowid": "1010855",
    "final_x": "3672254.57204",
    "final_y": "534327.491525",
    "longitude": "-90.09716847599354",
    "latitude": "29.963492824470087",
    "geocoded_column": {
      "latitude": "29.963492824470087",
      "longitude": "-90.09716847599354"
    }
  },
  {
    "service_request": "2023-1010854",
    "request_type": "Trash/Recycling",
    "request_reason": "Request a Large Item Pick Up",
    "date_created": "2023-06-22T13:37:56.000",
    "date_modified": "2023-06-22T13:37:56.000",
    "request_status": "Pending",
    "responsible_agency": "Department of Sanitation",
    "final_address": "1903 Gallier St",
    "address_councildis": "D",
    "status": "Assigned to Contractor",
    "contractor": "IV Waste",
    "rowid": "1010854",
    "final_x": "3691266.21718",
    "final_y": "538674.548233",
    "longitude": "-90.03697664866544",
    "latitude": "29.97486803958168",
    "geocoded_column": {
      "latitude": "29.97486803958168",
      "longitude": "-90.03697664866544"
    }
  },
  {
    "service_request": "2023-1010852",
    "request_type": "Trash/Recycling",
    "request_reason": "Replace Trash Cart",
    "date_created": "2023-06-22T13:37:21.000",
    "date_modified": "2023-06-22T13:37:22.000",
    "request_status": "Pending",
    "responsible_agency": "Department of Sanitation",
    "final_address": "2369 St Thomas St",
    "address_councildis": "B",
    "status": "Assigned to Contractor",
    "contractor": "Richards Disposal",
    "rowid": "1010852",
    "final_x": "3679160.25544",
    "final_y": "520065.857464",
    "longitude": "-90.07585531130066",
    "latitude": "29.92407141796851",
    "geocoded_column": {
      "latitude": "29.92407141796851",
      "longitude": "-90.07585531130066"
    }
  },
  {
    "service_request": "2023-1010851",
    "request_type": "Trash/Recycling",
    "request_reason": "Repair Trash Cart",
    "date_created": "2023-06-22T13:37:02.000",
    "date_modified": "2023-06-22T13:37:03.000",
    "request_status": "Pending",
    "responsible_agency": "Department of Sanitation",
    "final_address": "4800 Stemway Dr",
    "address_councildis": "D",
    "status": "Assigned to Contractor",
    "contractor": "Waste Pro",
    "rowid": "1010851",
    "final_x": "3696820.10077",
    "final_y": "554448.170968",
    "longitude": "-90.01886469232556",
    "latitude": "30.018065746632704",
    "geocoded_column": {
      "latitude": "30.018065746632704",
      "longitude": "-90.01886469232556"
    }
  },
  {
    "service_request": "2023-1010850",
    "request_type": "Tax and Revenue",
    "request_reason": "General Tax Question",
    "date_created": "2023-06-22T13:29:52.000",
    "date_modified": "2023-06-22T13:29:52.000",
    "request_status": "Pending",
    "responsible_agency": "Bureau of Revenue",
    "status": "Pending",
    "rowid": "1010850",
    "longitude": "0.0",
    "latitude": "0.0",
    "geocoded_column": {
      "latitude": "0.0",
      "longitude": "0.0"
    }
  },