[
  {
    "service_request": "2024-1107015",
    "request_type": "Roads/Drainage",
    "request_reason": "Road Shoulder Repair",
    "date_created": "2024-06-25T23:57:40.000",
    "date_modified": "2024-06-25T23:57:40.000",
    "request_status": "Pending",
    "responsible_agency": "Department of Public Works",
    "final_address": "4300 BLK Coliseum St",
    "address_councildis": "B",
    "status": "Pending",
    "rowid": "1107015",
    "final_x": "3671171.73078",
    "final_y": "519844.933195",
    "longitude": "-90.10107981563857",
    "latitude": "29.923702589131413",
    "geocoded_column": {
      "latitude": "29.923702589131413",
      "longitude": "-90.10107981563857"
    }
  },
  {
    "service_request": "2024-1107014",
    "request_type": "Trash/Recycling",
    "request_reason": "Replace Recycling Cart",
    "date_created": "2024-06-25T23:09:09.000",
    "date_modified": "2024-06-25T23:09:09.000",
    "request_status": "Pending",
    "responsible_agency": "Department of Sanitation",
    "final_address": "1461 Prentiss Ave",
    "address_councildis": "D",
    "status": "Pending",
    "rowid": "1107014",
    "final_x": "3677993.82485",
    "final_y": "553483.412823",
    "longitude": "-90.07838199791998",
    "latitude": "30.015993408652026",
    "geocoded_column": {
      "latitude": "30.015993408652026",
      "longitude": "-90.07838199791998"
    }
  },
  {
    "service_request": "2024-1107013",
    "request_type": "Trash/Recycling",
    "request_reason": "Replace Recycling Cart",
    "date_created": "2024-06-25T23:05:52.000",
    "date_modified": "2024-06-25T23:05:52.000",
    "request_status": "Pending",
    "responsible_agency": "Department of Sanitation",
    "final_address": "1461 Prentiss Ave",
    "address_councildis": "D",
    "status": "Pending",
    "rowid": "1107013",
    "final_x": "3677993.82485",
    "final_y": "553483.412823",
    "longitude": "-90.07838199791998",
    "latitude": "30.015993408652026",
    "geocoded_column": {
      "latitude": "30.015993408652026",
      "longitude": "-90.07838199791998"
    }
  },
  {
    "service_request": "2024-1107012",
    "request_type": "Traffic Signals/Signs/Striping/Streetlights",
    "request_reason": "Street Light Outage/Malfunction",
    "date_created": "2024-06-25T22:58:43.000",
    "date_modified": "2024-06-25T22:58:44.000",
    "request_status": "Pending",
    "responsible_agency": "Department of Public Works",
    "final_address": "21 Petit Bayou Ln",
    "address_councildis": "E",
    "status": "Assigned to Contractor",
    "contractor": "Legacy Professional Services",
    "rowid": "1107012",
    "final_x": "3724916.94502",
    "final_y": "564160.515809",
    "longitude": "-89.92971470100946",
    "latitude": "30.043854546814966",
    "geocoded_column": {
      "latitude": "30.043854546814966",
      "longitude": "-89.92971470100946"
    }
  },
  {
    "service_request": "2024-1107011",
    "request_type": "Trash/Recycling",
    "request_reason": "Request a Large Item Pick Up",
    "date_created": "2024-06-25T22:56:23.000",
    "date_modified": "2024-06-25T22:56:23.000",
    "request_status": "Pending",
    "responsible_agency": "Department of Sanitation",
    "final_address": "4617 Knight Dr",
    "address_councildis": "E",
    "status": "Assigned to Contractor",
    "contractor": "Waste Pro",
    "rowid": "1107011",
    "final_x": "3708289.81988",
    "final_y": "554738.46364",
    "longitude": "-89.98261424594638",
    "latitude": "30.018497164438",
    "geocoded_column": {
      "latitude": "30.018497164438",
      "longitude": "-89.98261424594638"
    }
  },
  {
    "service_request": "2024-1107010",
    "request_type": "Traffic Signals/Signs/Striping/Streetlights",
    "request_reason": "Street Light Outage/Malfunction",
    "date_created": "2024-06-25T22:55:56.000",
    "date_modified": "2024-06-25T22:55:56.000",
    "request_status": "Pending",
    "responsible_agency": "Department of Public Works",
    "final_address": "0 BLK Petit Bayou Ln",
    "address_councildis": "E",
    "status": "Assigned to Contractor",
    "contractor": "Legacy Professional Services",
    "rowid": "1107010",
    "final_x": "3724852.17985",
    "final_y": "563983.734025",
    "longitude": "-89.92992622726281",
    "latitude": "30.04337065142619",
    "geocoded_column": {
      "latitude": "30.04337065142619",
      "longitude": "-89.92992622726281"
    }
  },
  {
    "service_request": "2024-1107009",
    "request_type": "Traffic Signals/Signs/Striping/Streetlights",
    "request_reason": "Street Light Outage/Malfunction",
    "date_created": "2024-06-25T22:02:19.000",
    "date_modified": "2024-06-25T22:02:20.000",
    "request_status": "Pending",
    "responsible_agency": "Department of Public Works",
    "final_address": "7000 BLK General Haig St",
    "address_councildis": "A",
    "status": "Assigned to Contractor",
    "contractor": "Legacy Professional Services",
    "rowid": "1107009",
    "final_x": "3671172.4214",
    "final_y": "554133.645457",
    "longitude": "-90.09991253648806",
    "latitude": "30.017984977581325",
    "geocoded_column": {
      "latitude": "30.017984977581325",
      "longitude": "-90.09991253648806"
    }
  },
  {
    "service_request": "2024-1107008",
    "request_type": "Property Maintenance",
    "request_reason": "Property Maintenance",
    "date_created": "2024-06-25T21:59:23.000",
    "date_modified": "2024-06-25T21:59:23.000",
    "request_status": "Pending",
    "responsible_agency": "Department of Code Enforcement",
    "final_address": "3 English Turn Ct",
    "address_councildis": "C",
    "status": "Pending",
    "rowid": "1107008",
    "final_x": "3718255.41567",
    "final_y": "515005.467699",
    "longitude": "-89.95263971362661",
    "latitude": "29.908919540453056",
    "geocoded_column": {
      "latitude": "29.908919540453056",
      "longitude": "-89.95263971362661"
    }
  },
  {
    "service_request": "2024-1107007",
    "request_type": "Traffic Signals/Signs/Striping/Streetlights",
    "request_reason": "Street Light Outage/Malfunction",
    "date_created": "2024-06-25T21:25:10.000",
    "date_modified": "2024-06-25T21:25:11.000",
    "request_status": "Pending",
    "responsible_agency": "Department of Public Works",
    "final_address": "2222 St Louis St",
    "address_councildis": "B",
    "status": "Assigned to Contractor",
    "contractor": "Legacy Professional Services",
    "rowid": "1107007",
    "final_x": "3677653.04469",
    "final_y": "535157.371334",
    "longitude": "-90.08009200609985",
    "latitude": "29.96561346717206",
    "geocoded_column": {
      "latitude": "29.96561346717206",
      "longitude": "-90.08009200609985"
    }
  },
  {
    "service_request": "2024-1107006",
    "request_type": "Roads/Drainage",
    "request_reason": "Pothole",
    "date_created": "2024-06-25T21:04:19.000",
    "date_modified": "2024-06-25T21:04:19.000",
    "request_status": "Pending",
    "responsible_agency": "Department of Public Works",
    "final_address": "800 BLK Nashville Ave",
    "address_councildis": "A",
    "status": "Pending",
    "rowid": "1107006",
    "final_x": "3665563.77153",
    "final_y": "519169.230478",
    "longitude": "-90.11880477188278",
    "latitude": "29.922009257456615",
    "geocoded_column": {
      "latitude": "29.922009257456615",
      "longitude": "-90.11880477188278"
    }
  },
  {
    "service_request": "2024-1107005",
    "request_type": "Traffic Signals/Signs/Striping/Streetlights",
    "request_reason": "Street Light Outage/Malfunction",
    "date_created": "2024-06-25T21:03:13.000",
    "date_modified": "2024-06-25T21:03:14.000",
    "request_status": "Pending",
    "responsible_agency": "Department of Public Works",
    "final_address": "2200 BLK N Galvez St",
    "address_councildis": "D",
    "status": "Assigned to Contractor",
    "contractor": "Legacy Professional Services",
    "rowid": "1107005",
    "final_x": "3684945.67338",
    "final_y": "540004.77903",
    "longitude": "-90.05689168955412",
    "latitude": "29.978720816609304",
    "geocoded_column": {
      "latitude": "29.978720816609304",
      "longitude": "-90.05689168955412"
    }
  },
  {
    "service_request": "2024-1107004",
    "request_type": "Trash/Recycling",
    "request_reason": "Repair Trash Cart",
    "date_created": "2024-06-25T21:00:16.000",
    "date_modified": "2024-06-25T21:00:16.000",
    "request_status": "Pending",
    "responsible_agency": "Department of Sanitation",
    "final_address": "6733 Catina St",
    "address_councildis": "A",
    "status": "Assigned to Contractor",
    "contractor": "IV Waste",
    "rowid": "1107004",
    "final_x": "3667092.52461",
    "final_y": "552413.384534",
    "longitude": "-90.11286139400003",
    "latitude": "30.013374991220093",
    "geocoded_column": {
      "latitude": "30.013374991220093",
      "longitude": "-90.11286139400003"
    }
  },
  {
    "service_request": "2024-1107003",
    "request_type": "Roads/Drainage",
    "request_reason": "Accessibility Ramps, Curbs and Sidewalk Repair",
    "date_created": "2024-06-25T20:52:09.000",
    "date_modified": "2024-06-25T20:52:09.000",
    "request_status": "Pending",
    "responsible_agency": "Department of Public Works",
    "final_address": "7100 General Diaz St",
    "address_councildis": "A",
    "status": "Pending",
    "rowid": "1107003",
    "final_x": "3670068.35514",
    "final_y": "554267.537304",
    "longitude": "-90.10339643311849",
    "latitude": "30.018385764567693",
    "geocoded_column": {
      "latitude": "30.018385764567693",
      "longitude": "-90.10339643311849"
    }
  },
  {
    "service_request": "2024-1107002",
    "request_type": "Mosquito, Termite & Rodent Control",
    "request_reason": "Mosquito Complaint",
    "date_created": "2024-06-25T20:48:42.000",
    "date_modified": "2024-06-25T20:48:42.000",
    "request_status": "Pending",
    "responsible_agency": "Mosquito, Termite & Rodent Control Board",
    "final_address": "4758 Read Blvd",
    "address_councildis": "E",
    "status": "Pending",
    "rowid": "1107002",
    "final_x": "3712653.13093",
    "final_y": "556314.855258",
    "longitude": "-89.96876860729782",
    "latitude": "30.02268947370376",
    "geocoded_column": {
      "latitude": "30.02268947370376",
      "longitude": "-89.96876860729782"
    }
  },
  {
    "service_request": "2024-1107001",
    "request_type": "Property Maintenance",
    "request_reason": "Property Maintenance",
    "date_created": "2024-06-25T20:30:29.000",
    "date_modified": "2024-06-25T20:30:29.000",
    "request_status": "Pending",
    "responsible_agency": "Department of Code Enforcement",
    "final_address": "3215 Fern St",
    "address_councildis": "B",
    "status": "Pending",
    "rowid": "1107001",
    "final_x": "3667464.45985",
    "final_y": "533215.982084",
    "longitude": "-90.11233259329533",
    "latitude": "29.96057776552091",
    "geocoded_column": {
      "latitude": "29.96057776552091",
      "longitude": "-90.11233259329533"
    }
  },
  {
    "service_request": "2024-1107000",
    "request_type": "Roads/Drainage",
    "request_reason": "Catch Basin - Broken/Damage",
    "date_created": "2024-06-25T20:27:12.000",
    "date_modified": "2024-06-25T20:27:12.000",
    "request_status": "Pending",
    "responsible_agency": "Department of Public Works",
    "final_address": "7401 Spruce St",
    "address_councildis": "A",
    "status": "Pending",
    "rowid": "1107000",
    "final_x": "3665246.3056",
    "final_y": "529237.499201",
    "longitude": "-90.11947020243082",
    "latitude": "29.9497030392067",
    "geocoded_column": {
      "latitude": "29.9497030392067",
      "longitude": "-90.11947020243082"
    }
  },
  {
    "service_request": "2024-1106999",
    "request_type": "Trash/Recycling",
    "request_reason": "Order Recycling Cart",
    "date_created": "2024-06-25T20:25:36.000",
    "date_modified": "2024-06-25T20:25:36.000",
    "request_status": "Pending",
    "responsible_agency": "Department of Sanitation",
    "final_address": "1725 St Andrew St H",
    "address_councildis": "B",
    "status": "Pending",
    "rowid": "1106999",
    "final_x": "3677861.30786",
    "final_y": "524857.267004",
    "longitude": "-90.07979016616079",
    "latitude": "29.937285361072263",
    "geocoded_column": {
      "latitude": "29.937285361072263",
      "longitude": "-90.07979016616079"
    }
  },
  {
    "service_request": "2024-1106998",
    "request_type": "Trash/Recycling",
    "request_reason": "Order Trash Cart",
    "date_created": "2024-06-25T20:24:29.000",
    "date_modified": "2024-06-25T20:24:29.000",
    "request_status": "Pending",
    "responsible_agency": "Department of Sanitation",
    "final_address": "1725 St Andrew St H",
    "address_councildis": "B",
    "status": "Assigned to Contractor",
    "contractor": "IV Waste",
    "rowid": "1106998",
    "final_x": "3677861.30786",
    "final_y": "524857.267004",
    "longitude": "-90.07979016616079",
    "latitude": "29.937285361072263",
    "geocoded_column": {
      "latitude": "29.937285361072263",
      "longitude": "-90.07979016616079"
    }
  },
  {
    "service_request": "2024-1106997",
    "request_type": "Roads/Drainage",
    "request_reason": "Pothole",
    "date_created": "2024-06-25T20:17:20.000",
    "date_modified": "2024-06-25T20:17:20.000",
    "request_status": "Pending",
    "responsible_agency": "Department of Public Works",
    "final_address": "800 BLK Clayton Ave",
    "address_councildis": "A",
    "status": "Pending",
    "rowid": "1106997",
    "final_x": "3668515.10257",
    "final_y": "542251.869352",
    "longitude": "-90.10870990843372",
    "latitude": "29.985392600438335",
    "geocoded_column": {
      "latitude": "29.985392600438335",
      "longitude": "-90.10870990843372"
    }
  },
  {
    "service_request": "2024-1106996",
    "request_type": "Property Maintenance",
    "request_reason": "Property Maintenance",
    "date_created": "2024-06-25T19:59:24.000",
    "date_modified": "2024-06-25T19:59:24.000",
    "request_status": "Pending",
    "responsible_agency": "Department of Code Enforcement",
    "final_address": "936 Mazant St, New Orleans, Louisiana, 70117",
    "address_councildis": "D",
    "status": "Pending",
    "rowid": "1106996",
    "final_x": "3692886.01872",
    "final_y": "538542.694537",
    "longitude": "-90.03186565701746",
    "latitude": "29.974454999988602",
    "geocoded_column": {
      "latitude": "29.974454999988602",
      "longitude": "-90.03186565701746"
    }
  },
  {
    "service_request": "2024-1106994",
    "request_type": "Trash/Recycling",
    "request_reason": "Replace Recycling Cart",
    "date_created": "2024-06-25T19:49:51.000",
    "date_modified": "2024-06-25T19:49:51.000",
    "request_status": "Pending",
    "responsible_agency": "Department of Sanitation",
    "final_address": "705 Patterson St",
    "address_councildis": "C",
    "status": "Pending",
    "rowid": "1106994",
    "final_x": "3687673.99535",
    "final_y": "531408.048899",
    "longitude": "-90.04857908142694",
    "latitude": "29.954998954409437",
    "geocoded_column": {
      "latitude": "29.954998954409437",
      "longitude": "-90.04857908142694"
    }
  },
  {
    "service_request": "2024-1106993",
    "request_type": "Trash/Recycling",
    "request_reason": "MIssed Recycling Pick-Up",
    "date_created": "2024-06-25T19:48:25.000",
    "date_modified": "2024-06-25T19:48:25.000",
    "request_status": "Pending",
    "responsible_agency": "Department of Sanitation",
    "final_address": "705 Patterson St",
    "address_councildis": "C",
    "status": "Assigned to Contractor",
    "contractor": "Richards Disposal",
    "rowid": "1106993",
    "final_x": "3687673.99535",
    "final_y": "531408.048899",
    "longitude": "-90.04857908142694",
    "latitude": "29.954998954409437",
    "geocoded_column": {
      "latitude": "29.954998954409437",
      "longitude": "-90.04857908142694"
    }
  },
  {
    "service_request": "2024-1106992",
    "request_type": "Roads/Drainage",
    "request_reason": "Debris in Roadway",
    "date_created": "2024-06-25T19:38:29.000",
    "date_modified": "2024-06-25T19:38:29.000",
    "request_status": "Pending",
    "responsible_agency": "Department of Public Works",
    "final_address": "613 David St",
    "address_councildis": "A",
    "status": "Pending",
    "rowid": "1106992",
    "final_x": "3671995.28206",
    "final_y": "540122.714059",
    "longitude": "-90.09778995386169",
    "latitude": "29.979435419860557",
    "geocoded_column": {
      "latitude": "29.979435419860557",
      "longitude": "-90.09778995386169"
    }
  },
  {
    "service_request": "2024-1106991",
    "request_type": "Trash/Recycling",
    "request_reason": "Illegal Dumping",
    "date_created": "2024-06-25T19:26:33.000",
    "date_modified": "2024-06-25T19:26:33.000",
    "request_status": "Pending",
    "responsible_agency": "Department of Sanitation",
    "final_address": "4778 Venus St",
    "address_councildis": "D",
    "status": "Pending",
    "rowid": "1106991",
    "final_x": "3686388.3135",
    "final_y": "550860.405845",
    "longitude": "-90.0519518832662",
    "latitude": "30.00852563149623",
    "geocoded_column": {
      "latitude": "30.00852563149623",
      "longitude": "-90.0519518832662"
    }
  },
  {
    "service_request": "2024-1106990",
    "request_type": "Trash/Recycling",
    "request_reason": "Request a Large Item Pick Up",
    "date_created": "2024-06-25T19:25:57.000",
    "date_modified": "2024-06-25T19:25:58.000",
    "request_status": "Pending",
    "responsible_agency": "Department of Sanitation",
    "final_address": "2519 Laurel St",
    "address_councildis": "B",
    "status": "Assigned to Contractor",
    "contractor": "IV Waste",
    "rowid": "1106990",
    "final_x": "3678071.1083",
    "final_y": "520648.713721",
    "longitude": "-90.07927322795712",
    "latitude": "29.92570690416979",
    "geocoded_column": {
      "latitude": "29.92570690416979",
      "longitude": "-90.07927322795712"
    }
  },
  {
    "service_request": "2024-1106989",
    "request_type": "Abandoned Vehicles",
    "request_reason": "Abandoned/Junk Vehicles",
    "date_created": "2024-06-25T19:23:54.000",
    "date_modified": "2024-06-25T19:23:54.000",
    "request_status": "Pending",
    "responsible_agency": "Department of Public Works",
    "final_address": "4778 Venus St",
    "address_councildis": "D",
    "status": "Pending",
    "rowid": "1106989",
    "final_x": "3686388.3135",
    "final_y": "550860.405845",
    "longitude": "-90.0519518832662",
    "latitude": "30.00852563149623",
    "geocoded_column": {
      "latitude": "30.00852563149623",
      "longitude": "-90.0519518832662"
    }
  },
  {
    "service_request": "2024-1106988",
    "request_type": "Roads/Drainage",
    "request_reason": "Pothole",
    "date_created": "2024-06-25T19:12:00.000",
    "date_modified": "2024-06-25T19:12:00.000",
    "request_status": "Pending",
    "responsible_agency": "Department of Public Works",
    "final_address": "2141 State St",
    "address_councildis": "A",
    "status": "Pending",
    "rowid": "1106988",
    "final_x": "3666545.14125",
    "final_y": "524645.388028",
    "longitude": "-90.11552327078172",
    "latitude": "29.937038315414718",
    "geocoded_column": {
      "latitude": "29.937038315414718",
      "longitude": "-90.11552327078172"
    }
  },
  {
    "service_request": "2024-1106987",
    "request_type": "Roads/Drainage",
    "request_reason": "Catch Basin - Clogged",
    "date_created": "2024-06-25T19:08:22.000",
    "date_modified": "2024-06-25T19:08:22.000",
    "request_status": "Pending",
    "responsible_agency": "Department of Public Works",
    "final_address": "2118 State St",
    "address_councildis": "A",
    "status": "Pending",
    "rowid": "1106987",
    "final_x": "3666308.85921",
    "final_y": "524606.481148",
    "longitude": "-90.1162705339383",
    "latitude": "29.93693823687302",
    "geocoded_column": {
      "latitude": "29.93693823687302",
      "longitude": "-90.1162705339383"
    }
  },
  {
    "service_request": "2024-1106986",
    "request_type": "Roads/Drainage",
    "request_reason": "Damaged Sidewalk",
    "date_created": "2024-06-25T19:06:26.000",
    "date_modified": "2024-06-25T19:06:26.000",
    "request_status": "Pending",
    "responsible_agency": "Department of Public Works",
    "final_address": "2118 State St",
    "address_councildis": "A",
    "status": "Pending",
    "rowid": "1106986",
    "final_x": "3666308.85921",
    "final_y": "524606.481148",
    "longitude": "-90.1162705339383",
    "latitude": "29.93693823687302",
    "geocoded_column": {
      "latitude": "29.93693823687302",
      "longitude": "-90.1162705339383"
    }
  },
  {
    "service_request": "2024-1106985",
    "request_type": "Trash/Recycling",
    "request_reason": "Request a Large Item Pick Up",
    "date_created": "2024-06-25T18:55:34.000",
    "date_modified": "2024-06-25T18:55:35.000",
    "request_status": "Pending",
    "responsible_agency": "Department of Sanitation",
    "final_address": "4641 Clara St",
    "address_councildis": "B",
    "status": "Assigned to Contractor",
    "contractor": "IV Waste",
    "rowid": "1106985",
    "final_x": "3669383.23713",
    "final_y": "525031.447101",
    "longitude": "-90.1065501677839",
    "latitude": "29.938016608414525",
    "geocoded_column": {
      "latitude": "29.938016608414525",
      "longitude": "-90.1065501677839"
    }
  },
  {
    "service_request": "2024-1106984",
    "request_type": "Roads/Drainage",
    "request_reason": "Man hole cover issue",
    "date_created": "2024-06-25T18:55:10.000",
    "date_modified": "2024-06-25T18:55:10.000",
    "request_status": "Pending",
    "responsible_agency": "Department of Public Works",
    "final_address": "832 Touro St",
    "address_councildis": "C",
    "status": "Pending",
    "rowid": "1106984",
    "final_x": "3684270.11689",
    "final_y": "535437.19559",
    "longitude": "-90.05918576219246",
    "latitude": "29.966182227198722",
    "geocoded_column": {
      "latitude": "29.966182227198722",
      "longitude": "-90.05918576219246"
    }
  },
  {
    "service_request": "2024-1106983",
    "request_type": "Trash/Recycling",
    "request_reason": "Request a Large Item Pick Up",
    "date_created": "2024-06-25T18:53:36.000",
    "date_modified": "2024-06-25T18:53:37.000",
    "request_status": "Pending",
    "responsible_agency": "Department of Sanitation",
    "final_address": "4641 Clara St",
    "address_councildis": "B",
    "status": "Assigned to Contractor",
    "contractor": "IV Waste",
    "rowid": "1106983",
    "final_x": "3669383.23713",
    "final_y": "525031.447101",
    "longitude": "-90.1065501677839",
    "latitude": "29.938016608414525",
    "geocoded_column": {
      "latitude": "29.938016608414525",
      "longitude": "-90.1065501677839"
    }
  },
  {
    "service_request": "2024-1106982",
    "request_type": "Trash/Recycling",
    "request_reason": "Order Recycling Cart",
    "date_created": "2024-06-25T18:31:53.000",
    "date_modified": "2024-06-25T18:31:53.000",
    "request_status": "Pending",
    "responsible_agency": "Department of Sanitation",
    "final_address": "1011 N Dupre St",
    "address_councildis": "A",
    "status": "Pending",
    "rowid": "1106982",
    "final_x": "3676700.07342",
    "final_y": "538500.875977",
    "longitude": "-90.08298623694756",
    "latitude": "29.9748355904991",
    "geocoded_column": {
      "latitude": "29.9748355904991",
      "longitude": "-90.08298623694756"
    }
  },
  {
    "service_request": "2024-1106981",
    "request_type": "Mosquito, Termite & Rodent Control",
    "request_reason": "Rodent Complaint (Rats)",
    "date_created": "2024-06-25T18:15:04.000",
    "date_modified": "2024-06-25T18:15:04.000",
    "request_status": "Pending",
    "responsible_agency": "Mosquito, Termite & Rodent Control Board",
    "final_address": "8326 Green St",
    "address_councildis": "A",
    "status": "Pending",
    "rowid": "1106981",
    "final_x": "3662414.10701",
    "final_y": "530279.004289",
    "longitude": "-90.12837820939558",
    "latitude": "29.95264903828684",
    "geocoded_column": {
      "latitude": "29.95264903828684",
      "longitude": "-90.12837820939558"
    }
  },
  {
    "service_request": "2024-1106980",
    "request_type": "Trash/Recycling",
    "request_reason": "Replace Trash Cart",
    "date_created": "2024-06-25T18:13:46.000",
    "date_modified": "2024-06-25T18:13:47.000",
    "request_status": "Pending",
    "responsible_agency": "Department of Sanitation",
    "final_address": "34 Kings Canyon Dr",
    "address_councildis": "C",
    "status": "Assigned to Contractor",
    "contractor": "Richards Disposal",
    "rowid": "1106980",
    "final_x": "3700081.24624",
    "final_y": "515841.231732",
    "longitude": "-90.00996959104926",
    "latitude": "29.91180725562046",
    "geocoded_column": {
      "latitude": "29.91180725562046",
      "longitude": "-90.00996959104926"
    }
  },
  {
    "service_request": "2024-1106979",
    "request_type": "Mosquito, Termite & Rodent Control",
    "request_reason": "Mosquito Complaint",
    "date_created": "2024-06-25T18:13:26.000",
    "date_modified": "2024-06-25T18:13:26.000",
    "request_status": "Pending",
    "responsible_agency": "Mosquito, Termite & Rodent Control Board",
    "final_address": "4110 Fontainebleau Dr",
    "address_councildis": "B",
    "status": "Pending",
    "rowid": "1106979",
    "final_x": "3669864.2155",
    "final_y": "529032.100992",
    "longitude": "-90.10489626429896",
    "latitude": "29.949002938240366",
    "geocoded_column": {
      "latitude": "29.949002938240366",
      "longitude": "-90.10489626429896"
    }
  },
  {
    "service_request": "2024-1106978",
    "request_type": "Trash/Recycling",
    "request_reason": "Request a Large Item Pick Up",
    "date_created": "2024-06-25T18:12:03.000",
    "date_modified": "2024-06-25T18:12:04.000",
    "request_status": "Pending",
    "responsible_agency": "Department of Sanitation",
    "final_address": "4745 Eastern St",
    "address_councildis": "D",
    "status": "Assigned to Contractor",
    "contractor": "IV Waste",
    "rowid": "1106978",
    "final_x": "3688049.6191",
    "final_y": "550739.664085",
    "longitude": "-90.04670758688768",
    "latitude": "30.00814244786413",
    "geocoded_column": {
      "latitude": "30.00814244786413",
      "longitude": "-90.04670758688768"
    }
  },
  {
    "service_request": "2024-1106977",
    "request_type": "Roads/Drainage",
    "request_reason": "Pothole",
    "date_created": "2024-06-25T18:09:48.000",
    "date_modified": "2024-06-25T18:09:48.000",
    "request_status": "Pending",
    "responsible_agency": "Department of Public Works",
    "final_address": "1736 Valmont St",
    "address_councildis": "B",
    "status": "Pending",
    "rowid": "1106977",
    "final_x": "3667904.17389",
    "final_y": "522135.264762",
    "longitude": "-90.11131722851702",
    "latitude": "29.930096492868557",
    "geocoded_column": {
      "latitude": "29.930096492868557",
      "longitude": "-90.11131722851702"
    }
  },
  {
    "service_request": "2024-1106976",
    "request_type": "Roads/Drainage",
    "request_reason": "Pothole",
    "date_created": "2024-06-25T18:01:50.000",
    "date_modified": "2024-06-25T18:01:50.000",
    "request_status": "Pending",
    "responsible_agency": "Department of Public Works",
    "final_address": "5025 Danneel St",
    "address_councildis": "B",
    "status": "Pending",
    "rowid": "1106976",
    "final_x": "3668587.33818",
    "final_y": "522225.136698",
    "longitude": "-90.10915755268167",
    "latitude": "29.930323560727352",
    "geocoded_column": {
      "latitude": "29.930323560727352",
      "longitude": "-90.10915755268167"
    }
  },
  {
    "service_request": "2024-1106975",
    "request_type": "Trash/Recycling",
    "request_reason": "Return Trash Cart",
    "date_created": "2024-06-25T18:01:42.000",
    "date_modified": "2024-06-25T18:01:42.000",
    "request_status": "Pending",
    "responsible_agency": "Department of Sanitation",
    "final_address": "4609 Banks St",
    "address_councildis": "A",
    "status": "Assigned to Contractor",
    "contractor": "IV Waste",
    "rowid": "1106975",
    "final_x": "3668653.9259",
    "final_y": "538779.323209",
    "longitude": "-90.10838867718144",
    "latitude": "29.975840193291997",
    "geocoded_column": {
      "latitude": "29.975840193291997",
      "longitude": "-90.10838867718144"
    }
  },
  {
    "service_request": "2024-1106974",
    "request_type": "Property Maintenance",
    "request_reason": "Property Maintenance",
    "date_created": "2024-06-25T18:00:05.000",
    "date_modified": "2024-06-25T18:00:05.000",
    "request_status": "Pending",
    "responsible_agency": "Department of Code Enforcement",
    "final_address": "1715 Cambronne St",
    "address_councildis": "A",
    "status": "Pending",
    "rowid": "1106974",
    "final_x": "3662463.85959",
    "final_y": "530470.484354",
    "longitude": "-90.12821475349344",
    "latitude": "29.953174108002504",
    "geocoded_column": {
      "latitude": "29.953174108002504",
      "longitude": "-90.12821475349344"
    }
  },
  {
    "service_request": "2024-1106973",
    "request_type": "Trash/Recycling",
    "request_reason": "Request a Large Item Pick Up",
    "date_created": "2024-06-25T17:50:55.000",
    "date_modified": "2024-06-25T17:50:55.000",
    "request_status": "Pending",
    "responsible_agency": "Department of Sanitation",
    "final_address": "6070 Wright Rd",
    "address_councildis": "E",
    "status": "Assigned to Contractor",
    "contractor": "Waste Pro",
    "rowid": "1106973",
    "final_x": "3712874.50597",
    "final_y": "562930.13072",
    "longitude": "-89.96782002134972",
    "latitude": "30.040871596930888",
    "geocoded_column": {
      "latitude": "30.040871596930888",
      "longitude": "-89.96782002134972"
    }
  },
  {
    "service_request": "2024-1106972",
    "request_type": "Trash/Recycling",
    "request_reason": "Request a Large Item Pick Up",
    "date_created": "2024-06-25T17:46:11.000",
    "date_modified": "2024-06-25T17:46:12.000",
    "request_status": "Pending",
    "responsible_agency": "Department of Sanitation",
    "final_address": "1025 Desire St",
    "address_councildis": "C",
    "status": "Assigned to Contractor",
    "contractor": "IV Waste",
    "rowid": "1106972",
    "final_x": "3690160.81033",
    "final_y": "535471.795334",
    "longitude": "-90.04058191118158",
    "latitude": "29.966095938467845",
    "geocoded_column": {
      "latitude": "29.966095938467845",
      "longitude": "-90.04058191118158"
    }
  },
  {
    "service_request": "2024-1106971",
    "request_type": "Trash/Recycling",
    "request_reason": "Replace Trash Cart",
    "date_created": "2024-06-25T17:39:01.000",
    "date_modified": "2024-06-25T17:39:02.000",
    "request_status": "Pending",
    "responsible_agency": "Department of Sanitation",
    "final_address": "3351 Hyman Pl",
    "address_councildis": "C",
    "status": "Assigned to Contractor",
    "contractor": "Richards Disposal",
    "rowid": "1106971",
    "final_x": "3700903.62685",
    "final_y": "518722.524791",
    "longitude": "-90.0072687185372",
    "latitude": "29.919703686889477",
    "geocoded_column": {
      "latitude": "29.919703686889477",
      "longitude": "-90.0072687185372"
    }
  },
  {
    "service_request": "2024-1106970",
    "request_type": "Trash/Recycling",
    "request_reason": "Request a Large Item Pick Up",
    "date_created": "2024-06-25T17:30:10.000",
    "date_modified": "2024-06-25T17:30:10.000",
    "request_status": "Pending",
    "responsible_agency": "Department of Sanitation",
    "final_address": "5440 Grand Bayou Dr, New Orleans, Louisiana, 70129",
    "address_councildis": "E",
    "status": "Assigned to Contractor",
    "contractor": "Waste Pro",
    "rowid": "1106970",
    "final_x": "3725934.35929",
    "final_y": "563605.984865",
    "longitude": "-89.92652079138843",
    "latitude": "30.042295509262967",
    "geocoded_column": {
      "latitude": "30.042295509262967",
      "longitude": "-89.92652079138843"
    }
  },
  {
    "service_request": "2024-1106969",
    "request_type": "Trash/Recycling",
    "request_reason": "Order Trash Cart",
    "date_created": "2024-06-25T17:27:35.000",
    "date_modified": "2024-06-25T17:27:36.000",
    "request_status": "Pending",
    "responsible_agency": "Department of Sanitation",
    "final_address": "8809 Willow St",
    "address_councildis": "A",
    "status": "Assigned to Contractor",
    "contractor": "IV Waste",
    "rowid": "1106969",
    "final_x": "3660550.37914",
    "final_y": "530661.786882",
    "longitude": "-90.13425040726646",
    "latitude": "29.953755326067103",
    "geocoded_column": {
      "latitude": "29.953755326067103",
      "longitude": "-90.13425040726646"
    }
  },
  {
    "service_request": "2024-1106968",
    "request_type": "Roads/Drainage",
    "request_reason": "Pothole",
    "date_created": "2024-06-25T17:27:16.000",
    "date_modified": "2024-06-25T17:27:16.000",
    "request_status": "Pending",
    "responsible_agency": "Department of Public Works",
    "final_address": "1931 Bordeaux St",
    "address_councildis": "B",
    "status": "Pending",
    "rowid": "1106968",
    "final_x": "3669286.95687",
    "final_y": "522038.187706",
    "longitude": "-90.1069552758382",
    "latitude": "29.9297889398049",
    "geocoded_column": {
      "latitude": "29.9297889398049",
      "longitude": "-90.1069552758382"
    }
  },
  {
    "service_request": "2024-1106967",
    "request_type": "Parks & Parkways",
    "request_reason": "Request Tree Service (Right of Way/Public Property)",
    "date_created": "2024-06-25T17:24:17.000",
    "date_modified": "2024-06-25T17:24:17.000",
    "request_status": "Pending",
    "responsible_agency": "Department of Parks & Parkway",
    "final_address": "3000 BLK Jena St",
    "address_councildis": "B",
    "status": "Pending",
    "rowid": "1106967",
    "final_x": "3669930.61023",
    "final_y": "526043.198029",
    "longitude": "-90.10478781112886",
    "latitude": "29.94078247066316",
    "geocoded_column": {
      "latitude": "29.94078247066316",
      "longitude": "-90.10478781112886"
    }
  },
  {
    "service_request": "2024-1106965",
    "request_type": "Trash/Recycling",
    "request_reason": "Missed Trash Pick-Up",
    "date_created": "2024-06-25T17:14:05.000",
    "date_modified": "2024-06-25T17:14:06.000",
    "request_status": "Pending",
    "responsible_agency": "Department of Sanitation",
    "final_address": "6980 Louisville St, New Orleans, Louisiana, 70124",
    "address_councildis": "A",
    "status": "Assigned to Contractor",
    "contractor": "IV Waste",
    "rowid": "1106965",
    "final_x": "3668304.60692",
    "final_y": "554007.912856",
    "longitude": "-90.10897801024527",
    "latitude": "30.017723827304938",
    "geocoded_column": {
      "latitude": "30.017723827304938",
      "longitude": "-90.10897801024527"
    }
  },
  {
    "service_request": "2024-1106964",
    "request_type": "Roads/Drainage",
    "request_reason": "Pothole",
    "date_created": "2024-06-25T17:10:44.000",
    "date_modified": "2024-06-25T17:10:44.000",
    "request_status": "Pending",
    "responsible_agency": "Department of Public Works",
    "final_address": "1708 Dufossat St",
    "address_councildis": "B",
    "status": "Pending",
    "rowid": "1106964",
    "final_x": "3668094.79693",
    "final_y": "521897.95641",
    "longitude": "-90.11072345412126",
    "latitude": "29.929438379129675",
    "geocoded_column": {
      "latitude": "29.929438379129675",
      "longitude": "-90.11072345412126"
    }
  },
  {
    "service_request": "2024-1106963",
    "request_type": "Traffic Signals/Signs/Striping/Streetlights",
    "request_reason": "Street Light Outage/Malfunction",
    "date_created": "2024-06-25T17:10:18.000",
    "date_modified": "2024-06-25T17:10:19.000",
    "request_status": "Pending",
    "responsible_agency": "Department of Public Works",
    "final_address": "833 Third St",
    "address_councildis": "B",
    "status": "Assigned to Contractor",
    "contractor": "Legacy Professional Services",
    "rowid": "1106963",
    "final_x": "3678049.52642",
    "final_y": "520502.918584",
    "longitude": "-90.07934639213697",
    "latitude": "29.92530666440086",
    "geocoded_column": {
      "latitude": "29.92530666440086",
      "longitude": "-90.07934639213697"
    }
  },
  {
    "service_request": "2024-1106961",
    "request_type": "Traffic Signals/Signs/Striping/Streetlights",
    "request_reason": "Street Light Outage/Malfunction",
    "date_created": "2024-06-25T16:58:21.000",
    "date_modified": "2024-06-25T16:58:21.000",
    "request_status": "Pending",
    "responsible_agency": "Department of Public Works",
    "final_address": "1400 BLK Euterpe St",
    "address_councildis": "B",
    "status": "Assigned to Contractor",
    "contractor": "Legacy Professional Services",
    "rowid": "1106961",
    "final_x": "3679524.03429",
    "final_y": "524608.921042",
    "longitude": "-90.07454944647704",
    "latitude": "29.93655237015102",
    "geocoded_column": {
      "latitude": "29.93655237015102",
      "longitude": "-90.07454944647704"
    }
  },
  {
    "service_request": "2024-1106960",
    "request_type": "Roads/Drainage",
    "request_reason": "Pothole",
    "date_created": "2024-06-25T16:57:25.000",
    "date_modified": "2024-06-25T16:57:25.000",
    "request_status": "Pending",
    "responsible_agency": "Department of Public Works",
    "final_address": "7111 Beauvoir Ct",
    "address_councildis": "E",
    "status": "Pending",
    "rowid": "1106960",
    "final_x": "3716548.70994",
    "final_y": "567493.125092",
    "longitude": "-89.95603507700099",
    "latitude": "30.05329706157279",
    "geocoded_column": {
      "latitude": "30.05329706157279",
      "longitude": "-89.95603507700099"
    }
  },
  {
    "service_request": "2024-1106959",
    "request_type": "Trash/Recycling",
    "request_reason": "Order Trash Cart",
    "date_created": "2024-06-25T16:54:12.000",
    "date_modified": "2024-06-25T16:54:12.000",
    "request_status": "Pending",
    "responsible_agency": "Department of Sanitation",
    "final_address": "8912 Edinburgh St Apt 2B",
    "address_councildis": "A",
    "status": "Assigned to Contractor",
    "contractor": "IV Waste",
    "rowid": "1106959",
    "final_x": "3665215.16327",
    "final_y": "536347.614023",
    "longitude": "-90.11933067959983",
    "latitude": "29.969254435097966",
    "geocoded_column": {
      "latitude": "29.969254435097966",
      "longitude": "-90.11933067959983"
    }
  },
  {
    "service_request": "2024-1106958",
    "request_type": "Trash/Recycling",
    "request_reason": "Order Trash Cart",
    "date_created": "2024-06-25T16:53:31.000",
    "date_modified": "2024-06-25T16:53:32.000",
    "request_status": "Pending",
    "responsible_agency": "Department of Sanitation",
    "final_address": "8912 Edinburgh St Apt 1B",
    "address_councildis": "A",
    "status": "Assigned to Contractor",
    "contractor": "IV Waste",
    "rowid": "1106958",
    "final_x": "3665231.86848",
    "final_y": "536363.592903",
    "longitude": "-90.11927738840177",
    "latitude": "29.969297885055674",
    "geocoded_column": {
      "latitude": "29.969297885055674",
      "longitude": "-90.11927738840177"
    }
  },
  {
    "service_request": "2024-1106957",
    "request_type": "Trash/Recycling",
    "request_reason": "Order Recycling Cart",
    "date_created": "2024-06-25T16:52:09.000",
    "date_modified": "2024-06-25T16:52:09.000",
    "request_status": "Pending",
    "responsible_agency": "Department of Sanitation",
    "final_address": "8912 Edinburgh St Apt 1A",
    "address_councildis": "A",
    "status": "Pending",
    "rowid": "1106957",
    "final_x": "3665240.9474",
    "final_y": "536354.877127",
    "longitude": "-90.11924900800184",
    "latitude": "29.969273655053065",
    "geocoded_column": {
      "latitude": "29.969273655053065",
      "longitude": "-90.11924900800184"
    }
  },
  {
    "service_request": "2024-1106956",
    "request_type": "Trash/Recycling",
    "request_reason": "Order Trash Cart",
    "date_created": "2024-06-25T16:52:01.000",
    "date_modified": "2024-06-25T16:52:02.000",
    "request_status": "Pending",
    "responsible_agency": "Department of Sanitation",
    "final_address": "8912 Edinburgh St Apt 1A",
    "address_councildis": "A",
    "status": "Assigned to Contractor",
    "contractor": "IV Waste",
    "rowid": "1106956",
    "final_x": "3665240.9474",
    "final_y": "536354.877127",
    "longitude": "-90.11924900800184",
    "latitude": "29.969273655053065",
    "geocoded_column": {
      "latitude": "29.969273655053065",
      "longitude": "-90.11924900800184"
    }
  },
  {
    "service_request": "2024-1106955",
    "request_type": "Trash/Recycling",
    "request_reason": "Illegal Dumping",
    "date_created": "2024-06-25T16:51:57.000",
    "date_modified": "2024-06-25T16:51:57.000",
    "request_status": "Pending",
    "responsible_agency": "Department of Sanitation",
    "final_address": "MONTEGUT ST & N GALVEZ ST",
    "address_councildis": "D",
    "status": "Pending",
    "rowid": "1106955",
    "final_x": "3689373.04",
    "final_y": "539861.79",
    "longitude": "-90.04291353526341",
    "latitude": "29.978191292117792",
    "geocoded_column": {
      "latitude": "29.978191292117792",
      "longitude": "-90.04291353526341"
    }
  },
  {
    "service_request": "2024-1106954",
    "request_type": "Traffic Signals/Signs/Striping/Streetlights",
    "request_reason": "Traffic Sign Missing/Damaged",
    "date_created": "2024-06-25T16:50:29.000",
    "date_modified": "2024-06-25T16:50:29.000",
    "request_status": "Pending",
    "responsible_agency": "Department of Public Works",
    "final_address": "NEW YORK ST & BACCICH ST",
    "address_councildis": "D",
    "status": "Pending",
    "rowid": "1106954",
    "final_x": "3687369.2",
    "final_y": "556834.28",
    "longitude": "-90.04864135391159",
    "latitude": "30.024921382902992",
    "geocoded_column": {
      "latitude": "30.024921382902992",
      "longitude": "-90.04864135391159"
    }
  },
  {
    "service_request": "2024-1106952",
    "request_type": "Roads/Drainage",
    "request_reason": "Debris in Roadway",
    "date_created": "2024-06-25T16:37:54.000",
    "date_modified": "2024-06-25T16:37:55.000",
    "request_status": "Pending",
    "responsible_agency": "Department of Public Works",
    "final_address": "200 BLK N Clark St",
    "address_councildis": "B",
    "status": "Pending",
    "rowid": "1106952",
    "final_x": "3673225.48849",
    "final_y": "537478.375946",
    "longitude": "-90.09399479956468",
    "latitude": "29.972127857655774",
    "geocoded_column": {
      "latitude": "29.972127857655774",
      "longitude": "-90.09399479956468"
    }
  },
  {
    "service_request": "2024-1106951",
    "request_type": "Trash/Recycling",
    "request_reason": "Missed Trash Pick-Up",
    "date_created": "2024-06-25T16:37:18.000",
    "date_modified": "2024-06-25T16:49:42.000",
    "case_close_date": "2024-06-25T11:49:42.000",
    "request_status": "Closed",
    "responsible_agency": "Department of Sanitation",
    "final_address": "5508 Wilton Dr",
    "address_councildis": "D",
    "status": "Invalid Request",
    "contractor": "IV Waste",
    "contractor_action": "Invalid Request",
    "rowid": "1106951",
    "final_x": "3681821.78498",
    "final_y": "553099.455447",
    "longitude": "-90.06630077027275",
    "latitude": "30.014821832256946",
    "geocoded_column": {
      "latitude": "30.014821832256946",
      "longitude": "-90.06630077027275"
    }
  },
  {
    "service_request": "2024-1106950",
    "request_type": "Property Maintenance",
    "request_reason": "Property Maintenance",
    "date_created": "2024-06-25T16:33:56.000",
    "date_modified": "2024-06-25T16:33:57.000",
    "request_status": "Pending",
    "responsible_agency": "Department of Code Enforcement",
    "final_address": "7548 Avon Park Blvd",
    "address_councildis": "E",
    "status": "Pending",
    "rowid": "1106950",
    "final_x": "3719963.00921",
    "final_y": "572388.322793",
    "longitude": "-89.94505605350066",
    "latitude": "30.066643525949978",
    "geocoded_column": {
      "latitude": "30.066643525949978",
      "longitude": "-89.94505605350066"
    }
  },
  {
    "service_request": "2024-1106949",
    "request_type": "Abandoned Vehicles",
    "request_reason": "Abandoned/Junk Vehicles",
    "date_created": "2024-06-25T16:32:23.000",
    "date_modified": "2024-06-25T16:32:23.000",
    "request_status": "Pending",
    "responsible_agency": "Department of Public Works",
    "final_address": "SAGE ST & FRANKLIN AVE",
    "address_councildis": "D",
    "status": "Pending",
    "rowid": "1106949",
    "final_x": "3687228.5",
    "final_y": "545489.98",
    "longitude": "-90.04948757646946",
    "latitude": "29.993733044429558",
    "geocoded_column": {
      "latitude": "29.993733044429558",
      "longitude": "-90.04948757646946"
    }
  },
  {
    "service_request": "2024-1106948",
    "request_type": "Trash/Recycling",
    "request_reason": "Request a Large Item Pick Up",
    "date_created": "2024-06-25T16:19:55.000",
    "date_modified": "2024-06-25T16:19:56.000",
    "request_status": "Pending",
    "responsible_agency": "Department of Sanitation",
    "final_address": "361 Lowerline St",
    "address_councildis": "A",
    "status": "Assigned to Contractor",
    "contractor": "IV Waste",
    "rowid": "1106948",
    "final_x": "3661690.8496",
    "final_y": "523794.957179",
    "longitude": "-90.13087679605313",
    "latitude": "29.93484086718701",
    "geocoded_column": {
      "latitude": "29.93484086718701",
      "longitude": "-90.13087679605313"
    }
  },
  {
    "service_request": "2024-1106947",
    "request_type": "Trash/Recycling",
    "request_reason": "Replace Trash Cart",
    "date_created": "2024-06-25T16:14:39.000",
    "date_modified": "2024-06-25T16:14:40.000",
    "request_status": "Pending",
    "responsible_agency": "Department of Sanitation",
    "final_address": "3311 Chestnut St",
    "address_councildis": "B",
    "status": "Assigned to Contractor",
    "contractor": "IV Waste",
    "rowid": "1106947",
    "final_x": "3674986.88123",
    "final_y": "520460.244792",
    "longitude": "-90.08901567332931",
    "latitude": "29.925281130902267",
    "geocoded_column": {
      "latitude": "29.925281130902267",
      "longitude": "-90.08901567332931"
    }
  },
  {
    "service_request": "2024-1106946",
    "request_type": "Trash/Recycling",
    "request_reason": "MIssed Recycling Pick-Up",
    "date_created": "2024-06-25T16:12:18.000",
    "date_modified": "2024-06-25T16:30:54.000",
    "request_status": "Pending",
    "responsible_agency": "Department of Sanitation",
    "final_address": "7140 Boston Dr",
    "address_councildis": "E",
    "status": "Assigned to Contractor",
    "contractor": "Waste Pro",
    "rowid": "1106946",
    "final_x": "3706135.8442",
    "final_y": "561162.708766",
    "longitude": "-89.9891818521847",
    "latitude": "30.036230972660306",
    "geocoded_column": {
      "latitude": "30.036230972660306",
      "longitude": "-89.9891818521847"
    }
  },
  {
    "service_request": "2024-1106945",
    "request_type": "Trash/Recycling",
    "request_reason": "Order Trash Cart",
    "date_created": "2024-06-25T16:10:49.000",
    "date_modified": "2024-06-25T16:10:50.000",
    "request_status": "Pending",
    "responsible_agency": "Department of Sanitation",
    "final_address": "11439 Curran Rd",
    "address_councildis": "E",
    "status": "Assigned to Contractor",
    "contractor": "Waste Pro",
    "rowid": "1106945",
    "final_x": "3711618.67506",
    "final_y": "566918.372836",
    "longitude": "-89.97163905239773",
    "latitude": "30.051878743818904",
    "geocoded_column": {
      "latitude": "30.051878743818904",
      "longitude": "-89.97163905239773"
    }
  },
  {
    "service_request": "2024-1106944",
    "request_type": "Trash/Recycling",
    "request_reason": "Request a Large Item Pick Up",
    "date_created": "2024-06-25T16:10:05.000",
    "date_modified": "2024-06-25T16:10:06.000",
    "request_status": "Pending",
    "responsible_agency": "Department of Sanitation",
    "final_address": "11439 Curran Rd",
    "address_councildis": "E",
    "status": "Assigned to Contractor",
    "contractor": "Waste Pro",
    "rowid": "1106944",
    "final_x": "3711618.67506",
    "final_y": "566918.372836",
    "longitude": "-89.97163905239773",
    "latitude": "30.051878743818904",
    "geocoded_column": {
      "latitude": "30.051878743818904",
      "longitude": "-89.97163905239773"
    }
  },
  {
    "service_request": "2024-1106943",
    "request_type": "Trash/Recycling",
    "request_reason": "Request a Large Item Pick Up",
    "date_created": "2024-06-25T16:08:03.000",
    "date_modified": "2024-06-25T16:08:04.000",
    "request_status": "Pending",
    "responsible_agency": "Department of Sanitation",
    "final_address": "6964 Canal Blvd",
    "address_councildis": "A",
    "status": "Assigned to Contractor",
    "contractor": "IV Waste",
    "rowid": "1106943",
    "final_x": "3668912.08775",
    "final_y": "553849.650199",
    "longitude": "-90.107063953249",
    "latitude": "30.01727079895317",
    "geocoded_column": {
      "latitude": "30.01727079895317",
      "longitude": "-90.107063953249"
    }
  },
  {
    "service_request": "2024-1106942",
    "request_type": "Trash/Recycling",
    "request_reason": "Request a Large Item Pick Up",
    "date_created": "2024-06-25T16:07:34.000",
    "date_modified": "2024-06-25T16:10:04.000",
    "request_status": "Pending",
    "responsible_agency": "Department of Sanitation",
    "final_address": "4875 Strasbourg Pl",
    "address_councildis": "E",
    "status": "Assigned to Contractor",
    "contractor": "Waste Pro",
    "rowid": "1106942",
    "final_x": "3725836.92102",
    "final_y": "561562.901279",
    "longitude": "-89.92690798283827",
    "latitude": "30.036681163149055",
    "geocoded_column": {
      "latitude": "30.036681163149055",
      "longitude": "-89.92690798283827"
    }
  },
  {
    "service_request": "2024-1106941",
    "request_type": "Trash/Recycling",
    "request_reason": "Replace Trash Cart",
    "date_created": "2024-06-25T16:07:10.000",
    "date_modified": "2024-06-25T16:07:10.000",
    "request_status": "Pending",
    "responsible_agency": "Department of Sanitation",
    "final_address": "2613 Soniat St",
    "address_councildis": "B",
    "status": "Assigned to Contractor",
    "contractor": "IV Waste",
    "rowid": "1106941",
    "final_x": "3668582.57479",
    "final_y": "525081.193149",
    "longitude": "-90.10907625840711",
    "latitude": "29.938176940529708",
    "geocoded_column": {
      "latitude": "29.938176940529708",
      "longitude": "-90.10907625840711"
    }
  },
  {
    "service_request": "2024-1106940",
    "request_type": "Parks & Parkways",
    "request_reason": "Request Grass Cutting Service (City Owned Property)",
    "date_created": "2024-06-25T16:06:19.000",
    "date_modified": "2024-06-25T16:06:19.000",
    "request_status": "Pending",
    "responsible_agency": "Department of Parks & Parkway",
    "final_address": "4721 Painters St",
    "address_councildis": "D",
    "status": "Pending",
    "rowid": "1106940",
    "final_x": "3686307.10095",
    "final_y": "550404.147348",
    "longitude": "-90.05222457536249",
    "latitude": "30.007273583826304",
    "geocoded_column": {
      "latitude": "30.007273583826304",
      "longitude": "-90.05222457536249"
    }
  },
  {
    "service_request": "2024-1106939",
    "request_type": "Parks & Parkways",
    "request_reason": "Request Tree Service (Right of Way/Public Property)",
    "date_created": "2024-06-25T16:05:06.000",
    "date_modified": "2024-06-25T16:05:06.000",
    "request_status": "Pending",
    "responsible_agency": "Department of Parks & Parkway",
    "final_address": "1601 Burdette St",
    "address_councildis": "A",
    "status": "Pending",
    "rowid": "1106939",
    "final_x": "3663798.37754",
    "final_y": "528653.434176",
    "longitude": "-90.12406145590433",
    "latitude": "29.94813914582865",
    "geocoded_column": {
      "latitude": "29.94813914582865",
      "longitude": "-90.12406145590433"
    }
  },
  {
    "service_request": "2024-1106938",
    "request_type": "Trash/Recycling",
    "request_reason": "Repair Trash Cart",
    "date_created": "2024-06-25T16:02:07.000",
    "date_modified": "2024-06-25T16:02:07.000",
    "request_status": "Pending",
    "responsible_agency": "Department of Sanitation",
    "final_address": "27 Marywood Ct",
    "address_councildis": "E",
    "status": "Assigned to Contractor",
    "contractor": "Waste Pro",
    "rowid": "1106938",
    "final_x": "3712517.88427",
    "final_y": "566851.036132",
    "longitude": "-89.96879949296171",
    "latitude": "30.051664182186805",
    "geocoded_column": {
      "latitude": "30.051664182186805",
      "longitude": "-89.96879949296171"
    }
  },
  {
    "service_request": "2024-1106937",
    "request_type": "Trash/Recycling",
    "request_reason": "Order Recycling Cart",
    "date_created": "2024-06-25T16:00:27.000",
    "date_modified": "2024-06-25T16:00:28.000",
    "request_status": "Pending",
    "responsible_agency": "Department of Sanitation",
    "final_address": "347 26Th St",
    "address_councildis": "A",
    "status": "Pending",
    "rowid": "1106937",
    "final_x": "3664849.62637",
    "final_y": "550001.188948",
    "longitude": "-90.12002849925453",
    "latitude": "30.006807789701053",
    "geocoded_column": {
      "latitude": "30.006807789701053",
      "longitude": "-90.12002849925453"
    }
  },
  {
    "service_request": "2024-1106936",
    "request_type": "Roads/Drainage",
    "request_reason": "Street Subsidence (Sinking)",
    "date_created": "2024-06-25T15:59:55.000",
    "date_modified": "2024-06-25T15:59:55.000",
    "request_status": "Pending",
    "responsible_agency": "Department of Public Works",
    "final_address": "3434 Plymouth Pl",
    "address_councildis": "C",
    "status": "Pending",
    "rowid": "1106936",
    "final_x": "3702843.89738",
    "final_y": "518407.94655",
    "longitude": "-90.00115582894324",
    "latitude": "29.918776820007178",
    "geocoded_column": {
      "latitude": "29.918776820007178",
      "longitude": "-90.00115582894324"
    }
  },
  {
    "service_request": "2024-1106935",
    "request_type": "Trash/Recycling",
    "request_reason": "Repair Trash Cart",
    "date_created": "2024-06-25T15:59:33.000",
    "date_modified": "2024-06-25T15:59:33.000",
    "request_status": "Pending",
    "responsible_agency": "Department of Sanitation",
    "final_address": "347 26Th St",
    "address_councildis": "A",
    "status": "Assigned to Contractor",
    "contractor": "IV Waste",
    "rowid": "1106935",
    "final_x": "3664849.62637",
    "final_y": "550001.188948",
    "longitude": "-90.12002849925453",
    "latitude": "30.006807789701053",
    "geocoded_column": {
      "latitude": "30.006807789701053",
      "longitude": "-90.12002849925453"
    }
  },
  {
    "service_request": "2024-1106934",
    "request_type": "Trash/Recycling",
    "request_reason": "MIssed Recycling Pick-Up",
    "date_created": "2024-06-25T15:55:06.000",
    "date_modified": "2024-06-25T15:55:06.000",
    "request_status": "Pending",
    "responsible_agency": "Department of Sanitation",
    "final_address": "8018 Reelfoot St",
    "address_councildis": "E",
    "status": "Assigned to Contractor",
    "contractor": "Waste Pro",
    "rowid": "1106934",
    "final_x": "3715956.14514",
    "final_y": "571313.876712",
    "longitude": "-89.9577630215618",
    "latitude": "30.06382212093391",
    "geocoded_column": {
      "latitude": "30.06382212093391",
      "longitude": "-89.9577630215618"
    }
  },
  {
    "service_request": "2024-1106933",
    "request_type": "Traffic Signals/Signs/Striping/Streetlights",
    "request_reason": "Street Light Outage/Malfunction",
    "date_created": "2024-06-25T15:54:44.000",
    "date_modified": "2024-06-25T15:54:45.000",
    "request_status": "Pending",
    "responsible_agency": "Department of Public Works",
    "final_address": "13955 Dwyer Blvd",
    "address_councildis": "E",
    "status": "Assigned to Contractor",
    "contractor": "Legacy Professional Services",
    "rowid": "1106933",
    "final_x": "3728117.91219",
    "final_y": "562886.102752",
    "longitude": "-89.91964809300944",
    "latitude": "30.04024223886261",
    "geocoded_column": {
      "latitude": "30.04024223886261",
      "longitude": "-89.91964809300944"
    }
  },
  {
    "service_request": "2024-1106932",
    "request_type": "Trash/Recycling",
    "request_reason": "Request a Large Item Pick Up",
    "date_created": "2024-06-25T15:54:39.000",
    "date_modified": "2024-06-25T15:54:40.000",
    "request_status": "Pending",
    "responsible_agency": "Department of Sanitation",
    "final_address": "1617 Broadway St",
    "address_councildis": "A",
    "status": "Assigned to Contractor",
    "contractor": "IV Waste",
    "rowid": "1106932",
    "final_x": "3665088.2498",
    "final_y": "527763.030015",
    "longitude": "-90.12001855614801",
    "latitude": "29.9456533277667",
    "geocoded_column": {
      "latitude": "29.9456533277667",
      "longitude": "-90.12001855614801"
    }
  },
  {
    "service_request": "2024-1106931",
    "request_type": "Parks & Parkways",
    "request_reason": "Request Tree Service (Right of Way/Public Property)",
    "date_created": "2024-06-25T15:54:38.000",
    "date_modified": "2024-06-25T15:54:39.000",
    "request_status": "Pending",
    "responsible_agency": "Department of Parks & Parkway",
    "final_address": "723 Marigny St",
    "address_councildis": "C",
    "status": "Pending",
    "rowid": "1106931",
    "final_x": "3685564.32834",
    "final_y": "535086.395846",
    "longitude": "-90.05511103679636",
    "latitude": "29.96517801475514",
    "geocoded_column": {
      "latitude": "29.96517801475514",
      "longitude": "-90.05511103679636"
    }
  },
  {
    "service_request": "2024-1106930",
    "request_type": "Property Maintenance",
    "request_reason": "Property Maintenance",
    "date_created": "2024-06-25T15:54:33.000",
    "date_modified": "2024-06-25T15:54:33.000",
    "request_status": "Pending",
    "responsible_agency": "Department of Code Enforcement",
    "final_address": "4910 Citrus Dr",
    "address_councildis": "E",
    "status": "Pending",
    "rowid": "1106930",
    "final_x": "3710602.11224",
    "final_y": "556878.135386",
    "longitude": "-89.97522818988207",
    "latitude": "30.024305273949548",
    "geocoded_column": {
      "latitude": "30.024305273949548",
      "longitude": "-89.97522818988207"
    }
  },
  {
    "service_request": "2024-1106929",
    "request_type": "Roads/Drainage",
    "request_reason": "Street Subsidence (Sinking)",
    "date_created": "2024-06-25T15:53:23.000",
    "date_modified": "2024-06-25T15:53:24.000",
    "request_status": "Pending",
    "responsible_agency": "Department of Public Works",
    "final_address": "CANAL ST & N RENDON ST & S RENDON ST",
    "address_councildis": "B",
    "status": "Pending",
    "rowid": "1106929",
    "final_x": "3673613.9",
    "final_y": "536487.98",
    "longitude": "-90.09280199255224",
    "latitude": "29.969393046876576",
    "geocoded_column": {
      "latitude": "29.969393046876576",
      "longitude": "-90.09280199255224"
    }
  },
  {
    "service_request": "2024-1106928",
    "request_type": "Parks & Parkways",
    "request_reason": "Request Tree Service (Right of Way/Public Property)",
    "date_created": "2024-06-25T15:45:47.000",
    "date_modified": "2024-06-25T15:45:47.000",
    "request_status": "Pending",
    "responsible_agency": "Department of Parks & Parkway",
    "final_address": "3111 Dickens Dr",
    "address_councildis": "C",
    "status": "Pending",
    "rowid": "1106928",
    "final_x": "3708281.69611",
    "final_y": "518782.493879",
    "longitude": "-89.9839777682127",
    "latitude": "29.919631737935237",
    "geocoded_column": {
      "latitude": "29.919631737935237",
      "longitude": "-89.9839777682127"
    }
  },
  {
    "service_request": "2024-1106927",
    "request_type": "Property Maintenance",
    "request_reason": "Property Maintenance",
    "date_created": "2024-06-25T15:42:21.000",
    "date_modified": "2024-06-25T15:42:21.000",
    "request_status": "Pending",
    "responsible_agency": "Department of Code Enforcement",
    "final_address": "4911 Eunice Dr",
    "address_councildis": "E",
    "status": "Pending",
    "rowid": "1106927",
    "final_x": "3710508.64376",
    "final_y": "556815.26313",
    "longitude": "-89.97552588456327",
    "latitude": "30.024135445724465",
    "geocoded_column": {
      "latitude": "30.024135445724465",
      "longitude": "-89.97552588456327"
    }
  },
  {
    "service_request": "2024-1106926",
    "request_type": "Trash/Recycling",
    "request_reason": "Illegal Dumping",
    "date_created": "2024-06-25T15:39:27.000",
    "date_modified": "2024-06-25T15:39:27.000",
    "request_status": "Pending",
    "responsible_agency": "Department of Sanitation",
    "final_address": "2100 BLK Stephen Girard St",
    "address_councildis": "D",
    "status": "Pending",
    "rowid": "1106926",
    "final_x": "3683403.36183",
    "final_y": "548777.253611",
    "longitude": "-90.06145533758044",
    "latitude": "30.002889161220867",
    "geocoded_column": {
      "latitude": "30.002889161220867",
      "longitude": "-90.06145533758044"
    }
  },
  {
    "service_request": "2024-1106925",
    "request_type": "Roads/Drainage",
    "request_reason": "Unpermitted work in ROW",
    "date_created": "2024-06-25T15:38:20.000",
    "date_modified": "2024-06-25T15:38:20.000",
    "request_status": "Pending",
    "responsible_agency": "Department of Public Works",
    "final_address": "LEAKE AVE & PRYTANIA ST",
    "address_councildis": "A",
    "status": "Pending",
    "rowid": "1106925",
    "final_x": "3660821.7",
    "final_y": "523400.98",
    "longitude": "-90.13363372696801",
    "latitude": "29.933782604793365",
    "geocoded_column": {
      "latitude": "29.933782604793365",
      "longitude": "-90.13363372696801"
    }
  },
  {
    "service_request": "2024-1106924",
    "request_type": "Trash/Recycling",
    "request_reason": "Request a Large Item Pick Up",
    "date_created": "2024-06-25T15:37:26.000",
    "date_modified": "2024-06-25T15:37:27.000",
    "request_status": "Pending",
    "responsible_agency": "Department of Sanitation",
    "final_address": "6448 Center St",
    "address_councildis": "A",
    "status": "Assigned to Contractor",
    "contractor": "IV Waste",
    "rowid": "1106924",
    "final_x": "3664827.14061",
    "final_y": "551068.989333",
    "longitude": "-90.12006381815299",
    "latitude": "30.009744525102423",
    "geocoded_column": {
      "latitude": "30.009744525102423",
      "longitude": "-90.12006381815299"
    }
  },
  {
    "service_request": "2024-1106923",
    "request_type": "Trash/Recycling",
    "request_reason": "Order Recycling Cart",
    "date_created": "2024-06-25T15:37:01.000",
    "date_modified": "2024-06-25T15:37:01.000",
    "request_status": "Pending",
    "responsible_agency": "Department of Sanitation",
    "final_address": "2540 Esplanade Ave",
    "address_councildis": "D",
    "status": "Pending",
    "rowid": "1106923",
    "final_x": "3678320.94197",
    "final_y": "538729.288009",
    "longitude": "-90.0778592202657",
    "latitude": "29.975414912265574",
    "geocoded_column": {
      "latitude": "29.975414912265574",
      "longitude": "-90.0778592202657"
    }
  },
  {
    "service_request": "2024-1106922",
    "request_type": "Trash/Recycling",
    "request_reason": "Request a Large Item Pick Up",
    "date_created": "2024-06-25T15:34:27.000",
    "date_modified": "2024-06-25T15:34:28.000",
    "request_status": "Pending",
    "responsible_agency": "Department of Sanitation",
    "final_address": "5332 Pasteur Blvd",
    "address_councildis": "D",
    "status": "Assigned to Contractor",
    "contractor": "IV Waste",
    "rowid": "1106922",
    "final_x": "3682847.29404",
    "final_y": "552611.325526",
    "longitude": "-90.06307775647352",
    "latitude": "30.013448432666628",
    "geocoded_column": {
      "latitude": "30.013448432666628",
      "longitude": "-90.06307775647352"
    }
  },
  {
    "service_request": "2024-1106921",
    "request_type": "Trash/Recycling",
    "request_reason": "Request a Large Item Pick Up",
    "date_created": "2024-06-25T15:32:57.000",
    "date_modified": "2024-06-25T15:32:57.000",
    "request_status": "Pending",
    "responsible_agency": "Department of Sanitation",
    "final_address": "8008 Belfast St",
    "address_councildis": "A",
    "status": "Assigned to Contractor",
    "contractor": "IV Waste",
    "rowid": "1106921",
    "final_x": "3665845.88845",
    "final_y": "532080.029763",
    "longitude": "-90.11748180244301",
    "latitude": "29.957501594087194",
    "geocoded_column": {
      "latitude": "29.957501594087194",
      "longitude": "-90.11748180244301"
    }
  },
  {
    "service_request": "2024-1106920",
    "request_type": "Trash/Recycling",
    "request_reason": "Illegal Dumping",
    "date_created": "2024-06-25T15:31:15.000",
    "date_modified": "2024-06-25T15:31:16.000",
    "request_status": "Pending",
    "responsible_agency": "Department of Sanitation",
    "final_address": "ELMWOOD PARK DR & OREGON ST",
    "address_councildis": "C",
    "status": "Pending",
    "rowid": "1106920",
    "final_x": "3694830.2",
    "final_y": "518447.18",
    "longitude": "-90.02644935837787",
    "latitude": "29.919138450342928",
    "geocoded_column": {
      "latitude": "29.919138450342928",
      "longitude": "-90.02644935837787"
    }
  },
  {
    "service_request": "2024-1106919",
    "request_type": "Trash/Recycling",
    "request_reason": "Request a Large Item Pick Up",
    "date_created": "2024-06-25T15:29:41.000",
    "date_modified": "2024-06-25T15:29:41.000",
    "request_status": "Pending",
    "responsible_agency": "Department of Sanitation",
    "final_address": "7738 Marquis St",
    "address_councildis": "E",
    "status": "Assigned to Contractor",
    "contractor": "Waste Pro",
    "rowid": "1106919",
    "final_x": "3710868.36824",
    "final_y": "566761.674211",
    "longitude": "-89.97401639336799",
    "latitude": "30.051472381691646",
    "geocoded_column": {
      "latitude": "30.051472381691646",
      "longitude": "-89.97401639336799"
    }
  },
  {
    "service_request": "2024-1106917",
    "request_type": "Trash/Recycling",
    "request_reason": "Request a Large Item Pick Up",
    "date_created": "2024-06-25T15:26:36.000",
    "date_modified": "2024-06-25T15:26:36.000",
    "request_status": "Pending",
    "responsible_agency": "Department of Sanitation",
    "final_address": "2323 Lowerline St",
    "address_councildis": "A",
    "status": "Assigned to Contractor",
    "contractor": "IV Waste",
    "rowid": "1106917",
    "final_x": "3666034.26912",
    "final_y": "530191.873153",
    "longitude": "-90.11695024289656",
    "latitude": "29.952304281583853",
    "geocoded_column": {
      "latitude": "29.952304281583853",
      "longitude": "-90.11695024289656"
    }
  },
  {
    "service_request": "2024-1106916",
    "request_type": "Trash/Recycling",
    "request_reason": "Request a Large Item Pick Up",
    "date_created": "2024-06-25T15:26:13.000",
    "date_modified": "2024-06-25T15:26:14.000",
    "request_status": "Pending",
    "responsible_agency": "Department of Sanitation",
    "final_address": "723 Pleasant St",
    "address_councildis": "B",
    "status": "Assigned to Contractor",
    "contractor": "IV Waste",
    "rowid": "1106916",
    "final_x": "3676186.82389",
    "final_y": "518704.525303",
    "longitude": "-90.08528819587896",
    "latitude": "29.920417583987984",
    "geocoded_column": {
      "latitude": "29.920417583987984",
      "longitude": "-90.08528819587896"
    }
  },
  {
    "service_request": "2024-1106915",
    "request_type": "Trash/Recycling",
    "request_reason": "Request a Large Item Pick Up",
    "date_created": "2024-06-25T15:17:25.000",
    "date_modified": "2024-06-25T15:17:25.000",
    "request_status": "Pending",
    "responsible_agency": "Department of Sanitation",
    "final_address": "1724 S Rendon St",
    "address_councildis": "B",
    "status": "Assigned to Contractor",
    "contractor": "IV Waste",
    "rowid": "1106915",
    "final_x": "3669599.93991",
    "final_y": "530592.777026",
    "longitude": "-90.1056779036917",
    "latitude": "29.9533020738953",
    "geocoded_column": {
      "latitude": "29.9533020738953",
      "longitude": "-90.1056779036917"
    }
  },
  {
    "service_request": "2024-1106914",
    "request_type": "Parks & Parkways",
    "request_reason": "Request Tree Service (Right of Way/Public Property)",
    "date_created": "2024-06-25T15:17:00.000",
    "date_modified": "2024-06-25T15:17:01.000",
    "request_status": "Pending",
    "responsible_agency": "Department of Parks & Parkway",
    "final_address": "2731 Chelsea Dr",
    "address_councildis": "C",
    "status": "Pending",
    "rowid": "1106914",
    "final_x": "3704155.25425",
    "final_y": "520994.061817",
    "longitude": "-89.99692138509502",
    "latitude": "29.92584575454668",
    "geocoded_column": {
      "latitude": "29.92584575454668",
      "longitude": "-89.99692138509502"
    }
  },
  {
    "service_request": "2024-1106913",
    "request_type": "Trash/Recycling",
    "request_reason": "Start Trash Service",
    "date_created": "2024-06-25T15:11:01.000",
    "date_modified": "2024-06-25T15:11:02.000",
    "request_status": "Pending",
    "responsible_agency": "Department of Sanitation",
    "final_address": "3537 Republic St",
    "address_councildis": "D",
    "status": "Assigned to Contractor",
    "contractor": "IV Waste",
    "rowid": "1106913",
    "final_x": "3680505.59976",
    "final_y": "545487.173648",
    "longitude": "-90.07072430093648",
    "latitude": "29.993930734999136",
    "geocoded_column": {
      "latitude": "29.993930734999136",
      "longitude": "-90.07072430093648"
    }
  },
  {
    "service_request": "2024-1106912",
    "request_type": "Trash/Recycling",
    "request_reason": "Request a Large Item Pick Up",
    "date_created": "2024-06-25T15:10:41.000",
    "date_modified": "2024-06-25T15:10:41.000",
    "request_status": "Pending",
    "responsible_agency": "Department of Sanitation",
    "final_address": "3335 St Philip St",
    "address_councildis": "A",
    "status": "Assigned to Contractor",
    "contractor": "IV Waste",
    "rowid": "1106912",
    "final_x": "3675175.47464",
    "final_y": "539610.687242",
    "longitude": "-90.08776320852773",
    "latitude": "29.977932848470438",
    "geocoded_column": {
      "latitude": "29.977932848470438",
      "longitude": "-90.08776320852773"
    }
  },
  {
    "service_request": "2024-1106911",
    "request_type": "Trash/Recycling",
    "request_reason": "Request a Large Item Pick Up",
    "date_created": "2024-06-25T15:10:31.000",
    "date_modified": "2024-06-25T15:10:31.000",
    "request_status": "Pending",
    "responsible_agency": "Department of Sanitation",
    "final_address": "9917 E Wheaton Cir",
    "address_councildis": "E",
    "status": "Assigned to Contractor",
    "contractor": "Waste Pro",
    "rowid": "1106911",
    "final_x": "3709039.02276",
    "final_y": "562462.010399",
    "longitude": "-89.97995882625048",
    "latitude": "30.039709574225075",
    "geocoded_column": {
      "latitude": "30.039709574225075",
      "longitude": "-89.97995882625048"
    }
  },
  {
    "service_request": "2024-1106909",
    "request_type": "Property Maintenance",
    "request_reason": "Property Maintenance",
    "date_created": "2024-06-25T15:08:10.000",
    "date_modified": "2024-06-25T15:08:11.000",
    "request_status": "Pending",
    "responsible_agency": "Department of Code Enforcement",
    "final_address": "3226 Rabbits St",
    "address_councildis": "D",
    "status": "Pending",
    "rowid": "1106909",
    "final_x": "3688283.38595",
    "final_y": "544958.105871",
    "longitude": "-90.0461742321917",
    "latitude": "29.99223804068231",
    "geocoded_column": {
      "latitude": "29.99223804068231",
      "longitude": "-90.0461742321917"
    }
  },
  {
    "service_request": "2024-1106908",
    "request_type": "Roads/Drainage",
    "request_reason": "Pothole",
    "date_created": "2024-06-25T15:07:53.000",
    "date_modified": "2024-06-25T15:07:53.000",
    "request_status": "Pending",
    "responsible_agency": "Department of Public Works",
    "final_address": "1312 Milan St",
    "address_councildis": "B",
    "status": "Pending",
    "rowid": "1106908",
    "final_x": "3671625.82823",
    "final_y": "520286.919608",
    "longitude": "-90.09963137110304",
    "latitude": "29.92490447494246",
    "geocoded_column": {
      "latitude": "29.92490447494246",
      "longitude": "-90.09963137110304"
    }
  },
  {
    "service_request": "2024-1106907",
    "request_type": "Roads/Drainage",
    "request_reason": "Road Shoulder Repair",
    "date_created": "2024-06-25T15:07:41.000",
    "date_modified": "2024-06-25T15:07:42.000",
    "request_status": "Pending",
    "responsible_agency": "Department of Public Works",
    "final_address": "4490 Painters St",
    "address_councildis": "D",
    "status": "Pending",
    "rowid": "1106907",
    "final_x": "3686203.38684",
    "final_y": "549561.500563",
    "longitude": "-90.05258199243708",
    "latitude": "30.004959799501624",
    "geocoded_column": {
      "latitude": "30.004959799501624",
      "longitude": "-90.05258199243708"
    }
  },
  {
    "service_request": "2024-1106906",
    "request_type": "Roads/Drainage",
    "request_reason": "Pothole",
    "date_created": "2024-06-25T15:07:03.000",
    "date_modified": "2024-06-25T15:07:03.000",
    "request_status": "Pending",
    "responsible_agency": "Department of Public Works",
    "final_address": "1112 Constantinople St",
    "address_councildis": "B",
    "status": "Pending",
    "rowid": "1106906",
    "final_x": "3672348.95259",
    "final_y": "519796.384952",
    "longitude": "-90.09736540233975",
    "latitude": "29.923534233550217",
    "geocoded_column": {
      "latitude": "29.923534233550217",
      "longitude": "-90.09736540233975"
    }
  },
  {
    "service_request": "2024-1106905",
    "request_type": "Trash/Recycling",
    "request_reason": "Order Recycling Cart",
    "date_created": "2024-06-25T15:01:37.000",
    "date_modified": "2024-06-25T15:01:38.000",
    "request_status": "Pending",
    "responsible_agency": "Department of Sanitation",
    "final_address": "10 Grand Canyon Dr",
    "address_councildis": "C",
    "status": "Pending",
    "rowid": "1106905",
    "final_x": "3699528.12068",
    "final_y": "517531.915254",
    "longitude": "-90.01165383598858",
    "latitude": "29.916473615427922",
    "geocoded_column": {
      "latitude": "29.916473615427922",
      "longitude": "-90.01165383598858"
    }
  },
  {
    "service_request": "2024-1106904",
    "request_type": "Trash/Recycling",
    "request_reason": "Replace Trash Cart",
    "date_created": "2024-06-25T14:56:10.000",
    "date_modified": "2024-06-25T14:56:11.000",
    "request_status": "Pending",
    "responsible_agency": "Department of Sanitation",
    "final_address": "2929 Banks St",
    "address_councildis": "B",
    "status": "Assigned to Contractor",
    "contractor": "IV Waste",
    "rowid": "1106904",
    "final_x": "3673717.87054",
    "final_y": "534917.360774",
    "longitude": "-90.0925273570839",
    "latitude": "29.965071278101945",
    "geocoded_column": {
      "latitude": "29.965071278101945",
      "longitude": "-90.0925273570839"
    }
  },
  {
    "service_request": "2024-1106903",
    "request_type": "Trash/Recycling",
    "request_reason": "Illegal Dumping",
    "date_created": "2024-06-25T14:51:39.000",
    "date_modified": "2024-06-25T14:51:39.000",
    "request_status": "Pending",
    "responsible_agency": "Department of Sanitation",
    "final_address": "HAMMOND ST & DODT AVE",
    "address_councildis": "E",
    "status": "Pending",
    "rowid": "1106903",
    "final_x": "3705396.3",
    "final_y": "555681.68",
    "longitude": "-89.99172174262924",
    "latitude": "30.021184114580223",
    "geocoded_column": {
      "latitude": "30.021184114580223",
      "longitude": "-89.99172174262924"
    }
  },
  {
    "service_request": "2024-1106902",
    "request_type": "Healthy Homes",
    "request_reason": "Healthy Homes",
    "date_created": "2024-06-25T14:50:24.000",
    "date_modified": "2024-06-25T14:50:24.000",
    "request_status": "Pending",
    "responsible_agency": "Department of Code Enforcement",
    "final_address": "3821 Dauphine St Apt C",
    "address_councildis": "C",
    "status": "Pending",
    "rowid": "1106902",
    "final_x": "3691131.39113",
    "final_y": "534340.096453",
    "longitude": "-90.03755726737927",
    "latitude": "29.962954018456294",
    "geocoded_column": {
      "latitude": "29.962954018456294",
      "longitude": "-90.03755726737927"
    }
  },
  {
    "service_request": "2024-1106901",
    "request_type": "Roads/Drainage",
    "request_reason": "Street Subsidence (Sinking)",
    "date_created": "2024-06-25T14:50:12.000",
    "date_modified": "2024-06-25T14:50:12.000",
    "request_status": "Pending",
    "responsible_agency": "Department of Public Works",
    "final_address": "1100 BLK L. B. Landry Ave",
    "address_councildis": "C",
    "status": "Pending",
    "rowid": "1106901",
    "final_x": "3690170.00807",
    "final_y": "527275.665709",
    "longitude": "-90.04084482252313",
    "latitude": "29.943559133971167",
    "geocoded_column": {
      "latitude": "29.943559133971167",
      "longitude": "-90.04084482252313"
    }
  },
  {
    "service_request": "2024-1106900",
    "request_type": "Abandoned Vehicles",
    "request_reason": "Abandoned/Junk Vehicles",
    "date_created": "2024-06-25T14:49:01.000",
    "date_modified": "2024-06-25T14:49:01.000",
    "request_status": "Pending",
    "responsible_agency": "Department of Public Works",
    "final_address": "5524 S Johnson St",
    "address_councildis": "A",
    "status": "Pending",
    "rowid": "1106900",
    "final_x": "3668010.16986",
    "final_y": "527041.575934",
    "longitude": "-90.11081736677356",
    "latitude": "29.94358416498361",
    "geocoded_column": {
      "latitude": "29.94358416498361",
      "longitude": "-90.11081736677356"
    }
  },
  {
    "service_request": "2024-1106899",
    "request_type": "Trash/Recycling",
    "request_reason": "Request a Large Item Pick Up",
    "date_created": "2024-06-25T14:48:17.000",
    "date_modified": "2024-06-25T14:48:18.000",
    "request_status": "Pending",
    "responsible_agency": "Department of Sanitation",
    "final_address": "1022 Odeon St",
    "address_councildis": "C",
    "status": "Assigned to Contractor",
    "contractor": "Richards Disposal",
    "rowid": "1106899",
    "final_x": "3696084.71754",
    "final_y": "527601.939839",
    "longitude": "-90.02215884314211",
    "latitude": "29.94427150026455",
    "geocoded_column": {
      "latitude": "29.94427150026455",
      "longitude": "-90.02215884314211"
    }
  },
  {
    "service_request": "2024-1106898",
    "request_type": "Property Maintenance",
    "request_reason": "Property Maintenance",
    "date_created": "2024-06-25T14:48:10.000",
    "date_modified": "2024-06-25T14:48:10.000",
    "request_status": "Pending",
    "responsible_agency": "Department of Code Enforcement",
    "final_address": "BURGUNDY ST & PIETY ST",
    "address_councildis": "C",
    "status": "Pending",
    "rowid": "1106898",
    "final_x": "3689638.2",
    "final_y": "535004.98",
    "longitude": "-90.04224890698487",
    "latitude": "29.964828561650005",
    "geocoded_column": {
      "latitude": "29.964828561650005",
      "longitude": "-90.04224890698487"
    }
  },
  {
    "service_request": "2024-1106897",
    "request_type": "Roads/Drainage",
    "request_reason": "Street Subsidence (Sinking)",
    "date_created": "2024-06-25T14:46:49.000",
    "date_modified": "2024-06-25T14:46:49.000",
    "request_status": "Pending",
    "responsible_agency": "Department of Public Works",
    "final_address": "1000 L. B. Landry Ave Stop 1887",
    "address_councildis": "C",
    "status": "Pending",
    "rowid": "1106897",
    "final_x": "3690216.89616",
    "final_y": "527809.303167",
    "longitude": "-90.04067777795817",
    "latitude": "29.945025000011224",
    "geocoded_column": {
      "latitude": "29.945025000011224",
      "longitude": "-90.04067777795817"
    }
  },
  {
    "service_request": "2024-1106896",
    "request_type": "Abandoned Vehicles",
    "request_reason": "Abandoned/Junk Vehicles",
    "date_created": "2024-06-25T14:45:58.000",
    "date_modified": "2024-06-25T14:47:49.000",
    "request_status": "Pending",
    "responsible_agency": "Department of Public Works",
    "final_address": "1908 Frenchmen St",
    "address_councildis": "D",
    "status": "Pending",
    "rowid": "1106896",
    "final_x": "3684314.75471",
    "final_y": "539315.542986",
    "longitude": "-90.05890857566375",
    "latitude": "29.976844969150616",
    "geocoded_column": {
      "latitude": "29.976844969150616",
      "longitude": "-90.05890857566375"
    }
  },
  {
    "service_request": "2024-1106895",
    "request_type": "Roads/Drainage",
    "request_reason": "Pothole",
    "date_created": "2024-06-25T14:45:11.000",
    "date_modified": "2024-06-25T14:45:11.000",
    "request_status": "Pending",
    "responsible_agency": "Department of Public Works",
    "final_address": "900 Whitney Ave",
    "address_councildis": "C",
    "status": "Pending",
    "rowid": "1106895",
    "final_x": "3690253.76918",
    "final_y": "528188.706176",
    "longitude": "-90.04054784373724",
    "latitude": "29.946067084416338",
    "geocoded_column": {
      "latitude": "29.946067084416338",
      "longitude": "-90.04054784373724"
    }
  },
  {
    "service_request": "2024-1106894",
    "request_type": "Roads/Drainage",
    "request_reason": "Pothole",
    "date_created": "2024-06-25T14:44:38.000",
    "date_modified": "2024-06-25T14:44:39.000",
    "request_status": "Pending",
    "responsible_agency": "Department of Public Works",
    "final_address": "800 BLK Whitney Ave",
    "address_councildis": "C",
    "status": "Pending",
    "rowid": "1106894",
    "final_x": "3690161.96806",
    "final_y": "528436.651248",
    "longitude": "-90.04082885977496",
    "latitude": "29.946751695943234",
    "geocoded_column": {
      "latitude": "29.946751695943234",
      "longitude": "-90.04082885977496"
    }
  },
  {
    "service_request": "2024-1106893",
    "request_type": "Trash/Recycling",
    "request_reason": "Request a Large Item Pick Up",
    "date_created": "2024-06-25T14:40:40.000",
    "date_modified": "2024-06-25T14:41:02.000",
    "request_status": "Pending",
    "responsible_agency": "Department of Sanitation",
    "final_address": "317 S Pierce St",
    "address_councildis": "A",
    "status": "Assigned to Contractor",
    "contractor": "IV Waste",
    "rowid": "1106893",
    "final_x": "3670877.15143",
    "final_y": "537325.665864",
    "longitude": "-90.1014164420572",
    "latitude": "29.971777587502732",
    "geocoded_column": {
      "latitude": "29.971777587502732",
      "longitude": "-90.1014164420572"
    }
  },
  {
    "service_request": "2024-1106892",
    "request_type": "Parks & Parkways",
    "request_reason": "Request Tree Service (Right of Way/Public Property)",
    "date_created": "2024-06-25T14:37:00.000",
    "date_modified": "2024-06-25T14:37:01.000",
    "request_status": "Pending",
    "responsible_agency": "Department of Parks & Parkway",
    "final_address": "3601 Rue Colette",
    "address_councildis": "C",
    "status": "Pending",
    "rowid": "1106892",
    "final_x": "3704474.62692",
    "final_y": "517231.839989",
    "longitude": "-89.99605183259618",
    "latitude": "29.91549070019984",
    "geocoded_column": {
      "latitude": "29.91549070019984",
      "longitude": "-89.99605183259618"
    }
  },
  {
    "service_request": "2024-1106891",
    "request_type": "Parks & Parkways",
    "request_reason": "Request Tree Service (Right of Way/Public Property)",
    "date_created": "2024-06-25T14:30:12.000",
    "date_modified": "2024-06-25T14:30:39.000",
    "request_status": "Pending",
    "responsible_agency": "Department of Parks & Parkway",
    "final_address": "3534 Banks St",
    "address_councildis": "B",
    "status": "Pending",
    "rowid": "1106891",
    "final_x": "3671863.79239",
    "final_y": "536154.790599",
    "longitude": "-90.0983403251213",
    "latitude": "29.968528870775366",
    "geocoded_column": {
      "latitude": "29.968528870775366",
      "longitude": "-90.0983403251213"
    }
  },
  {
    "service_request": "2024-1106890",
    "request_type": "Trash/Recycling",
    "request_reason": "Request a Large Item Pick Up",
    "date_created": "2024-06-25T14:29:37.000",
    "date_modified": "2024-06-25T14:29:38.000",
    "request_status": "Pending",
    "responsible_agency": "Department of Sanitation",
    "final_address": "727 Henry Clay Ave",
    "address_councildis": "A",
    "status": "Assigned to Contractor",
    "contractor": "IV Waste",
    "rowid": "1106890",
    "final_x": "3663786.89786",
    "final_y": "519427.986359",
    "longitude": "-90.12440502511899",
    "latitude": "29.922772422883565",
    "geocoded_column": {
      "latitude": "29.922772422883565",
      "longitude": "-90.12440502511899"
    }
  },
  {
    "service_request": "2024-1106889",
    "request_type": "Roads/Drainage",
    "request_reason": "Service Cut",
    "date_created": "2024-06-25T14:28:43.000",
    "date_modified": "2024-06-25T14:45:00.000",
    "request_status": "Pending",
    "responsible_agency": "Department of Public Works",
    "final_address": "11000 BLK Morrison Rd",
    "address_councildis": "E",
    "rowid": "1106889",
    "final_x": "3711172.11699",
    "final_y": "565054.474994",
    "longitude": "-89.97312040450659",
    "latitude": "30.046768362892443",
    "geocoded_column": {
      "latitude": "30.046768362892443",
      "longitude": "-89.97312040450659"
    }
  },
  {
    "service_request": "2024-1106888",
    "request_type": "Parks & Parkways",
    "request_reason": "Request Tree Service (Right of Way/Public Property)",
    "date_created": "2024-06-25T14:25:30.000",
    "date_modified": "2024-06-25T14:25:31.000",
    "request_status": "Pending",
    "responsible_agency": "Department of Parks & Parkway",
    "final_address": "1796 Gentilly Blvd",
    "address_councildis": "D",
    "status": "Pending",
    "rowid": "1106888",
    "final_x": "3678774.14261",
    "final_y": "542222.931405",
    "longitude": "-90.07630684461144",
    "latitude": "29.985007559383064",
    "geocoded_column": {
      "latitude": "29.985007559383064",
      "longitude": "-90.07630684461144"
    }
  },
  {
    "service_request": "2024-1106887",
    "request_type": "Trash/Recycling",
    "request_reason": "Replace Trash Cart",
    "date_created": "2024-06-25T14:21:22.000",
    "date_modified": "2024-06-25T14:21:22.000",
    "request_status": "Pending",
    "responsible_agency": "Department of Sanitation",
    "final_address": "2811 Audubon St",
    "address_councildis": "B",
    "status": "Assigned to Contractor",
    "contractor": "IV Waste",
    "rowid": "1106887",
    "final_x": "3667618.58298",
    "final_y": "531170.178178",
    "longitude": "-90.1119147650591",
    "latitude": "29.954947960155923",
    "geocoded_column": {
      "latitude": "29.954947960155923",
      "longitude": "-90.1119147650591"
    }
  },
  {
    "service_request": "2024-1106886",
    "request_type": "Trash/Recycling",
    "request_reason": "Order Trash Cart",
    "date_created": "2024-06-25T14:21:20.000",
    "date_modified": "2024-06-25T14:21:21.000",
    "request_status": "Pending",
    "responsible_agency": "Department of Sanitation",
    "final_address": "4123 Constance St",
    "address_councildis": "B",
    "status": "Assigned to Contractor",
    "contractor": "IV Waste",
    "rowid": "1106886",
    "final_x": "3671989.32756",
    "final_y": "518546.454135",
    "longitude": "-90.09854312616058",
    "latitude": "29.920107983697662",
    "geocoded_column": {
      "latitude": "29.920107983697662",
      "longitude": "-90.09854312616058"
    }
  },
  {
    "service_request": "2024-1106885",
    "request_type": "Trash/Recycling",
    "request_reason": "Order Trash Cart",
    "date_created": "2024-06-25T14:21:07.000",
    "date_modified": "2024-06-25T14:21:08.000",
    "request_status": "Pending",
    "responsible_agency": "Department of Sanitation",
    "final_address": "4121 Constance St",
    "address_councildis": "B",
    "status": "Assigned to Contractor",
    "contractor": "IV Waste",
    "rowid": "1106885",
    "final_x": "3672004.74049",
    "final_y": "518549.362231",
    "longitude": "-90.09849437590015",
    "latitude": "29.920115523322036",
    "geocoded_column": {
      "latitude": "29.920115523322036",
      "longitude": "-90.09849437590015"
    }
  },
  {
    "service_request": "2024-1106884",
    "request_type": "Trash/Recycling",
    "request_reason": "Missed Trash Pick-Up",
    "date_created": "2024-06-25T14:21:04.000",
    "date_modified": "2024-06-25T15:21:06.000",
    "case_close_date": "2024-06-25T10:21:06.000",
    "request_status": "Closed",
    "responsible_agency": "Department of Sanitation",
    "final_address": "2831 Banks St",
    "address_councildis": "B",
    "status": "Invalid Request",
    "contractor": "IV Waste",
    "contractor_action": "Invalid",
    "rowid": "1106884",
    "final_x": "3673988.44648",
    "final_y": "534696.58471",
    "longitude": "-90.09168044733731",
    "latitude": "29.964456158900592",
    "geocoded_column": {
      "latitude": "29.964456158900592",
      "longitude": "-90.09168044733731"
    }
  },
  {
    "service_request": "2024-1106883",
    "request_type": "Trash/Recycling",
    "request_reason": "Replace Trash Cart",
    "date_created": "2024-06-25T14:21:00.000",
    "date_modified": "2024-06-25T14:21:00.000",
    "request_status": "Pending",
    "responsible_agency": "Department of Sanitation",
    "final_address": "2809 Audubon St",
    "address_councildis": "B",
    "status": "Assigned to Contractor",
    "contractor": "IV Waste",
    "rowid": "1106883",
    "final_x": "3667605.04129",
    "final_y": "531156.289346",
    "longitude": "-90.1119579922205",
    "latitude": "29.954910167319778",
    "geocoded_column": {
      "latitude": "29.954910167319778",
      "longitude": "-90.1119579922205"
    }
  },
  {
    "service_request": "2024-1106882",
    "request_type": "EMS",
    "request_reason": "EMS Lost & Found",
    "date_created": "2024-06-25T14:20:08.000",
    "date_modified": "2024-06-25T14:20:08.000",
    "request_status": "Pending",
    "responsible_agency": "Emergency Medical Services",
    "final_address": "4523 Annunciation St",
    "address_councildis": "B",
    "status": "Pending",
    "rowid": "1106882",
    "final_x": "3670564.72974",
    "final_y": "517724.15007",
    "longitude": "-90.10306777881468",
    "latitude": "29.917889043731606",
    "geocoded_column": {
      "latitude": "29.917889043731606",
      "longitude": "-90.10306777881468"
    }
  },
  {
    "service_request": "2024-1106881",
    "request_type": "Trash/Recycling",
    "request_reason": "Return Trash Cart",
    "date_created": "2024-06-25T14:20:01.000",
    "date_modified": "2024-06-25T14:20:01.000",
    "request_status": "Pending",
    "responsible_agency": "Department of Sanitation",
    "final_address": "1123 Marais St",
    "address_councildis": "C",
    "status": "Assigned to Contractor",
    "contractor": "IV Waste",
    "rowid": "1106881",
    "final_x": "3681553.89218",
    "final_y": "535351.395206",
    "longitude": "-90.06776652683195",
    "latitude": "29.966029076090564",
    "geocoded_column": {
      "latitude": "29.966029076090564",
      "longitude": "-90.06776652683195"
    }
  },
  {
    "service_request": "2024-1106880",
    "request_type": "Abandoned Vehicles",
    "request_reason": "Abandoned/Junk Vehicles",
    "date_created": "2024-06-25T14:19:26.000",
    "date_modified": "2024-06-25T14:19:26.000",
    "request_status": "Pending",
    "responsible_agency": "Department of Public Works",
    "final_address": "CHESTNUT ST & WEBSTER ST",
    "address_councildis": "A",
    "status": "Pending",
    "rowid": "1106880",
    "final_x": "3664360.9",
    "final_y": "520065.48",
    "longitude": "-90.12257185588328",
    "latitude": "29.924508665998417",
    "geocoded_column": {
      "latitude": "29.924508665998417",
      "longitude": "-90.12257185588328"
    }
  },
  {
    "service_request": "2024-1106879",
    "request_type": "Trash/Recycling",
    "request_reason": "Return Recycling Cart",
    "date_created": "2024-06-25T14:19:08.000",
    "date_modified": "2024-06-25T14:19:08.000",
    "request_status": "Pending",
    "responsible_agency": "Department of Sanitation",
    "final_address": "1123 Marais St",
    "address_councildis": "C",
    "status": "Pending",
    "rowid": "1106879",
    "final_x": "3681553.89218",
    "final_y": "535351.395206",
    "longitude": "-90.06776652683195",
    "latitude": "29.966029076090564",
    "geocoded_column": {
      "latitude": "29.966029076090564",
      "longitude": "-90.06776652683195"
    }
  },
  {
    "service_request": "2024-1106878",
    "request_type": "Trash/Recycling",
    "request_reason": "Request a Large Item Pick Up",
    "date_created": "2024-06-25T14:13:01.000",
    "date_modified": "2024-06-25T14:13:02.000",
    "request_status": "Pending",
    "responsible_agency": "Department of Sanitation",
    "final_address": "AMAZON ST & FLORENCE AVE",
    "address_councildis": "C",
    "status": "Assigned to Contractor",
    "contractor": "Richards Disposal",
    "rowid": "1106878",
    "final_x": "3692873.1",
    "final_y": "521848.88",
    "longitude": "-90.03250500106685",
    "latitude": "29.928553210954156",
    "geocoded_column": {
      "latitude": "29.928553210954156",
      "longitude": "-90.03250500106685"
    }
  },
  {
    "service_request": "2024-1106877",
    "request_type": "Abandoned Vehicles",
    "request_reason": "Abandoned/Junk Vehicles",
    "date_created": "2024-06-25T14:12:49.000",
    "date_modified": "2024-06-25T14:14:36.000",
    "request_status": "Pending",
    "responsible_agency": "Department of Public Works",
    "final_address": "2136 Comet St",
    "address_councildis": "C",
    "status": "Pending",
    "rowid": "1106877",
    "final_x": "3700269.53732",
    "final_y": "523111.351675",
    "longitude": "-90.00911011395002",
    "latitude": "29.931791612983435",
    "geocoded_column": {
      "latitude": "29.931791612983435",
      "longitude": "-90.00911011395002"
    }
  },
  {
    "service_request": "2024-1106876",
    "request_type": "Trash/Recycling",
    "request_reason": "Request a Large Item Pick Up",
    "date_created": "2024-06-25T14:12:40.000",
    "date_modified": "2024-06-25T14:12:41.000",
    "request_status": "Pending",
    "responsible_agency": "Department of Sanitation",
    "final_address": "1635 Eighth St",
    "address_councildis": "B",
    "status": "Assigned to Contractor",
    "contractor": "IV Waste",
    "rowid": "1106876",
    "final_x": "3674826.59035",
    "final_y": "522212.338554",
    "longitude": "-90.08946162175849",
    "latitude": "29.93010360773719",
    "geocoded_column": {
      "latitude": "29.93010360773719",
      "longitude": "-90.08946162175849"
    }
  },
  {
    "service_request": "2024-1106875",
    "request_type": "Trash/Recycling",
    "request_reason": "Request a Large Item Pick Up",
    "date_created": "2024-06-25T14:07:55.000",
    "date_modified": "2024-06-25T14:07:56.000",
    "request_status": "Pending",
    "responsible_agency": "Department of Sanitation",
    "final_address": "1233 Fern St",
    "address_councildis": "A",
    "status": "Assigned to Contractor",
    "contractor": "IV Waste",
    "rowid": "1106875",
    "final_x": "3662738.96365",
    "final_y": "528012.627967",
    "longitude": "-90.12742776672536",
    "latitude": "29.94640783468398",
    "geocoded_column": {
      "latitude": "29.94640783468398",
      "longitude": "-90.12742776672536"
    }
  },
  {
    "service_request": "2024-1106874",
    "request_type": "Parks & Parkways",
    "request_reason": "Request Grass Cutting Service (City Owned Property)",
    "date_created": "2024-06-25T14:07:27.000",
    "date_modified": "2024-06-25T14:07:27.000",
    "request_status": "Pending",
    "responsible_agency": "Department of Parks & Parkway",
    "final_address": "4610 Lennox Blvd",
    "address_councildis": "C",
    "status": "Pending",
    "rowid": "1106874",
    "final_x": "3700851.62321",
    "final_y": "513751.210866",
    "longitude": "-90.007614420725",
    "latitude": "29.906035919005962",
    "geocoded_column": {
      "latitude": "29.906035919005962",
      "longitude": "-90.007614420725"
    }
  },
  {
    "service_request": "2024-1106873",
    "request_type": "Roads/Drainage",
    "request_reason": "Pothole",
    "date_created": "2024-06-25T14:02:16.000",
    "date_modified": "2024-06-25T14:02:16.000",
    "request_status": "Pending",
    "responsible_agency": "Department of Public Works",
    "final_address": "3600 BLK Broadway St",
    "address_councildis": "B",
    "status": "Pending",
    "rowid": "1106873",
    "final_x": "3669048.93844",
    "final_y": "533697.168614",
    "longitude": "-90.10731285230968",
    "latitude": "29.961854348448526",
    "geocoded_column": {
      "latitude": "29.961854348448526",
      "longitude": "-90.10731285230968"
    }
  },
  {
    "service_request": "2024-1106872",
    "request_type": "Parks & Parkways",
    "request_reason": "Request Tree Service (Right of Way/Public Property)",
    "date_created": "2024-06-25T14:00:44.000",
    "date_modified": "2024-06-25T14:00:44.000",
    "request_status": "Pending",
    "responsible_agency": "Department of Parks & Parkway",
    "final_address": "415 Bouny St",
    "address_councildis": "C",
    "status": "Pending",
    "rowid": "1106872",
    "final_x": "3685948.17084",
    "final_y": "529913.918081",
    "longitude": "-90.05408124756813",
    "latitude": "29.95094369996993",
    "geocoded_column": {
      "latitude": "29.95094369996993",
      "longitude": "-90.05408124756813"
    }
  },
  {
    "service_request": "2024-1106871",
    "request_type": "Roads/Drainage",
    "request_reason": "Pothole",
    "date_created": "2024-06-25T13:59:21.000",
    "date_modified": "2024-06-25T13:59:39.000",
    "case_close_date": "2024-06-25T08:59:39.000",
    "request_status": "Closed",
    "responsible_agency": "Department of Public Works",
    "final_address": "8000 BLK Olive St",
    "address_councildis": "B",
    "status": "Resolved",
    "rowid": "1106871",
    "final_x": "3667452.65161",
    "final_y": "533986.774662",
    "longitude": "-90.11234394504753",
    "latitude": "29.96269753680399",
    "geocoded_column": {
      "latitude": "29.96269753680399",
      "longitude": "-90.11234394504753"
    }
  },