[
  {
    "service_request": "2023-1046674",
    "request_type": "Roads/Drainage",
    "request_reason": "Accessibility Ramps, Curbs and Sidewalk Repair",
    "date_created": "2023-10-29T00:53:26.000",
    "date_modified": "2023-10-29T00:53:26.000",
    "request_status": "Pending",
    "responsible_agency": "Department of Public Works",
    "final_address": "901 S Peters St",
    "address_councildis": "B",
    "status": "Pending",
    "rowid": "1046674",
    "final_x": "3682230.17749",
    "final_y": "526930.853182",
    "longitude": "-90.06592496881741",
    "latitude": "29.942854886782012",
    "geocoded_column": {
      "latitude": "29.942854886782012",
      "longitude": "-90.06592496881741"
    }
  },
  {
    "service_request": "2023-1046673",
    "request_type": "Parks & Parkways",
    "request_reason": "Request Tree Service (Right of Way/Public Property)",
    "date_created": "2023-10-28T22:33:26.000",
    "date_modified": "2023-10-28T22:33:26.000",
    "request_status": "Pending",
    "responsible_agency": "Department of Parks & Parkway",
    "final_address": "1626 Jefferson Ave",
    "address_councildis": "A",
    "status": "Pending",
    "rowid": "1046673",
    "final_x": "3667356.98548",
    "final_y": "521847.57593",
    "longitude": "-90.11305429080586",
    "latitude": "29.929321474843718",
    "geocoded_column": {
      "latitude": "29.929321474843718",
      "longitude": "-90.11305429080586"
    }
  },
  {
    "service_request": "2023-1046672",
    "request_type": "Roads/Drainage",
    "request_reason": "Street Flooding / Drainage",
    "date_created": "2023-10-28T22:32:45.000",
    "date_modified": "2023-10-28T22:32:45.000",
    "request_status": "Pending",
    "responsible_agency": "Department of Public Works",
    "final_address": "1839 Mirabeau Ave",
    "address_councildis": "D",
    "status": "Pending",
    "rowid": "1046672",
    "final_x": "3681540.25544",
    "final_y": "550711.739989",
    "longitude": "-90.067273622677",
    "latitude": "30.008265035695455",
    "geocoded_column": {
      "latitude": "30.008265035695455",
      "longitude": "-90.067273622677"
    }
  },
  {
    "service_request": "2023-1046670",
    "request_type": "Roads/Drainage",
    "request_reason": "Damaged Sidewalk",
    "date_created": "2023-10-28T22:08:43.000",
    "date_modified": "2023-10-28T22:08:43.000",
    "request_status": "Pending",
    "responsible_agency": "Department of Public Works",
    "final_address": "4840 Banks St",
    "address_councildis": "A",
    "status": "Pending",
    "rowid": "1046670",
    "final_x": "3667786.44577",
    "final_y": "539258.93633",
    "longitude": "-90.11111227763321",
    "latitude": "29.977184439119785",
    "geocoded_column": {
      "latitude": "29.977184439119785",
      "longitude": "-90.11111227763321"
    }
  },
  {
    "service_request": "2023-1046669",
    "request_type": "Trash/Recycling",
    "request_reason": "Return Trash Cart",
    "date_created": "2023-10-28T22:01:41.000",
    "date_modified": "2023-10-28T22:01:42.000",
    "request_status": "Pending",
    "responsible_agency": "Department of Sanitation",
    "final_address": "420 S Anthony St",
    "address_councildis": "A",
    "status": "Assigned to Contractor",
    "contractor": "Richards Disposal",
    "rowid": "1046669",
    "final_x": "3667754.69466",
    "final_y": "539224.978442",
    "longitude": "-90.11121370224099",
    "latitude": "29.97709199755158",
    "geocoded_column": {
      "latitude": "29.97709199755158",
      "longitude": "-90.11121370224099"
    }
  },
  {
    "service_request": "2023-1046668",
    "request_type": "Traffic Signals/Signs/Striping/Streetlights",
    "request_reason": "Street Light Outage/Malfunction",
    "date_created": "2023-10-28T21:57:23.000",
    "date_modified": "2023-10-28T21:57:24.000",
    "request_status": "Pending",
    "responsible_agency": "Department of Public Works",
    "final_address": "307 S Olympia St",
    "address_councildis": "A",
    "status": "Assigned to Contractor",
    "contractor": "Legacy Professional Services",
    "rowid": "1046668",
    "final_x": "3668829.3099",
    "final_y": "538940.521994",
    "longitude": "-90.10782931795029",
    "latitude": "29.976278279126632",
    "geocoded_column": {
      "latitude": "29.976278279126632",
      "longitude": "-90.10782931795029"
    }
  },
  {
    "service_request": "2023-1046667",
    "request_type": "Abandoned Vehicles",
    "request_reason": "Abandoned/Junk Vehicles",
    "date_created": "2023-10-28T21:01:17.000",
    "date_modified": "2023-10-28T21:01:17.000",
    "request_status": "Pending",
    "responsible_agency": "Department of Public Works",
    "final_address": "1627 Duels St",
    "address_councildis": "D",
    "status": "Pending",
    "rowid": "1046667",
    "final_x": "3680196.31074",
    "final_y": "542258.824717",
    "longitude": "-90.0718135745543",
    "latitude": "29.985063277627056",
    "geocoded_column": {
      "latitude": "29.985063277627056",
      "longitude": "-90.0718135745543"
    }
  },
  {
    "service_request": "2023-1046666",
    "request_type": "Trash/Recycling",
    "request_reason": "Request a Large Item Pick Up",
    "date_created": "2023-10-28T20:41:09.000",
    "date_modified": "2023-10-28T20:41:09.000",
    "request_status": "Pending",
    "responsible_agency": "Department of Sanitation",
    "final_address": "1363 Annette St",
    "address_councildis": "C",
    "status": "Assigned to Contractor",
    "contractor": "IV Waste",
    "rowid": "1046666",
    "final_x": "3683103.75714",
    "final_y": "537060.162824",
    "longitude": "-90.06281226648358",
    "latitude": "29.970680436954257",
    "geocoded_column": {
      "latitude": "29.970680436954257",
      "longitude": "-90.06281226648358"
    }
  },
  {
    "service_request": "2023-1046665",
    "request_type": "Roads/Drainage",
    "request_reason": "Pothole",
    "date_created": "2023-10-28T20:37:40.000",
    "date_modified": "2023-10-28T20:37:40.000",
    "request_status": "Pending",
    "responsible_agency": "Department of Public Works",
    "final_address": "4312 Coliseum St",
    "address_councildis": "B",
    "status": "Pending",
    "rowid": "1046665",
    "final_x": "3671244.94766",
    "final_y": "519766.51916",
    "longitude": "-90.10085135858562",
    "latitude": "29.92348481027771",
    "geocoded_column": {
      "latitude": "29.92348481027771",
      "longitude": "-90.10085135858562"
    }
  },
  {
    "service_request": "2023-1046664",
    "request_type": "Roads/Drainage",
    "request_reason": "Pothole",
    "date_created": "2023-10-28T20:33:16.000",
    "date_modified": "2023-10-28T20:33:16.000",
    "request_status": "Pending",
    "responsible_agency": "Department of Public Works",
    "final_address": "4316 Prytania St",
    "address_councildis": "B",
    "status": "Pending",
    "rowid": "1046664",
    "final_x": "3671152.56679",
    "final_y": "520266.268408",
    "longitude": "-90.10112600699054",
    "latitude": "29.924861693239798",
    "geocoded_column": {
      "latitude": "29.924861693239798",
      "longitude": "-90.10112600699054"
    }
  },
  {
    "service_request": "2023-1046663",
    "request_type": "Roads/Drainage",
    "request_reason": "Pothole",
    "date_created": "2023-10-28T20:29:47.000",
    "date_modified": "2023-10-28T20:29:47.000",
    "request_status": "Pending",
    "responsible_agency": "Department of Public Works",
    "final_address": "927 Milan St",
    "address_councildis": "B",
    "status": "Pending",
    "rowid": "1046663",
    "final_x": "3671817.38779",
    "final_y": "519097.054455",
    "longitude": "-90.09906713774141",
    "latitude": "29.921627052992818",
    "geocoded_column": {
      "latitude": "29.921627052992818",
      "longitude": "-90.09906713774141"
    }
  },
  {
    "service_request": "2023-1046662",
    "request_type": "Roads/Drainage",
    "request_reason": "Pothole",
    "date_created": "2023-10-28T19:25:09.000",
    "date_modified": "2023-10-28T19:25:09.000",
    "request_status": "Pending",
    "responsible_agency": "Department of Public Works",
    "final_address": "1317 Henry Clay Ave",
    "address_councildis": "A",
    "status": "Pending",
    "rowid": "1046662",
    "final_x": "3664534.7568",
    "final_y": "521264.632569",
    "longitude": "-90.12198302937432",
    "latitude": "29.927800906155344",
    "geocoded_column": {
      "latitude": "29.927800906155344",
      "longitude": "-90.12198302937432"
    }
  },
  {
    "service_request": "2023-1046661",
    "request_type": "Trash/Recycling",
    "request_reason": "Request a Large Item Pick Up",
    "date_created": "2023-10-28T19:19:07.000",
    "date_modified": "2023-10-28T19:19:07.000",
    "request_status": "Pending",
    "responsible_agency": "Department of Sanitation",
    "final_address": "903 Walker St",
    "address_councildis": "A",
    "status": "Assigned to Contractor",
    "contractor": "IV Waste",
    "rowid": "1046661",
    "final_x": "3670498.69095",
    "final_y": "553909.152983",
    "longitude": "-90.10204889519325",
    "latitude": "30.01738762696542",
    "geocoded_column": {
      "latitude": "30.01738762696542",
      "longitude": "-90.10204889519325"
    }
  },
  {
    "service_request": "2023-1046660",
    "request_type": "Property Maintenance",
    "request_reason": "Property Maintenance",
    "date_created": "2023-10-28T19:09:48.000",
    "date_modified": "2023-10-28T19:09:48.000",
    "request_status": "Pending",
    "responsible_agency": "Department of Code Enforcement",
    "final_address": "1013 N Salcedo St",
    "address_councildis": "A",
    "status": "Pending",
    "rowid": "1046660",
    "final_x": "3676225.69768",
    "final_y": "538957.452682",
    "longitude": "-90.08446872004451",
    "latitude": "29.976105244878166",
    "geocoded_column": {
      "latitude": "29.976105244878166",
      "longitude": "-90.08446872004451"
    }
  },
  {
    "service_request": "2023-1046659",
    "request_type": "Mosquito, Termite & Rodent Control",
    "request_reason": "Mosquito Complaint",
    "date_created": "2023-10-28T19:07:06.000",
    "date_modified": "2023-10-28T19:07:06.000",
    "request_status": "Pending",
    "responsible_agency": "Mosquito, Termite & Rodent Control Board",
    "final_address": "1918 Deslonde St",
    "address_councildis": "E",
    "status": "Pending",
    "rowid": "1046659",
    "final_x": "3696242.37187",
    "final_y": "537588.785032",
    "longitude": "-90.02130004060591",
    "latitude": "29.971726841461106",
    "geocoded_column": {
      "latitude": "29.971726841461106",
      "longitude": "-90.02130004060591"
    }
  },
  {
    "service_request": "2023-1046658",
    "request_type": "Property Maintenance",
    "request_reason": "Property Maintenance",
    "date_created": "2023-10-28T18:47:56.000",
    "date_modified": "2023-10-28T18:47:56.000",
    "request_status": "Pending",
    "responsible_agency": "Department of Code Enforcement",
    "final_address": "2400 BLK Gentilly Blvd",
    "address_councildis": "D",
    "status": "Pending",
    "rowid": "1046658",
    "final_x": "3681516.3223",
    "final_y": "545008.944219",
    "longitude": "-90.06754826361419",
    "latitude": "29.99258511130482",
    "geocoded_column": {
      "latitude": "29.99258511130482",
      "longitude": "-90.06754826361419"
    }
  },
  {
    "service_request": "2023-1046657",
    "request_type": "Trash/Recycling",
    "request_reason": "Request a Large Item Pick Up",
    "date_created": "2023-10-28T17:53:42.000",
    "date_modified": "2023-10-28T17:53:43.000",
    "request_status": "Pending",
    "responsible_agency": "Department of Sanitation",
    "final_address": "1915 Mediamolle Dr",
    "address_councildis": "C",
    "status": "Assigned to Contractor",
    "contractor": "Richards Disposal",
    "rowid": "1046657",
    "final_x": "3699427.23792",
    "final_y": "524283.515132",
    "longitude": "-90.0117264638219",
    "latitude": "29.93504139585885",
    "geocoded_column": {
      "latitude": "29.93504139585885",
      "longitude": "-90.0117264638219"
    }
  },
  {
    "service_request": "2023-1046656",
    "request_type": "Traffic Signals/Signs/Striping/Streetlights",
    "request_reason": "Street Name Sign Damaged or Missing",
    "date_created": "2023-10-28T17:06:18.000",
    "date_modified": "2023-10-28T17:06:18.000",
    "request_status": "Pending",
    "responsible_agency": "Department of Public Works",
    "final_address": "CADIZ ST & CONSTANCE ST",
    "address_councildis": "B",
    "status": "Pending",
    "rowid": "1046656",
    "final_x": "3670347.3",
    "final_y": "518343.78",
    "longitude": "-90.10373309880661",
    "latitude": "29.919599247338304",
    "geocoded_column": {
      "latitude": "29.919599247338304",
      "longitude": "-90.10373309880661"
    }
  },
  {
    "service_request": "2023-1046655",
    "request_type": "Trash/Recycling",
    "request_reason": "Request a Large Item Pick Up",
    "date_created": "2023-10-28T16:49:32.000",
    "date_modified": "2023-10-28T16:49:33.000",
    "request_status": "Pending",
    "responsible_agency": "Department of Sanitation",
    "final_address": "7929 Freret St",
    "address_councildis": "A",
    "status": "Assigned to Contractor",
    "contractor": "Richards Disposal",
    "rowid": "1046655",
    "final_x": "3661926.85114",
    "final_y": "527522.518655",
    "longitude": "-90.13000815603785",
    "latitude": "29.9450836666227",
    "geocoded_column": {
      "latitude": "29.9450836666227",
      "longitude": "-90.13000815603785"
    }
  },
  {
    "service_request": "2023-1046654",
    "request_type": "Abandoned Vehicles",
    "request_reason": "Vehicle Blocking Your Driveway",
    "date_created": "2023-10-28T16:48:41.000",
    "date_modified": "2023-10-28T16:48:41.000",
    "request_status": "Pending",
    "responsible_agency": "Department of Public Works",
    "final_address": "3309 St Claude Ave",
    "address_councildis": "C",
    "status": "Pending",
    "rowid": "1046654",
    "final_x": "3689947.25404",
    "final_y": "535875.974151",
    "longitude": "-90.0412419214707",
    "latitude": "29.967213911733026",
    "geocoded_column": {
      "latitude": "29.967213911733026",
      "longitude": "-90.0412419214707"
    }
  },
  {
    "service_request": "2023-1046653",
    "request_type": "Abandoned Vehicles",
    "request_reason": "Vehicle Blocking Your Driveway",
    "date_created": "2023-10-28T16:46:36.000",
    "date_modified": "2023-10-28T16:46:36.000",
    "request_status": "Pending",
    "responsible_agency": "Department of Public Works",
    "final_address": "3309 St Claude Ave",
    "address_councildis": "C",
    "status": "Pending",
    "rowid": "1046653",
    "final_x": "3689947.25404",
    "final_y": "535875.974151",
    "longitude": "-90.0412419214707",
    "latitude": "29.967213911733026",
    "geocoded_column": {
      "latitude": "29.967213911733026",
      "longitude": "-90.0412419214707"
    }
  },
  {
    "service_request": "2023-1046652",
    "request_type": "Mosquito, Termite & Rodent Control",
    "request_reason": "Non-Rodent Complaint (Mice, Possums, Snakes)",
    "date_created": "2023-10-28T16:25:50.000",
    "date_modified": "2023-10-28T16:25:50.000",
    "request_status": "Pending",
    "responsible_agency": "Mosquito, Termite & Rodent Control Board",
    "final_address": "3103 N Miro St",
    "address_councildis": "D",
    "status": "Pending",
    "rowid": "1046652",
    "final_x": "3690094.61001",
    "final_y": "540164.116619",
    "longitude": "-90.04062379389687",
    "latitude": "29.979000219032216",
    "geocoded_column": {
      "latitude": "29.979000219032216",
      "longitude": "-90.04062379389687"
    }
  },
  {
    "service_request": "2023-1046651",
    "request_type": "Trash/Recycling",
    "request_reason": "Order Trash Cart",
    "date_created": "2023-10-28T16:04:02.000",
    "date_modified": "2023-10-28T16:04:02.000",
    "request_status": "Pending",
    "responsible_agency": "Department of Sanitation",
    "final_address": "3130 State Street Dr",
    "address_councildis": "A",
    "status": "Assigned to Contractor",
    "contractor": "Richards Disposal",
    "rowid": "1046651",
    "final_x": "3667416.78439",
    "final_y": "527766.923519",
    "longitude": "-90.1126664507079",
    "latitude": "29.94559603090274",
    "geocoded_column": {
      "latitude": "29.94559603090274",
      "longitude": "-90.1126664507079"
    }
  },
  {
    "service_request": "2023-1046650",
    "request_type": "Traffic Signals/Signs/Striping/Streetlights",
    "request_reason": "Request for Stop Sign",
    "date_created": "2023-10-28T16:03:22.000",
    "date_modified": "2023-10-28T16:03:22.000",
    "request_status": "Pending",
    "responsible_agency": "Department of Public Works",
    "final_address": "4000 BLK Octavia St",
    "address_councildis": "B",
    "status": "Pending",
    "rowid": "1046650",
    "final_x": "3668939.99115",
    "final_y": "530177.261612",
    "longitude": "-90.107775777805",
    "latitude": "29.952178968237757",
    "geocoded_column": {
      "latitude": "29.952178968237757",
      "longitude": "-90.107775777805"
    }
  },
  {
    "service_request": "2023-1046649",
    "request_type": "Property Maintenance",
    "request_reason": "Property Maintenance",
    "date_created": "2023-10-28T16:00:03.000",
    "date_modified": "2023-10-28T16:00:03.000",
    "request_status": "Pending",
    "responsible_agency": "Department of Code Enforcement",
    "final_address": "4923 Perrault Walk",
    "address_councildis": "E",
    "status": "Pending",
    "rowid": "1046649",
    "final_x": "3709754.65861",
    "final_y": "556780.875482",
    "longitude": "-89.97790959925578",
    "latitude": "30.024065438518235",
    "geocoded_column": {
      "latitude": "30.024065438518235",
      "longitude": "-89.97790959925578"
    }
  },
  {
    "service_request": "2023-1046648",
    "request_type": "Traffic Signals/Signs/Striping/Streetlights",
    "request_reason": "Street Light Outage/Malfunction",
    "date_created": "2023-10-28T15:58:10.000",
    "date_modified": "2023-10-28T15:58:11.000",
    "request_status": "Pending",
    "responsible_agency": "Department of Public Works",
    "final_address": "4923 Perrault Walk",
    "address_councildis": "E",
    "status": "Assigned to Contractor",
    "contractor": "Legacy Professional Services",
    "rowid": "1046648",
    "final_x": "3709754.65861",
    "final_y": "556780.875482",
    "longitude": "-89.97790959925578",
    "latitude": "30.024065438518235",
    "geocoded_column": {
      "latitude": "30.024065438518235",
      "longitude": "-89.97790959925578"
    }
  },
  {
    "service_request": "2023-1046647",
    "request_type": "Roads/Drainage",
    "request_reason": "Pothole",
    "date_created": "2023-10-28T15:57:32.000",
    "date_modified": "2023-10-28T15:57:32.000",
    "request_status": "Pending",
    "responsible_agency": "Department of Public Works",
    "final_address": "1576 Henry Clay Ave",
    "address_councildis": "A",
    "status": "Pending",
    "rowid": "1046647",
    "final_x": "3664947.16416",
    "final_y": "522750.836474",
    "longitude": "-90.12063149759432",
    "latitude": "29.931875502670692",
    "geocoded_column": {
      "latitude": "29.931875502670692",
      "longitude": "-90.12063149759432"
    }
  },
  {
    "service_request": "2023-1046646",
    "request_type": "Trash/Recycling",
    "request_reason": "Missed Trash Pick-Up",
    "date_created": "2023-10-28T15:56:25.000",
    "date_modified": "2023-10-28T15:56:25.000",
    "request_status": "Pending",
    "responsible_agency": "Department of Sanitation",
    "final_address": "9619 Palm St",
    "address_councildis": "A",
    "status": "Assigned to Contractor",
    "contractor": "Richards Disposal",
    "rowid": "1046646",
    "final_x": "3663490.25479",
    "final_y": "538616.576585",
    "longitude": "-90.12470251355275",
    "latitude": "29.975543469024036",
    "geocoded_column": {
      "latitude": "29.975543469024036",
      "longitude": "-90.12470251355275"
    }
  },
  {
    "service_request": "2023-1046644",
    "request_type": "Property Maintenance",
    "request_reason": "Property Maintenance",
    "date_created": "2023-10-28T15:45:13.000",
    "date_modified": "2023-10-28T15:45:13.000",
    "request_status": "Pending",
    "responsible_agency": "Department of Code Enforcement",
    "final_address": "2419 Laurel St",
    "address_councildis": "B",
    "status": "Pending",
    "rowid": "1046644",
    "final_x": "3678336.74414",
    "final_y": "520826.252473",
    "longitude": "-90.07842855790912",
    "latitude": "29.926187081316332",
    "geocoded_column": {
      "latitude": "29.926187081316332",
      "longitude": "-90.07842855790912"
    }
  },
  {
    "service_request": "2023-1046643",
    "request_type": "Trash/Recycling",
    "request_reason": "Illegal Dumping",
    "date_created": "2023-10-28T15:37:57.000",
    "date_modified": "2023-10-28T15:37:57.000",
    "request_status": "Pending",
    "responsible_agency": "Department of Sanitation",
    "final_address": "3725 Macarthur Blvd",
    "address_councildis": "C",
    "status": "Pending",
    "rowid": "1046643",
    "final_x": "3697478.74595",
    "final_y": "520371.826872",
    "longitude": "-90.01801956058037",
    "latitude": "29.924347246960526",
    "geocoded_column": {
      "latitude": "29.924347246960526",
      "longitude": "-90.01801956058037"
    }
  },
  {
    "service_request": "2023-1046642",
    "request_type": "Trash/Recycling",
    "request_reason": "Replace Trash Cart",
    "date_created": "2023-10-28T15:35:31.000",
    "date_modified": "2023-10-28T15:35:32.000",
    "request_status": "Pending",
    "responsible_agency": "Department of Sanitation",
    "final_address": "920 Amelia St",
    "address_councildis": "B",
    "status": "Assigned to Contractor",
    "contractor": "Richards Disposal",
    "rowid": "1046642",
    "final_x": "3673747.4898",
    "final_y": "518566.644599",
    "longitude": "-90.09299275186649",
    "latitude": "29.920111287305563",
    "geocoded_column": {
      "latitude": "29.920111287305563",
      "longitude": "-90.09299275186649"
    }
  },
  {
    "service_request": "2023-1046641",
    "request_type": "Roads/Drainage",
    "request_reason": "Pothole",
    "date_created": "2023-10-28T15:25:27.000",
    "date_modified": "2023-10-28T15:25:27.000",
    "request_status": "Pending",
    "responsible_agency": "Department of Public Works",
    "final_address": "1234 Henry Clay Ave",
    "address_councildis": "A",
    "status": "Pending",
    "rowid": "1046641",
    "final_x": "3664327.06445",
    "final_y": "521120.367609",
    "longitude": "-90.12264347982506",
    "latitude": "29.92741025864685",
    "geocoded_column": {
      "latitude": "29.92741025864685",
      "longitude": "-90.12264347982506"
    }
  },
  {
    "service_request": "2023-1046639",
    "request_type": "Mosquito, Termite & Rodent Control",
    "request_reason": "Mosquito Complaint",
    "date_created": "2023-10-28T15:01:17.000",
    "date_modified": "2023-10-28T15:01:17.000",
    "request_status": "Pending",
    "responsible_agency": "Mosquito, Termite & Rodent Control Board",
    "status": "Pending",
    "rowid": "1046639",
    "longitude": "0.0",
    "latitude": "0.0",
    "geocoded_column": {
      "latitude": "0.0",
      "longitude": "0.0"
    }
  },
  {
    "service_request": "2023-1046637",
    "request_type": "Trash/Recycling",
    "request_reason": "Order Recycling Cart",
    "date_created": "2023-10-28T14:53:10.000",
    "date_modified": "2023-10-28T14:53:10.000",
    "request_status": "Pending",
    "responsible_agency": "Department of Sanitation",
    "final_address": "3917 Cadillac St",
    "address_councildis": "D",
    "status": "Pending",
    "rowid": "1046637",
    "final_x": "3677000.34952",
    "final_y": "546548.135121",
    "longitude": "-90.08176028400288",
    "latitude": "29.996953744595448",
    "geocoded_column": {
      "latitude": "29.996953744595448",
      "longitude": "-90.08176028400288"
    }
  },
  {
    "service_request": "2023-1046636",
    "request_type": "Utility Poles",
    "request_reason": "Utility Pole Leaning",
    "date_created": "2023-10-28T14:24:14.000",
    "date_modified": "2023-10-28T14:24:17.000",
    "request_status": "Pending",
    "responsible_agency": "Utility Company Collective",
    "final_address": "2846 Allen St",
    "address_councildis": "D",
    "status": "Pending",
    "rowid": "1046636",
    "final_x": "3682197.06645",
    "final_y": "542790.168141",
    "longitude": "-90.06547547183365",
    "latitude": "29.98646356574015",
    "geocoded_column": {
      "latitude": "29.98646356574015",
      "longitude": "-90.06547547183365"
    }
  },
  {
    "service_request": "2023-1046635",
    "request_type": "Trash/Recycling",
    "request_reason": "Request a Large Item Pick Up",
    "date_created": "2023-10-28T14:20:15.000",
    "date_modified": "2023-10-28T14:20:16.000",
    "request_status": "Pending",
    "responsible_agency": "Department of Sanitation",
    "final_address": "1310 N Gayoso St A",
    "address_councildis": "A",
    "status": "Assigned to Contractor",
    "contractor": "Richards Disposal",
    "rowid": "1046635",
    "final_x": "3676826.24641",
    "final_y": "539776.47937",
    "longitude": "-90.08254377387026",
    "latitude": "29.97833927536216",
    "geocoded_column": {
      "latitude": "29.97833927536216",
      "longitude": "-90.08254377387026"
    }
  },
  {
    "service_request": "2023-1046634",
    "request_type": "Trash/Recycling",
    "request_reason": "Illegal Dumping",
    "date_created": "2023-10-28T13:16:42.000",
    "date_modified": "2023-10-28T13:16:42.000",
    "request_status": "Pending",
    "responsible_agency": "Department of Sanitation",
    "final_address": "BULLARD AVE & I 10 W",
    "address_councildis": "E",
    "status": "Pending",
    "rowid": "1046634",
    "final_x": "3714912.0",
    "final_y": "564900.48",
    "longitude": "-89.96130635148693",
    "latitude": "30.046222337858797",
    "geocoded_column": {
      "latitude": "30.046222337858797",
      "longitude": "-89.96130635148693"
    }
  },
  {
    "service_request": "2023-1046633",
    "request_type": "Trash/Recycling",
    "request_reason": "Request a Large Item Pick Up",
    "date_created": "2023-10-28T13:15:14.000",
    "date_modified": "2023-10-28T13:15:15.000",
    "request_status": "Pending",
    "responsible_agency": "Department of Sanitation",
    "final_address": "5734 Chatham Dr",
    "address_councildis": "D",
    "status": "Assigned to Contractor",
    "contractor": "IV Waste",
    "rowid": "1046633",
    "final_x": "3679565.59867",
    "final_y": "553829.141335",
    "longitude": "-90.07340388107194",
    "latitude": "30.01689660965046",
    "geocoded_column": {
      "latitude": "30.01689660965046",
      "longitude": "-90.07340388107194"
    }
  },
  {
    "service_request": "2023-1046632",
    "request_type": "Trash/Recycling",
    "request_reason": "Missed Trash Pick-Up",
    "date_created": "2023-10-28T13:04:13.000",
    "date_modified": "2023-10-28T13:04:13.000",
    "request_status": "Pending",
    "responsible_agency": "Department of Sanitation",
    "final_address": "4060 Old Gentilly Rd",
    "address_councildis": "D",
    "status": "Assigned to Contractor",
    "contractor": "IV Waste",
    "rowid": "1046632",
    "final_x": "3689588.99727",
    "final_y": "548652.973843",
    "longitude": "-90.04191853511033",
    "latitude": "30.002357195706168",
    "geocoded_column": {
      "latitude": "30.002357195706168",
      "longitude": "-90.04191853511033"
    }
  },
  {
    "service_request": "2023-1046631",
    "request_type": "Trash/Recycling",
    "request_reason": "Missed Trash Pick-Up",
    "date_created": "2023-10-28T12:48:35.000",
    "date_modified": "2023-10-28T12:48:35.000",
    "request_status": "Pending",
    "responsible_agency": "Department of Sanitation",
    "final_address": "100 Finland Pl",
    "address_councildis": "C",
    "status": "Assigned to Contractor",
    "contractor": "Richards Disposal",
    "rowid": "1046631",
    "final_x": "3705692.30987",
    "final_y": "520839.658809",
    "longitude": "-89.99207510392958",
    "latitude": "29.92537181759368",
    "geocoded_column": {
      "latitude": "29.92537181759368",
      "longitude": "-89.99207510392958"
    }
  },
  {
    "service_request": "2023-1046630",
    "request_type": "Roads/Drainage",
    "request_reason": "Pothole",
    "date_created": "2023-10-28T12:31:22.000",
    "date_modified": "2023-10-28T12:31:22.000",
    "request_status": "Pending",
    "responsible_agency": "Department of Public Works",
    "final_address": "1015 Eleonore St",
    "address_councildis": "A",
    "status": "Pending",
    "rowid": "1046630",
    "final_x": "3665479.93786",
    "final_y": "519825.987512",
    "longitude": "-90.11904743126631",
    "latitude": "29.923817576210073",
    "geocoded_column": {
      "latitude": "29.923817576210073",
      "longitude": "-90.11904743126631"
    }
  },
  {
    "service_request": "2023-1046628",
    "request_type": "Roads/Drainage",
    "request_reason": "Pothole",
    "date_created": "2023-10-28T12:27:08.000",
    "date_modified": "2023-10-28T12:27:08.000",
    "request_status": "Pending",
    "responsible_agency": "Department of Public Works",
    "final_address": "1430 Webster St",
    "address_councildis": "A",
    "status": "Pending",
    "rowid": "1046628",
    "final_x": "3664809.49536",
    "final_y": "521665.727865",
    "longitude": "-90.12110234564213",
    "latitude": "29.928895802564302",
    "geocoded_column": {
      "latitude": "29.928895802564302",
      "longitude": "-90.12110234564213"
    }
  },
  {
    "service_request": "2023-1046627",
    "request_type": "Safety & Permits",
    "request_reason": "Licenses & Permits",
    "date_created": "2023-10-28T11:53:54.000",
    "date_modified": "2023-10-28T11:53:54.000",
    "request_status": "Pending",
    "responsible_agency": "Safety and Permits",
    "final_address": "3125 N Villere St",
    "address_councildis": "C",
    "status": "Pending",
    "rowid": "1046627",
    "final_x": "3689496.02499",
    "final_y": "537095.01172",
    "longitude": "-90.04262353861344",
    "latitude": "29.97057982024269",
    "geocoded_column": {
      "latitude": "29.97057982024269",
      "longitude": "-90.04262353861344"
    }
  },
  {
    "service_request": "2023-1046626",
    "request_type": "Trash/Recycling",
    "request_reason": "Replace Trash Cart",
    "date_created": "2023-10-28T11:38:14.000",
    "date_modified": "2023-10-28T11:38:15.000",
    "request_status": "Pending",
    "responsible_agency": "Department of Sanitation",
    "final_address": "5431 Debore Dr",
    "address_councildis": "D",
    "status": "Assigned to Contractor",
    "contractor": "IV Waste",
    "rowid": "1046626",
    "final_x": "3691987.69161",
    "final_y": "554055.016856",
    "longitude": "-90.03414729807746",
    "latitude": "30.017136262276974",
    "geocoded_column": {
      "latitude": "30.017136262276974",
      "longitude": "-90.03414729807746"
    }
  },
  {
    "service_request": "2023-1046625",
    "request_type": "Roads/Drainage",
    "request_reason": "Catch Basin - Broken/Damage",
    "date_created": "2023-10-28T11:34:26.000",
    "date_modified": "2023-10-28T11:34:26.000",
    "request_status": "Pending",
    "responsible_agency": "Department of Public Works",
    "final_address": "3533 Pin Oak Ave",
    "address_councildis": "C",
    "status": "Pending",
    "rowid": "1046625",
    "final_x": "3703403.03338",
    "final_y": "514938.531315",
    "longitude": "-89.99951841775287",
    "latitude": "29.90921923071236",
    "geocoded_column": {
      "latitude": "29.90921923071236",
      "longitude": "-89.99951841775287"
    }
  },
  {
    "service_request": "2023-1046623",
    "request_type": "Roads/Drainage",
    "request_reason": "Pothole",
    "date_created": "2023-10-28T11:24:19.000",
    "date_modified": "2023-10-28T11:24:19.000",
    "request_status": "Pending",
    "responsible_agency": "Department of Public Works",
    "final_address": "6125 Pitt St",
    "address_councildis": "A",
    "status": "Pending",
    "rowid": "1046623",
    "final_x": "3664701.78119",
    "final_y": "521470.575801",
    "longitude": "-90.1214488946833",
    "latitude": "29.92836232888595",
    "geocoded_column": {
      "latitude": "29.92836232888595",
      "longitude": "-90.1214488946833"
    }
  },
  {
    "service_request": "2023-1046622",
    "request_type": "Traffic Signals/Signs/Striping/Streetlights",
    "request_reason": "Street Name Sign Damaged or Missing",
    "date_created": "2023-10-28T11:12:01.000",
    "date_modified": "2023-10-28T11:12:01.000",
    "request_status": "Pending",
    "responsible_agency": "Department of Public Works",
    "final_address": "7900 BLK Belfast St",
    "address_councildis": "A",
    "status": "Pending",
    "rowid": "1046622",
    "final_x": "3666048.52154",
    "final_y": "531947.035631",
    "longitude": "-90.11684640323463",
    "latitude": "29.957129990004326",
    "geocoded_column": {
      "latitude": "29.957129990004326",
      "longitude": "-90.11684640323463"
    }
  },
  {
    "service_request": "2023-1046621",
    "request_type": "Trash/Recycling",
    "request_reason": "Illegal Dumping",
    "date_created": "2023-10-28T10:57:52.000",
    "date_modified": "2023-10-28T10:57:52.000",
    "request_status": "Pending",
    "responsible_agency": "Department of Sanitation",
    "final_address": "1315 St Andrew St",
    "address_councildis": "B",
    "status": "Pending",
    "rowid": "1046621",
    "final_x": "3678976.02146",
    "final_y": "523267.033787",
    "longitude": "-90.07632601935202",
    "latitude": "29.93287916439355",
    "geocoded_column": {
      "latitude": "29.93287916439355",
      "longitude": "-90.07632601935202"
    }
  },
  {
    "service_request": "2023-1046620",
    "request_type": "Trash/Recycling",
    "request_reason": "Replace Recycling Cart",
    "date_created": "2023-10-28T10:27:05.000",
    "date_modified": "2023-10-28T10:27:05.000",
    "request_status": "Pending",
    "responsible_agency": "Department of Sanitation",
    "final_address": "6408 Bertha Dr",
    "address_councildis": "D",
    "status": "Pending",
    "rowid": "1046620",
    "final_x": "3677985.29838",
    "final_y": "556758.797466",
    "longitude": "-90.07829558792753",
    "latitude": "30.02499978474412",
    "geocoded_column": {
      "latitude": "30.02499978474412",
      "longitude": "-90.07829558792753"
    }
  },
  {
    "service_request": "2023-1046619",
    "request_type": "Trash/Recycling",
    "request_reason": "MIssed Recycling Pick-Up",
    "date_created": "2023-10-28T10:23:59.000",
    "date_modified": "2023-10-28T10:23:59.000",
    "request_status": "Pending",
    "responsible_agency": "Department of Sanitation",
    "final_address": "1904 Jena St",
    "address_councildis": "B",
    "status": "Assigned to Contractor",
    "contractor": "Richards Disposal",
    "rowid": "1046619",
    "final_x": "3670297.5033",
    "final_y": "522008.118202",
    "longitude": "-90.10376616596974",
    "latitude": "29.9296764798319",
    "geocoded_column": {
      "latitude": "29.9296764798319",
      "longitude": "-90.10376616596974"
    }
  },
  {
    "service_request": "2023-1046618",
    "request_type": "Traffic Signals/Signs/Striping/Streetlights",
    "request_reason": "Street Name Sign Damaged or Missing",
    "date_created": "2023-10-28T10:19:14.000",
    "date_modified": "2023-10-28T10:19:14.000",
    "request_status": "Pending",
    "responsible_agency": "Department of Public Works",
    "final_address": "5311 Chartres St",
    "address_councildis": "E",
    "status": "Pending",
    "rowid": "1046618",
    "final_x": "3696370.25872",
    "final_y": "532264.585539",
    "longitude": "-90.02108872147109",
    "latitude": "29.95708315698766",
    "geocoded_column": {
      "latitude": "29.95708315698766",
      "longitude": "-90.02108872147109"
    }
  },
  {
    "service_request": "2023-1046617",
    "request_type": "Trash/Recycling",
    "request_reason": "MIssed Recycling Pick-Up",
    "date_created": "2023-10-28T10:11:10.000",
    "date_modified": "2023-10-28T10:11:11.000",
    "request_status": "Pending",
    "responsible_agency": "Department of Sanitation",
    "final_address": "7728 Plum St",
    "address_councildis": "A",
    "status": "Assigned to Contractor",
    "contractor": "Richards Disposal",
    "rowid": "1046617",
    "final_x": "3663079.25248",
    "final_y": "527781.895167",
    "longitude": "-90.12636102356754",
    "latitude": "29.945763541728354",
    "geocoded_column": {
      "latitude": "29.945763541728354",
      "longitude": "-90.12636102356754"
    }
  },
  {
    "service_request": "2023-1046616",
    "request_type": "Trash/Recycling",
    "request_reason": "Order Recycling Cart",
    "date_created": "2023-10-28T10:04:27.000",
    "date_modified": "2023-10-28T10:04:27.000",
    "request_status": "Pending",
    "responsible_agency": "Department of Sanitation",
    "final_address": "3312 Broadway St",
    "address_councildis": "B",
    "status": "Pending",
    "rowid": "1046616",
    "final_x": "3668380.56545",
    "final_y": "532842.085956",
    "longitude": "-90.10945231607661",
    "latitude": "29.959522800640748",
    "geocoded_column": {
      "latitude": "29.959522800640748",
      "longitude": "-90.10945231607661"
    }
  },
  {
    "service_request": "2023-1046614",
    "request_type": "Trash/Recycling",
    "request_reason": "Request a Large Item Pick Up",
    "date_created": "2023-10-28T09:48:16.000",
    "date_modified": "2023-10-28T09:48:16.000",
    "request_status": "Pending",
    "responsible_agency": "Department of Sanitation",
    "final_address": "6201 Waldo Dr",
    "address_councildis": "D",
    "status": "Assigned to Contractor",
    "contractor": "IV Waste",
    "rowid": "1046614",
    "final_x": "3681158.46767",
    "final_y": "555629.635417",
    "longitude": "-90.06830827550976",
    "latitude": "30.021799056046582",
    "geocoded_column": {
      "latitude": "30.021799056046582",
      "longitude": "-90.06830827550976"
    }
  },
  {
    "service_request": "2023-1046613",
    "request_type": "Trash/Recycling",
    "request_reason": "Order Recycling Cart",
    "date_created": "2023-10-28T09:46:12.000",
    "date_modified": "2023-10-28T09:46:12.000",
    "request_status": "Pending",
    "responsible_agency": "Department of Sanitation",
    "final_address": "2455 N Villere St",
    "address_councildis": "C",
    "status": "Pending",
    "rowid": "1046613",
    "final_x": "3686923.00482",
    "final_y": "537605.54676",
    "longitude": "-90.05073137115771",
    "latitude": "29.972063056159204",
    "geocoded_column": {
      "latitude": "29.972063056159204",
      "longitude": "-90.05073137115771"
    }
  },
  {
    "service_request": "2023-1046612",
    "request_type": "Trash/Recycling",
    "request_reason": "Return Trash Cart",
    "date_created": "2023-10-28T09:39:33.000",
    "date_modified": "2023-10-28T09:39:33.000",
    "request_status": "Pending",
    "responsible_agency": "Department of Sanitation",
    "final_address": "2828 Upperline St",
    "address_councildis": "B",
    "status": "Assigned to Contractor",
    "contractor": "Richards Disposal",
    "rowid": "1046612",
    "final_x": "3669160.05127",
    "final_y": "525203.114365",
    "longitude": "-90.10724898782733",
    "latitude": "29.938495206542953",
    "geocoded_column": {
      "latitude": "29.938495206542953",
      "longitude": "-90.10724898782733"
    }
  },
  {
    "service_request": "2023-1046611",
    "request_type": "Roads/Drainage",
    "request_reason": "Pothole",
    "date_created": "2023-10-28T09:39:31.000",
    "date_modified": "2023-10-28T09:39:31.000",
    "request_status": "Pending",
    "responsible_agency": "Department of Public Works",
    "final_address": "5640 Norland Ave",
    "address_councildis": "C",
    "status": "Pending",
    "rowid": "1046611",
    "final_x": "3704518.04593",
    "final_y": "520698.676473",
    "longitude": "-89.99578705334623",
    "latitude": "29.925021907927224",
    "geocoded_column": {
      "latitude": "29.925021907927224",
      "longitude": "-89.99578705334623"
    }
  },
  {
    "service_request": "2023-1046610",
    "request_type": "Trash/Recycling",
    "request_reason": "MIssed Recycling Pick-Up",
    "date_created": "2023-10-28T08:45:10.000",
    "date_modified": "2023-10-28T08:45:10.000",
    "request_status": "Pending",
    "responsible_agency": "Department of Sanitation",
    "final_address": "2319 Upperline St",
    "address_councildis": "B",
    "status": "Assigned to Contractor",
    "contractor": "Richards Disposal",
    "rowid": "1046610",
    "final_x": "3669227.1458",
    "final_y": "523354.657915",
    "longitude": "-90.10709961506116",
    "latitude": "29.933410571603417",
    "geocoded_column": {
      "latitude": "29.933410571603417",
      "longitude": "-90.10709961506116"
    }
  },
  {
    "service_request": "2023-1046609",
    "request_type": "Trash/Recycling",
    "request_reason": "Missed Trash Pick-Up",
    "date_created": "2023-10-28T08:21:08.000",
    "date_modified": "2023-10-28T08:21:08.000",
    "request_status": "Pending",
    "responsible_agency": "Department of Sanitation",
    "final_address": "2718 Eagle St",
    "address_councildis": "A",
    "status": "Assigned to Contractor",
    "contractor": "Richards Disposal",
    "rowid": "1046609",
    "final_x": "3663837.66426",
    "final_y": "534175.424069",
    "longitude": "-90.12375336055202",
    "latitude": "29.96332168478945",
    "geocoded_column": {
      "latitude": "29.96332168478945",
      "longitude": "-90.12375336055202"
    }
  },
  {
    "service_request": "2023-1046608",
    "request_type": "Roads/Drainage",
    "request_reason": "Catch Basin - Clogged",
    "date_created": "2023-10-28T07:18:22.000",
    "date_modified": "2023-10-28T07:18:22.000",
    "request_status": "Pending",
    "responsible_agency": "Department of Public Works",
    "final_address": "3643 Camp St",
    "address_councildis": "B",
    "status": "Pending",
    "rowid": "1046608",
    "final_x": "3673631.79086",
    "final_y": "519598.60364",
    "longitude": "-90.09332270748293",
    "latitude": "29.922952287617537",
    "geocoded_column": {
      "latitude": "29.922952287617537",
      "longitude": "-90.09332270748293"
    }
  },
  {
    "service_request": "2023-1046607",
    "request_type": "Trash/Recycling",
    "request_reason": "Order Recycling Cart",
    "date_created": "2023-10-28T07:08:45.000",
    "date_modified": "2023-10-28T07:08:45.000",
    "request_status": "Pending",
    "responsible_agency": "Department of Sanitation",
    "final_address": "6060 Providence Pl",
    "address_councildis": "D",
    "status": "Pending",
    "rowid": "1046607",
    "final_x": "3688038.96182",
    "final_y": "555978.757273",
    "longitude": "-90.04655537884564",
    "latitude": "30.022548349649814",
    "geocoded_column": {
      "latitude": "30.022548349649814",
      "longitude": "-90.04655537884564"
    }
  },
  {
    "service_request": "2023-1046606",
    "request_type": "Roads/Drainage",
    "request_reason": "Pothole",
    "date_created": "2023-10-28T06:57:44.000",
    "date_modified": "2023-10-28T06:57:44.000",
    "request_status": "Pending",
    "responsible_agency": "Department of Public Works",
    "final_address": "5050 St Charles Ave",
    "address_councildis": "B",
    "status": "Pending",
    "rowid": "1046606",
    "final_x": "3668465.50318",
    "final_y": "520857.219449",
    "longitude": "-90.10958828698679",
    "latitude": "29.926565802231472",
    "geocoded_column": {
      "latitude": "29.926565802231472",
      "longitude": "-90.10958828698679"
    }
  },
  {
    "service_request": "2023-1046605",
    "request_type": "Roads/Drainage",
    "request_reason": "Pothole",
    "date_created": "2023-10-28T01:53:00.000",
    "date_modified": "2023-10-28T01:53:00.000",
    "request_status": "Pending",
    "responsible_agency": "Department of Public Works",
    "final_address": "1224 Constantinople St",
    "address_councildis": "B",
    "status": "Pending",
    "rowid": "1046605",
    "final_x": "3672326.33211",
    "final_y": "520156.27724",
    "longitude": "-90.09742455349182",
    "latitude": "29.924524493122814",
    "geocoded_column": {
      "latitude": "29.924524493122814",
      "longitude": "-90.09742455349182"
    }
  },
  {
    "service_request": "2023-1046604",
    "request_type": "Trash/Recycling",
    "request_reason": "Repair Trash Cart",
    "date_created": "2023-10-28T00:39:07.000",
    "date_modified": "2023-10-28T00:39:08.000",
    "request_status": "Pending",
    "responsible_agency": "Department of Sanitation",
    "final_address": "2706 Calhoun St",
    "address_councildis": "A",
    "status": "Assigned to Contractor",
    "contractor": "Richards Disposal",
    "rowid": "1046604",
    "final_x": "3666428.61556",
    "final_y": "526719.123838",
    "longitude": "-90.11582158619274",
    "latitude": "29.942743828372937",
    "geocoded_column": {
      "latitude": "29.942743828372937",
      "longitude": "-90.11582158619274"
    }
  },
  {
    "service_request": "2023-1046603",
    "request_type": "Roads/Drainage",
    "request_reason": "Pothole",
    "date_created": "2023-10-27T23:57:11.000",
    "date_modified": "2023-10-27T23:57:11.000",
    "request_status": "Pending",
    "responsible_agency": "Department of Public Works",
    "final_address": "1315 Peniston St",
    "address_councildis": "B",
    "status": "Pending",
    "rowid": "1046603",
    "final_x": "3673101.31451",
    "final_y": "520423.11276",
    "longitude": "-90.09496908964098",
    "latitude": "29.925235197927364",
    "geocoded_column": {
      "latitude": "29.925235197927364",
      "longitude": "-90.09496908964098"
    }
  },
  {
    "service_request": "2023-1046602",
    "request_type": "Roads/Drainage",
    "request_reason": "Pothole",
    "date_created": "2023-10-27T23:51:44.000",
    "date_modified": "2023-10-27T23:51:44.000",
    "request_status": "Pending",
    "responsible_agency": "Department of Public Works",
    "final_address": "1312 Milan St",
    "address_councildis": "B",
    "status": "Pending",
    "rowid": "1046602",
    "final_x": "3671625.82823",
    "final_y": "520286.919608",
    "longitude": "-90.09963137110304",
    "latitude": "29.92490447494246",
    "geocoded_column": {
      "latitude": "29.92490447494246",
      "longitude": "-90.09963137110304"
    }
  },
  {
    "service_request": "2023-1046601",
    "request_type": "Roads/Drainage",
    "request_reason": "Pothole",
    "date_created": "2023-10-27T23:42:10.000",
    "date_modified": "2023-10-27T23:42:10.000",
    "request_status": "Pending",
    "responsible_agency": "Department of Public Works",
    "final_address": "1421 Constantinople St",
    "address_councildis": "B",
    "status": "Pending",
    "rowid": "1046601",
    "final_x": "3672433.24257",
    "final_y": "520667.657465",
    "longitude": "-90.09706965638372",
    "latitude": "29.925927453713577",
    "geocoded_column": {
      "latitude": "29.925927453713577",
      "longitude": "-90.09706965638372"
    }
  },
  {
    "service_request": "2023-1046600",
    "request_type": "Roads/Drainage",
    "request_reason": "Pothole",
    "date_created": "2023-10-27T23:32:49.000",
    "date_modified": "2023-10-27T23:32:49.000",
    "request_status": "Pending",
    "responsible_agency": "Department of Public Works",
    "final_address": "4216 Chestnut St",
    "address_councildis": "B",
    "status": "Pending",
    "rowid": "1046600",
    "final_x": "3671574.31393",
    "final_y": "519539.203703",
    "longitude": "-90.09981939416457",
    "latitude": "29.922850019854593",
    "geocoded_column": {
      "latitude": "29.922850019854593",
      "longitude": "-90.09981939416457"
    }
  },
  {
    "service_request": "2023-1046599",
    "request_type": "Roads/Drainage",
    "request_reason": "Pothole",
    "date_created": "2023-10-27T21:48:54.000",
    "date_modified": "2023-10-27T21:48:54.000",
    "request_status": "Pending",
    "responsible_agency": "Department of Public Works",
    "final_address": "5929 Chestnut St",
    "address_councildis": "A",
    "status": "Pending",
    "rowid": "1046599",
    "final_x": "3665179.07604",
    "final_y": "519869.398712",
    "longitude": "-90.11999569598656",
    "latitude": "29.92394570684376",
    "geocoded_column": {
      "latitude": "29.92394570684376",
      "longitude": "-90.11999569598656"
    }
  },
  {
    "service_request": "2023-1046598",
    "request_type": "Roads/Drainage",
    "request_reason": "Pothole",
    "date_created": "2023-10-27T21:43:15.000",
    "date_modified": "2023-10-27T21:43:15.000",
    "request_status": "Pending",
    "responsible_agency": "Department of Public Works",
    "final_address": "6030 Chestnut St",
    "address_councildis": "A",
    "status": "Pending",
    "rowid": "1046598",
    "final_x": "3664661.37773",
    "final_y": "519852.51884",
    "longitude": "-90.1216304547064",
    "latitude": "29.923914355909606",
    "geocoded_column": {
      "latitude": "29.923914355909606",
      "longitude": "-90.1216304547064"
    }
  },
  {
    "service_request": "2023-1046597",
    "request_type": "Roads/Drainage",
    "request_reason": "Pothole",
    "date_created": "2023-10-27T21:40:44.000",
    "date_modified": "2023-10-27T21:40:44.000",
    "request_status": "Pending",
    "responsible_agency": "Department of Public Works",
    "final_address": "5822 Chestnut St",
    "address_councildis": "A",
    "status": "Pending",
    "rowid": "1046597",
    "final_x": "3665470.50669",
    "final_y": "519673.469368",
    "longitude": "-90.11908230406746",
    "latitude": "29.923398474042003",
    "geocoded_column": {
      "latitude": "29.923398474042003",
      "longitude": "-90.11908230406746"
    }
  },
  {
    "service_request": "2023-1046596",
    "request_type": "Trash/Recycling",
    "request_reason": "Order Recycling Cart",
    "date_created": "2023-10-27T21:32:01.000",
    "date_modified": "2023-10-27T21:32:01.000",
    "request_status": "Pending",
    "responsible_agency": "Department of Sanitation",
    "final_address": "8461 Beechwood Ct",
    "address_councildis": "E",
    "status": "Pending",
    "rowid": "1046596",
    "final_x": "3704528.76708",
    "final_y": "560853.235614",
    "longitude": "-89.99427192063531",
    "latitude": "30.035431781288604",
    "geocoded_column": {
      "latitude": "30.035431781288604",
      "longitude": "-89.99427192063531"
    }
  },
  {
    "service_request": "2023-1046595",
    "request_type": "Trash/Recycling",
    "request_reason": "MIssed Recycling Pick-Up",
    "date_created": "2023-10-27T21:12:18.000",
    "date_modified": "2023-10-27T21:12:18.000",
    "request_status": "Pending",
    "responsible_agency": "Department of Sanitation",
    "final_address": "7328 Plum St",
    "address_councildis": "A",
    "status": "Assigned to Contractor",
    "contractor": "Richards Disposal",
    "rowid": "1046595",
    "final_x": "3663927.37088",
    "final_y": "527035.813182",
    "longitude": "-90.12370808767713",
    "latitude": "29.94368746359225",
    "geocoded_column": {
      "latitude": "29.94368746359225",
      "longitude": "-90.12370808767713"
    }
  },
  {
    "service_request": "2023-1046593",
    "request_type": "Trash/Recycling",
    "request_reason": "MIssed Recycling Pick-Up",
    "date_created": "2023-10-27T20:53:14.000",
    "date_modified": "2023-10-27T20:53:15.000",
    "request_status": "Pending",
    "responsible_agency": "Department of Sanitation",
    "status": "Assigned to Contractor",
    "rowid": "1046593",
    "longitude": "0.0",
    "latitude": "0.0",
    "geocoded_column": {
      "latitude": "0.0",
      "longitude": "0.0"
    }
  },
  {
    "service_request": "2023-1046592",
    "request_type": "Roads/Drainage",
    "request_reason": "Man hole cover issue",
    "date_created": "2023-10-27T20:50:05.000",
    "date_modified": "2023-10-27T20:50:05.000",
    "request_status": "Pending",
    "responsible_agency": "Department of Public Works",
    "final_address": "Chartres Street & Pirates Alley",
    "address_councildis": "C",
    "status": "Pending",
    "rowid": "1046592",
    "final_x": "3682906.63285",
    "final_y": "532335.93914",
    "longitude": "-90.06360013638074",
    "latitude": "29.957696453764143",
    "geocoded_column": {
      "latitude": "29.957696453764143",
      "longitude": "-90.06360013638074"
    }
  },
  {
    "service_request": "2023-1046591",
    "request_type": "Trash/Recycling",
    "request_reason": "Request a Large Item Pick Up",
    "date_created": "2023-10-27T20:41:57.000",
    "date_modified": "2023-10-27T20:41:58.000",
    "request_status": "Pending",
    "responsible_agency": "Department of Sanitation",
    "final_address": "1716 Cambronne St",
    "address_councildis": "A",
    "status": "Assigned to Contractor",
    "contractor": "Richards Disposal",
    "rowid": "1046591",
    "final_x": "3662424.83821",
    "final_y": "530543.421378",
    "longitude": "-90.12833554476613",
    "latitude": "29.95337578969376",
    "geocoded_column": {
      "latitude": "29.95337578969376",
      "longitude": "-90.12833554476613"
    }
  },
  {
    "service_request": "2023-1046590",
    "request_type": "Trash/Recycling",
    "request_reason": "Missed Trash Pick-Up",
    "date_created": "2023-10-27T18:55:21.000",
    "date_modified": "2023-10-27T18:55:21.000",
    "request_status": "Pending",
    "responsible_agency": "Department of Sanitation",
    "final_address": "7517 Mayo Rd",
    "address_councildis": "E",
    "status": "Assigned to Contractor",
    "contractor": "Waste Pro",
    "rowid": "1046590",
    "final_x": "3700992.47556",
    "final_y": "560554.536734",
    "longitude": "-90.00545807048017",
    "latitude": "30.034723632592225",
    "geocoded_column": {
      "latitude": "30.034723632592225",
      "longitude": "-90.00545807048017"
    }
  },
  {
    "service_request": "2023-1046589",
    "request_type": "Roads/Drainage",
    "request_reason": "Pothole",
    "date_created": "2023-10-27T18:52:09.000",
    "date_modified": "2023-10-27T18:52:09.000",
    "request_status": "Pending",
    "responsible_agency": "Department of Public Works",
    "final_address": "4216 Coliseum St",
    "address_councildis": "B",
    "status": "Pending",
    "rowid": "1046589",
    "final_x": "3671574.34702",
    "final_y": "519828.46828",
    "longitude": "-90.09980946002878",
    "latitude": "29.923645404197224",
    "geocoded_column": {
      "latitude": "29.923645404197224",
      "longitude": "-90.09980946002878"
    }
  },
  {
    "service_request": "2023-1046587",
    "request_type": "Safety & Permits",
    "request_reason": "Licenses & Permits",
    "date_created": "2023-10-27T18:44:28.000",
    "date_modified": "2023-10-27T18:44:28.000",
    "request_status": "Pending",
    "responsible_agency": "Safety and Permits",
    "final_address": "4523 Magazine St",
    "address_councildis": "B",
    "status": "Pending",
    "rowid": "1046587",
    "final_x": "3670459.91399",
    "final_y": "518764.599223",
    "longitude": "-90.10336337284775",
    "latitude": "29.920753043460966",
    "geocoded_column": {
      "latitude": "29.920753043460966",
      "longitude": "-90.10336337284775"
    }
  },
  {
    "service_request": "2023-1046586",
    "request_type": "Trash/Recycling",
    "request_reason": "Request a Large Item Pick Up",
    "date_created": "2023-10-27T18:17:51.000",
    "date_modified": "2023-10-27T18:17:51.000",
    "request_status": "Pending",
    "responsible_agency": "Department of Sanitation",
    "final_address": "5730 Rosemary Pl",
    "address_councildis": "A",
    "status": "Assigned to Contractor",
    "contractor": "IV Waste",
    "rowid": "1046586",
    "final_x": "3667274.85076",
    "final_y": "545747.546832",
    "longitude": "-90.11250972497538",
    "latitude": "29.995040909849457",
    "geocoded_column": {
      "latitude": "29.995040909849457",
      "longitude": "-90.11250972497538"
    }
  },
  {
    "service_request": "2023-1046585",
    "request_type": "Trash/Recycling",
    "request_reason": "MIssed Recycling Pick-Up",
    "date_created": "2023-10-27T17:57:48.000",
    "date_modified": "2023-10-27T17:57:48.000",
    "request_status": "Pending",
    "responsible_agency": "Department of Sanitation",
    "final_address": "1518 St Ann St",
    "address_councildis": "C",
    "status": "Assigned to Contractor",
    "contractor": "Richards Disposal",
    "rowid": "1046585",
    "final_x": "3680384.47131",
    "final_y": "534543.136133",
    "longitude": "-90.07148763403934",
    "latitude": "29.96384210298535",
    "geocoded_column": {
      "latitude": "29.96384210298535",
      "longitude": "-90.07148763403934"
    }
  },
  {
    "service_request": "2023-1046584",
    "request_type": "Trash/Recycling",
    "request_reason": "Order Recycling Cart",
    "date_created": "2023-10-27T17:46:45.000",
    "date_modified": "2023-10-27T17:46:45.000",
    "request_status": "Pending",
    "responsible_agency": "Department of Sanitation",
    "final_address": "5931 Congress Dr",
    "address_councildis": "D",
    "status": "Pending",
    "rowid": "1046584",
    "final_x": "3691029.10307",
    "final_y": "555831.700057",
    "longitude": "-90.03711253209586",
    "latitude": "30.022051327796916",
    "geocoded_column": {
      "latitude": "30.022051327796916",
      "longitude": "-90.03711253209586"
    }
  },
  {
    "service_request": "2023-1046583",
    "request_type": "Roads/Drainage",
    "request_reason": "Street Subsidence (Sinking)",
    "date_created": "2023-10-27T17:37:17.000",
    "date_modified": "2023-10-27T17:37:17.000",
    "request_status": "Pending",
    "responsible_agency": "Department of Public Works",
    "status": "Pending",
    "rowid": "1046583",
    "longitude": "0.0",
    "latitude": "0.0",
    "geocoded_column": {
      "latitude": "0.0",
      "longitude": "0.0"
    }
  },
  {
    "service_request": "2023-1046582",
    "request_type": "Trash/Recycling",
    "request_reason": "Repair Trash Cart",
    "date_created": "2023-10-27T17:03:28.000",
    "date_modified": "2023-10-27T17:03:29.000",
    "request_status": "Pending",
    "responsible_agency": "Department of Sanitation",
    "final_address": "2460 N Rampart St",
    "address_councildis": "C",
    "status": "Assigned to Contractor",
    "contractor": "IV Waste",
    "rowid": "1046582",
    "final_x": "3686348.36412",
    "final_y": "536018.401287",
    "longitude": "-90.05260220229154",
    "latitude": "29.967716633660633",
    "geocoded_column": {
      "latitude": "29.967716633660633",
      "longitude": "-90.05260220229154"
    }
  },
  {
    "service_request": "2023-1046581",
    "request_type": "Trash/Recycling",
    "request_reason": "Dead Animal Pick Up",
    "date_created": "2023-10-27T17:01:16.000",
    "date_modified": "2023-10-27T17:01:16.000",
    "request_status": "Pending",
    "responsible_agency": "Department of Sanitation",
    "final_address": "1224 Merrill St",
    "address_councildis": "C",
    "status": "Assigned to Contractor",
    "contractor": "Richards Disposal",
    "rowid": "1046581",
    "final_x": "3694996.5361",
    "final_y": "527126.369087",
    "longitude": "-90.02561166151678",
    "latitude": "29.942998039106453",
    "geocoded_column": {
      "latitude": "29.942998039106453",
      "longitude": "-90.02561166151678"
    }
  },
  {
    "service_request": "2023-1046580",
    "request_type": "Trash/Recycling",
    "request_reason": "Request a Large Item Pick Up",
    "date_created": "2023-10-27T16:48:33.000",
    "date_modified": "2023-10-27T16:48:33.000",
    "request_status": "Pending",
    "responsible_agency": "Department of Sanitation",
    "final_address": "7311 Brevard Ave",
    "address_councildis": "E",
    "status": "Assigned to Contractor",
    "contractor": "Waste Pro",
    "rowid": "1046580",
    "final_x": "3706827.94398",
    "final_y": "562679.576544",
    "longitude": "-89.98693837381214",
    "latitude": "30.040379417141946",
    "geocoded_column": {
      "latitude": "30.040379417141946",
      "longitude": "-89.98693837381214"
    }
  },
  {
    "service_request": "2023-1046579",
    "request_type": "Abandoned Vehicles",
    "request_reason": "Abandoned/Junk Vehicles",
    "date_created": "2023-10-27T16:46:09.000",
    "date_modified": "2023-10-27T16:46:09.000",
    "request_status": "Pending",
    "responsible_agency": "Department of Public Works",
    "final_address": "1559 De Battista Pl",
    "address_councildis": "C",
    "status": "Pending",
    "rowid": "1046579",
    "final_x": "3699706.2593",
    "final_y": "525293.059901",
    "longitude": "-90.01080881533075",
    "latitude": "29.937808441185318",
    "geocoded_column": {
      "latitude": "29.937808441185318",
      "longitude": "-90.01080881533075"
    }
  },
  {
    "service_request": "2023-1046578",
    "request_type": "Trash/Recycling",
    "request_reason": "Replace Trash Cart",
    "date_created": "2023-10-27T16:30:59.000",
    "date_modified": "2023-10-27T16:31:00.000",
    "request_status": "Pending",
    "responsible_agency": "Department of Sanitation",
    "final_address": "8519 Sycamore St",
    "address_councildis": "A",
    "status": "Assigned to Contractor",
    "contractor": "Richards Disposal",
    "rowid": "1046578",
    "final_x": "3663196.17888",
    "final_y": "532053.528707",
    "longitude": "-90.12584972085565",
    "latitude": "29.95750576859633",
    "geocoded_column": {
      "latitude": "29.95750576859633",
      "longitude": "-90.12584972085565"
    }
  },
  {
    "service_request": "2023-1046577",
    "request_type": "Trash/Recycling",
    "request_reason": "Repair Trash Cart",
    "date_created": "2023-10-27T16:27:28.000",
    "date_modified": "2023-10-27T16:27:29.000",
    "request_status": "Pending",
    "responsible_agency": "Department of Sanitation",
    "final_address": "4228 S Miro St",
    "address_councildis": "B",
    "status": "Assigned to Contractor",
    "contractor": "Richards Disposal",
    "rowid": "1046577",
    "final_x": "3670686.03559",
    "final_y": "527831.576447",
    "longitude": "-90.10234213728467",
    "latitude": "29.945677636567638",
    "geocoded_column": {
      "latitude": "29.945677636567638",
      "longitude": "-90.10234213728467"
    }
  },
  {
    "service_request": "2023-1046576",
    "request_type": "Trash/Recycling",
    "request_reason": "Return Recycling Cart",
    "date_created": "2023-10-27T16:25:24.000",
    "date_modified": "2023-10-27T16:25:25.000",
    "request_status": "Pending",
    "responsible_agency": "Department of Sanitation",
    "final_address": "1303 Delachaise St",
    "address_councildis": "B",
    "status": "Pending",
    "rowid": "1046576",
    "final_x": "3674374.55137",
    "final_y": "520235.771",
    "longitude": "-90.090956291032",
    "latitude": "29.924682170140652",
    "geocoded_column": {
      "latitude": "29.924682170140652",
      "longitude": "-90.090956291032"
    }
  },
  {
    "service_request": "2023-1046575",
    "request_type": "Trash/Recycling",
    "request_reason": "Return Trash Cart",
    "date_created": "2023-10-27T16:24:28.000",
    "date_modified": "2023-10-27T16:24:29.000",
    "request_status": "Pending",
    "responsible_agency": "Department of Sanitation",
    "final_address": "1303 Delachaise St",
    "address_councildis": "B",
    "status": "Assigned to Contractor",
    "contractor": "Richards Disposal",
    "rowid": "1046575",
    "final_x": "3674374.55137",
    "final_y": "520235.771",
    "longitude": "-90.090956291032",
    "latitude": "29.924682170140652",
    "geocoded_column": {
      "latitude": "29.924682170140652",
      "longitude": "-90.090956291032"
    }
  },
  {
    "service_request": "2023-1046574",
    "request_type": "Trash/Recycling",
    "request_reason": "Missed Trash Pick-Up",
    "date_created": "2023-10-27T16:24:22.000",
    "date_modified": "2023-10-27T16:24:22.000",
    "request_status": "Pending",
    "responsible_agency": "Department of Sanitation",
    "final_address": "7701 Butterfield Rd",
    "address_councildis": "E",
    "status": "Assigned to Contractor",
    "contractor": "Waste Pro",
    "rowid": "1046574",
    "final_x": "3699732.05341",
    "final_y": "560609.626718",
    "longitude": "-90.00943915512204",
    "latitude": "30.034915211108856",
    "geocoded_column": {
      "latitude": "30.034915211108856",
      "longitude": "-90.00943915512204"
    }
  },
  {
    "service_request": "2023-1046573",
    "request_type": "Trash/Recycling",
    "request_reason": "Missed Trash Pick-Up",
    "date_created": "2023-10-27T16:13:59.000",
    "date_modified": "2023-10-27T16:14:00.000",
    "request_status": "Pending",
    "responsible_agency": "Department of Sanitation",
    "final_address": "4515 Plum Orchard St",
    "address_councildis": "E",
    "status": "Assigned to Contractor",
    "contractor": "Waste Pro",
    "rowid": "1046573",
    "final_x": "3701893.50148",
    "final_y": "553213.971095",
    "longitude": "-90.00288006120728",
    "latitude": "30.014511162561895",
    "geocoded_column": {
      "latitude": "30.014511162561895",
      "longitude": "-90.00288006120728"
    }
  },
  {
    "service_request": "2023-1046572",
    "request_type": "Trash/Recycling",
    "request_reason": "Order Recycling Cart",
    "date_created": "2023-10-27T16:13:03.000",
    "date_modified": "2023-10-27T16:13:03.000",
    "request_status": "Pending",
    "responsible_agency": "Department of Sanitation",
    "final_address": "1722 Joliet St",
    "address_councildis": "A",
    "status": "Pending",
    "rowid": "1046572",
    "final_x": "3662217.42227",
    "final_y": "530829.572418",
    "longitude": "-90.12898098216222",
    "latitude": "29.954168608786446",
    "geocoded_column": {
      "latitude": "29.954168608786446",
      "longitude": "-90.12898098216222"
    }
  },
  {
    "service_request": "2023-1046571",
    "request_type": "Trash/Recycling",
    "request_reason": "Request a Large Item Pick Up",
    "date_created": "2023-10-27T16:12:20.000",
    "date_modified": "2023-10-27T16:12:21.000",
    "request_status": "Pending",
    "responsible_agency": "Department of Sanitation",
    "final_address": "8720 Stroelitz St",
    "address_councildis": "A",
    "status": "Assigned to Contractor",
    "contractor": "Richards Disposal",
    "rowid": "1046571",
    "final_x": "3666233.59207",
    "final_y": "536454.044807",
    "longitude": "-90.11611082177843",
    "latitude": "29.96951737595733",
    "geocoded_column": {
      "latitude": "29.96951737595733",
      "longitude": "-90.11611082177843"
    }
  },
  {
    "service_request": "2023-1046570",
    "request_type": "Trash/Recycling",
    "request_reason": "Request a Large Item Pick Up",
    "date_created": "2023-10-27T16:04:31.000",
    "date_modified": "2023-10-27T16:04:32.000",
    "request_status": "Pending",
    "responsible_agency": "Department of Sanitation",
    "final_address": "2028 Chestnut St",
    "address_councildis": "B",
    "status": "Assigned to Contractor",
    "contractor": "Richards Disposal",
    "rowid": "1046570",
    "final_x": "3678890.02139",
    "final_y": "522943.067899",
    "longitude": "-90.0766087321723",
    "latitude": "29.931990958415742",
    "geocoded_column": {
      "latitude": "29.931990958415742",
      "longitude": "-90.0766087321723"
    }
  },
  {
    "service_request": "2023-1046569",
    "request_type": "Roads/Drainage",
    "request_reason": "Pothole",
    "date_created": "2023-10-27T16:02:47.000",
    "date_modified": "2023-10-27T16:02:47.000",
    "request_status": "Pending",
    "responsible_agency": "Department of Public Works",
    "final_address": "1317 Milan St",
    "address_councildis": "B",
    "status": "Pending",
    "rowid": "1046569",
    "final_x": "3671700.96097",
    "final_y": "520272.658936",
    "longitude": "-90.09939468590763",
    "latitude": "29.9248630381211",
    "geocoded_column": {
      "latitude": "29.9248630381211",
      "longitude": "-90.09939468590763"
    }
  },
  {
    "service_request": "2023-1046568",
    "request_type": "Trash/Recycling",
    "request_reason": "Request a Large Item Pick Up",
    "date_created": "2023-10-27T16:01:33.000",
    "date_modified": "2023-10-27T16:03:48.000",
    "request_status": "Pending",
    "responsible_agency": "Department of Sanitation",
    "final_address": "6943 E Laverne St",
    "address_councildis": "D",
    "status": "Assigned to Contractor",
    "contractor": "Waste Pro",
    "rowid": "1046568",
    "final_x": "3697249.60528",
    "final_y": "556858.326938",
    "longitude": "-90.01742017392971",
    "latitude": "30.02467920585212",
    "geocoded_column": {
      "latitude": "30.02467920585212",
      "longitude": "-90.01742017392971"
    }
  },
  {
    "service_request": "2023-1046567",
    "request_type": "Trash/Recycling",
    "request_reason": "Request a Large Item Pick Up",
    "date_created": "2023-10-27T15:58:12.000",
    "date_modified": "2023-10-27T15:58:13.000",
    "request_status": "Pending",
    "responsible_agency": "Department of Sanitation",
    "final_address": "10115 Dreux Ave",
    "address_councildis": "E",
    "status": "Assigned to Contractor",
    "contractor": "Waste Pro",
    "rowid": "1046567",
    "final_x": "3712969.87282",
    "final_y": "555984.248985",
    "longitude": "-89.96778023668126",
    "latitude": "30.021770061207462",
    "geocoded_column": {
      "latitude": "30.021770061207462",
      "longitude": "-89.96778023668126"
    }
  },
  {
    "service_request": "2023-1046566",
    "request_type": "Roads/Drainage",
    "request_reason": "Pothole",
    "date_created": "2023-10-27T15:57:01.000",
    "date_modified": "2023-10-27T15:57:01.000",
    "request_status": "Pending",
    "responsible_agency": "Department of Public Works",
    "final_address": "1420 General Pershing St",
    "address_councildis": "B",
    "status": "Pending",
    "rowid": "1046566",
    "final_x": "3671242.41179",
    "final_y": "520513.52268",
    "longitude": "-90.10083399992165",
    "latitude": "29.925538906557254",
    "geocoded_column": {
      "latitude": "29.925538906557254",
      "longitude": "-90.10083399992165"
    }
  },
  {
    "service_request": "2023-1046565",
    "request_type": "Roads/Drainage",
    "request_reason": "Pothole",
    "date_created": "2023-10-27T15:55:33.000",
    "date_modified": "2023-10-28T08:32:34.000",
    "case_close_date": "2023-10-28T03:32:34.000",
    "request_status": "Closed",
    "responsible_agency": "Department of Public Works",
    "final_address": "HAYNE BLVD & CONGRESS DR",
    "address_councildis": "D",
    "status": "Resolved",
    "rowid": "1046565",
    "final_x": "3690423.8",
    "final_y": "558659.28",
    "longitude": "-90.03892420159148",
    "latitude": "30.029844924240702",
    "geocoded_column": {
      "latitude": "30.029844924240702",
      "longitude": "-90.03892420159148"
    }
  },
  {
    "service_request": "2023-1046564",
    "request_type": "Trash/Recycling",
    "request_reason": "Illegal Dumping",
    "date_created": "2023-10-27T15:47:06.000",
    "date_modified": "2023-10-27T15:47:06.000",
    "request_status": "Pending",
    "responsible_agency": "Department of Sanitation",
    "final_address": "1022 Mandeville St",
    "address_councildis": "C",
    "status": "Pending",
    "rowid": "1046564",
    "final_x": "3685759.71279",
    "final_y": "536196.788423",
    "longitude": "-90.05445488756139",
    "latitude": "29.96822521448583",
    "geocoded_column": {
      "latitude": "29.96822521448583",
      "longitude": "-90.05445488756139"
    }
  },
  {
    "service_request": "2023-1046563",
    "request_type": "Trash/Recycling",
    "request_reason": "Replace Trash Cart",
    "date_created": "2023-10-27T15:43:59.000",
    "date_modified": "2023-10-27T15:44:00.000",
    "request_status": "Pending",
    "responsible_agency": "Department of Sanitation",
    "final_address": "1332 Joseph St",
    "address_councildis": "A",
    "status": "Assigned to Contractor",
    "contractor": "Richards Disposal",
    "rowid": "1046563",
    "final_x": "3666491.71617",
    "final_y": "520794.140473",
    "longitude": "-90.11582112873931",
    "latitude": "29.92645017013598",
    "geocoded_column": {
      "latitude": "29.92645017013598",
      "longitude": "-90.11582112873931"
    }
  },
  {
    "service_request": "2023-1046562",
    "request_type": "Trash/Recycling",
    "request_reason": "Illegal Dumping",
    "date_created": "2023-10-27T15:42:42.000",
    "date_modified": "2023-10-27T15:42:42.000",
    "request_status": "Pending",
    "responsible_agency": "Department of Sanitation",
    "final_address": "1022 Mandeville St",
    "address_councildis": "C",
    "status": "Pending",
    "rowid": "1046562",
    "final_x": "3685759.71279",
    "final_y": "536196.788423",
    "longitude": "-90.05445488756139",
    "latitude": "29.96822521448583",
    "geocoded_column": {
      "latitude": "29.96822521448583",
      "longitude": "-90.05445488756139"
    }
  },
  {
    "service_request": "2023-1046559",
    "request_type": "Property Maintenance",
    "request_reason": "Property Maintenance",
    "date_created": "2023-10-27T15:40:58.000",
    "date_modified": "2023-10-27T15:40:58.000",
    "request_status": "Pending",
    "responsible_agency": "Department of Code Enforcement",
    "final_address": "2618 Gordon St",
    "address_councildis": "E",
    "status": "Pending",
    "rowid": "1046559",
    "final_x": "3701345.15044",
    "final_y": "538971.898186",
    "longitude": "-90.00513416087354",
    "latitude": "29.975368254751142",
    "geocoded_column": {
      "latitude": "29.975368254751142",
      "longitude": "-90.00513416087354"
    }
  },
  {
    "service_request": "2023-1046558",
    "request_type": "Trash/Recycling",
    "request_reason": "Request a Large Item Pick Up",
    "date_created": "2023-10-27T15:37:36.000",
    "date_modified": "2023-10-27T15:37:38.000",
    "request_status": "Pending",
    "responsible_agency": "Department of Sanitation",
    "final_address": "1016 Merrill St",
    "address_councildis": "C",
    "status": "Assigned to Contractor",
    "contractor": "Richards Disposal",
    "rowid": "1046558",
    "final_x": "3695043.29123",
    "final_y": "528224.957376",
    "longitude": "-90.02542445392221",
    "latitude": "29.946017308984523",
    "geocoded_column": {
      "latitude": "29.946017308984523",
      "longitude": "-90.02542445392221"
    }
  },
  {
    "service_request": "2023-1046557",
    "request_type": "Parks & Parkways",
    "request_reason": "Tree Stump (removal, grind)",
    "date_created": "2023-10-27T15:36:30.000",
    "date_modified": "2023-10-27T15:41:23.000",
    "case_close_date": "2023-10-27T10:41:23.000",
    "request_status": "Closed",
    "responsible_agency": "Department of Parks & Parkway",
    "final_address": "118 City Park Ave",
    "address_councildis": "A",
    "status": "Invalid Request",
    "rowid": "1046557",
    "final_x": "3667651.43245",
    "final_y": "540854.232907",
    "longitude": "-90.1114849682831",
    "latitude": "29.98157492613766",
    "geocoded_column": {
      "latitude": "29.98157492613766",
      "longitude": "-90.1114849682831"
    }
  },
  {
    "service_request": "2023-1046556",
    "request_type": "Trash/Recycling",
    "request_reason": "Order Trash Cart",
    "date_created": "2023-10-27T15:26:54.000",
    "date_modified": "2023-10-27T15:26:55.000",
    "request_status": "Pending",
    "responsible_agency": "Department of Sanitation",
    "final_address": "2612 S Claiborne Ave",
    "address_councildis": "B",
    "status": "Assigned to Contractor",
    "contractor": "Richards Disposal",
    "rowid": "1046556",
    "final_x": "3673627.90958",
    "final_y": "526875.10195",
    "longitude": "-90.09308634398779",
    "latitude": "29.942960414774642",
    "geocoded_column": {
      "latitude": "29.942960414774642",
      "longitude": "-90.09308634398779"
    }
  },
  {
    "service_request": "2023-1046555",
    "request_type": "Trash/Recycling",
    "request_reason": "Order Recycling Cart",
    "date_created": "2023-10-27T15:26:38.000",
    "date_modified": "2023-10-27T15:26:38.000",
    "request_status": "Pending",
    "responsible_agency": "Department of Sanitation",
    "final_address": "2612 S Claiborne Ave",
    "address_councildis": "B",
    "status": "Pending",
    "rowid": "1046555",
    "final_x": "3673627.90958",
    "final_y": "526875.10195",
    "longitude": "-90.09308634398779",
    "latitude": "29.942960414774642",
    "geocoded_column": {
      "latitude": "29.942960414774642",
      "longitude": "-90.09308634398779"
    }
  },
  {
    "service_request": "2023-1046554",
    "request_type": "Trash/Recycling",
    "request_reason": "Order Recycling Cart",
    "date_created": "2023-10-27T15:26:22.000",
    "date_modified": "2023-10-27T15:26:22.000",
    "request_status": "Pending",
    "responsible_agency": "Department of Sanitation",
    "final_address": "1501 N Claiborne Ave",
    "address_councildis": "D",
    "status": "Pending",
    "rowid": "1046554",
    "final_x": "3681679.63772",
    "final_y": "537291.011528",
    "longitude": "-90.06730174854643",
    "latitude": "29.97135853359771",
    "geocoded_column": {
      "latitude": "29.97135853359771",
      "longitude": "-90.06730174854643"
    }
  },
  {
    "service_request": "2023-1046553",
    "request_type": "Trash/Recycling",
    "request_reason": "Order Trash Cart",
    "date_created": "2023-10-27T15:26:07.000",
    "date_modified": "2023-10-27T15:26:08.000",
    "request_status": "Pending",
    "responsible_agency": "Department of Sanitation",
    "final_address": "1501 N Claiborne Ave",
    "address_councildis": "D",
    "status": "Assigned to Contractor",
    "contractor": "IV Waste",
    "rowid": "1046553",
    "final_x": "3681679.63772",
    "final_y": "537291.011528",
    "longitude": "-90.06730174854643",
    "latitude": "29.97135853359771",
    "geocoded_column": {
      "latitude": "29.97135853359771",
      "longitude": "-90.06730174854643"
    }
  },
  {
    "service_request": "2023-1046552",
    "request_type": "Trash/Recycling",
    "request_reason": "Order Trash Cart",
    "date_created": "2023-10-27T15:25:49.000",
    "date_modified": "2023-10-27T15:25:50.000",
    "request_status": "Pending",
    "responsible_agency": "Department of Sanitation",
    "final_address": "5438 N Robertson St",
    "address_councildis": "E",
    "status": "Assigned to Contractor",
    "contractor": "Waste Pro",
    "rowid": "1046552",
    "final_x": "3697874.04099",
    "final_y": "535330.535558",
    "longitude": "-90.01622898729912",
    "latitude": "29.965465990848212",
    "geocoded_column": {
      "latitude": "29.965465990848212",
      "longitude": "-90.01622898729912"
    }
  },
  {
    "service_request": "2023-1046551",
    "request_type": "Trash/Recycling",
    "request_reason": "Order Recycling Cart",
    "date_created": "2023-10-27T15:25:28.000",
    "date_modified": "2023-10-27T15:25:28.000",
    "request_status": "Pending",
    "responsible_agency": "Department of Sanitation",
    "final_address": "5438 N Robertson St",
    "address_councildis": "E",
    "status": "Pending",
    "rowid": "1046551",
    "final_x": "3697874.04099",
    "final_y": "535330.535558",
    "longitude": "-90.01622898729912",
    "latitude": "29.965465990848212",
    "geocoded_column": {
      "latitude": "29.965465990848212",
      "longitude": "-90.01622898729912"
    }
  },
  {
    "service_request": "2023-1046550",
    "request_type": "Trash/Recycling",
    "request_reason": "Order Recycling Cart",
    "date_created": "2023-10-27T15:25:02.000",
    "date_modified": "2023-10-27T15:25:03.000",
    "request_status": "Pending",
    "responsible_agency": "Department of Sanitation",
    "final_address": "2343 Feliciana St",
    "address_councildis": "D",
    "status": "Pending",
    "rowid": "1046550",
    "final_x": "3689990.70806",
    "final_y": "540900.269771",
    "longitude": "-90.04092573049996",
    "latitude": "29.98102760091447",
    "geocoded_column": {
      "latitude": "29.98102760091447",
      "longitude": "-90.04092573049996"
    }
  },
  {
    "service_request": "2023-1046549",
    "request_type": "Trash/Recycling",
    "request_reason": "Order Trash Cart",
    "date_created": "2023-10-27T15:24:48.000",
    "date_modified": "2023-10-27T15:24:49.000",
    "request_status": "Pending",
    "responsible_agency": "Department of Sanitation",
    "final_address": "2343 Feliciana St",
    "address_councildis": "D",
    "status": "Assigned to Contractor",
    "contractor": "IV Waste",
    "rowid": "1046549",
    "final_x": "3689990.70806",
    "final_y": "540900.269771",
    "longitude": "-90.04092573049996",
    "latitude": "29.98102760091447",
    "geocoded_column": {
      "latitude": "29.98102760091447",
      "longitude": "-90.04092573049996"
    }
  },
  {
    "service_request": "2023-1046548",
    "request_type": "Trash/Recycling",
    "request_reason": "Request a Large Item Pick Up",
    "date_created": "2023-10-27T15:23:09.000",
    "date_modified": "2023-10-27T15:23:10.000",
    "request_status": "Pending",
    "responsible_agency": "Department of Sanitation",
    "final_address": "1321 Sere St",
    "address_councildis": "D",
    "status": "Assigned to Contractor",
    "contractor": "IV Waste",
    "rowid": "1046548",
    "final_x": "3677635.33966",
    "final_y": "545386.768848",
    "longitude": "-90.0797945147756",
    "latitude": "29.9937413095196",
    "geocoded_column": {
      "latitude": "29.9937413095196",
      "longitude": "-90.0797945147756"
    }
  },
  {
    "service_request": "2023-1046547",
    "request_type": "Roads/Drainage",
    "request_reason": "Pothole",
    "date_created": "2023-10-27T15:16:53.000",
    "date_modified": "2023-10-27T15:16:53.000",
    "request_status": "Pending",
    "responsible_agency": "Department of Public Works",
    "final_address": "6600 Pauline Dr",
    "address_councildis": "D",
    "status": "Pending",
    "rowid": "1046547",
    "final_x": "3690842.45936",
    "final_y": "557953.077467",
    "longitude": "-90.03762647986024",
    "latitude": "30.027890122978544",
    "geocoded_column": {
      "latitude": "30.027890122978544",
      "longitude": "-90.03762647986024"
    }
  },
  {
    "service_request": "2023-1046546",
    "request_type": "Roads/Drainage",
    "request_reason": "Pothole",
    "date_created": "2023-10-27T15:14:01.000",
    "date_modified": "2023-10-27T15:14:01.000",
    "request_status": "Pending",
    "responsible_agency": "Department of Public Works",
    "final_address": "4701 Conti St",
    "address_councildis": "A",
    "status": "Pending",
    "rowid": "1046546",
    "final_x": "3669810.16052",
    "final_y": "540850.274955",
    "longitude": "-90.10466681547135",
    "latitude": "29.981500571515316",
    "geocoded_column": {
      "latitude": "29.981500571515316",
      "longitude": "-90.10466681547135"
    }
  },
  {
    "service_request": "2023-1046545",
    "request_type": "Abandoned Vehicles",
    "request_reason": "Abandoned/Junk Vehicles",
    "date_created": "2023-10-27T15:13:10.000",
    "date_modified": "2023-10-27T15:13:44.000",
    "request_status": "Pending",
    "responsible_agency": "Department of Public Works",
    "final_address": "10200 Almonaster Ave",
    "address_councildis": "E",
    "status": "Inspected",
    "rowid": "1046545",
    "final_x": "3713684.56383",
    "final_y": "551626.395989",
    "longitude": "-89.96568637555853",
    "latitude": "30.00976423388402",
    "geocoded_column": {
      "latitude": "30.00976423388402",
      "longitude": "-89.96568637555853"
    }
  },
  {
    "service_request": "2023-1046544",
    "request_type": "Roads/Drainage",
    "request_reason": "Road Shoulder Repair",
    "date_created": "2023-10-27T15:09:00.000",
    "date_modified": "2023-10-28T08:51:01.000",
    "request_status": "Pending",
    "responsible_agency": "Department of Public Works",
    "final_address": "7900 Hickman St",
    "address_councildis": "E",
    "status": "Inspected",
    "rowid": "1046544",
    "final_x": "3705663.61406",
    "final_y": "564034.321057",
    "longitude": "-89.9905678354305",
    "latitude": "30.044141994273073",
    "geocoded_column": {
      "latitude": "30.044141994273073",
      "longitude": "-89.9905678354305"
    }
  },
  {
    "service_request": "2023-1046543",
    "request_type": "Roads/Drainage",
    "request_reason": "Damaged Sidewalk",
    "date_created": "2023-10-27T15:07:37.000",
    "date_modified": "2023-10-28T08:41:22.000",
    "case_close_date": "2023-10-28T03:41:22.000",
    "request_status": "Closed",
    "responsible_agency": "Department of Public Works",
    "final_address": "7900 Hickman St",
    "address_councildis": "E",
    "status": "Resolved",
    "rowid": "1046543",
    "final_x": "3705663.61406",
    "final_y": "564034.321057",
    "longitude": "-89.9905678354305",
    "latitude": "30.044141994273073",
    "geocoded_column": {
      "latitude": "30.044141994273073",
      "longitude": "-89.9905678354305"
    }
  },
  {
    "service_request": "2023-1046542",
    "request_type": "Trash/Recycling",
    "request_reason": "Request a Large Item Pick Up",
    "date_created": "2023-10-27T15:06:44.000",
    "date_modified": "2023-10-27T15:07:24.000",
    "request_status": "Pending",
    "responsible_agency": "Department of Sanitation",
    "final_address": "211 S Hennessey St",
    "address_councildis": "A",
    "status": "Assigned to Contractor",
    "contractor": "Richards Disposal",
    "rowid": "1046542",
    "final_x": "3669936.62606",
    "final_y": "538541.649033",
    "longitude": "-90.10434558599597",
    "latitude": "29.975148902391304",
    "geocoded_column": {
      "latitude": "29.975148902391304",
      "longitude": "-90.10434558599597"
    }
  },
  {
    "service_request": "2023-1046541",
    "request_type": "Trash/Recycling",
    "request_reason": "Missed Trash Pick-Up",
    "date_created": "2023-10-27T15:04:57.000",
    "date_modified": "2023-10-27T15:04:57.000",
    "request_status": "Pending",
    "responsible_agency": "Department of Sanitation",
    "final_address": "7221 Curran Rd",
    "address_councildis": "E",
    "status": "Assigned to Contractor",
    "contractor": "Waste Pro",
    "rowid": "1046541",
    "final_x": "3699403.49943",
    "final_y": "560707.577758",
    "longitude": "-90.01047385645371",
    "latitude": "30.035194972217102",
    "geocoded_column": {
      "latitude": "30.035194972217102",
      "longitude": "-90.01047385645371"
    }
  },
  {
    "service_request": "2023-1046540",
    "request_type": "Trash/Recycling",
    "request_reason": "Repair Trash Cart",
    "date_created": "2023-10-27T15:03:27.000",
    "date_modified": "2023-10-27T15:03:28.000",
    "request_status": "Pending",
    "responsible_agency": "Department of Sanitation",
    "final_address": "2424 Sabine St",
    "address_councildis": "C",
    "status": "Assigned to Contractor",
    "contractor": "Richards Disposal",
    "rowid": "1046540",
    "final_x": "3691596.05033",
    "final_y": "521034.010489",
    "longitude": "-90.03656547228302",
    "latitude": "29.926352397111767",
    "geocoded_column": {
      "latitude": "29.926352397111767",
      "longitude": "-90.03656547228302"
    }
  },
  {
    "service_request": "2023-1046539",
    "request_type": "Trash/Recycling",
    "request_reason": "Illegal Dumping",
    "date_created": "2023-10-27T15:03:26.000",
    "date_modified": "2023-10-27T15:03:26.000",
    "request_status": "Pending",
    "responsible_agency": "Department of Sanitation",
    "final_address": "BRIARHEATH DR & E BARRINGTON DR",
    "address_councildis": "E",
    "status": "Pending",
    "rowid": "1046539",
    "final_x": "3715168.3",
    "final_y": "566448.38",
    "longitude": "-89.96043770571056",
    "latitude": "30.050469990906898",
    "geocoded_column": {
      "latitude": "30.050469990906898",
      "longitude": "-89.96043770571056"
    }
  },
  {
    "service_request": "2023-1046538",
    "request_type": "Trash/Recycling",
    "request_reason": "Missed Trash Pick-Up",
    "date_created": "2023-10-27T14:58:18.000",
    "date_modified": "2023-10-27T14:58:18.000",
    "request_status": "Pending",
    "responsible_agency": "Department of Sanitation",
    "final_address": "4854 Haydel St",
    "address_councildis": "E",
    "status": "Assigned to Contractor",
    "contractor": "Waste Pro",
    "rowid": "1046538",
    "final_x": "3698895.22167",
    "final_y": "555057.470937",
    "longitude": "-90.01228594174455",
    "latitude": "30.01967547162176",
    "geocoded_column": {
      "latitude": "30.01967547162176",
      "longitude": "-90.01228594174455"
    }
  },
  {
    "service_request": "2023-1046537",
    "request_type": "Trash/Recycling",
    "request_reason": "Request a Large Item Pick Up",
    "date_created": "2023-10-27T14:57:31.000",
    "date_modified": "2023-10-27T14:57:32.000",
    "request_status": "Pending",
    "responsible_agency": "Department of Sanitation",
    "final_address": "631 Dauphine St",
    "address_councildis": "C",
    "status": "Assigned to Contractor",
    "contractor": "Empire Services",
    "rowid": "1046537",
    "final_x": "3681869.51388",
    "final_y": "532811.685828",
    "longitude": "-90.06685844990199",
    "latitude": "29.959036155065284",
    "geocoded_column": {
      "latitude": "29.959036155065284",
      "longitude": "-90.06685844990199"
    }
  },
  {
    "service_request": "2023-1046536",
    "request_type": "Roads/Drainage",
    "request_reason": "Catch Basin - Clogged",
    "date_created": "2023-10-27T14:51:36.000",
    "date_modified": "2023-10-27T14:54:48.000",
    "request_status": "Pending",
    "responsible_agency": "Department of Public Works",
    "final_address": "138 N Broad St",
    "address_councildis": "B",
    "status": "Pending",
    "rowid": "1046536",
    "final_x": "3675668.93819",
    "final_y": "535356.284166",
    "longitude": "-90.08635090582142",
    "latitude": "29.966219930791304",
    "geocoded_column": {
      "latitude": "29.966219930791304",
      "longitude": "-90.08635090582142"
    }
  },
  {
    "service_request": "2023-1046534",
    "request_type": "Trash/Recycling",
    "request_reason": "Replace Recycling Cart",
    "date_created": "2023-10-27T14:50:30.000",
    "date_modified": "2023-10-27T14:50:30.000",
    "request_status": "Pending",
    "responsible_agency": "Department of Sanitation",
    "final_address": "3806 Clematis St",
    "address_councildis": "D",
    "status": "Pending",
    "rowid": "1046534",
    "final_x": "3685840.59561",
    "final_y": "546896.429201",
    "longitude": "-90.05382213928259",
    "latitude": "29.997642960796405",
    "geocoded_column": {
      "latitude": "29.997642960796405",
      "longitude": "-90.05382213928259"
    }
  },
  {
    "service_request": "2023-1046533",
    "request_type": "Trash/Recycling",
    "request_reason": "Order Recycling Cart",
    "date_created": "2023-10-27T14:50:04.000",
    "date_modified": "2023-10-27T14:50:05.000",
    "request_status": "Pending",
    "responsible_agency": "Department of Sanitation",
    "final_address": "4119 N Derbigny St",
    "address_councildis": "D",
    "status": "Pending",
    "rowid": "1046533",
    "final_x": "3692805.32893",
    "final_y": "537472.797704",
    "longitude": "-90.03215886419639",
    "latitude": "29.971515683839325",
    "geocoded_column": {
      "latitude": "29.971515683839325",
      "longitude": "-90.03215886419639"
    }
  },
  {
    "service_request": "2023-1046532",
    "request_type": "Trash/Recycling",
    "request_reason": "Order Trash Cart",
    "date_created": "2023-10-27T14:49:46.000",
    "date_modified": "2023-10-27T14:49:47.000",
    "request_status": "Pending",
    "responsible_agency": "Department of Sanitation",
    "final_address": "4119 N Derbigny St",
    "address_councildis": "D",
    "status": "Assigned to Contractor",
    "contractor": "IV Waste",
    "rowid": "1046532",
    "final_x": "3692805.32893",
    "final_y": "537472.797704",
    "longitude": "-90.03215886419639",
    "latitude": "29.971515683839325",
    "geocoded_column": {
      "latitude": "29.971515683839325",
      "longitude": "-90.03215886419639"
    }
  },
  {
    "service_request": "2023-1046531",
    "request_type": "Property Maintenance",
    "request_reason": "Property Maintenance",
    "date_created": "2023-10-27T14:49:25.000",
    "date_modified": "2023-10-27T15:03:25.000",
    "request_status": "Pending",
    "responsible_agency": "Department of Code Enforcement",
    "final_address": "4501 Coronado Dr",
    "address_councildis": "E",
    "status": "Pending",
    "rowid": "1046531",
    "final_x": "3714302.75775",
    "final_y": "555381.331417",
    "longitude": "-89.96359148895898",
    "latitude": "30.020068531641105",
    "geocoded_column": {
      "latitude": "30.020068531641105",
      "longitude": "-89.96359148895898"
    }
  },
  {
    "service_request": "2023-1046529",
    "request_type": "Trash/Recycling",
    "request_reason": "Request a Large Item Pick Up",
    "date_created": "2023-10-27T14:41:45.000",
    "date_modified": "2023-10-27T14:41:46.000",
    "request_status": "Pending",
    "responsible_agency": "Department of Sanitation",
    "final_address": "1513 Governor Nicholls St",
    "address_councildis": "C",
    "status": "Assigned to Contractor",
    "contractor": "Richards Disposal",
    "rowid": "1046529",
    "final_x": "3681398.34236",
    "final_y": "535823.133831",
    "longitude": "-90.06824130087344",
    "latitude": "29.967330918419382",
    "geocoded_column": {
      "latitude": "29.967330918419382",
      "longitude": "-90.06824130087344"
    }
  },
  {
    "service_request": "2023-1046528",
    "request_type": "Trash/Recycling",
    "request_reason": "Request a Large Item Pick Up",
    "date_created": "2023-10-27T14:41:41.000",
    "date_modified": "2023-10-27T14:42:32.000",
    "request_status": "Pending",
    "responsible_agency": "Department of Sanitation",
    "final_address": "2015 S Rendon St",
    "address_councildis": "B",
    "status": "Assigned to Contractor",
    "contractor": "Richards Disposal",
    "rowid": "1046528",
    "final_x": "3669001.45434",
    "final_y": "529850.197697",
    "longitude": "-90.10759275232937",
    "latitude": "29.951277841782286",
    "geocoded_column": {
      "latitude": "29.951277841782286",
      "longitude": "-90.10759275232937"
    }
  },
  {
    "service_request": "2023-1046527",
    "request_type": "Trash/Recycling",
    "request_reason": "Order Recycling Cart",
    "date_created": "2023-10-27T14:41:30.000",
    "date_modified": "2023-10-27T14:41:30.000",
    "request_status": "Pending",
    "responsible_agency": "Department of Sanitation",
    "final_address": "613 David St",
    "address_councildis": "A",
    "status": "Pending",
    "rowid": "1046527",
    "final_x": "3671995.28206",
    "final_y": "540122.714059",
    "longitude": "-90.09778995386169",
    "latitude": "29.979435419860557",
    "geocoded_column": {
      "latitude": "29.979435419860557",
      "longitude": "-90.09778995386169"
    }
  },
  {
    "service_request": "2023-1046526",
    "request_type": "Trash/Recycling",
    "request_reason": "Order Trash Cart",
    "date_created": "2023-10-27T14:40:37.000",
    "date_modified": "2023-10-27T14:40:37.000",
    "request_status": "Pending",
    "responsible_agency": "Department of Sanitation",
    "final_address": "613 David St",
    "address_councildis": "A",
    "status": "Assigned to Contractor",
    "contractor": "Richards Disposal",
    "rowid": "1046526",
    "final_x": "3671995.28206",
    "final_y": "540122.714059",
    "longitude": "-90.09778995386169",
    "latitude": "29.979435419860557",
    "geocoded_column": {
      "latitude": "29.979435419860557",
      "longitude": "-90.09778995386169"
    }
  },
  {
    "service_request": "2023-1046525",
    "request_type": "Trash/Recycling",
    "request_reason": "Order Trash Cart",
    "date_created": "2023-10-27T14:38:37.000",
    "date_modified": "2023-10-27T14:41:32.000",
    "request_status": "Pending",
    "responsible_agency": "Department of Sanitation",
    "final_address": "2015 S Rendon St",
    "address_councildis": "B",
    "status": "Assigned to Contractor",
    "contractor": "Richards Disposal",
    "rowid": "1046525",
    "final_x": "3669001.45434",
    "final_y": "529850.197697",
    "longitude": "-90.10759275232937",
    "latitude": "29.951277841782286",
    "geocoded_column": {
      "latitude": "29.951277841782286",
      "longitude": "-90.10759275232937"
    }
  },
  {
    "service_request": "2023-1046524",
    "request_type": "Property Maintenance",
    "request_reason": "Property Maintenance",
    "date_created": "2023-10-27T14:28:36.000",
    "date_modified": "2023-10-27T14:28:37.000",
    "request_status": "Pending",
    "responsible_agency": "Department of Code Enforcement",
    "final_address": "4232 Erato St",
    "address_councildis": "B",
    "status": "Pending",
    "rowid": "1046524",
    "final_x": "3670890.81204",
    "final_y": "531444.945603",
    "longitude": "-90.10157294829627",
    "latitude": "29.955607164152717",
    "geocoded_column": {
      "latitude": "29.955607164152717",
      "longitude": "-90.10157294829627"
    }
  },
  {
    "service_request": "2023-1046523",
    "request_type": "Abandoned Vehicles",
    "request_reason": "Abandoned/Junk Vehicles",
    "date_created": "2023-10-27T14:12:19.000",
    "date_modified": "2023-10-27T14:12:19.000",
    "request_status": "Pending",
    "responsible_agency": "Department of Public Works",
    "final_address": "803 Ninth St",
    "address_councildis": "B",
    "status": "Pending",
    "rowid": "1046523",
    "final_x": "3676461.4788",
    "final_y": "519194.761335",
    "longitude": "-90.08440437194298",
    "latitude": "29.921757346520323",
    "geocoded_column": {
      "latitude": "29.921757346520323",
      "longitude": "-90.08440437194298"
    }
  },
  {
    "service_request": "2023-1046522",
    "request_type": "Parks & Parkways",
    "request_reason": "Request Tree Service (Right of Way/Public Property)",
    "date_created": "2023-10-27T14:11:03.000",
    "date_modified": "2023-10-27T14:15:36.000",
    "request_status": "Pending",
    "responsible_agency": "Department of Parks & Parkway",
    "final_address": "722 Nashville Ave",
    "address_councildis": "A",
    "status": "Pending",
    "rowid": "1046522",
    "final_x": "3665432.58004",
    "final_y": "518848.382967",
    "longitude": "-90.11922962129228",
    "latitude": "29.921130850291636",
    "geocoded_column": {
      "latitude": "29.921130850291636",
      "longitude": "-90.11922962129228"
    }
  },
  {
    "service_request": "2023-1046521",
    "request_type": "Trash/Recycling",
    "request_reason": "Request a Large Item Pick Up",
    "date_created": "2023-10-27T14:10:34.000",
    "date_modified": "2023-10-27T14:10:35.000",
    "request_status": "Pending",
    "responsible_agency": "Department of Sanitation",
    "final_address": "4843 Lynhuber Dr",
    "address_councildis": "D",
    "status": "Assigned to Contractor",
    "contractor": "Waste Pro",
    "rowid": "1046521",
    "final_x": "3698025.91357",
    "final_y": "554891.08476",
    "longitude": "-90.01503870261001",
    "latitude": "30.019245501786706",
    "geocoded_column": {
      "latitude": "30.019245501786706",
      "longitude": "-90.01503870261001"
    }
  },