[
  {
    "service_request": "2026-1280564",
    "request_type": "Health Related Request",
    "request_reason": "Noise Ordinance Complaint",
    "date_created": "2026-05-11T23:39:00.000",
    "date_modified": "2026-05-11T23:39:02.000",
    "request_status": "Pending",
    "responsible_agency": "Health Department",
    "final_address": "316 N Villere St Apt R",
    "address_councildis": "C",
    "status": "Pending",
    "rowid": "1280564",
    "final_x": "3679615.1149",
    "final_y": "533185.384516",
    "longitude": "-90.07396431208856",
    "latitude": "29.96013202165831",
    "geocoded_column": {
      "latitude": "29.96013202165831",
      "longitude": "-90.07396431208856"
    }
  },
  {
    "service_request": "2026-1280563",
    "request_type": "Trash/Recycling",
    "request_reason": "Order Recycling Cart",
    "date_created": "2026-05-11T22:30:31.000",
    "date_modified": "2026-05-11T22:30:34.000",
    "request_status": "Pending",
    "responsible_agency": "Department of Sanitation",
    "final_address": "224 S Clark St",
    "address_councildis": "B",
    "status": "Pending",
    "rowid": "1280563",
    "final_x": "3672509.19252",
    "final_y": "536467.934599",
    "longitude": "-90.09629143725785",
    "latitude": "29.96937076843791",
    "geocoded_column": {
      "latitude": "29.96937076843791",
      "longitude": "-90.09629143725785"
    }
  },
  {
    "service_request": "2026-1280562",
    "request_type": "Trash/Recycling",
    "request_reason": "Request a Large Item Pick Up",
    "date_created": "2026-05-11T22:10:42.000",
    "date_modified": "2026-05-11T22:10:44.000",
    "request_status": "Pending",
    "responsible_agency": "Department of Sanitation",
    "final_address": "10929 Chaucer St",
    "address_councildis": "E",
    "status": "Assigned to Contractor",
    "contractor": "Waste Pro",
    "rowid": "1280562",
    "final_x": "3712761.1372",
    "final_y": "561937.029471",
    "longitude": "-89.96821569326785",
    "latitude": "30.038144681531488",
    "geocoded_column": {
      "latitude": "30.038144681531488",
      "longitude": "-89.96821569326785"
    }
  },
  {
    "service_request": "2026-1280561",
    "request_type": "Streetlights",
    "request_reason": "Streetlight Outage/Malfunction",
    "date_created": "2026-05-11T22:02:09.000",
    "date_modified": "2026-05-11T22:02:11.000",
    "request_status": "Pending",
    "responsible_agency": "Department of Public Works",
    "final_address": "8522 Dinkins St",
    "address_councildis": "E",
    "status": "Pending",
    "rowid": "1280561",
    "final_x": "3703653.17495",
    "final_y": "562826.399456",
    "longitude": "-89.99696619710312",
    "latitude": "30.040885313154998",
    "geocoded_column": {
      "latitude": "30.040885313154998",
      "longitude": "-89.99696619710312"
    }
  },
  {
    "service_request": "2026-1280560",
    "request_type": "Trash/Recycling",
    "request_reason": "Repair Recycling Cart",
    "date_created": "2026-05-11T21:48:30.000",
    "date_modified": "2026-05-11T21:48:33.000",
    "request_status": "Pending",
    "responsible_agency": "Department of Sanitation",
    "final_address": "0 BLK English Turn Ct",
    "address_councildis": "C",
    "status": "Pending",
    "rowid": "1280560",
    "final_x": "3718192.33064",
    "final_y": "515237.824627",
    "longitude": "-89.95282998262913",
    "latitude": "29.909560529683482",
    "geocoded_column": {
      "latitude": "29.909560529683482",
      "longitude": "-89.95282998262913"
    }
  },
  {
    "service_request": "2026-1280559",
    "request_type": "Trash/Recycling",
    "request_reason": "Repair Recycling Cart",
    "date_created": "2026-05-11T21:48:29.000",
    "date_modified": "2026-05-11T21:48:32.000",
    "request_status": "Pending",
    "responsible_agency": "Department of Sanitation",
    "final_address": "1461 Magazine St",
    "address_councildis": "B",
    "status": "Pending",
    "rowid": "1280559",
    "final_x": "3680202.78491",
    "final_y": "524023.150652",
    "longitude": "-90.0724269539209",
    "latitude": "29.934921174757065",
    "geocoded_column": {
      "latitude": "29.934921174757065",
      "longitude": "-90.0724269539209"
    }
  },
  {
    "service_request": "2026-1280558",
    "request_type": "Trash/Recycling",
    "request_reason": "Request a Large Item Pick Up",
    "date_created": "2026-05-11T21:45:41.000",
    "date_modified": "2026-05-11T21:45:43.000",
    "request_status": "Pending",
    "responsible_agency": "Department of Sanitation",
    "final_address": "4711 Robin Hood Dr",
    "address_councildis": "E",
    "status": "Assigned to Contractor",
    "contractor": "Waste Pro",
    "rowid": "1280558",
    "final_x": "3717581.00453",
    "final_y": "556880.380314",
    "longitude": "-89.95317633921175",
    "latitude": "30.02408215890947",
    "geocoded_column": {
      "latitude": "30.02408215890947",
      "longitude": "-89.95317633921175"
    }
  },
  {
    "service_request": "2026-1280557",
    "request_type": "General Services",
    "request_reason": "General Service Request",
    "date_created": "2026-05-11T21:40:30.000",
    "date_modified": "2026-05-11T21:40:31.000",
    "request_status": "Pending",
    "responsible_agency": "Orleans Parish Communication District",
    "final_address": "700 Eleonore St, New Orleans, Louisiana, 70115",
    "address_councildis": "A",
    "status": "Pending",
    "rowid": "1280557",
    "final_x": "3665122.49901",
    "final_y": "518771.368887",
    "longitude": "-90.12021098630993",
    "latitude": "29.92092811621476",
    "geocoded_column": {
      "latitude": "29.92092811621476",
      "longitude": "-90.12021098630993"
    }
  },
  {
    "service_request": "2026-1280556",
    "request_type": "Trash/Recycling",
    "request_reason": "Repair Recycling Cart",
    "date_created": "2026-05-11T21:38:12.000",
    "date_modified": "2026-05-11T21:38:15.000",
    "request_status": "Pending",
    "responsible_agency": "Department of Sanitation",
    "final_address": "0 BLK English Turn Ct",
    "address_councildis": "C",
    "status": "Pending",
    "rowid": "1280556",
    "final_x": "3718192.33064",
    "final_y": "515237.824627",
    "longitude": "-89.95282998262913",
    "latitude": "29.909560529683482",
    "geocoded_column": {
      "latitude": "29.909560529683482",
      "longitude": "-89.95282998262913"
    }
  },
  {
    "service_request": "2026-1280555",
    "request_type": "Streetlights",
    "request_reason": "Streetlight Outage/Malfunction",
    "date_created": "2026-05-11T21:18:38.000",
    "date_modified": "2026-05-11T21:18:41.000",
    "request_status": "Pending",
    "responsible_agency": "Department of Public Works",
    "final_address": "2334 Nashville Ave",
    "address_councildis": "A",
    "status": "Pending",
    "rowid": "1280555",
    "final_x": "3666984.81409",
    "final_y": "524825.610556",
    "longitude": "-90.1141291399292",
    "latitude": "29.937521013411242",
    "geocoded_column": {
      "latitude": "29.937521013411242",
      "longitude": "-90.1141291399292"
    }
  },
  {
    "service_request": "2026-1280554",
    "request_type": "Roads and Streets",
    "request_reason": "Debris in Driving Lanes",
    "date_created": "2026-05-11T21:01:34.000",
    "date_modified": "2026-05-11T21:01:35.000",
    "request_status": "Pending",
    "responsible_agency": "Department of Public Works",
    "final_address": "2412 Marais St",
    "address_councildis": "C",
    "status": "Pending",
    "rowid": "1280554",
    "final_x": "3686605.34313",
    "final_y": "536768.660296",
    "longitude": "-90.05176415764922",
    "latitude": "29.969771684076807",
    "geocoded_column": {
      "latitude": "29.969771684076807",
      "longitude": "-90.05176415764922"
    }
  },
  {
    "service_request": "2026-1280553",
    "request_type": "Utility Poles",
    "request_reason": "Wires Sagging/Hanging Low",
    "date_created": "2026-05-11T20:59:25.000",
    "date_modified": "2026-05-11T20:59:29.000",
    "request_status": "Pending",
    "responsible_agency": "Utility Company Collective",
    "final_address": "1124 Music St",
    "address_councildis": "C",
    "status": "Pending",
    "rowid": "1280553",
    "final_x": "3686794.08252",
    "final_y": "536733.102343",
    "longitude": "-90.05116935928723",
    "latitude": "29.969668106350703",
    "geocoded_column": {
      "latitude": "29.969668106350703",
      "longitude": "-90.05116935928723"
    }
  },
  {
    "service_request": "2026-1280552",
    "request_type": "Trash/Recycling",
    "request_reason": "Replace Trash Cart",
    "date_created": "2026-05-11T20:47:51.000",
    "date_modified": "2026-05-11T20:47:52.000",
    "request_status": "Pending",
    "responsible_agency": "Department of Sanitation",
    "final_address": "4822 Cleveland Ave",
    "address_councildis": "A",
    "status": "Assigned to Contractor",
    "contractor": "IV Waste",
    "rowid": "1280552",
    "final_x": "3668365.69857",
    "final_y": "539808.562826",
    "longitude": "-90.10926425820907",
    "latitude": "29.97867872482772",
    "geocoded_column": {
      "latitude": "29.97867872482772",
      "longitude": "-90.10926425820907"
    }
  },
  {
    "service_request": "2026-1280551",
    "request_type": "Trash/Recycling",
    "request_reason": "Repair Trash Cart",
    "date_created": "2026-05-11T20:45:33.000",
    "date_modified": "2026-05-11T20:45:35.000",
    "request_status": "Pending",
    "responsible_agency": "Department of Sanitation",
    "final_address": "535 Belleville St",
    "address_councildis": "C",
    "status": "Assigned to Contractor",
    "contractor": "Richards Disposal",
    "rowid": "1280551",
    "final_x": "3687790.07535",
    "final_y": "529639.179457",
    "longitude": "-90.048275185763",
    "latitude": "29.950131591368322",
    "geocoded_column": {
      "latitude": "29.950131591368322",
      "longitude": "-90.048275185763"
    }
  },
  {
    "service_request": "2026-1280550",
    "request_type": "Abandoned Vehicles",
    "request_reason": "Abandoned/Junk Vehicles",
    "date_created": "2026-05-11T20:44:23.000",
    "date_modified": "2026-05-11T20:44:25.000",
    "request_status": "Pending",
    "responsible_agency": "Department of Public Works",
    "final_address": "5516 Cameron Blvd",
    "address_councildis": "D",
    "status": "Pending",
    "rowid": "1280550",
    "final_x": "3682422.37608",
    "final_y": "553069.495511",
    "longitude": "-90.06440424190919",
    "latitude": "30.014721178940327",
    "geocoded_column": {
      "latitude": "30.014721178940327",
      "longitude": "-90.06440424190919"
    }
  },
  {
    "service_request": "2026-1280549",
    "request_type": "Abandoned Vehicles",
    "request_reason": "Abandoned/Junk Vehicles",
    "date_created": "2026-05-11T20:39:28.000",
    "date_modified": "2026-05-11T20:39:30.000",
    "request_status": "Pending",
    "responsible_agency": "Department of Public Works",
    "final_address": "5516 Cameron Blvd",
    "address_councildis": "D",
    "status": "Pending",
    "rowid": "1280549",
    "final_x": "3682422.37608",
    "final_y": "553069.495511",
    "longitude": "-90.06440424190919",
    "latitude": "30.014721178940327",
    "geocoded_column": {
      "latitude": "30.014721178940327",
      "longitude": "-90.06440424190919"
    }
  },
  {
    "service_request": "2026-1280548",
    "request_type": "Drainage",
    "request_reason": "Catch Basin Not Draining",
    "date_created": "2026-05-11T20:35:41.000",
    "date_modified": "2026-05-11T20:35:44.000",
    "request_status": "Pending",
    "responsible_agency": "Sewerage & Water Board",
    "final_address": "1014 Jackson Ave",
    "address_councildis": "B",
    "status": "Pending",
    "rowid": "1280548",
    "final_x": "3678962.00904",
    "final_y": "521856.352186",
    "longitude": "-90.07641910664414",
    "latitude": "29.929000675093288",
    "geocoded_column": {
      "latitude": "29.929000675093288",
      "longitude": "-90.07641910664414"
    }
  },
  {
    "service_request": "2026-1280547",
    "request_type": "Trash/Recycling",
    "request_reason": "Illegal Dumping",
    "date_created": "2026-05-11T20:34:05.000",
    "date_modified": "2026-05-11T20:34:06.000",
    "request_status": "Pending",
    "responsible_agency": "Department of Sanitation",
    "final_address": "4201 Downman Rd",
    "address_councildis": "D",
    "status": "Pending",
    "rowid": "1280547",
    "final_x": "3696197.96534",
    "final_y": "552659.31055",
    "longitude": "-90.02089513304762",
    "latitude": "30.01316666267216",
    "geocoded_column": {
      "latitude": "30.01316666267216",
      "longitude": "-90.02089513304762"
    }
  },
  {
    "service_request": "2026-1280546",
    "request_type": "Trash/Recycling",
    "request_reason": "Replace Recycling Cart",
    "date_created": "2026-05-11T20:31:54.000",
    "date_modified": "2026-05-11T20:32:00.000",
    "request_status": "Pending",
    "responsible_agency": "Department of Sanitation",
    "final_address": "213 Delaronde St",
    "address_councildis": "C",
    "status": "Pending",
    "rowid": "1280546",
    "final_x": "3686097.59676",
    "final_y": "530610.577602",
    "longitude": "-90.05358486919046",
    "latitude": "29.952854687753433",
    "geocoded_column": {
      "latitude": "29.952854687753433",
      "longitude": "-90.05358486919046"
    }
  },
  {
    "service_request": "2026-1280545",
    "request_type": "Trash/Recycling",
    "request_reason": "Illegal Dumping",
    "date_created": "2026-05-11T20:30:35.000",
    "date_modified": "2026-05-11T20:30:38.000",
    "request_status": "Pending",
    "responsible_agency": "Department of Sanitation",
    "final_address": "4201 Downman Rd",
    "address_councildis": "D",
    "status": "Pending",
    "rowid": "1280545",
    "final_x": "3696197.96534",
    "final_y": "552659.31055",
    "longitude": "-90.02089513304762",
    "latitude": "30.01316666267216",
    "geocoded_column": {
      "latitude": "30.01316666267216",
      "longitude": "-90.02089513304762"
    }
  },
  {
    "service_request": "2026-1280544",
    "request_type": "Streetlights",
    "request_reason": "Streetlight Outage/Malfunction",
    "date_created": "2026-05-11T20:21:52.000",
    "date_modified": "2026-05-11T20:21:54.000",
    "request_status": "Pending",
    "responsible_agency": "Department of Public Works",
    "final_address": "224 Walnut St",
    "address_councildis": "A",
    "status": "Pending",
    "rowid": "1280544",
    "final_x": "3661321.19392",
    "final_y": "521267.202745",
    "longitude": "-90.13212745710103",
    "latitude": "29.92790099665406",
    "geocoded_column": {
      "latitude": "29.92790099665406",
      "longitude": "-90.13212745710103"
    }
  },
  {
    "service_request": "2026-1280543",
    "request_type": "Abandoned Vehicles",
    "request_reason": "Abandoned/Junk Vehicles",
    "date_created": "2026-05-11T20:11:32.000",
    "date_modified": "2026-05-11T20:11:34.000",
    "request_status": "Pending",
    "responsible_agency": "Department of Public Works",
    "final_address": "5506 Cameron Blvd",
    "address_councildis": "D",
    "status": "Pending",
    "rowid": "1280543",
    "final_x": "3682427.43599",
    "final_y": "553005.759575",
    "longitude": "-90.06439048515433",
    "latitude": "30.014545774240172",
    "geocoded_column": {
      "latitude": "30.014545774240172",
      "longitude": "-90.06439048515433"
    }
  },
  {
    "service_request": "2026-1280542",
    "request_type": "Trash/Recycling",
    "request_reason": "Replace Trash Cart",
    "date_created": "2026-05-11T20:07:58.000",
    "date_modified": "2026-05-11T20:08:00.000",
    "request_status": "Pending",
    "responsible_agency": "Department of Sanitation",
    "final_address": "1431 Murl St",
    "address_councildis": "C",
    "status": "Assigned to Contractor",
    "contractor": "Richards Disposal",
    "rowid": "1280542",
    "final_x": "3695352.77923",
    "final_y": "526235.24019",
    "longitude": "-90.0245190571963",
    "latitude": "29.94053655851828",
    "geocoded_column": {
      "latitude": "29.94053655851828",
      "longitude": "-90.0245190571963"
    }
  },
  {
    "service_request": "2026-1280541",
    "request_type": "Drainage",
    "request_reason": "Catch Basin Not Draining",
    "date_created": "2026-05-11T19:37:20.000",
    "date_modified": "2026-05-11T19:37:24.000",
    "request_status": "Pending",
    "responsible_agency": "Sewerage & Water Board",
    "final_address": "2100 Mirabeau Ave",
    "address_councildis": "D",
    "status": "Pending",
    "rowid": "1280541",
    "final_x": "3683132.25295",
    "final_y": "550564.339092",
    "longitude": "-90.06224918013726",
    "latitude": "30.007811273564865",
    "geocoded_column": {
      "latitude": "30.007811273564865",
      "longitude": "-90.06224918013726"
    }
  },
  {
    "service_request": "2026-1280540",
    "request_type": "Trash/Recycling",
    "request_reason": "Request a Large Item Pick Up",
    "date_created": "2026-05-11T19:30:45.000",
    "date_modified": "2026-05-11T19:30:47.000",
    "request_status": "Pending",
    "responsible_agency": "Department of Sanitation",
    "final_address": "1435 Mazant St",
    "address_councildis": "D",
    "status": "Assigned to Contractor",
    "contractor": "IV Waste",
    "rowid": "1280540",
    "final_x": "3692484.72125",
    "final_y": "536559.707079",
    "longitude": "-90.03320410580451",
    "latitude": "29.96901501477265",
    "geocoded_column": {
      "latitude": "29.96901501477265",
      "longitude": "-90.03320410580451"
    }
  },
  {
    "service_request": "2026-1280539",
    "request_type": "Property Maintenance",
    "request_reason": "Property Maintenance",
    "date_created": "2026-05-11T19:13:11.000",
    "date_modified": "2026-05-11T19:13:14.000",
    "request_status": "Pending",
    "responsible_agency": "Department of Code Enforcement",
    "final_address": "3611 Calhoun St",
    "address_councildis": "A",
    "status": "Pending",
    "rowid": "1280539",
    "final_x": "3667909.7817",
    "final_y": "529798.676993",
    "longitude": "-90.11104146265583",
    "latitude": "29.95116824200101",
    "geocoded_column": {
      "latitude": "29.95116824200101",
      "longitude": "-90.11104146265583"
    }
  },
  {
    "service_request": "2026-1280538",
    "request_type": "Trash/Recycling",
    "request_reason": "Request a Large Item Pick Up",
    "date_created": "2026-05-11T19:03:02.000",
    "date_modified": "2026-05-11T19:03:04.000",
    "request_status": "Pending",
    "responsible_agency": "Department of Sanitation",
    "final_address": "7620 Alabama St",
    "address_councildis": "D",
    "status": "Assigned to Contractor",
    "contractor": "Waste Pro",
    "rowid": "1280538",
    "final_x": "3694855.26666",
    "final_y": "558484.864092",
    "longitude": "-90.02492715395933",
    "latitude": "30.029226954723722",
    "geocoded_column": {
      "latitude": "30.029226954723722",
      "longitude": "-90.02492715395933"
    }
  },
  {
    "service_request": "2026-1280537",
    "request_type": "Utility Poles",
    "request_reason": "Wires Sagging/Hanging Low",
    "date_created": "2026-05-11T19:01:54.000",
    "date_modified": "2026-05-11T19:01:56.000",
    "request_status": "Pending",
    "responsible_agency": "Utility Company Collective",
    "final_address": "2909 Louisiana Ave",
    "address_councildis": "B",
    "status": "Pending",
    "rowid": "1280537",
    "final_x": "3672389.14196",
    "final_y": "525880.603389",
    "longitude": "-90.09703132041368",
    "latitude": "29.94026267852118",
    "geocoded_column": {
      "latitude": "29.94026267852118",
      "longitude": "-90.09703132041368"
    }
  },
  {
    "service_request": "2026-1280536",
    "request_type": "Trash/Recycling",
    "request_reason": "Replace Trash Cart",
    "date_created": "2026-05-11T19:00:18.000",
    "date_modified": "2026-05-11T19:00:19.000",
    "request_status": "Pending",
    "responsible_agency": "Department of Sanitation",
    "final_address": "7618 Alabama St",
    "address_councildis": "D",
    "status": "Assigned to Contractor",
    "contractor": "Waste Pro",
    "rowid": "1280536",
    "final_x": "3694869.15555",
    "final_y": "558453.962524",
    "longitude": "-90.02488438068683",
    "latitude": "30.029141551104125",
    "geocoded_column": {
      "latitude": "30.029141551104125",
      "longitude": "-90.02488438068683"
    }
  },
  {
    "service_request": "2026-1280535",
    "request_type": "Mosquito, Termite & Rodent Control",
    "request_reason": "Mosquito Complaint",
    "date_created": "2026-05-11T18:54:20.000",
    "date_modified": "2026-05-11T18:54:22.000",
    "request_status": "Pending",
    "responsible_agency": "Mosquito, Termite & Rodent Control Board",
    "final_address": "2128 Almonaster Ave",
    "address_councildis": "D",
    "status": "Pending",
    "rowid": "1280535",
    "final_x": "3688033.05436",
    "final_y": "540482.886539",
    "longitude": "-90.04712365891393",
    "latitude": "29.979940513704538",
    "geocoded_column": {
      "latitude": "29.979940513704538",
      "longitude": "-90.04712365891393"
    }
  },
  {
    "service_request": "2026-1280534",
    "request_type": "Property Maintenance",
    "request_reason": "Property Maintenance",
    "date_created": "2026-05-11T18:48:13.000",
    "date_modified": "2026-05-11T18:48:15.000",
    "request_status": "Pending",
    "responsible_agency": "Department of Code Enforcement",
    "final_address": "2909 Louisiana Ave",
    "address_councildis": "B",
    "status": "Pending",
    "rowid": "1280534",
    "final_x": "3672389.14196",
    "final_y": "525880.603389",
    "longitude": "-90.09703132041368",
    "latitude": "29.94026267852118",
    "geocoded_column": {
      "latitude": "29.94026267852118",
      "longitude": "-90.09703132041368"
    }
  },
  {
    "service_request": "2026-1280533",
    "request_type": "Utility Poles",
    "request_reason": "Wires Sagging/Hanging Low",
    "date_created": "2026-05-11T18:46:57.000",
    "date_modified": "2026-05-11T18:46:59.000",
    "request_status": "Pending",
    "responsible_agency": "Utility Company Collective",
    "final_address": "2909 Louisiana Ave",
    "address_councildis": "B",
    "status": "Pending",
    "rowid": "1280533",
    "final_x": "3672389.14196",
    "final_y": "525880.603389",
    "longitude": "-90.09703132041368",
    "latitude": "29.94026267852118",
    "geocoded_column": {
      "latitude": "29.94026267852118",
      "longitude": "-90.09703132041368"
    }
  },
  {
    "service_request": "2026-1280532",
    "request_type": "Streetlights",
    "request_reason": "Streetlight Outage/Malfunction",
    "date_created": "2026-05-11T18:41:48.000",
    "date_modified": "2026-05-11T18:41:50.000",
    "request_status": "Pending",
    "responsible_agency": "Department of Public Works",
    "final_address": "2128 Almonaster Ave",
    "address_councildis": "D",
    "status": "Pending",
    "rowid": "1280532",
    "final_x": "3688033.05436",
    "final_y": "540482.886539",
    "longitude": "-90.04712365891393",
    "latitude": "29.979940513704538",
    "geocoded_column": {
      "latitude": "29.979940513704538",
      "longitude": "-90.04712365891393"
    }
  },
  {
    "service_request": "2026-1280531",
    "request_type": "Streetlights",
    "request_reason": "Streetlight Outage/Malfunction",
    "date_created": "2026-05-11T18:35:35.000",
    "date_modified": "2026-05-11T18:35:37.000",
    "request_status": "Pending",
    "responsible_agency": "Department of Public Works",
    "final_address": "81 Fontainebleau Dr",
    "address_councildis": "A",
    "status": "Pending",
    "rowid": "1280531",
    "final_x": "3666868.03258",
    "final_y": "530882.411394",
    "longitude": "-90.11429439572407",
    "latitude": "29.95417867303513",
    "geocoded_column": {
      "latitude": "29.95417867303513",
      "longitude": "-90.11429439572407"
    }
  },
  {
    "service_request": "2026-1280530",
    "request_type": "Trash/Recycling",
    "request_reason": "Replace Trash Cart",
    "date_created": "2026-05-11T18:32:49.000",
    "date_modified": "2026-05-11T18:32:51.000",
    "request_status": "Pending",
    "responsible_agency": "Department of Sanitation",
    "final_address": "1537 Mithra St",
    "address_councildis": "D",
    "status": "Assigned to Contractor",
    "contractor": "IV Waste",
    "rowid": "1280530",
    "final_x": "3679041.58235",
    "final_y": "552301.927766",
    "longitude": "-90.07511254084419",
    "latitude": "30.01271315680064",
    "geocoded_column": {
      "latitude": "30.01271315680064",
      "longitude": "-90.07511254084419"
    }
  },
  {
    "service_request": "2026-1280529",
    "request_type": "Utility Poles",
    "request_reason": "Wires Sagging/Hanging Low",
    "date_created": "2026-05-11T18:31:35.000",
    "date_modified": "2026-05-11T18:31:44.000",
    "request_status": "Pending",
    "responsible_agency": "Utility Company Collective",
    "final_address": "1124 Music St",
    "address_councildis": "C",
    "status": "Pending",
    "rowid": "1280529",
    "final_x": "3686794.08252",
    "final_y": "536733.102343",
    "longitude": "-90.05116935928723",
    "latitude": "29.969668106350703",
    "geocoded_column": {
      "latitude": "29.969668106350703",
      "longitude": "-90.05116935928723"
    }
  },
  {
    "service_request": "2026-1280528",
    "request_type": "Streetlights",
    "request_reason": "Streetlight Outage/Malfunction",
    "date_created": "2026-05-11T18:31:26.000",
    "date_modified": "2026-05-11T18:31:28.000",
    "request_status": "Pending",
    "responsible_agency": "Department of Public Works",
    "final_address": "8211 Spruce St",
    "address_councildis": "A",
    "status": "Pending",
    "rowid": "1280528",
    "final_x": "3663540.47405",
    "final_y": "530792.477634",
    "longitude": "-90.12480453259907",
    "latitude": "29.954028306590008",
    "geocoded_column": {
      "latitude": "29.954028306590008",
      "longitude": "-90.12480453259907"
    }
  },
  {
    "service_request": "2026-1280527",
    "request_type": "Utility Poles",
    "request_reason": "Wires Sagging/Hanging Low",
    "date_created": "2026-05-11T18:27:21.000",
    "date_modified": "2026-05-11T18:27:25.000",
    "request_status": "Pending",
    "responsible_agency": "Utility Company Collective",
    "final_address": "6860 Catina St",
    "address_councildis": "A",
    "status": "Pending",
    "rowid": "1280527",
    "final_x": "3667054.4025",
    "final_y": "553580.770327",
    "longitude": "-90.11294255722275",
    "latitude": "30.016586008273237",
    "geocoded_column": {
      "latitude": "30.016586008273237",
      "longitude": "-90.11294255722275"
    }
  },
  {
    "service_request": "2026-1280526",
    "request_type": "Roads and Streets",
    "request_reason": "Street Subsidence (Sinking)",
    "date_created": "2026-05-11T18:25:26.000",
    "date_modified": "2026-05-11T18:25:27.000",
    "request_status": "Pending",
    "responsible_agency": "Sewerage & Water Board",
    "final_address": "7400 BLK Dominican St",
    "address_councildis": "A",
    "status": "Pending",
    "rowid": "1280526",
    "final_x": "3661997.87511",
    "final_y": "524543.632459",
    "longitude": "-90.12988269177022",
    "latitude": "29.936890624867715",
    "geocoded_column": {
      "latitude": "29.936890624867715",
      "longitude": "-90.12988269177022"
    }
  },
  {
    "service_request": "2026-1280525",
    "request_type": "Trash/Recycling",
    "request_reason": "Request a Large Item Pick Up",
    "date_created": "2026-05-11T18:16:01.000",
    "date_modified": "2026-05-11T18:16:03.000",
    "request_status": "Pending",
    "responsible_agency": "Department of Sanitation",
    "final_address": "215 Vallette St",
    "address_councildis": "C",
    "status": "Assigned to Contractor",
    "contractor": "Richards Disposal",
    "rowid": "1280525",
    "final_x": "3687544.67606",
    "final_y": "531054.38765",
    "longitude": "-90.04899993913017",
    "latitude": "29.954030493858085",
    "geocoded_column": {
      "latitude": "29.954030493858085",
      "longitude": "-90.04899993913017"
    }
  },
  {
    "service_request": "2026-1280524",
    "request_type": "Property Maintenance",
    "request_reason": "Property Maintenance",
    "date_created": "2026-05-11T18:00:17.000",
    "date_modified": "2026-05-11T18:00:19.000",
    "request_status": "Pending",
    "responsible_agency": "Department of Code Enforcement",
    "final_address": "940 Elysian Fields Ave",
    "address_councildis": "C",
    "status": "Pending",
    "rowid": "1280524",
    "final_x": "3684958.32297",
    "final_y": "535868.119239",
    "longitude": "-90.0569972680121",
    "latitude": "29.96734605776215",
    "geocoded_column": {
      "latitude": "29.96734605776215",
      "longitude": "-90.0569972680121"
    }
  },
  {
    "service_request": "2026-1280523",
    "request_type": "Roads and Streets",
    "request_reason": "Sidewalk Damaged or Missing",
    "date_created": "2026-05-11T17:45:27.000",
    "date_modified": "2026-05-11T17:45:29.000",
    "request_status": "Pending",
    "responsible_agency": "Department of Public Works",
    "final_address": "2017 Allen St",
    "address_councildis": "D",
    "status": "Pending",
    "rowid": "1280523",
    "final_x": "3682532.00021",
    "final_y": "539582.49985",
    "longitude": "-90.06452973512123",
    "latitude": "29.97763340751914",
    "geocoded_column": {
      "latitude": "29.97763340751914",
      "longitude": "-90.06452973512123"
    }
  },
  {
    "service_request": "2026-1280522",
    "request_type": "Roads and Streets",
    "request_reason": "Sidewalk Damaged or Missing",
    "date_created": "2026-05-11T17:42:13.000",
    "date_modified": "2026-05-11T17:42:17.000",
    "request_status": "Pending",
    "responsible_agency": "Department of Public Works",
    "final_address": "2017 Allen St",
    "address_councildis": "D",
    "status": "Pending",
    "rowid": "1280522",
    "final_x": "3682532.00021",
    "final_y": "539582.49985",
    "longitude": "-90.06452973512123",
    "latitude": "29.97763340751914",
    "geocoded_column": {
      "latitude": "29.97763340751914",
      "longitude": "-90.06452973512123"
    }
  },
  {
    "service_request": "2026-1280521",
    "request_type": "Abandoned Vehicles",
    "request_reason": "Abandoned/Junk Vehicles",
    "date_created": "2026-05-11T17:30:38.000",
    "date_modified": "2026-05-11T17:30:41.000",
    "request_status": "Pending",
    "responsible_agency": "Department of Public Works",
    "final_address": "4529 Tchoupitoulas St",
    "address_councildis": "B",
    "status": "Pending",
    "rowid": "1280521",
    "final_x": "3670536.573",
    "final_y": "517429.220086",
    "longitude": "-90.10316664883027",
    "latitude": "29.917078910731295",
    "geocoded_column": {
      "latitude": "29.917078910731295",
      "longitude": "-90.10316664883027"
    }
  },
  {
    "service_request": "2026-1280520",
    "request_type": "Trash/Recycling",
    "request_reason": "Request a Large Item Pick Up",
    "date_created": "2026-05-11T17:25:46.000",
    "date_modified": "2026-05-11T17:25:48.000",
    "request_status": "Pending",
    "responsible_agency": "Department of Sanitation",
    "final_address": "7427 Freret St",
    "address_councildis": "A",
    "status": "Assigned to Contractor",
    "contractor": "IV Waste",
    "rowid": "1280520",
    "final_x": "3663161.30323",
    "final_y": "526389.377854",
    "longitude": "-90.12614828116207",
    "latitude": "29.94193218753553",
    "geocoded_column": {
      "latitude": "29.94193218753553",
      "longitude": "-90.12614828116207"
    }
  },
  {
    "service_request": "2026-1280519",
    "request_type": "General Services",
    "request_reason": "General Service Request",
    "date_created": "2026-05-11T17:02:52.000",
    "date_modified": "2026-05-11T17:02:59.000",
    "request_status": "Pending",
    "responsible_agency": "Orleans Parish Communication District",
    "final_address": "5904 Marigny St",
    "address_councildis": "D",
    "status": "Pending",
    "rowid": "1280519",
    "final_x": "3683903.05103",
    "final_y": "554686.077336",
    "longitude": "-90.0596692600494",
    "latitude": "30.019121017128075",
    "geocoded_column": {
      "latitude": "30.019121017128075",
      "longitude": "-90.0596692600494"
    }
  },
  {
    "service_request": "2026-1280518",
    "request_type": "Roads and Streets",
    "request_reason": "Pothole",
    "date_created": "2026-05-11T17:00:38.000",
    "date_modified": "2026-05-11T17:00:41.000",
    "request_status": "Pending",
    "responsible_agency": "Department of Public Works",
    "final_address": "1012 N Gayoso St",
    "address_councildis": "A",
    "status": "Pending",
    "rowid": "1280518",
    "final_x": "3676470.98081",
    "final_y": "538731.459529",
    "longitude": "-90.08370182767003",
    "latitude": "29.975476488065166",
    "geocoded_column": {
      "latitude": "29.975476488065166",
      "longitude": "-90.08370182767003"
    }
  },
  {
    "service_request": "2026-1280517",
    "request_type": "Trash/Recycling",
    "request_reason": "Replace Trash Cart",
    "date_created": "2026-05-11T16:55:53.000",
    "date_modified": "2026-05-11T16:56:32.000",
    "request_status": "Pending",
    "responsible_agency": "Department of Sanitation",
    "final_address": "5373 Canal Blvd",
    "address_councildis": "A",
    "status": "Assigned to Contractor",
    "contractor": "IV Waste",
    "rowid": "1280517",
    "final_x": "3668230.51181",
    "final_y": "543230.516814",
    "longitude": "-90.10957580237759",
    "latitude": "29.98809190791012",
    "geocoded_column": {
      "latitude": "29.98809190791012",
      "longitude": "-90.10957580237759"
    }
  },
  {
    "service_request": "2026-1280516",
    "request_type": "Trash/Recycling",
    "request_reason": "Repair Trash Cart",
    "date_created": "2026-05-11T16:55:06.000",
    "date_modified": "2026-05-11T16:55:08.000",
    "request_status": "Pending",
    "responsible_agency": "Department of Sanitation",
    "final_address": "6347 Bellaire Dr",
    "address_councildis": "A",
    "status": "Assigned to Contractor",
    "contractor": "IV Waste",
    "rowid": "1280516",
    "final_x": "3664499.92999",
    "final_y": "550082.412436",
    "longitude": "-90.12113057269407",
    "latitude": "30.007041303102504",
    "geocoded_column": {
      "latitude": "30.007041303102504",
      "longitude": "-90.12113057269407"
    }
  },
  {
    "service_request": "2026-1280515",
    "request_type": "Trash/Recycling",
    "request_reason": "Request a Large Item Pick Up",
    "date_created": "2026-05-11T16:54:39.000",
    "date_modified": "2026-05-11T16:54:41.000",
    "request_status": "Pending",
    "responsible_agency": "Department of Sanitation",
    "final_address": "2057 Brutus St",
    "address_councildis": "D",
    "status": "Assigned to Contractor",
    "contractor": "IV Waste",
    "rowid": "1280515",
    "final_x": "3682900.93896",
    "final_y": "550264.312724",
    "longitude": "-90.06299047733982",
    "latitude": "30.006993362922863",
    "geocoded_column": {
      "latitude": "30.006993362922863",
      "longitude": "-90.06299047733982"
    }
  },
  {
    "service_request": "2026-1280514",
    "request_type": "Trash/Recycling",
    "request_reason": "Request a Large Item Pick Up",
    "date_created": "2026-05-11T16:53:34.000",
    "date_modified": "2026-05-11T16:53:36.000",
    "request_status": "Pending",
    "responsible_agency": "Department of Sanitation",
    "final_address": "1330 Sumner St",
    "address_councildis": "C",
    "status": "Assigned to Contractor",
    "contractor": "Richards Disposal",
    "rowid": "1280514",
    "final_x": "3691087.90915",
    "final_y": "526365.674238",
    "longitude": "-90.03797925833018",
    "latitude": "29.941028467530586",
    "geocoded_column": {
      "latitude": "29.941028467530586",
      "longitude": "-90.03797925833018"
    }
  },
  {
    "service_request": "2026-1280513",
    "request_type": "Trash/Recycling",
    "request_reason": "Repair Trash Cart",
    "date_created": "2026-05-11T16:53:22.000",
    "date_modified": "2026-05-11T16:53:24.000",
    "request_status": "Pending",
    "responsible_agency": "Department of Sanitation",
    "final_address": "5373 Canal Blvd",
    "address_councildis": "A",
    "status": "Assigned to Contractor",
    "contractor": "IV Waste",
    "rowid": "1280513",
    "final_x": "3668230.51181",
    "final_y": "543230.516814",
    "longitude": "-90.10957580237759",
    "latitude": "29.98809190791012",
    "geocoded_column": {
      "latitude": "29.98809190791012",
      "longitude": "-90.10957580237759"
    }
  },
  {
    "service_request": "2026-1280512",
    "request_type": "Trash/Recycling",
    "request_reason": "Replace Recycling Cart",
    "date_created": "2026-05-11T16:53:10.000",
    "date_modified": "2026-05-11T16:53:13.000",
    "request_status": "Pending",
    "responsible_agency": "Department of Sanitation",
    "final_address": "6347 Bellaire Dr",
    "address_councildis": "A",
    "status": "Pending",
    "rowid": "1280512",
    "final_x": "3664499.92999",
    "final_y": "550082.412436",
    "longitude": "-90.12113057269407",
    "latitude": "30.007041303102504",
    "geocoded_column": {
      "latitude": "30.007041303102504",
      "longitude": "-90.12113057269407"
    }
  },
  {
    "service_request": "2026-1280511",
    "request_type": "Trash/Recycling",
    "request_reason": "Request a Large Item Pick Up",
    "date_created": "2026-05-11T16:46:49.000",
    "date_modified": "2026-05-11T16:46:52.000",
    "request_status": "Pending",
    "responsible_agency": "Department of Sanitation",
    "final_address": "400 BLK Vallette St",
    "address_councildis": "C",
    "status": "Assigned to Contractor",
    "contractor": "Richards Disposal",
    "rowid": "1280511",
    "final_x": "3687543.89883",
    "final_y": "530140.967393",
    "longitude": "-90.04903472051977",
    "latitude": "29.951518925533975",
    "geocoded_column": {
      "latitude": "29.951518925533975",
      "longitude": "-90.04903472051977"
    }
  },
  {
    "service_request": "2026-1280510",
    "request_type": "Trash/Recycling",
    "request_reason": "Repair Recycling Cart",
    "date_created": "2026-05-11T16:42:00.000",
    "date_modified": "2026-05-11T16:42:01.000",
    "request_status": "Pending",
    "responsible_agency": "Department of Sanitation",
    "final_address": "2473 Royal St",
    "address_councildis": "C",
    "status": "Pending",
    "rowid": "1280510",
    "final_x": "3686510.63567",
    "final_y": "535006.36103",
    "longitude": "-90.05212548178295",
    "latitude": "29.964928886464726",
    "geocoded_column": {
      "latitude": "29.964928886464726",
      "longitude": "-90.05212548178295"
    }
  },
  {
    "service_request": "2026-1280509",
    "request_type": "Trash/Recycling",
    "request_reason": "Request a Large Item Pick Up",
    "date_created": "2026-05-11T16:41:43.000",
    "date_modified": "2026-05-11T16:41:45.000",
    "request_status": "Pending",
    "responsible_agency": "Department of Sanitation",
    "final_address": "8630 Bill St",
    "address_councildis": "E",
    "status": "Assigned to Contractor",
    "contractor": "Waste Pro",
    "rowid": "1280509",
    "final_x": "3703908.51722",
    "final_y": "563227.383648",
    "longitude": "-89.99614444523837",
    "latitude": "30.041979670687933",
    "geocoded_column": {
      "latitude": "30.041979670687933",
      "longitude": "-89.99614444523837"
    }
  },
  {
    "service_request": "2026-1280508",
    "request_type": "Trash/Recycling",
    "request_reason": "Request a Large Item Pick Up",
    "date_created": "2026-05-11T16:40:04.000",
    "date_modified": "2026-05-11T16:40:06.000",
    "request_status": "Pending",
    "responsible_agency": "Department of Sanitation",
    "final_address": "1317 Atlantic Ave",
    "address_councildis": "C",
    "status": "Assigned to Contractor",
    "contractor": "Richards Disposal",
    "rowid": "1280508",
    "final_x": "3688599.32201",
    "final_y": "526559.622782",
    "longitude": "-90.04582927844052",
    "latitude": "29.94163888206928",
    "geocoded_column": {
      "latitude": "29.94163888206928",
      "longitude": "-90.04582927844052"
    }
  },
  {
    "service_request": "2026-1280507",
    "request_type": "Roads and Streets",
    "request_reason": "Sidewalk Damaged or Missing",
    "date_created": "2026-05-11T16:33:02.000",
    "date_modified": "2026-05-11T21:00:45.000",
    "request_status": "Pending",
    "responsible_agency": "Department of Public Works",
    "final_address": "8853 Curran Rd",
    "address_councildis": "E",
    "status": "Pending",
    "rowid": "1280507",
    "final_x": "3704911.28555",
    "final_y": "563010.089504",
    "longitude": "-89.9929833760537",
    "latitude": "30.041349982862226",
    "geocoded_column": {
      "latitude": "30.041349982862226",
      "longitude": "-89.9929833760537"
    }
  },
  {
    "service_request": "2026-1280506",
    "request_type": "Trash/Recycling",
    "request_reason": "Request a Large Item Pick Up",
    "date_created": "2026-05-11T16:31:47.000",
    "date_modified": "2026-05-11T16:31:51.000",
    "request_status": "Pending",
    "responsible_agency": "Department of Sanitation",
    "final_address": "4620 Prentiss Ave",
    "address_councildis": "D",
    "status": "Assigned to Contractor",
    "contractor": "IV Waste",
    "rowid": "1280506",
    "final_x": "3690815.73532",
    "final_y": "554170.590744",
    "longitude": "-90.03784605941965",
    "latitude": "30.017490532429335",
    "geocoded_column": {
      "latitude": "30.017490532429335",
      "longitude": "-90.03784605941965"
    }
  },
  {
    "service_request": "2026-1280505",
    "request_type": "Tree Service",
    "request_reason": "Tree Trim",
    "date_created": "2026-05-11T16:30:37.000",
    "date_modified": "2026-05-11T16:30:39.000",
    "request_status": "Pending",
    "responsible_agency": "Department of Parks & Parkways",
    "final_address": "3506 Magazine St",
    "address_councildis": "B",
    "status": "Pending",
    "rowid": "1280505",
    "final_x": "3674387.18011",
    "final_y": "519329.896119",
    "longitude": "-90.09094743109584",
    "latitude": "29.92219092879371",
    "geocoded_column": {
      "latitude": "29.92219092879371",
      "longitude": "-90.09094743109584"
    }
  },
  {
    "service_request": "2026-1280504",
    "request_type": "Trash/Recycling",
    "request_reason": "Request a Large Item Pick Up",
    "date_created": "2026-05-11T16:30:18.000",
    "date_modified": "2026-05-11T16:30:20.000",
    "request_status": "Pending",
    "responsible_agency": "Department of Sanitation",
    "final_address": "7890 Means Ave",
    "address_councildis": "E",
    "status": "Assigned to Contractor",
    "contractor": "Waste Pro",
    "rowid": "1280504",
    "final_x": "3707593.2003",
    "final_y": "565482.809186",
    "longitude": "-89.98441564231584",
    "latitude": "30.048062441752617",
    "geocoded_column": {
      "latitude": "30.048062441752617",
      "longitude": "-89.98441564231584"
    }
  },
  {
    "service_request": "2026-1280503",
    "request_type": "Trash/Recycling",
    "request_reason": "Request a Large Item Pick Up",
    "date_created": "2026-05-11T16:28:42.000",
    "date_modified": "2026-05-11T16:28:44.000",
    "request_status": "Pending",
    "responsible_agency": "Department of Sanitation",
    "final_address": "8630 Chase St",
    "address_councildis": "E",
    "status": "Assigned to Contractor",
    "contractor": "Waste Pro",
    "rowid": "1280503",
    "final_x": "3703787.19479",
    "final_y": "563447.751584",
    "longitude": "-89.99651974193881",
    "latitude": "30.042589487952732",
    "geocoded_column": {
      "latitude": "30.042589487952732",
      "longitude": "-89.99651974193881"
    }
  },
  {
    "service_request": "2026-1280502",
    "request_type": "Trash/Recycling",
    "request_reason": "Repair Recycling Cart",
    "date_created": "2026-05-11T16:24:42.000",
    "date_modified": "2026-05-11T16:24:44.000",
    "request_status": "Pending",
    "responsible_agency": "Department of Sanitation",
    "final_address": "216 Seguin St",
    "address_councildis": "C",
    "status": "Pending",
    "rowid": "1280502",
    "final_x": "3685864.26063",
    "final_y": "530761.762114",
    "longitude": "-90.05431631110459",
    "latitude": "29.95327755717163",
    "geocoded_column": {
      "latitude": "29.95327755717163",
      "longitude": "-90.05431631110459"
    }
  },
  {
    "service_request": "2026-1280501",
    "request_type": "Trash/Recycling",
    "request_reason": "Replace Trash Cart",
    "date_created": "2026-05-11T16:23:30.000",
    "date_modified": "2026-05-11T16:23:32.000",
    "request_status": "Pending",
    "responsible_agency": "Department of Sanitation",
    "final_address": "6736 Coventry St",
    "address_councildis": "E",
    "status": "Assigned to Contractor",
    "contractor": "Waste Pro",
    "rowid": "1280501",
    "final_x": "3698233.45098",
    "final_y": "559465.776989",
    "longitude": "-90.01421655653228",
    "latitude": "30.031817589486497",
    "geocoded_column": {
      "latitude": "30.031817589486497",
      "longitude": "-90.01421655653228"
    }
  },
  {
    "service_request": "2026-1280500",
    "request_type": "Trash/Recycling",
    "request_reason": "Request a Large Item Pick Up",
    "date_created": "2026-05-11T16:21:25.000",
    "date_modified": "2026-05-11T16:21:27.000",
    "request_status": "Pending",
    "responsible_agency": "Department of Sanitation",
    "final_address": "10921 Willowbrae Dr",
    "address_councildis": "E",
    "status": "Assigned to Contractor",
    "contractor": "Waste Pro",
    "rowid": "1280500",
    "final_x": "3711219.65752",
    "final_y": "564499.065761",
    "longitude": "-89.97299099263039",
    "latitude": "30.04523965953626",
    "geocoded_column": {
      "latitude": "30.04523965953626",
      "longitude": "-89.97299099263039"
    }
  },
  {
    "service_request": "2026-1280499",
    "request_type": "Healthy Homes",
    "request_reason": "Healthy Homes",
    "date_created": "2026-05-11T16:19:09.000",
    "date_modified": "2026-05-11T16:19:10.000",
    "request_status": "Pending",
    "responsible_agency": "Department of Code Enforcement",
    "final_address": "1564 N Prieur St",
    "address_councildis": "D",
    "status": "Pending",
    "rowid": "1280499",
    "final_x": "3681296.45192",
    "final_y": "538269.626889",
    "longitude": "-90.06847778672835",
    "latitude": "29.97406102351161",
    "geocoded_column": {
      "latitude": "29.97406102351161",
      "longitude": "-90.06847778672835"
    }
  },
  {
    "service_request": "2026-1280498",
    "request_type": "Trash/Recycling",
    "request_reason": "Replace Trash Cart",
    "date_created": "2026-05-11T16:18:58.000",
    "date_modified": "2026-05-11T16:18:59.000",
    "request_status": "Pending",
    "responsible_agency": "Department of Sanitation",
    "final_address": "4858 Read Blvd",
    "address_councildis": "E",
    "status": "Assigned to Contractor",
    "contractor": "Waste Pro",
    "rowid": "1280498",
    "final_x": "3712596.7404",
    "final_y": "556871.831642",
    "longitude": "-89.96892583028524",
    "latitude": "30.02422278561527",
    "geocoded_column": {
      "latitude": "30.02422278561527",
      "longitude": "-89.96892583028524"
    }
  },
  {
    "service_request": "2026-1280497",
    "request_type": "Roads and Streets",
    "request_reason": "Pothole",
    "date_created": "2026-05-11T16:18:33.000",
    "date_modified": "2026-05-11T16:18:35.000",
    "request_status": "Pending",
    "responsible_agency": "Department of Public Works",
    "final_address": "1201 Canal St",
    "address_councildis": "C",
    "status": "Pending",
    "rowid": "1280497",
    "final_x": "3679792.28808",
    "final_y": "531855.811267",
    "longitude": "-90.07345100081632",
    "latitude": "29.956470790064685",
    "geocoded_column": {
      "latitude": "29.956470790064685",
      "longitude": "-90.07345100081632"
    }
  },
  {
    "service_request": "2026-1280496",
    "request_type": "Roads and Streets",
    "request_reason": "Pothole",
    "date_created": "2026-05-11T16:17:21.000",
    "date_modified": "2026-05-11T21:03:41.000",
    "request_status": "Pending",
    "responsible_agency": "Department of Public Works",
    "final_address": "3868 Gentilly Blvd",
    "address_councildis": "D",
    "status": "Pending",
    "rowid": "1280496",
    "final_x": "3688287.39855",
    "final_y": "548655.776019",
    "longitude": "-90.04603033513168",
    "latitude": "30.002405172634514",
    "geocoded_column": {
      "latitude": "30.002405172634514",
      "longitude": "-90.04603033513168"
    }
  },
  {
    "service_request": "2026-1280495",
    "request_type": "Trash/Recycling",
    "request_reason": "Request a Large Item Pick Up",
    "date_created": "2026-05-11T16:16:36.000",
    "date_modified": "2026-05-11T16:16:39.000",
    "request_status": "Pending",
    "responsible_agency": "Department of Sanitation",
    "final_address": "7351 Poitevent Ave",
    "address_councildis": "E",
    "status": "Assigned to Contractor",
    "contractor": "Waste Pro",
    "rowid": "1280495",
    "final_x": "3707457.91595",
    "final_y": "563345.138336",
    "longitude": "-89.98492272100248",
    "latitude": "30.042189078808644",
    "geocoded_column": {
      "latitude": "30.042189078808644",
      "longitude": "-89.98492272100248"
    }
  },
  {
    "service_request": "2026-1280494",
    "request_type": "General Services",
    "request_reason": "General Service Request",
    "date_created": "2026-05-11T16:15:51.000",
    "date_modified": "2026-05-11T16:18:33.000",
    "request_status": "Pending",
    "responsible_agency": "Orleans Parish Communication District",
    "final_address": "3868 Gentilly Blvd",
    "address_councildis": "D",
    "status": "Pending",
    "rowid": "1280494",
    "final_x": "3688287.39855",
    "final_y": "548655.776019",
    "longitude": "-90.04603033513168",
    "latitude": "30.002405172634514",
    "geocoded_column": {
      "latitude": "30.002405172634514",
      "longitude": "-90.04603033513168"
    }
  },
  {
    "service_request": "2026-1280493",
    "request_type": "Trash/Recycling",
    "request_reason": "Illegal Dumping",
    "date_created": "2026-05-11T16:15:04.000",
    "date_modified": "2026-05-11T16:15:06.000",
    "request_status": "Pending",
    "responsible_agency": "Department of Sanitation",
    "final_address": "CHEF MENTEUR HWY & DOWNMAN RD & CHEF MENTEUR BRIDGE",
    "address_councildis": "D",
    "status": "Pending",
    "rowid": "1280493",
    "final_x": "3696211.9",
    "final_y": "551507.88",
    "longitude": "-90.02089277553281",
    "latitude": "30.010000220946775",
    "geocoded_column": {
      "latitude": "30.010000220946775",
      "longitude": "-90.02089277553281"
    }
  },
  {
    "service_request": "2026-1280492",
    "request_type": "Trash/Recycling",
    "request_reason": "Request a Large Item Pick Up",
    "date_created": "2026-05-11T16:14:15.000",
    "date_modified": "2026-05-11T16:14:17.000",
    "request_status": "Pending",
    "responsible_agency": "Department of Sanitation",
    "final_address": "10911 Chaucer St",
    "address_councildis": "E",
    "status": "Assigned to Contractor",
    "contractor": "Waste Pro",
    "rowid": "1280492",
    "final_x": "3712616.78994",
    "final_y": "561829.507103",
    "longitude": "-89.9686759097912",
    "latitude": "30.037853765848013",
    "geocoded_column": {
      "latitude": "30.037853765848013",
      "longitude": "-89.9686759097912"
    }
  },
  {
    "service_request": "2026-1280491",
    "request_type": "Trash/Recycling",
    "request_reason": "Request a Large Item Pick Up",
    "date_created": "2026-05-11T16:14:00.000",
    "date_modified": "2026-05-11T16:14:02.000",
    "request_status": "Pending",
    "responsible_agency": "Department of Sanitation",
    "final_address": "2701 Hudson Pl",
    "address_councildis": "C",
    "status": "Assigned to Contractor",
    "contractor": "Richards Disposal",
    "rowid": "1280491",
    "final_x": "3703326.9882",
    "final_y": "520894.817849",
    "longitude": "-89.99953960127331",
    "latitude": "29.925599404395772",
    "geocoded_column": {
      "latitude": "29.925599404395772",
      "longitude": "-89.99953960127331"
    }
  },
  {
    "service_request": "2026-1280490",
    "request_type": "Trash/Recycling",
    "request_reason": "Illegal Dumping",
    "date_created": "2026-05-11T16:12:20.000",
    "date_modified": "2026-05-11T16:12:22.000",
    "request_status": "Pending",
    "responsible_agency": "Department of Sanitation",
    "final_address": "MAYO RD & WALES ST",
    "address_councildis": "E",
    "status": "Pending",
    "rowid": "1280490",
    "final_x": "3700534.14",
    "final_y": "561542.54",
    "longitude": "-90.00687032543836",
    "latitude": "30.037454853848566",
    "geocoded_column": {
      "latitude": "30.037454853848566",
      "longitude": "-90.00687032543836"
    }
  },
  {
    "service_request": "2026-1280489",
    "request_type": "Roads and Streets",
    "request_reason": "Pothole",
    "date_created": "2026-05-11T16:08:40.000",
    "date_modified": "2026-05-11T16:08:43.000",
    "request_status": "Pending",
    "responsible_agency": "Department of Public Works",
    "final_address": "4927 Coliseum St",
    "address_councildis": "B",
    "status": "Pending",
    "rowid": "1280489",
    "final_x": "3668810.1707",
    "final_y": "519712.633912",
    "longitude": "-90.1085388841857",
    "latitude": "29.92340842913274",
    "geocoded_column": {
      "latitude": "29.92340842913274",
      "longitude": "-90.1085388841857"
    }
  },
  {
    "service_request": "2026-1280488",
    "request_type": "Tree Service",
    "request_reason": "Tree Trim",
    "date_created": "2026-05-11T16:03:09.000",
    "date_modified": "2026-05-11T16:03:13.000",
    "request_status": "Pending",
    "responsible_agency": "Department of Parks & Parkways",
    "final_address": "5824 Marshal Foch St",
    "address_councildis": "A",
    "status": "Pending",
    "rowid": "1280488",
    "final_x": "3669627.32212",
    "final_y": "546058.939472",
    "longitude": "-90.10506795738348",
    "latitude": "29.995828004686874",
    "geocoded_column": {
      "latitude": "29.995828004686874",
      "longitude": "-90.10506795738348"
    }
  },
  {
    "service_request": "2026-1280487",
    "request_type": "Trash/Recycling",
    "request_reason": "Request a Large Item Pick Up",
    "date_created": "2026-05-11T16:01:46.000",
    "date_modified": "2026-05-11T16:01:49.000",
    "request_status": "Pending",
    "responsible_agency": "Department of Sanitation",
    "final_address": "7108 Olive St",
    "address_councildis": "B",
    "status": "Assigned to Contractor",
    "contractor": "IV Waste",
    "rowid": "1280487",
    "final_x": "3668641.23156",
    "final_y": "532815.244292",
    "longitude": "-90.1086300964886",
    "latitude": "29.959441336748082",
    "geocoded_column": {
      "latitude": "29.959441336748082",
      "longitude": "-90.1086300964886"
    }
  },
  {
    "service_request": "2026-1280486",
    "request_type": "Roads and Streets",
    "request_reason": "Pothole",
    "date_created": "2026-05-11T16:01:21.000",
    "date_modified": "2026-05-11T21:06:43.000",
    "request_status": "Pending",
    "responsible_agency": "Department of Public Works",
    "final_address": "5824 Marshal Foch St",
    "address_councildis": "A",
    "status": "Pending",
    "rowid": "1280486",
    "final_x": "3669627.32212",
    "final_y": "546058.939472",
    "longitude": "-90.10506795738348",
    "latitude": "29.995828004686874",
    "geocoded_column": {
      "latitude": "29.995828004686874",
      "longitude": "-90.10506795738348"
    }
  },
  {
    "service_request": "2026-1280485",
    "request_type": "Trash/Recycling",
    "request_reason": "Request a Large Item Pick Up",
    "date_created": "2026-05-11T16:00:25.000",
    "date_modified": "2026-05-11T16:00:36.000",
    "request_status": "Pending",
    "responsible_agency": "Department of Sanitation",
    "final_address": "5541 New England Dr",
    "address_councildis": "E",
    "status": "Assigned to Contractor",
    "contractor": "Waste Pro",
    "rowid": "1280485",
    "final_x": "3723772.15807",
    "final_y": "563819.609761",
    "longitude": "-89.93334584153907",
    "latitude": "30.04295570498817",
    "geocoded_column": {
      "latitude": "30.04295570498817",
      "longitude": "-89.93334584153907"
    }
  },
  {
    "service_request": "2026-1280484",
    "request_type": "Roads and Streets",
    "request_reason": "Pothole",
    "date_created": "2026-05-11T15:59:29.000",
    "date_modified": "2026-05-11T21:08:30.000",
    "request_status": "Pending",
    "responsible_agency": "Department of Public Works",
    "final_address": "5844 Marshal Foch St",
    "address_councildis": "A",
    "status": "Pending",
    "rowid": "1280484",
    "final_x": "3669640.84698",
    "final_y": "546207.832336",
    "longitude": "-90.1050201914198",
    "latitude": "29.996237009972422",
    "geocoded_column": {
      "latitude": "29.996237009972422",
      "longitude": "-90.1050201914198"
    }
  },
  {
    "service_request": "2026-1280483",
    "request_type": "General Services",
    "request_reason": "General Service Request",
    "date_created": "2026-05-11T15:59:22.000",
    "date_modified": "2026-05-11T15:59:23.000",
    "request_status": "Pending",
    "responsible_agency": "Orleans Parish Communication District",
    "final_address": "9201 Palmetto St",
    "address_councildis": "A",
    "status": "Pending",
    "rowid": "1280483",
    "final_x": "3665286.63488",
    "final_y": "538014.015433",
    "longitude": "-90.11904919616774",
    "latitude": "29.973834403331583",
    "geocoded_column": {
      "latitude": "29.973834403331583",
      "longitude": "-90.11904919616774"
    }
  },
  {
    "service_request": "2026-1280482",
    "request_type": "Drainage",
    "request_reason": "Catch Basin Not Draining",
    "date_created": "2026-05-11T15:59:16.000",
    "date_modified": "2026-05-11T16:01:36.000",
    "request_status": "Pending",
    "responsible_agency": "Sewerage & Water Board",
    "final_address": "2555 N Derbigny St",
    "address_councildis": "D",
    "status": "Pending",
    "rowid": "1280482",
    "final_x": "3687462.127",
    "final_y": "538757.137289",
    "longitude": "-90.04898797384737",
    "latitude": "29.975212921354764",
    "geocoded_column": {
      "latitude": "29.975212921354764",
      "longitude": "-90.04898797384737"
    }
  },
  {
    "service_request": "2026-1280481",
    "request_type": "Trash/Recycling",
    "request_reason": "Request a Large Item Pick Up",
    "date_created": "2026-05-11T15:57:48.000",
    "date_modified": "2026-05-11T16:33:12.000",
    "request_status": "Pending",
    "responsible_agency": "Department of Sanitation",
    "final_address": "6130 Orleans Ave",
    "address_councildis": "A",
    "status": "Assigned to Contractor",
    "contractor": "IV Waste",
    "rowid": "1280481",
    "final_x": "3670929.90996",
    "final_y": "547983.050194",
    "longitude": "-90.1008878058082",
    "latitude": "30.001080183054587",
    "geocoded_column": {
      "latitude": "30.001080183054587",
      "longitude": "-90.1008878058082"
    }
  },
  {
    "service_request": "2026-1280480",
    "request_type": "Abandoned Vehicles",
    "request_reason": "Abandoned/Junk Vehicles",
    "date_created": "2026-05-11T15:57:18.000",
    "date_modified": "2026-05-11T15:57:20.000",
    "request_status": "Pending",
    "responsible_agency": "Department of Public Works",
    "final_address": "1701 Painters St",
    "address_councildis": "D",
    "status": "Pending",
    "rowid": "1280480",
    "final_x": "3687414.21033",
    "final_y": "538754.220617",
    "longitude": "-90.04913941019517",
    "latitude": "29.97520637824742",
    "geocoded_column": {
      "latitude": "29.97520637824742",
      "longitude": "-90.04913941019517"
    }
  },
  {
    "service_request": "2026-1280479",
    "request_type": "Trash/Recycling",
    "request_reason": "Request a Large Item Pick Up",
    "date_created": "2026-05-11T15:51:20.000",
    "date_modified": "2026-05-11T15:51:22.000",
    "request_status": "Pending",
    "responsible_agency": "Department of Sanitation",
    "final_address": "2726 N Claiborne Ave",
    "address_councildis": "C",
    "status": "Assigned to Contractor",
    "contractor": "IV Waste",
    "rowid": "1280479",
    "final_x": "3688111.04457",
    "final_y": "538140.495177",
    "longitude": "-90.046960390208",
    "latitude": "29.973497356896967",
    "geocoded_column": {
      "latitude": "29.973497356896967",
      "longitude": "-90.046960390208"
    }
  },
  {
    "service_request": "2026-1280478",
    "request_type": "Streetlights",
    "request_reason": "New Streetlight Request",
    "date_created": "2026-05-11T15:50:31.000",
    "date_modified": "2026-05-11T15:50:34.000",
    "request_status": "Pending",
    "responsible_agency": "Department of Public Works",
    "final_address": "5200 BLK N Prieur St",
    "address_councildis": "E",
    "status": "Pending",
    "rowid": "1280478",
    "final_x": "3697502.64269",
    "final_y": "537078.574909",
    "longitude": "-90.01733844032988",
    "latitude": "29.970284207353615",
    "geocoded_column": {
      "latitude": "29.970284207353615",
      "longitude": "-90.01733844032988"
    }
  },
  {
    "service_request": "2026-1280477",
    "request_type": "Abandoned Vehicles",
    "request_reason": "Abandoned/Junk Vehicles",
    "date_created": "2026-05-11T15:45:30.000",
    "date_modified": "2026-05-11T15:48:05.000",
    "request_status": "Pending",
    "responsible_agency": "Department of Public Works",
    "final_address": "5506 Cameron Blvd",
    "address_councildis": "D",
    "status": "Pending",
    "rowid": "1280477",
    "final_x": "3682427.43599",
    "final_y": "553005.759575",
    "longitude": "-90.06439048515433",
    "latitude": "30.014545774240172",
    "geocoded_column": {
      "latitude": "30.014545774240172",
      "longitude": "-90.06439048515433"
    }
  },
  {
    "service_request": "2026-1280476",
    "request_type": "Graffiti Removal",
    "request_reason": "Graffiti Removal",
    "date_created": "2026-05-11T15:41:46.000",
    "date_modified": "2026-05-11T15:41:47.000",
    "request_status": "Pending",
    "responsible_agency": "Department of Code Enforcement",
    "final_address": "4317 Magazine St",
    "address_councildis": "B",
    "status": "Pending",
    "rowid": "1280476",
    "final_x": "3671305.51841",
    "final_y": "518875.527223",
    "longitude": "-90.10069041477877",
    "latitude": "29.921033074561752",
    "geocoded_column": {
      "latitude": "29.921033074561752",
      "longitude": "-90.10069041477877"
    }
  },
  {
    "service_request": "2026-1280474",
    "request_type": "Trash/Recycling",
    "request_reason": "Request a Large Item Pick Up",
    "date_created": "2026-05-11T15:37:10.000",
    "date_modified": "2026-05-11T15:37:12.000",
    "request_status": "Pending",
    "responsible_agency": "Department of Sanitation",
    "final_address": "4627 Lancelot Dr",
    "address_councildis": "E",
    "status": "Assigned to Contractor",
    "contractor": "Waste Pro",
    "rowid": "1280474",
    "final_x": "3707606.11307",
    "final_y": "554657.221976",
    "longitude": "-89.98477751145343",
    "latitude": "30.018295924388337",
    "geocoded_column": {
      "latitude": "30.018295924388337",
      "longitude": "-89.98477751145343"
    }
  },
  {
    "service_request": "2026-1280473",
    "request_type": "Streetlights",
    "request_reason": "Streetlight Outage/Malfunction",
    "date_created": "2026-05-11T15:31:24.000",
    "date_modified": "2026-05-11T15:31:25.000",
    "request_status": "Pending",
    "responsible_agency": "Department of Public Works",
    "final_address": "1808 N Rampart St",
    "address_councildis": "C",
    "status": "Pending",
    "rowid": "1280473",
    "final_x": "3683653.20751",
    "final_y": "535802.463111",
    "longitude": "-90.06112113861253",
    "latitude": "29.96720543469577",
    "geocoded_column": {
      "latitude": "29.96720543469577",
      "longitude": "-90.06112113861253"
    }
  },
  {
    "service_request": "2026-1280472",
    "request_type": "Street and Traffic Signs",
    "request_reason": "Stop Sign Missing or Damaged",
    "date_created": "2026-05-11T15:31:16.000",
    "date_modified": "2026-05-11T15:31:17.000",
    "request_status": "Pending",
    "responsible_agency": "Department of Public Works",
    "final_address": "WRIGHT RD & WILL STUTLEY DR",
    "address_councildis": "E",
    "status": "Pending",
    "rowid": "1280472",
    "final_x": "3716530.2",
    "final_y": "558228.38",
    "longitude": "-89.95644546142269",
    "latitude": "30.027823380203706",
    "geocoded_column": {
      "latitude": "30.027823380203706",
      "longitude": "-89.95644546142269"
    }
  },
  {
    "service_request": "2026-1280471",
    "request_type": "Streetlights",
    "request_reason": "Streetlight Outage/Malfunction",
    "date_created": "2026-05-11T15:29:36.000",
    "date_modified": "2026-05-11T15:29:43.000",
    "request_status": "Pending",
    "responsible_agency": "Department of Public Works",
    "final_address": "28 Swallow St",
    "address_councildis": "D",
    "status": "Pending",
    "rowid": "1280471",
    "final_x": "3673236.40244",
    "final_y": "557124.09737",
    "longitude": "-90.09328887734668",
    "latitude": "30.026146393714356",
    "geocoded_column": {
      "latitude": "30.026146393714356",
      "longitude": "-90.09328887734668"
    }
  },
  {
    "service_request": "2026-1280470",
    "request_type": "Streetlights",
    "request_reason": "Streetlight Outage/Malfunction",
    "date_created": "2026-05-11T15:29:20.000",
    "date_modified": "2026-05-11T15:29:22.000",
    "request_status": "Pending",
    "responsible_agency": "Department of Public Works",
    "final_address": "3630 Rue Denise",
    "address_councildis": "C",
    "status": "Pending",
    "rowid": "1280470",
    "final_x": "3704310.76529",
    "final_y": "517182.625845",
    "longitude": "-89.99657084944063",
    "latitude": "29.915360635652995",
    "geocoded_column": {
      "latitude": "29.915360635652995",
      "longitude": "-89.99657084944063"
    }
  },
  {
    "service_request": "2026-1280469",
    "request_type": "Safety & Permits",
    "request_reason": "Licenses & Permits",
    "date_created": "2026-05-11T15:26:59.000",
    "date_modified": "2026-05-11T15:27:00.000",
    "request_status": "Pending",
    "responsible_agency": "Safety and Permits",
    "final_address": "124 N Genois St",
    "address_councildis": "B",
    "status": "Pending",
    "rowid": "1280469",
    "final_x": "3672801.99534",
    "final_y": "537399.871368",
    "longitude": "-90.09533494262283",
    "latitude": "29.9719245846194",
    "geocoded_column": {
      "latitude": "29.9719245846194",
      "longitude": "-90.09533494262283"
    }
  },
  {
    "service_request": "2026-1280468",
    "request_type": "Streetlights",
    "request_reason": "Streetlight Outage/Malfunction",
    "date_created": "2026-05-11T15:26:57.000",
    "date_modified": "2026-05-11T15:26:58.000",
    "request_status": "Pending",
    "responsible_agency": "Department of Public Works",
    "final_address": "3630 Rue Denise",
    "address_councildis": "C",
    "status": "Pending",
    "rowid": "1280468",
    "final_x": "3704310.76529",
    "final_y": "517182.625845",
    "longitude": "-89.99657084944063",
    "latitude": "29.915360635652995",
    "geocoded_column": {
      "latitude": "29.915360635652995",
      "longitude": "-89.99657084944063"
    }
  },
  {
    "service_request": "2026-1280467",
    "request_type": "Trash/Recycling",
    "request_reason": "Request a Large Item Pick Up",
    "date_created": "2026-05-11T15:23:56.000",
    "date_modified": "2026-05-11T15:23:58.000",
    "request_status": "Pending",
    "responsible_agency": "Department of Sanitation",
    "final_address": "8016 Haney Dr",
    "address_councildis": "E",
    "status": "Assigned to Contractor",
    "contractor": "Waste Pro",
    "rowid": "1280467",
    "final_x": "3711815.75384",
    "final_y": "568313.855269",
    "longitude": "-89.97096371177848",
    "latitude": "30.055709311080772",
    "geocoded_column": {
      "latitude": "30.055709311080772",
      "longitude": "-89.97096371177848"
    }
  },
  {
    "service_request": "2026-1280466",
    "request_type": "Safety & Permits",
    "request_reason": "Zoning Enforcement",
    "date_created": "2026-05-11T15:20:34.000",
    "date_modified": "2026-05-11T15:21:30.000",
    "request_status": "Pending",
    "responsible_agency": "Safety and Permits",
    "final_address": "1200 BLK Charbonnet St",
    "address_councildis": "E",
    "status": "Pending",
    "rowid": "1280466",
    "final_x": "3698762.69168",
    "final_y": "534147.170667",
    "longitude": "-90.01346573077848",
    "latitude": "29.96218404302104",
    "geocoded_column": {
      "latitude": "29.96218404302104",
      "longitude": "-90.01346573077848"
    }
  },
  {
    "service_request": "2026-1280465",
    "request_type": "Trash/Recycling",
    "request_reason": "Illegal Dumping",
    "date_created": "2026-05-11T15:20:22.000",
    "date_modified": "2026-05-11T15:21:14.000",
    "request_status": "Pending",
    "responsible_agency": "Department of Sanitation",
    "final_address": "4626 Marigny St",
    "address_councildis": "D",
    "status": "Pending",
    "rowid": "1280465",
    "final_x": "3684379.48668",
    "final_y": "549654.663508",
    "longitude": "-90.0583407843333",
    "latitude": "30.005271893258648",
    "geocoded_column": {
      "latitude": "30.005271893258648",
      "longitude": "-90.0583407843333"
    }
  },
  {
    "service_request": "2026-1280464",
    "request_type": "Trash/Recycling",
    "request_reason": "Request a Large Item Pick Up",
    "date_created": "2026-05-11T15:19:55.000",
    "date_modified": "2026-05-11T15:19:57.000",
    "request_status": "Pending",
    "responsible_agency": "Department of Sanitation",
    "final_address": "1120 Euterpe St",
    "address_councildis": "B",
    "status": "Assigned to Contractor",
    "contractor": "IV Waste",
    "rowid": "1280464",
    "final_x": "3680107.44923",
    "final_y": "524220.321724",
    "longitude": "-90.07272107937982",
    "latitude": "29.935466214393728",
    "geocoded_column": {
      "latitude": "29.935466214393728",
      "longitude": "-90.07272107937982"
    }
  },
  {
    "service_request": "2026-1280463",
    "request_type": "Road Striping",
    "request_reason": "Crosswalks",
    "date_created": "2026-05-11T15:19:45.000",
    "date_modified": "2026-05-11T15:19:47.000",
    "request_status": "Pending",
    "responsible_agency": "Department of Public Works",
    "final_address": "6300 BLK Willow St",
    "address_councildis": "A",
    "status": "Pending",
    "rowid": "1280463",
    "final_x": "3666075.41486",
    "final_y": "526080.139885",
    "longitude": "-90.11695814481361",
    "latitude": "29.940997142397713",
    "geocoded_column": {
      "latitude": "29.940997142397713",
      "longitude": "-90.11695814481361"
    }
  },
  {
    "service_request": "2026-1280462",
    "request_type": "Trash/Recycling",
    "request_reason": "Order Trash Cart",
    "date_created": "2026-05-11T15:18:33.000",
    "date_modified": "2026-05-11T15:18:35.000",
    "request_status": "Pending",
    "responsible_agency": "Department of Sanitation",
    "final_address": "2900 Aubry St",
    "address_councildis": "D",
    "status": "Assigned to Contractor",
    "contractor": "IV Waste",
    "rowid": "1280462",
    "final_x": "3678864.29883",
    "final_y": "541698.454476",
    "longitude": "-90.07604025681117",
    "latitude": "29.983562710648016",
    "geocoded_column": {
      "latitude": "29.983562710648016",
      "longitude": "-90.07604025681117"
    }
  },
  {
    "service_request": "2026-1280460",
    "request_type": "Trash/Recycling",
    "request_reason": "Request a Large Item Pick Up",
    "date_created": "2026-05-11T15:16:32.000",
    "date_modified": "2026-05-11T15:16:33.000",
    "request_status": "Pending",
    "responsible_agency": "Department of Sanitation",
    "final_address": "7804 Lehigh St",
    "address_councildis": "E",
    "status": "Assigned to Contractor",
    "contractor": "Waste Pro",
    "rowid": "1280460",
    "final_x": "3710109.4435",
    "final_y": "566333.411811",
    "longitude": "-89.97643111727209",
    "latitude": "30.050319566631863",
    "geocoded_column": {
      "latitude": "30.050319566631863",
      "longitude": "-89.97643111727209"
    }
  },
  {
    "service_request": "2026-1280459",
    "request_type": "Trash/Recycling",
    "request_reason": "Request a Large Item Pick Up",
    "date_created": "2026-05-11T15:11:10.000",
    "date_modified": "2026-05-11T15:11:11.000",
    "request_status": "Pending",
    "responsible_agency": "Department of Sanitation",
    "final_address": "1521 Pauger St",
    "address_councildis": "C",
    "status": "Assigned to Contractor",
    "contractor": "IV Waste",
    "rowid": "1280459",
    "final_x": "3683983.04969",
    "final_y": "535312.714246",
    "longitude": "-90.06009668095297",
    "latitude": "29.96584872059181",
    "geocoded_column": {
      "latitude": "29.96584872059181",
      "longitude": "-90.06009668095297"
    }
  },
  {
    "service_request": "2026-1280458",
    "request_type": "Trash/Recycling",
    "request_reason": "Request a Large Item Pick Up",
    "date_created": "2026-05-11T15:09:02.000",
    "date_modified": "2026-05-11T15:09:03.000",
    "request_status": "Pending",
    "responsible_agency": "Department of Sanitation",
    "final_address": "5610 Orleans Ave",
    "address_councildis": "A",
    "status": "Assigned to Contractor",
    "contractor": "IV Waste",
    "rowid": "1280458",
    "final_x": "3670561.99585",
    "final_y": "544435.483535",
    "longitude": "-90.1021704957652",
    "latitude": "29.991336479272334",
    "geocoded_column": {
      "latitude": "29.991336479272334",
      "longitude": "-90.1021704957652"
    }
  },
  {
    "service_request": "2026-1280457",
    "request_type": "Trash/Recycling",
    "request_reason": "Illegal Dumping",
    "date_created": "2026-05-11T15:08:44.000",
    "date_modified": "2026-05-11T15:09:09.000",
    "request_status": "Pending",
    "responsible_agency": "Department of Sanitation",
    "final_address": "6024 Providence Pl",
    "address_councildis": "D",
    "status": "Pending",
    "rowid": "1280457",
    "final_x": "3688072.82249",
    "final_y": "555700.144345",
    "longitude": "-90.04645827451571",
    "latitude": "30.021781222151716",
    "geocoded_column": {
      "latitude": "30.021781222151716",
      "longitude": "-90.04645827451571"
    }
  },
  {
    "service_request": "2026-1280456",
    "request_type": "Trash/Recycling",
    "request_reason": "Request a Large Item Pick Up",
    "date_created": "2026-05-11T15:08:21.000",
    "date_modified": "2026-05-11T16:32:51.000",
    "request_status": "Pending",
    "responsible_agency": "Department of Sanitation",
    "final_address": "6167 Bellaire Dr",
    "address_councildis": "A",
    "status": "Assigned to Contractor",
    "contractor": "IV Waste",
    "rowid": "1280456",
    "final_x": "3664409.3904",
    "final_y": "548841.901779",
    "longitude": "-90.12145806286715",
    "latitude": "30.003632960433805",
    "geocoded_column": {
      "latitude": "30.003632960433805",
      "longitude": "-90.12145806286715"
    }
  },
  {
    "service_request": "2026-1280455",
    "request_type": "Trash/Recycling",
    "request_reason": "Request a Large Item Pick Up",
    "date_created": "2026-05-11T15:01:16.000",
    "date_modified": "2026-05-11T15:01:18.000",
    "request_status": "Pending",
    "responsible_agency": "Department of Sanitation",
    "final_address": "6318 Clara St",
    "address_councildis": "A",
    "status": "Assigned to Contractor",
    "contractor": "IV Waste",
    "rowid": "1280455",
    "final_x": "3665871.00596",
    "final_y": "525752.250045",
    "longitude": "-90.1176144867195",
    "latitude": "29.940101515446774",
    "geocoded_column": {
      "latitude": "29.940101515446774",
      "longitude": "-90.1176144867195"
    }
  },
  {
    "service_request": "2026-1280454",
    "request_type": "Trash/Recycling",
    "request_reason": "Replace Trash Cart",
    "date_created": "2026-05-11T14:59:12.000",
    "date_modified": "2026-05-11T14:59:14.000",
    "request_status": "Pending",
    "responsible_agency": "Department of Sanitation",
    "final_address": "1226 Egania St",
    "address_councildis": "E",
    "status": "Assigned to Contractor",
    "contractor": "Waste Pro",
    "rowid": "1280454",
    "final_x": "3696925.45322",
    "final_y": "534671.33447",
    "longitude": "-90.01924844260522",
    "latitude": "29.96368336965563",
    "geocoded_column": {
      "latitude": "29.96368336965563",
      "longitude": "-90.01924844260522"
    }
  },
  {
    "service_request": "2026-1280453",
    "request_type": "Trash/Recycling",
    "request_reason": "Return Recycling Cart",
    "date_created": "2026-05-11T14:57:46.000",
    "date_modified": "2026-05-11T14:57:49.000",
    "request_status": "Pending",
    "responsible_agency": "Department of Sanitation",
    "final_address": "4901 St Charles Ave",
    "address_councildis": "B",
    "status": "Pending",
    "rowid": "1280453",
    "final_x": "3669029.03022",
    "final_y": "520880.183673",
    "longitude": "-90.10780860647249",
    "latitude": "29.92661238584354",
    "geocoded_column": {
      "latitude": "29.92661238584354",
      "longitude": "-90.10780860647249"
    }
  },
  {
    "service_request": "2026-1280452",
    "request_type": "Trash/Recycling",
    "request_reason": "Request a Large Item Pick Up",
    "date_created": "2026-05-11T14:55:16.000",
    "date_modified": "2026-05-11T14:55:17.000",
    "request_status": "Pending",
    "responsible_agency": "Department of Sanitation",
    "final_address": "3427 Lancaster St",
    "address_councildis": "C",
    "status": "Assigned to Contractor",
    "contractor": "Richards Disposal",
    "rowid": "1280452",
    "final_x": "3709838.88869",
    "final_y": "518048.83967",
    "longitude": "-89.9790898981187",
    "latitude": "29.917563931289937",
    "geocoded_column": {
      "latitude": "29.917563931289937",
      "longitude": "-89.9790898981187"
    }
  },
  {
    "service_request": "2026-1280451",
    "request_type": "Trash/Recycling",
    "request_reason": "Return Trash Cart",
    "date_created": "2026-05-11T14:51:02.000",
    "date_modified": "2026-05-11T14:51:03.000",
    "request_status": "Pending",
    "responsible_agency": "Department of Sanitation",
    "final_address": "2837 DAbadie St",
    "address_councildis": "D",
    "status": "Assigned to Contractor",
    "contractor": "IV Waste",
    "rowid": "1280451",
    "final_x": "3678759.86811",
    "final_y": "541396.664332",
    "longitude": "-90.07638056069182",
    "latitude": "29.982736043057862",
    "geocoded_column": {
      "latitude": "29.982736043057862",
      "longitude": "-90.07638056069182"
    }
  },
  {
    "service_request": "2026-1280450",
    "request_type": "Trash/Recycling",
    "request_reason": "Order Recycling Cart",
    "date_created": "2026-05-11T14:49:22.000",
    "date_modified": "2026-05-11T14:49:24.000",
    "request_status": "Pending",
    "responsible_agency": "Department of Sanitation",
    "final_address": "966 Florida Blvd",
    "address_councildis": "A",
    "status": "Pending",
    "rowid": "1280450",
    "final_x": "3670458.16513",
    "final_y": "545094.559759",
    "longitude": "-90.10247611102224",
    "latitude": "29.99315177892435",
    "geocoded_column": {
      "latitude": "29.99315177892435",
      "longitude": "-90.10247611102224"
    }
  },
  {
    "service_request": "2026-1280449",
    "request_type": "Trash/Recycling",
    "request_reason": "Repair Trash Cart",
    "date_created": "2026-05-11T14:49:20.000",
    "date_modified": "2026-05-11T14:49:23.000",
    "request_status": "Pending",
    "responsible_agency": "Department of Sanitation",
    "final_address": "2835 DAbadie St",
    "address_councildis": "D",
    "status": "Assigned to Contractor",
    "contractor": "IV Waste",
    "rowid": "1280449",
    "final_x": "3678764.99643",
    "final_y": "541390.328204",
    "longitude": "-90.07636458241626",
    "latitude": "29.982718466222156",
    "geocoded_column": {
      "latitude": "29.982718466222156",
      "longitude": "-90.07636458241626"
    }
  },
  {
    "service_request": "2026-1280448",
    "request_type": "Drainage",
    "request_reason": "Catch Basin Not Draining",
    "date_created": "2026-05-11T14:48:28.000",
    "date_modified": "2026-05-11T14:48:30.000",
    "request_status": "Pending",
    "responsible_agency": "Sewerage & Water Board",
    "final_address": "6966 Colbert St",
    "address_councildis": "A",
    "status": "Pending",
    "rowid": "1280448",
    "final_x": "3667919.76033",
    "final_y": "553991.15132",
    "longitude": "-90.11019454484563",
    "latitude": "30.01768904037583",
    "geocoded_column": {
      "latitude": "30.01768904037583",
      "longitude": "-90.11019454484563"
    }
  },
  {
    "service_request": "2026-1280447",
    "request_type": "Trash/Recycling",
    "request_reason": "Request a Large Item Pick Up",
    "date_created": "2026-05-11T14:48:06.000",
    "date_modified": "2026-05-11T14:48:37.000",
    "request_status": "Pending",
    "responsible_agency": "Department of Sanitation",
    "final_address": "1001 Poland Ave A",
    "address_councildis": "C",
    "status": "Assigned to Contractor",
    "contractor": "IV Waste",
    "rowid": "1280447",
    "final_x": "3692995.2696",
    "final_y": "534574.671109",
    "longitude": "-90.03166298048473",
    "latitude": "29.96354092814744",
    "geocoded_column": {
      "latitude": "29.96354092814744",
      "longitude": "-90.03166298048473"
    }
  },
  {
    "service_request": "2026-1280446",
    "request_type": "Trash/Recycling",
    "request_reason": "Repair Trash Cart",
    "date_created": "2026-05-11T14:47:33.000",
    "date_modified": "2026-05-11T14:47:35.000",
    "request_status": "Pending",
    "responsible_agency": "Department of Sanitation",
    "final_address": "322 N Tonti St",
    "address_councildis": "B",
    "status": "Assigned to Contractor",
    "contractor": "IV Waste",
    "rowid": "1280446",
    "final_x": "3677117.35022",
    "final_y": "535043.226182",
    "longitude": "-90.0817876461071",
    "latitude": "29.965315706270975",
    "geocoded_column": {
      "latitude": "29.965315706270975",
      "longitude": "-90.0817876461071"
    }
  },
  {
    "service_request": "2026-1280445",
    "request_type": "Trash/Recycling",
    "request_reason": "Replace Trash Cart",
    "date_created": "2026-05-11T14:46:19.000",
    "date_modified": "2026-05-11T14:46:21.000",
    "request_status": "Pending",
    "responsible_agency": "Department of Sanitation",
    "final_address": "966 Florida Blvd",
    "address_councildis": "A",
    "status": "Assigned to Contractor",
    "contractor": "IV Waste",
    "rowid": "1280445",
    "final_x": "3670458.16513",
    "final_y": "545094.559759",
    "longitude": "-90.10247611102224",
    "latitude": "29.99315177892435",
    "geocoded_column": {
      "latitude": "29.99315177892435",
      "longitude": "-90.10247611102224"
    }
  },
  {
    "service_request": "2026-1280444",
    "request_type": "Trash/Recycling",
    "request_reason": "Repair Recycling Cart",
    "date_created": "2026-05-11T14:44:56.000",
    "date_modified": "2026-05-11T14:44:57.000",
    "request_status": "Pending",
    "responsible_agency": "Department of Sanitation",
    "final_address": "322 N Tonti St",
    "address_councildis": "B",
    "status": "Pending",
    "rowid": "1280444",
    "final_x": "3677117.35022",
    "final_y": "535043.226182",
    "longitude": "-90.0817876461071",
    "latitude": "29.965315706270975",
    "geocoded_column": {
      "latitude": "29.965315706270975",
      "longitude": "-90.0817876461071"
    }
  },
  {
    "service_request": "2026-1280443",
    "request_type": "Trash/Recycling",
    "request_reason": "Request a Large Item Pick Up",
    "date_created": "2026-05-11T14:44:14.000",
    "date_modified": "2026-05-11T16:32:27.000",
    "request_status": "Pending",
    "responsible_agency": "Department of Sanitation",
    "final_address": "8428 Birch St",
    "address_councildis": "A",
    "status": "Assigned to Contractor",
    "contractor": "IV Waste",
    "rowid": "1280443",
    "final_x": "3661906.35335",
    "final_y": "530279.225153",
    "longitude": "-90.12998146776508",
    "latitude": "29.952664317651863",
    "geocoded_column": {
      "latitude": "29.952664317651863",
      "longitude": "-90.12998146776508"
    }
  },
  {
    "service_request": "2026-1280442",
    "request_type": "Trash/Recycling",
    "request_reason": "Repair Recycling Cart",
    "date_created": "2026-05-11T14:43:20.000",
    "date_modified": "2026-05-11T14:43:22.000",
    "request_status": "Pending",
    "responsible_agency": "Department of Sanitation",
    "final_address": "1405 Audubon St",
    "address_councildis": "A",
    "status": "Pending",
    "rowid": "1280442",
    "final_x": "3664906.87053",
    "final_y": "526953.103742",
    "longitude": "-90.12061829705131",
    "latitude": "29.94343157054983",
    "geocoded_column": {
      "latitude": "29.94343157054983",
      "longitude": "-90.12061829705131"
    }
  },
  {
    "service_request": "2026-1280441",
    "request_type": "Trash/Recycling",
    "request_reason": "Replace Trash Cart",
    "date_created": "2026-05-11T14:40:07.000",
    "date_modified": "2026-05-11T14:40:09.000",
    "request_status": "Pending",
    "responsible_agency": "Department of Sanitation",
    "final_address": "7501 Briarheath Dr",
    "address_councildis": "E",
    "status": "Assigned to Contractor",
    "contractor": "Waste Pro",
    "rowid": "1280441",
    "final_x": "3714704.01515",
    "final_y": "567043.713444",
    "longitude": "-89.96188260897243",
    "latitude": "30.052122202118788",
    "geocoded_column": {
      "latitude": "30.052122202118788",
      "longitude": "-89.96188260897243"
    }
  },
  {
    "service_request": "2026-1280440",
    "request_type": "Trash/Recycling",
    "request_reason": "Return Recycling Cart",
    "date_created": "2026-05-11T14:39:25.000",
    "date_modified": "2026-05-11T14:39:47.000",
    "request_status": "Pending",
    "responsible_agency": "Department of Sanitation",
    "final_address": "1521 Melpomene St",
    "address_councildis": "B",
    "status": "Pending",
    "rowid": "1280440",
    "final_x": "3679509.90856",
    "final_y": "525392.596285",
    "longitude": "-90.0745668627377",
    "latitude": "29.93870764458958",
    "geocoded_column": {
      "latitude": "29.93870764458958",
      "longitude": "-90.0745668627377"
    }
  },
  {
    "service_request": "2026-1280439",
    "request_type": "Trash/Recycling",
    "request_reason": "Request a Large Item Pick Up",
    "date_created": "2026-05-11T14:34:13.000",
    "date_modified": "2026-05-11T14:34:15.000",
    "request_status": "Pending",
    "responsible_agency": "Department of Sanitation",
    "final_address": "6338 Mandeville St",
    "address_councildis": "D",
    "status": "Assigned to Contractor",
    "contractor": "IV Waste",
    "rowid": "1280439",
    "final_x": "3684113.21141",
    "final_y": "556463.040794",
    "longitude": "-90.05894278208541",
    "latitude": "30.024000586992912",
    "geocoded_column": {
      "latitude": "30.024000586992912",
      "longitude": "-90.05894278208541"
    }
  },
  {
    "service_request": "2026-1280438",
    "request_type": "Trash/Recycling",
    "request_reason": "Replace Trash Cart",
    "date_created": "2026-05-11T14:33:20.000",
    "date_modified": "2026-05-11T14:33:22.000",
    "request_status": "Pending",
    "responsible_agency": "Department of Sanitation",
    "final_address": "7431 Beau St",
    "address_councildis": "E",
    "status": "Assigned to Contractor",
    "contractor": "Waste Pro",
    "rowid": "1280438",
    "final_x": "3695532.3167",
    "final_y": "558095.965787",
    "longitude": "-90.02280175921281",
    "latitude": "30.028136357763138",
    "geocoded_column": {
      "latitude": "30.028136357763138",
      "longitude": "-90.02280175921281"
    }
  },
  {
    "service_request": "2026-1280437",
    "request_type": "Trash/Recycling",
    "request_reason": "Request a Large Item Pick Up",
    "date_created": "2026-05-11T14:32:37.000",
    "date_modified": "2026-05-11T14:32:39.000",
    "request_status": "Pending",
    "responsible_agency": "Department of Sanitation",
    "final_address": "7540 Wave Dr",
    "address_councildis": "E",
    "status": "Assigned to Contractor",
    "contractor": "Waste Pro",
    "rowid": "1280437",
    "final_x": "3715185.31909",
    "final_y": "568350.128933",
    "longitude": "-89.96031189037596",
    "latitude": "30.055698460209445",
    "geocoded_column": {
      "latitude": "30.055698460209445",
      "longitude": "-89.96031189037596"
    }
  },
  {
    "service_request": "2026-1280436",
    "request_type": "Trash/Recycling",
    "request_reason": "Replace Trash Cart",
    "date_created": "2026-05-11T14:30:56.000",
    "date_modified": "2026-05-11T14:30:58.000",
    "request_status": "Pending",
    "responsible_agency": "Department of Sanitation",
    "final_address": "4536 S Carrollton Ave",
    "address_councildis": "A",
    "status": "Assigned to Contractor",
    "contractor": "IV Waste",
    "rowid": "1280436",
    "final_x": "3670581.03655",
    "final_y": "537593.739528",
    "longitude": "-90.1023425258745",
    "latitude": "29.972523450324758",
    "geocoded_column": {
      "latitude": "29.972523450324758",
      "longitude": "-90.1023425258745"
    }
  },
  {
    "service_request": "2026-1280435",
    "request_type": "Trash/Recycling",
    "request_reason": "Request a Large Item Pick Up",
    "date_created": "2026-05-11T14:30:24.000",
    "date_modified": "2026-05-11T14:30:25.000",
    "request_status": "Pending",
    "responsible_agency": "Department of Sanitation",
    "final_address": "2231 N Derbigny St",
    "address_councildis": "D",
    "status": "Assigned to Contractor",
    "contractor": "IV Waste",
    "rowid": "1280435",
    "final_x": "3685160.81609",
    "final_y": "538572.472969",
    "longitude": "-90.05626260795599",
    "latitude": "29.97477588526636",
    "geocoded_column": {
      "latitude": "29.97477588526636",
      "longitude": "-90.05626260795599"
    }
  },
  {
    "service_request": "2026-1280434",
    "request_type": "Trash/Recycling",
    "request_reason": "Request a Large Item Pick Up",
    "date_created": "2026-05-11T14:30:07.000",
    "date_modified": "2026-05-11T14:30:08.000",
    "request_status": "Pending",
    "responsible_agency": "Department of Sanitation",
    "final_address": "3522 Baronne St",
    "address_councildis": "B",
    "status": "Assigned to Contractor",
    "contractor": "IV Waste",
    "rowid": "1280434",
    "final_x": "3673354.50497",
    "final_y": "521972.051642",
    "longitude": "-90.09411696665788",
    "latitude": "29.929486754765612",
    "geocoded_column": {
      "latitude": "29.929486754765612",
      "longitude": "-90.09411696665788"
    }
  },
  {
    "service_request": "2026-1280433",
    "request_type": "Trash/Recycling",
    "request_reason": "Replace Trash Cart",
    "date_created": "2026-05-11T14:28:14.000",
    "date_modified": "2026-05-11T14:28:16.000",
    "request_status": "Pending",
    "responsible_agency": "Department of Sanitation",
    "final_address": "7922 Lehigh St",
    "address_councildis": "E",
    "status": "Assigned to Contractor",
    "contractor": "Waste Pro",
    "rowid": "1280433",
    "final_x": "3709850.12049",
    "final_y": "566734.425123",
    "longitude": "-89.97723573655749",
    "latitude": "30.051430632435874",
    "geocoded_column": {
      "latitude": "30.051430632435874",
      "longitude": "-89.97723573655749"
    }
  },
  {
    "service_request": "2026-1280432",
    "request_type": "Trash/Recycling",
    "request_reason": "Replace Trash Cart",
    "date_created": "2026-05-11T14:25:52.000",
    "date_modified": "2026-05-11T14:25:54.000",
    "request_status": "Pending",
    "responsible_agency": "Department of Sanitation",
    "final_address": "3731 Rue Michelle",
    "address_councildis": "C",
    "status": "Assigned to Contractor",
    "contractor": "Richards Disposal",
    "rowid": "1280432",
    "final_x": "3703520.4474",
    "final_y": "516749.283957",
    "longitude": "-89.99908129351864",
    "latitude": "29.914194422502508",
    "geocoded_column": {
      "latitude": "29.914194422502508",
      "longitude": "-89.99908129351864"
    }
  },
  {
    "service_request": "2026-1280431",
    "request_type": "Streetlights",
    "request_reason": "Streetlight Outage/Malfunction",
    "date_created": "2026-05-11T14:25:51.000",
    "date_modified": "2026-05-11T14:25:54.000",
    "request_status": "Pending",
    "responsible_agency": "Department of Public Works",
    "final_address": "2400 BLK Conti St",
    "address_councildis": "B",
    "status": "Pending",
    "rowid": "1280431",
    "final_x": "3676983.5269",
    "final_y": "535327.99114",
    "longitude": "-90.08220043473955",
    "latitude": "29.966102731752862",
    "geocoded_column": {
      "latitude": "29.966102731752862",
      "longitude": "-90.08220043473955"
    }
  },
  {
    "service_request": "2026-1280430",
    "request_type": "Trash/Recycling",
    "request_reason": "Request a Large Item Pick Up",
    "date_created": "2026-05-11T14:24:07.000",
    "date_modified": "2026-05-11T14:24:10.000",
    "request_status": "Pending",
    "responsible_agency": "Department of Sanitation",
    "final_address": "968 S Telemachus St",
    "address_councildis": "B",
    "status": "Assigned to Contractor",
    "contractor": "IV Waste",
    "rowid": "1280430",
    "final_x": "3669899.94817",
    "final_y": "534027.647749",
    "longitude": "-90.10461430047121",
    "latitude": "29.962737991561422",
    "geocoded_column": {
      "latitude": "29.962737991561422",
      "longitude": "-90.10461430047121"
    }
  },
  {
    "service_request": "2026-1280429",
    "request_type": "Roads and Streets",
    "request_reason": "Pothole",
    "date_created": "2026-05-11T14:20:18.000",
    "date_modified": "2026-05-11T14:20:20.000",
    "request_status": "Pending",
    "responsible_agency": "Department of Public Works",
    "final_address": "3404 Sullen Pl",
    "address_councildis": "C",
    "status": "Pending",
    "rowid": "1280429",
    "final_x": "3707764.85496",
    "final_y": "518366.87999",
    "longitude": "-89.9856245956188",
    "latitude": "29.918505669941275",
    "geocoded_column": {
      "latitude": "29.918505669941275",
      "longitude": "-89.9856245956188"
    }
  },
  {
    "service_request": "2026-1280428",
    "request_type": "Property Maintenance",
    "request_reason": "Property Maintenance",
    "date_created": "2026-05-11T14:14:59.000",
    "date_modified": "2026-05-11T14:23:08.000",
    "case_close_date": "2026-05-11T09:23:07.000",
    "request_status": "Closed",
    "responsible_agency": "Department of Code Enforcement",
    "final_address": "2018 Painters St",
    "address_councildis": "D",
    "status": "Referred to Code Enforcement",
    "rowid": "1280428",
    "final_x": "3687217.32028",
    "final_y": "539923.773258",
    "longitude": "-90.04971986056302",
    "latitude": "29.97842830202415",
    "geocoded_column": {
      "latitude": "29.97842830202415",
      "longitude": "-90.04971986056302"
    }
  },
  {
    "service_request": "2026-1280427",
    "request_type": "Trash/Recycling",
    "request_reason": "Request a Large Item Pick Up",
    "date_created": "2026-05-11T14:14:17.000",
    "date_modified": "2026-05-11T14:14:19.000",
    "request_status": "Pending",
    "responsible_agency": "Department of Sanitation",
    "final_address": "7313 Chatelain Dr",
    "address_councildis": "E",
    "status": "Assigned to Contractor",
    "contractor": "Waste Pro",
    "rowid": "1280427",
    "final_x": "3715226.2828",
    "final_y": "567294.008548",
    "longitude": "-89.96022241616326",
    "latitude": "30.052793212964904",
    "geocoded_column": {
      "latitude": "30.052793212964904",
      "longitude": "-89.96022241616326"
    }
  },
  {
    "service_request": "2026-1280426",
    "request_type": "Drainage",
    "request_reason": "Drainage Manhole Cover Missing or Damaged",
    "date_created": "2026-05-11T14:11:44.000",
    "date_modified": "2026-05-11T14:11:45.000",
    "request_status": "Pending",
    "responsible_agency": "Sewerage & Water Board",
    "final_address": "1600 Dumaine St",
    "address_councildis": "C",
    "status": "Pending",
    "rowid": "1280426",
    "final_x": "3680460.95695",
    "final_y": "534941.444486",
    "longitude": "-90.07123224540456",
    "latitude": "29.964934998638434",
    "geocoded_column": {
      "latitude": "29.964934998638434",
      "longitude": "-90.07123224540456"
    }
  },
  {
    "service_request": "2026-1280425",
    "request_type": "Trash/Recycling",
    "request_reason": "Repair Recycling Cart",
    "date_created": "2026-05-11T14:11:09.000",
    "date_modified": "2026-05-11T14:11:12.000",
    "request_status": "Pending",
    "responsible_agency": "Department of Sanitation",
    "final_address": "71 Westpark Ct",
    "address_councildis": "C",
    "status": "Pending",
    "rowid": "1280425",
    "final_x": "3695775.69424",
    "final_y": "521724.478266",
    "longitude": "-90.02334666395704",
    "latitude": "29.92812022235317",
    "geocoded_column": {
      "latitude": "29.92812022235317",
      "longitude": "-90.02334666395704"
    }
  },
  {
    "service_request": "2026-1280424",
    "request_type": "Trash/Recycling",
    "request_reason": "Request a Large Item Pick Up",
    "date_created": "2026-05-11T14:08:30.000",
    "date_modified": "2026-05-11T14:08:31.000",
    "request_status": "Pending",
    "responsible_agency": "Department of Sanitation",
    "final_address": "3765 Inwood Ave",
    "address_councildis": "C",
    "status": "Assigned to Contractor",
    "contractor": "Richards Disposal",
    "rowid": "1280424",
    "final_x": "3704885.12523",
    "final_y": "514588.910131",
    "longitude": "-89.99485360176823",
    "latitude": "29.90821037078622",
    "geocoded_column": {
      "latitude": "29.90821037078622",
      "longitude": "-89.99485360176823"
    }
  },
  {
    "service_request": "2026-1280423",
    "request_type": "Trash/Recycling",
    "request_reason": "Request a Large Item Pick Up",
    "date_created": "2026-05-11T14:08:30.000",
    "date_modified": "2026-05-11T14:08:31.000",
    "request_status": "Pending",
    "responsible_agency": "Department of Sanitation",
    "final_address": "3765 Inwood Ave",
    "address_councildis": "C",
    "status": "Assigned to Contractor",
    "contractor": "Richards Disposal",
    "rowid": "1280423",
    "final_x": "3704885.12523",
    "final_y": "514588.910131",
    "longitude": "-89.99485360176823",
    "latitude": "29.90821037078622",
    "geocoded_column": {
      "latitude": "29.90821037078622",
      "longitude": "-89.99485360176823"
    }
  },