[
  {
    "service_request": "2026-1248651",
    "request_type": "Trash/Recycling",
    "request_reason": "Order Trash Cart",
    "date_created": "2026-01-01T22:24:46.000",
    "date_modified": "2026-01-01T22:24:48.000",
    "request_status": "Pending",
    "responsible_agency": "Department of Sanitation",
    "final_address": "337 Fern St",
    "address_councildis": "A",
    "status": "Assigned to Contractor",
    "contractor": "IV Waste",
    "rowid": "1248651",
    "final_x": "3660638.91571",
    "final_y": "525721.615933",
    "longitude": "-90.1341340984319",
    "latitude": "29.94016888324652",
    "geocoded_column": {
      "latitude": "29.94016888324652",
      "longitude": "-90.1341340984319"
    }
  },
  {
    "service_request": "2026-1248650",
    "request_type": "Trash/Recycling",
    "request_reason": "Request a Large Item Pick Up",
    "date_created": "2026-01-01T21:34:46.000",
    "date_modified": "2026-01-01T21:34:49.000",
    "request_status": "Pending",
    "responsible_agency": "Department of Sanitation",
    "final_address": "3920 Annunciation St",
    "address_councildis": "B",
    "status": "Assigned to Contractor",
    "contractor": "IV Waste",
    "rowid": "1248650",
    "final_x": "3673171.54939",
    "final_y": "517908.574326",
    "longitude": "-90.0948331748861",
    "latitude": "29.91831893388864",
    "geocoded_column": {
      "latitude": "29.91831893388864",
      "longitude": "-90.0948331748861"
    }
  },
  {
    "service_request": "2026-1248649",
    "request_type": "Trash/Recycling",
    "request_reason": "Replace Trash Cart",
    "date_created": "2026-01-01T21:19:57.000",
    "date_modified": "2026-01-01T21:19:59.000",
    "request_status": "Pending",
    "responsible_agency": "Department of Sanitation",
    "final_address": "2422 Rousseau St",
    "address_councildis": "B",
    "status": "Assigned to Contractor",
    "contractor": "IV Waste",
    "rowid": "1248649",
    "final_x": "3679170.30299",
    "final_y": "519481.155511",
    "longitude": "-90.07584385013256",
    "latitude": "29.922463374561435",
    "geocoded_column": {
      "latitude": "29.922463374561435",
      "longitude": "-90.07584385013256"
    }
  },
  {
    "service_request": "2026-1248648",
    "request_type": "Christmas Tree Recycle Pick Up",
    "request_reason": "Christmas Tree Recycle Pick Up",
    "date_created": "2026-01-01T20:50:05.000",
    "date_modified": "2026-01-01T20:50:08.000",
    "request_status": "Pending",
    "responsible_agency": "Office of Resilience and Sustainability",
    "final_address": "2536 Chartres St",
    "address_councildis": "C",
    "status": "Pending",
    "contractor": "Glass Half Full",
    "rowid": "1248648",
    "final_x": "3686577.15964",
    "final_y": "534599.024774",
    "longitude": "-90.05192978893068",
    "latitude": "29.96380680757635",
    "geocoded_column": {
      "latitude": "29.96380680757635",
      "longitude": "-90.05192978893068"
    }
  },
  {
    "service_request": "2026-1248647",
    "request_type": "Health Related Request",
    "request_reason": "Noise Ordinance Complaint",
    "date_created": "2026-01-01T20:30:48.000",
    "date_modified": "2026-01-01T20:30:50.000",
    "request_status": "Pending",
    "responsible_agency": "Health Department",
    "final_address": "8201 Palm St Apt 117",
    "address_councildis": "A",
    "status": "Pending",
    "rowid": "1248647",
    "final_x": "3667418.98023",
    "final_y": "535083.572166",
    "longitude": "-90.11241337029466",
    "latitude": "29.965714353565538",
    "geocoded_column": {
      "latitude": "29.965714353565538",
      "longitude": "-90.11241337029466"
    }
  },
  {
    "service_request": "2026-1248646",
    "request_type": "Streetlights",
    "request_reason": "Streetlight Outage/Malfunction",
    "date_created": "2026-01-01T20:11:47.000",
    "date_modified": "2026-01-01T20:11:50.000",
    "request_status": "Pending",
    "responsible_agency": "Department of Public Works",
    "final_address": "3580 Bennett St",
    "address_councildis": "C",
    "status": "Pending",
    "rowid": "1248646",
    "final_x": "3710410.23025",
    "final_y": "517466.33471",
    "longitude": "-89.97730826937126",
    "latitude": "29.91594366681555",
    "geocoded_column": {
      "latitude": "29.91594366681555",
      "longitude": "-89.97730826937126"
    }
  },
  {
    "service_request": "2026-1248645",
    "request_type": "General Services",
    "request_reason": "General Service Request",
    "date_created": "2026-01-01T19:48:51.000",
    "date_modified": "2026-01-01T19:48:53.000",
    "request_status": "Pending",
    "responsible_agency": "Orleans Parish Communication District",
    "final_address": "5640 Bentley Dr",
    "address_councildis": "E",
    "status": "Pending",
    "rowid": "1248645",
    "final_x": "3703778.94513",
    "final_y": "556875.328282",
    "longitude": "-89.99678809851048",
    "latitude": "30.024518156769126",
    "geocoded_column": {
      "latitude": "30.024518156769126",
      "longitude": "-89.99678809851048"
    }
  },
  {
    "service_request": "2026-1248644",
    "request_type": "Streetlights",
    "request_reason": "Streetlight Outage/Malfunction",
    "date_created": "2026-01-01T19:34:07.000",
    "date_modified": "2026-01-01T19:34:09.000",
    "request_status": "Pending",
    "responsible_agency": "Department of Public Works",
    "final_address": "2674 New York St",
    "address_councildis": "D",
    "status": "Pending",
    "rowid": "1248644",
    "final_x": "3686971.45686",
    "final_y": "556755.70345",
    "longitude": "-90.04990093590673",
    "latitude": "30.02471758238721",
    "geocoded_column": {
      "latitude": "30.02471758238721",
      "longitude": "-90.04990093590673"
    }
  },
  {
    "service_request": "2026-1248643",
    "request_type": "Trash/Recycling",
    "request_reason": "Request a Large Item Pick Up",
    "date_created": "2026-01-01T19:13:24.000",
    "date_modified": "2026-01-01T19:13:26.000",
    "request_status": "Pending",
    "responsible_agency": "Department of Sanitation",
    "final_address": "4522 Marais St",
    "address_councildis": "D",
    "status": "Assigned to Contractor",
    "contractor": "IV Waste",
    "rowid": "1248643",
    "final_x": "3693558.64278",
    "final_y": "535150.179718",
    "longitude": "-90.0298632412413",
    "latitude": "29.965105764277393",
    "geocoded_column": {
      "latitude": "29.965105764277393",
      "longitude": "-90.0298632412413"
    }
  },
  {
    "service_request": "2026-1248642",
    "request_type": "Trash/Recycling",
    "request_reason": "Request a Large Item Pick Up",
    "date_created": "2026-01-01T19:09:18.000",
    "date_modified": "2026-01-01T19:09:20.000",
    "request_status": "Pending",
    "responsible_agency": "Department of Sanitation",
    "final_address": "1111 Poland Ave",
    "address_councildis": "D",
    "status": "Assigned to Contractor",
    "contractor": "IV Waste",
    "rowid": "1248642",
    "final_x": "3693198.2847",
    "final_y": "535193.421126",
    "longitude": "-90.03099967493971",
    "latitude": "29.965235929674588",
    "geocoded_column": {
      "latitude": "29.965235929674588",
      "longitude": "-90.03099967493971"
    }
  },
  {
    "service_request": "2026-1248641",
    "request_type": "Trash/Recycling",
    "request_reason": "Order Second Trash Cart",
    "date_created": "2026-01-01T18:49:08.000",
    "date_modified": "2026-01-01T18:49:09.000",
    "request_status": "Pending",
    "responsible_agency": "Department of Sanitation",
    "final_address": "4953 Little John Dr",
    "address_councildis": "E",
    "status": "Assigned to Contractor",
    "contractor": "Waste Pro",
    "rowid": "1248641",
    "final_x": "3717206.86277",
    "final_y": "558013.104795",
    "longitude": "-89.95431546698579",
    "latitude": "30.02720908484698",
    "geocoded_column": {
      "latitude": "30.02720908484698",
      "longitude": "-89.95431546698579"
    }
  },
  {
    "service_request": "2026-1248640",
    "request_type": "General Services",
    "request_reason": "General Service Request",
    "date_created": "2026-01-01T18:21:42.000",
    "date_modified": "2026-01-01T18:21:44.000",
    "request_status": "Pending",
    "responsible_agency": "Orleans Parish Communication District",
    "final_address": "3500 BLK Republic St",
    "address_councildis": "D",
    "status": "Pending",
    "rowid": "1248640",
    "final_x": "3680472.21612",
    "final_y": "545389.606187",
    "longitude": "-90.0708331508246",
    "latitude": "29.99366347040658",
    "geocoded_column": {
      "latitude": "29.99366347040658",
      "longitude": "-90.0708331508246"
    }
  },
  {
    "service_request": "2026-1248639",
    "request_type": "General Services",
    "request_reason": "General Service Request",
    "date_created": "2026-01-01T18:19:59.000",
    "date_modified": "2026-01-01T18:20:00.000",
    "request_status": "Pending",
    "responsible_agency": "Orleans Parish Communication District",
    "final_address": "3500 BLK Republic St",
    "address_councildis": "D",
    "status": "Pending",
    "rowid": "1248639",
    "final_x": "3680472.21612",
    "final_y": "545389.606187",
    "longitude": "-90.0708331508246",
    "latitude": "29.99366347040658",
    "geocoded_column": {
      "latitude": "29.99366347040658",
      "longitude": "-90.0708331508246"
    }
  },
  {
    "service_request": "2026-1248638",
    "request_type": "Parks & Parkways",
    "request_reason": "Park Maintenance/Clean Up",
    "date_created": "2026-01-01T18:10:53.000",
    "date_modified": "2026-01-01T18:10:55.000",
    "request_status": "Pending",
    "responsible_agency": "Department of Parks & Parkway",
    "final_address": "6023 Laurel St",
    "address_councildis": "A",
    "status": "Pending",
    "rowid": "1248638",
    "final_x": "3664234.28941",
    "final_y": "518325.657142",
    "longitude": "-90.12302953432162",
    "latitude": "29.919728375090145",
    "geocoded_column": {
      "latitude": "29.919728375090145",
      "longitude": "-90.12302953432162"
    }
  },
  {
    "service_request": "2026-1248637",
    "request_type": "Trash/Recycling",
    "request_reason": "Request a Large Item Pick Up",
    "date_created": "2026-01-01T17:40:44.000",
    "date_modified": "2026-01-01T17:40:46.000",
    "request_status": "Pending",
    "responsible_agency": "Department of Sanitation",
    "final_address": "12340 Carmel Pl",
    "address_councildis": "E",
    "status": "Assigned to Contractor",
    "contractor": "Waste Pro",
    "rowid": "1248637",
    "final_x": "3716000.09029",
    "final_y": "566578.109027",
    "longitude": "-89.9578038179974",
    "latitude": "30.05079926333272",
    "geocoded_column": {
      "latitude": "30.05079926333272",
      "longitude": "-89.9578038179974"
    }
  },
  {
    "service_request": "2026-1248636",
    "request_type": "Trash/Recycling",
    "request_reason": "Request a Large Item Pick Up",
    "date_created": "2026-01-01T17:35:30.000",
    "date_modified": "2026-01-01T17:35:32.000",
    "request_status": "Pending",
    "responsible_agency": "Department of Sanitation",
    "final_address": "2415 Dreux Ave",
    "address_councildis": "D",
    "status": "Assigned to Contractor",
    "contractor": "IV Waste",
    "rowid": "1248636",
    "final_x": "3685332.36002",
    "final_y": "552193.866518",
    "longitude": "-90.05524097996293",
    "latitude": "30.01222458932384",
    "geocoded_column": {
      "latitude": "30.01222458932384",
      "longitude": "-90.05524097996293"
    }
  },
  {
    "service_request": "2026-1248635",
    "request_type": "Trash/Recycling",
    "request_reason": "Request a Large Item Pick Up",
    "date_created": "2026-01-01T17:35:17.000",
    "date_modified": "2026-01-01T17:35:19.000",
    "request_status": "Pending",
    "responsible_agency": "Department of Sanitation",
    "final_address": "959 Taft Pl",
    "address_councildis": "A",
    "status": "Assigned to Contractor",
    "contractor": "IV Waste",
    "rowid": "1248635",
    "final_x": "3673854.8075",
    "final_y": "540534.395083",
    "longitude": "-90.09190273654887",
    "latitude": "29.980512137366762",
    "geocoded_column": {
      "latitude": "29.980512137366762",
      "longitude": "-90.09190273654887"
    }
  },
  {
    "service_request": "2026-1248634",
    "request_type": "Trash/Recycling",
    "request_reason": "Repair Recycling Cart",
    "date_created": "2026-01-01T17:23:40.000",
    "date_modified": "2026-01-01T17:23:42.000",
    "request_status": "Pending",
    "responsible_agency": "Department of Sanitation",
    "final_address": "959 Taft Pl",
    "address_councildis": "A",
    "status": "Pending",
    "rowid": "1248634",
    "final_x": "3673854.8075",
    "final_y": "540534.395083",
    "longitude": "-90.09190273654887",
    "latitude": "29.980512137366762",
    "geocoded_column": {
      "latitude": "29.980512137366762",
      "longitude": "-90.09190273654887"
    }
  },
  {
    "service_request": "2026-1248633",
    "request_type": "Trash/Recycling",
    "request_reason": "Order Trash Cart",
    "date_created": "2026-01-01T17:03:25.000",
    "date_modified": "2026-01-01T17:03:27.000",
    "request_status": "Pending",
    "responsible_agency": "Department of Sanitation",
    "final_address": "703 Hendee St",
    "address_councildis": "C",
    "status": "Assigned to Contractor",
    "contractor": "Richards Disposal",
    "rowid": "1248633",
    "final_x": "3690803.22345",
    "final_y": "528892.553216",
    "longitude": "-90.03878792822975",
    "latitude": "29.94798536475949",
    "geocoded_column": {
      "latitude": "29.94798536475949",
      "longitude": "-90.03878792822975"
    }
  },
  {
    "service_request": "2026-1248632",
    "request_type": "Trash/Recycling",
    "request_reason": "Request a Large Item Pick Up",
    "date_created": "2026-01-01T16:50:42.000",
    "date_modified": "2026-01-01T16:50:44.000",
    "request_status": "Pending",
    "responsible_agency": "Department of Sanitation",
    "final_address": "3339 Belfort St",
    "address_councildis": "A",
    "status": "Assigned to Contractor",
    "contractor": "IV Waste",
    "rowid": "1248632",
    "final_x": "3677374.97806",
    "final_y": "542672.620109",
    "longitude": "-90.08071068435657",
    "latitude": "29.98628617809371",
    "geocoded_column": {
      "latitude": "29.98628617809371",
      "longitude": "-90.08071068435657"
    }
  },
  {
    "service_request": "2026-1248631",
    "request_type": "Health Related Request",
    "request_reason": "Noise Ordinance Complaint",
    "date_created": "2026-01-01T16:31:09.000",
    "date_modified": "2026-01-01T16:31:11.000",
    "request_status": "Pending",
    "responsible_agency": "Health Department",
    "final_address": "5132 Arts St, New Orleans, Louisiana, 70122",
    "address_councildis": "D",
    "status": "Pending",
    "rowid": "1248631",
    "final_x": "3685730.8726",
    "final_y": "551839.691158",
    "longitude": "-90.05399440116331",
    "latitude": "30.011238508147045",
    "geocoded_column": {
      "latitude": "30.011238508147045",
      "longitude": "-90.05399440116331"
    }
  },
  {
    "service_request": "2026-1248630",
    "request_type": "Trash/Recycling",
    "request_reason": "Order Second Trash Cart",
    "date_created": "2026-01-01T16:18:29.000",
    "date_modified": "2026-01-01T16:18:30.000",
    "request_status": "Pending",
    "responsible_agency": "Department of Sanitation",
    "final_address": "2315 Palmer Ave",
    "address_councildis": "A",
    "status": "Assigned to Contractor",
    "contractor": "IV Waste",
    "rowid": "1248630",
    "final_x": "3666327.65927",
    "final_y": "525362.353149",
    "longitude": "-90.11618583257741",
    "latitude": "29.939016093877083",
    "geocoded_column": {
      "latitude": "29.939016093877083",
      "longitude": "-90.11618583257741"
    }
  },
  {
    "service_request": "2026-1248629",
    "request_type": "Abandoned Vehicles",
    "request_reason": "Abandoned/Junk Vehicles",
    "date_created": "2026-01-01T16:12:16.000",
    "date_modified": "2026-01-01T16:12:18.000",
    "request_status": "Pending",
    "responsible_agency": "Department of Public Works",
    "final_address": "1442 Japonica St",
    "address_councildis": "D",
    "status": "Pending",
    "rowid": "1248629",
    "final_x": "3693986.59677",
    "final_y": "536267.860423",
    "longitude": "-90.02847159860896",
    "latitude": "29.968165597559295",
    "geocoded_column": {
      "latitude": "29.968165597559295",
      "longitude": "-90.02847159860896"
    }
  },
  {
    "service_request": "2026-1248628",
    "request_type": "Abandoned Vehicles",
    "request_reason": "Abandoned/Junk Vehicles",
    "date_created": "2026-01-01T16:09:17.000",
    "date_modified": "2026-01-01T16:09:18.000",
    "request_status": "Pending",
    "responsible_agency": "Department of Public Works",
    "final_address": "712 Spain St",
    "address_councildis": "C",
    "status": "Pending",
    "rowid": "1248628",
    "final_x": "3686209.64598",
    "final_y": "535080.334086",
    "longitude": "-90.0530733765897",
    "latitude": "29.965141537203653",
    "geocoded_column": {
      "latitude": "29.965141537203653",
      "longitude": "-90.0530733765897"
    }
  },
  {
    "service_request": "2026-1248627",
    "request_type": "Property Maintenance",
    "request_reason": "Property Maintenance",
    "date_created": "2026-01-01T16:07:06.000",
    "date_modified": "2026-01-01T16:07:07.000",
    "request_status": "Pending",
    "responsible_agency": "Department of Code Enforcement",
    "final_address": "4526 N Robertson St",
    "address_councildis": "D",
    "status": "Pending",
    "rowid": "1248627",
    "final_x": "3693873.59043",
    "final_y": "536244.858055",
    "longitude": "-90.02882930264298",
    "latitude": "29.968105887233968",
    "geocoded_column": {
      "latitude": "29.968105887233968",
      "longitude": "-90.02882930264298"
    }
  },
  {
    "service_request": "2026-1248626",
    "request_type": "Christmas Tree Recycle Pick Up",
    "request_reason": "Christmas Tree Recycle Pick Up",
    "date_created": "2026-01-01T16:04:50.000",
    "date_modified": "2026-01-01T16:04:52.000",
    "request_status": "Pending",
    "responsible_agency": "Office of Resilience and Sustainability",
    "final_address": "1535 Canal St",
    "address_councildis": "C",
    "status": "Pending",
    "contractor": "Glass Half Full",
    "rowid": "1248626",
    "final_x": "3678936.45589",
    "final_y": "532521.076676",
    "longitude": "-90.07613038878848",
    "latitude": "29.958325892153642",
    "geocoded_column": {
      "latitude": "29.958325892153642",
      "longitude": "-90.07613038878848"
    }
  },
  {
    "service_request": "2026-1248625",
    "request_type": "Property Maintenance",
    "request_reason": "Property Maintenance",
    "date_created": "2026-01-01T16:03:04.000",
    "date_modified": "2026-01-01T16:03:05.000",
    "request_status": "Pending",
    "responsible_agency": "Department of Code Enforcement",
    "final_address": "1718 General Ogden St",
    "address_councildis": "A",
    "status": "Pending",
    "rowid": "1248625",
    "final_x": "3661149.54906",
    "final_y": "531741.471235",
    "longitude": "-90.13232273383977",
    "latitude": "29.95670685564704",
    "geocoded_column": {
      "latitude": "29.95670685564704",
      "longitude": "-90.13232273383977"
    }
  },
  {
    "service_request": "2026-1248624",
    "request_type": "Property Maintenance",
    "request_reason": "Property Maintenance",
    "date_created": "2026-01-01T16:02:06.000",
    "date_modified": "2026-01-01T16:02:08.000",
    "request_status": "Pending",
    "responsible_agency": "Department of Code Enforcement",
    "final_address": "4611 N Robertson St",
    "address_councildis": "D",
    "status": "Pending",
    "rowid": "1248624",
    "final_x": "3694190.5608",
    "final_y": "536348.767815",
    "longitude": "-90.02782456372283",
    "latitude": "29.9683816759696",
    "geocoded_column": {
      "latitude": "29.9683816759696",
      "longitude": "-90.02782456372283"
    }
  },
  {
    "service_request": "2026-1248623",
    "request_type": "Property Maintenance",
    "request_reason": "Property Maintenance",
    "date_created": "2026-01-01T16:00:35.000",
    "date_modified": "2026-01-01T16:00:37.000",
    "request_status": "Pending",
    "responsible_agency": "Department of Code Enforcement",
    "final_address": "1716 General Ogden St",
    "address_councildis": "A",
    "status": "Pending",
    "rowid": "1248623",
    "final_x": "3661132.36538",
    "final_y": "531728.260291",
    "longitude": "-90.13237743188735",
    "latitude": "29.956671025049793",
    "geocoded_column": {
      "latitude": "29.956671025049793",
      "longitude": "-90.13237743188735"
    }
  },
  {
    "service_request": "2026-1248622",
    "request_type": "Property Maintenance",
    "request_reason": "Property Maintenance",
    "date_created": "2026-01-01T15:58:07.000",
    "date_modified": "2026-01-01T15:58:09.000",
    "request_status": "Pending",
    "responsible_agency": "Department of Code Enforcement",
    "final_address": "1716 General Ogden St",
    "address_councildis": "A",
    "status": "Pending",
    "rowid": "1248622",
    "final_x": "3661132.36538",
    "final_y": "531728.260291",
    "longitude": "-90.13237743188735",
    "latitude": "29.956671025049793",
    "geocoded_column": {
      "latitude": "29.956671025049793",
      "longitude": "-90.13237743188735"
    }
  },
  {
    "service_request": "2026-1248621",
    "request_type": "Trash/Recycling",
    "request_reason": "Replace Trash Cart",
    "date_created": "2026-01-01T15:53:53.000",
    "date_modified": "2026-01-01T15:53:54.000",
    "request_status": "Pending",
    "responsible_agency": "Department of Sanitation",
    "final_address": "5321 Wildair Dr",
    "address_councildis": "D",
    "status": "Assigned to Contractor",
    "contractor": "IV Waste",
    "rowid": "1248621",
    "final_x": "3681688.62024",
    "final_y": "552716.25967",
    "longitude": "-90.06673488945783",
    "latitude": "30.01377223120562",
    "geocoded_column": {
      "latitude": "30.01377223120562",
      "longitude": "-90.06673488945783"
    }
  },
  {
    "service_request": "2026-1248620",
    "request_type": "Abandoned Vehicles",
    "request_reason": "Abandoned/Junk Vehicles",
    "date_created": "2026-01-01T15:52:44.000",
    "date_modified": "2026-01-01T15:52:45.000",
    "request_status": "Pending",
    "responsible_agency": "Department of Public Works",
    "final_address": "1500 BLK Japonica St",
    "address_councildis": "D",
    "status": "Pending",
    "rowid": "1248620",
    "final_x": "3694144.42467",
    "final_y": "536503.815231",
    "longitude": "-90.02796468498221",
    "latitude": "29.96880944660867",
    "geocoded_column": {
      "latitude": "29.96880944660867",
      "longitude": "-90.02796468498221"
    }
  },
  {
    "service_request": "2026-1248619",
    "request_type": "Christmas Tree Recycle Pick Up",
    "request_reason": "Christmas Tree Recycle Pick Up",
    "date_created": "2026-01-01T15:51:13.000",
    "date_modified": "2026-01-01T15:51:16.000",
    "request_status": "Pending",
    "responsible_agency": "Office of Resilience and Sustainability",
    "final_address": "3608 Banks St",
    "address_councildis": "B",
    "status": "Pending",
    "contractor": "Glass Half Full",
    "rowid": "1248619",
    "final_x": "3671753.1627",
    "final_y": "536243.186695",
    "longitude": "-90.09868669229873",
    "latitude": "29.968775208481716",
    "geocoded_column": {
      "latitude": "29.968775208481716",
      "longitude": "-90.09868669229873"
    }
  },
  {
    "service_request": "2026-1248618",
    "request_type": "Trash/Recycling",
    "request_reason": "Request a Large Item Pick Up",
    "date_created": "2026-01-01T15:42:00.000",
    "date_modified": "2026-01-01T15:42:02.000",
    "request_status": "Pending",
    "responsible_agency": "Department of Sanitation",
    "final_address": "8503 Bill St",
    "address_councildis": "E",
    "status": "Assigned to Contractor",
    "contractor": "Waste Pro",
    "rowid": "1248618",
    "final_x": "3703459.54225",
    "final_y": "563119.239584",
    "longitude": "-89.99756734969455",
    "latitude": "30.041696716163237",
    "geocoded_column": {
      "latitude": "30.041696716163237",
      "longitude": "-89.99756734969455"
    }
  },
  {
    "service_request": "2026-1248617",
    "request_type": "Trash/Recycling",
    "request_reason": "Request a Large Item Pick Up",
    "date_created": "2026-01-01T15:37:04.000",
    "date_modified": "2026-01-01T15:37:06.000",
    "request_status": "Pending",
    "responsible_agency": "Department of Sanitation",
    "final_address": "2034 Egania St",
    "address_councildis": "E",
    "status": "Assigned to Contractor",
    "contractor": "Waste Pro",
    "rowid": "1248617",
    "final_x": "3697784.18071",
    "final_y": "537695.489992",
    "longitude": "-90.01642692655103",
    "latitude": "29.971971608424717",
    "geocoded_column": {
      "latitude": "29.971971608424717",
      "longitude": "-90.01642692655103"
    }
  },
  {
    "service_request": "2026-1248616",
    "request_type": "Trash/Recycling",
    "request_reason": "Order Trash Cart",
    "date_created": "2026-01-01T15:10:40.000",
    "date_modified": "2026-01-01T15:10:42.000",
    "request_status": "Pending",
    "responsible_agency": "Department of Sanitation",
    "final_address": "25559 Chef Menteur Hwy",
    "address_councildis": "E",
    "status": "Assigned to Contractor",
    "contractor": "Waste Pro",
    "rowid": "1248616",
    "final_x": "3780532.96376",
    "final_y": "600240.143683",
    "longitude": "-89.75237650072486",
    "latitude": "30.14106521367373",
    "geocoded_column": {
      "latitude": "30.14106521367373",
      "longitude": "-89.75237650072486"
    }
  },
  {
    "service_request": "2026-1248615",
    "request_type": "Health Related Request",
    "request_reason": "Noise Ordinance Complaint",
    "date_created": "2026-01-01T15:08:43.000",
    "date_modified": "2026-01-01T15:08:45.000",
    "request_status": "Pending",
    "responsible_agency": "Health Department",
    "final_address": "5132 Arts St, New Orleans, Louisiana, 70122",
    "address_councildis": "D",
    "status": "Pending",
    "rowid": "1248615",
    "final_x": "3685730.8726",
    "final_y": "551839.691158",
    "longitude": "-90.05399440116331",
    "latitude": "30.011238508147045",
    "geocoded_column": {
      "latitude": "30.011238508147045",
      "longitude": "-90.05399440116331"
    }
  },
  {
    "service_request": "2026-1248613",
    "request_type": "Christmas Tree Recycle Pick Up",
    "request_reason": "Christmas Tree Recycle Pick Up",
    "date_created": "2026-01-01T14:36:19.000",
    "date_modified": "2026-01-01T14:36:21.000",
    "request_status": "Pending",
    "responsible_agency": "Office of Resilience and Sustainability",
    "final_address": "900 Taft Pl",
    "address_councildis": "A",
    "status": "Pending",
    "contractor": "Glass Half Full",
    "rowid": "1248613",
    "final_x": "3673889.51604",
    "final_y": "540048.544843",
    "longitude": "-90.09180973848028",
    "latitude": "29.979175181510872",
    "geocoded_column": {
      "latitude": "29.979175181510872",
      "longitude": "-90.09180973848028"
    }
  },
  {
    "service_request": "2026-1248614",
    "request_type": "Health Related Request",
    "request_reason": "Noise Ordinance Complaint",
    "date_created": "2026-01-01T14:36:19.000",
    "date_modified": "2026-01-01T14:36:21.000",
    "request_status": "Pending",
    "responsible_agency": "Health Department",
    "final_address": "5132 Arts St, New Orleans, Louisiana, 70122",
    "address_councildis": "D",
    "status": "Pending",
    "rowid": "1248614",
    "final_x": "3685730.8726",
    "final_y": "551839.691158",
    "longitude": "-90.05399440116331",
    "latitude": "30.011238508147045",
    "geocoded_column": {
      "latitude": "30.011238508147045",
      "longitude": "-90.05399440116331"
    }
  },
  {
    "service_request": "2026-1248612",
    "request_type": "Health Related Request",
    "request_reason": "Noise Ordinance Complaint",
    "date_created": "2026-01-01T14:15:46.000",
    "date_modified": "2026-01-01T14:15:48.000",
    "request_status": "Pending",
    "responsible_agency": "Health Department",
    "final_address": "5132 Arts St, New Orleans, Louisiana, 70122",
    "address_councildis": "D",
    "status": "Pending",
    "rowid": "1248612",
    "final_x": "3685730.8726",
    "final_y": "551839.691158",
    "longitude": "-90.05399440116331",
    "latitude": "30.011238508147045",
    "geocoded_column": {
      "latitude": "30.011238508147045",
      "longitude": "-90.05399440116331"
    }
  },
  {
    "service_request": "2026-1248611",
    "request_type": "Trash/Recycling",
    "request_reason": "Replace Trash Cart",
    "date_created": "2026-01-01T13:59:49.000",
    "date_modified": "2026-01-01T13:59:51.000",
    "request_status": "Pending",
    "responsible_agency": "Department of Sanitation",
    "final_address": "3912 Hamilton St",
    "address_councildis": "A",
    "status": "Assigned to Contractor",
    "contractor": "IV Waste",
    "rowid": "1248611",
    "final_x": "3665873.79674",
    "final_y": "537961.862025",
    "longitude": "-90.11719655049494",
    "latitude": "29.973673876456573",
    "geocoded_column": {
      "latitude": "29.973673876456573",
      "longitude": "-90.11719655049494"
    }
  },
  {
    "service_request": "2026-1248610",
    "request_type": "Health Related Request",
    "request_reason": "Noise Ordinance Complaint",
    "date_created": "2026-01-01T13:57:06.000",
    "date_modified": "2026-01-01T13:57:08.000",
    "request_status": "Pending",
    "responsible_agency": "Health Department",
    "final_address": "5132 Arts St, New Orleans, Louisiana, 70122",
    "address_councildis": "D",
    "status": "Pending",
    "rowid": "1248610",
    "final_x": "3685730.8726",
    "final_y": "551839.691158",
    "longitude": "-90.05399440116331",
    "latitude": "30.011238508147045",
    "geocoded_column": {
      "latitude": "30.011238508147045",
      "longitude": "-90.05399440116331"
    }
  },
  {
    "service_request": "2026-1248609",
    "request_type": "Trash/Recycling",
    "request_reason": "Request a Large Item Pick Up",
    "date_created": "2026-01-01T13:55:10.000",
    "date_modified": "2026-01-01T13:55:13.000",
    "request_status": "Pending",
    "responsible_agency": "Department of Sanitation",
    "final_address": "1725 Foucher St",
    "address_councildis": "B",
    "status": "Assigned to Contractor",
    "contractor": "IV Waste",
    "rowid": "1248609",
    "final_x": "3673313.19131",
    "final_y": "521898.361914",
    "longitude": "-90.09424990211004",
    "latitude": "29.92928536028441",
    "geocoded_column": {
      "latitude": "29.92928536028441",
      "longitude": "-90.09424990211004"
    }
  },
  {
    "service_request": "2026-1248608",
    "request_type": "Christmas Tree Recycle Pick Up",
    "request_reason": "Christmas Tree Recycle Pick Up",
    "date_created": "2026-01-01T13:52:15.000",
    "date_modified": "2026-01-01T13:52:17.000",
    "request_status": "Pending",
    "responsible_agency": "Office of Resilience and Sustainability",
    "final_address": "3426 Somerset Dr",
    "address_councildis": "C",
    "status": "Pending",
    "contractor": "Glass Half Full",
    "rowid": "1248608",
    "final_x": "3702576.01898",
    "final_y": "518473.933942",
    "longitude": "-90.00199895514687",
    "latitude": "29.9189668235331",
    "geocoded_column": {
      "latitude": "29.9189668235331",
      "longitude": "-90.00199895514687"
    }
  },
  {
    "service_request": "2026-1248607",
    "request_type": "Roads and Streets",
    "request_reason": "Abandoned Service Cut",
    "date_created": "2026-01-01T13:43:14.000",
    "date_modified": "2026-01-01T13:43:17.000",
    "request_status": "Pending",
    "responsible_agency": "Department of Public Works",
    "final_address": "1018 Broadway St",
    "address_councildis": "A",
    "status": "Pending",
    "rowid": "1248607",
    "final_x": "3663825.40787",
    "final_y": "526072.489534",
    "longitude": "-90.12406211194433",
    "latitude": "29.941041590821595",
    "geocoded_column": {
      "latitude": "29.941041590821595",
      "longitude": "-90.12406211194433"
    }
  },
  {
    "service_request": "2026-1248606",
    "request_type": "Christmas Tree Recycle Pick Up",
    "request_reason": "Christmas Tree Recycle Pick Up",
    "date_created": "2026-01-01T13:15:11.000",
    "date_modified": "2026-01-01T13:15:14.000",
    "request_status": "Pending",
    "responsible_agency": "Office of Resilience and Sustainability",
    "final_address": "1021 Sixth St",
    "address_councildis": "B",
    "status": "Pending",
    "contractor": "Glass Half Full",
    "rowid": "1248606",
    "final_x": "3676768.43125",
    "final_y": "520396.805944",
    "longitude": "-90.08339406294333",
    "latitude": "29.925053377485916",
    "geocoded_column": {
      "latitude": "29.925053377485916",
      "longitude": "-90.08339406294333"
    }
  },
  {
    "service_request": "2026-1248605",
    "request_type": "Trash/Recycling",
    "request_reason": "Order Second Trash Cart",
    "date_created": "2026-01-01T12:53:13.000",
    "date_modified": "2026-01-01T12:53:14.000",
    "request_status": "Pending",
    "responsible_agency": "Department of Sanitation",
    "final_address": "5256 Pratt Dr",
    "address_councildis": "D",
    "status": "Assigned to Contractor",
    "contractor": "IV Waste",
    "rowid": "1248605",
    "final_x": "3680348.12251",
    "final_y": "551849.50575",
    "longitude": "-90.07100033943246",
    "latitude": "30.01142964636603",
    "geocoded_column": {
      "latitude": "30.01142964636603",
      "longitude": "-90.07100033943246"
    }
  },
  {
    "service_request": "2026-1248604",
    "request_type": "Health Related Request",
    "request_reason": "Noise Ordinance Complaint",
    "date_created": "2026-01-01T12:49:32.000",
    "date_modified": "2026-01-01T12:49:35.000",
    "request_status": "Pending",
    "responsible_agency": "Health Department",
    "final_address": "2444 Dreux Ave, New Orleans, Louisiana, 70122",
    "address_councildis": "D",
    "status": "Pending",
    "rowid": "1248604",
    "final_x": "3685710.50889",
    "final_y": "552075.21519",
    "longitude": "-90.05405043050037",
    "latitude": "30.011886738314047",
    "geocoded_column": {
      "latitude": "30.011886738314047",
      "longitude": "-90.05405043050037"
    }
  },
  {
    "service_request": "2026-1248603",
    "request_type": "Property Maintenance",
    "request_reason": "Property Maintenance",
    "date_created": "2026-01-01T12:34:11.000",
    "date_modified": "2026-01-01T12:34:13.000",
    "request_status": "Pending",
    "responsible_agency": "Department of Code Enforcement",
    "final_address": "7651 Pineridge St",
    "address_councildis": "E",
    "status": "Pending",
    "rowid": "1248603",
    "final_x": "3718901.22476",
    "final_y": "572184.744489",
    "longitude": "-89.9484202604737",
    "latitude": "30.06611910018317",
    "geocoded_column": {
      "latitude": "30.06611910018317",
      "longitude": "-89.9484202604737"
    }
  },
  {
    "service_request": "2026-1248602",
    "request_type": "Trash/Recycling",
    "request_reason": "Request a Large Item Pick Up",
    "date_created": "2026-01-01T12:31:18.000",
    "date_modified": "2026-01-01T12:31:21.000",
    "request_status": "Pending",
    "responsible_agency": "Department of Sanitation",
    "final_address": "3133 Chippewa St",
    "address_councildis": "B",
    "status": "Assigned to Contractor",
    "contractor": "IV Waste",
    "rowid": "1248602",
    "final_x": "3676722.05205",
    "final_y": "518842.810359",
    "longitude": "-90.08359396985847",
    "latitude": "29.920781782733012",
    "geocoded_column": {
      "latitude": "29.920781782733012",
      "longitude": "-90.08359396985847"
    }
  },
  {
    "service_request": "2026-1248601",
    "request_type": "Property Maintenance",
    "request_reason": "Property Maintenance",
    "date_created": "2026-01-01T12:30:30.000",
    "date_modified": "2026-01-01T12:30:32.000",
    "request_status": "Pending",
    "responsible_agency": "Department of Code Enforcement",
    "final_address": "7651 Pineridge St",
    "address_councildis": "E",
    "status": "Pending",
    "rowid": "1248601",
    "final_x": "3718901.22476",
    "final_y": "572184.744489",
    "longitude": "-89.9484202604737",
    "latitude": "30.06611910018317",
    "geocoded_column": {
      "latitude": "30.06611910018317",
      "longitude": "-89.9484202604737"
    }
  },
  {
    "service_request": "2026-1248600",
    "request_type": "Health Related Request",
    "request_reason": "Noise Ordinance Complaint",
    "date_created": "2026-01-01T12:22:59.000",
    "date_modified": "2026-01-01T12:23:00.000",
    "request_status": "Pending",
    "responsible_agency": "Health Department",
    "final_address": "1499 Pressburg St, New Orleans, Louisiana, 70122",
    "address_councildis": "D",
    "status": "Pending",
    "rowid": "1248600",
    "final_x": "3678302.82235",
    "final_y": "554108.0134",
    "longitude": "-90.0773840719837",
    "latitude": "30.017701525458456",
    "geocoded_column": {
      "latitude": "30.017701525458456",
      "longitude": "-90.0773840719837"
    }
  },
  {
    "service_request": "2026-1248599",
    "request_type": "Property Maintenance",
    "request_reason": "Property Maintenance",
    "date_created": "2026-01-01T12:14:29.000",
    "date_modified": "2026-01-01T12:14:31.000",
    "request_status": "Pending",
    "responsible_agency": "Department of Code Enforcement",
    "final_address": "3729 Annunciation St",
    "address_councildis": "B",
    "status": "Pending",
    "rowid": "1248599",
    "final_x": "3673662.79515",
    "final_y": "518085.373686",
    "longitude": "-90.0932765332611",
    "latitude": "29.918790466598665",
    "geocoded_column": {
      "latitude": "29.918790466598665",
      "longitude": "-90.0932765332611"
    }
  },
  {
    "service_request": "2026-1248598",
    "request_type": "Property Maintenance",
    "request_reason": "Property Maintenance",
    "date_created": "2026-01-01T11:59:12.000",
    "date_modified": "2026-01-01T11:59:14.000",
    "request_status": "Pending",
    "responsible_agency": "Department of Code Enforcement",
    "final_address": "617 Peniston St",
    "address_councildis": "B",
    "status": "Pending",
    "rowid": "1248598",
    "final_x": "3673639.30177",
    "final_y": "518196.938166",
    "longitude": "-90.09334687889414",
    "latitude": "29.919097932403268",
    "geocoded_column": {
      "latitude": "29.919097932403268",
      "longitude": "-90.09334687889414"
    }
  },
  {
    "service_request": "2026-1248597",
    "request_type": "General Services",
    "request_reason": "General Service Request",
    "date_created": "2026-01-01T11:31:31.000",
    "date_modified": "2026-01-01T11:31:35.000",
    "request_status": "Pending",
    "responsible_agency": "Orleans Parish Communication District",
    "final_address": "2104 DAbadie St",
    "address_councildis": "D",
    "status": "Pending",
    "rowid": "1248597",
    "final_x": "3681148.03266",
    "final_y": "539459.768778",
    "longitude": "-90.0689050507739",
    "latitude": "29.977338005147093",
    "geocoded_column": {
      "latitude": "29.977338005147093",
      "longitude": "-90.0689050507739"
    }
  },
  {
    "service_request": "2026-1248596",
    "request_type": "Property Maintenance",
    "request_reason": "Property Maintenance",
    "date_created": "2026-01-01T11:24:07.000",
    "date_modified": "2026-01-01T11:24:08.000",
    "request_status": "Pending",
    "responsible_agency": "Department of Code Enforcement",
    "final_address": "3312 N Rampart St",
    "address_councildis": "C",
    "status": "Pending",
    "rowid": "1248596",
    "final_x": "3689835.18032",
    "final_y": "535297.950598",
    "longitude": "-90.04161642826509",
    "latitude": "29.965628023977892",
    "geocoded_column": {
      "latitude": "29.965628023977892",
      "longitude": "-90.04161642826509"
    }
  },
  {
    "service_request": "2026-1248595",
    "request_type": "Drainage",
    "request_reason": "Ditch and Culvert Maintenance",
    "date_created": "2026-01-01T11:23:08.000",
    "date_modified": "2026-01-01T11:23:10.000",
    "request_status": "Pending",
    "responsible_agency": "Department of Public Works",
    "final_address": "2519 Joseph St",
    "address_councildis": "A",
    "status": "Pending",
    "rowid": "1248595",
    "final_x": "3667618.17588",
    "final_y": "525259.808253",
    "longitude": "-90.11211495500864",
    "latitude": "29.938696372032208",
    "geocoded_column": {
      "latitude": "29.938696372032208",
      "longitude": "-90.11211495500864"
    }
  },
  {
    "service_request": "2026-1248594",
    "request_type": "Christmas Tree Recycle Pick Up",
    "request_reason": "Christmas Tree Recycle Pick Up",
    "date_created": "2026-01-01T11:01:12.000",
    "date_modified": "2026-01-01T11:01:14.000",
    "request_status": "Pending",
    "responsible_agency": "Office of Resilience and Sustainability",
    "final_address": "8533 Bill St",
    "address_councildis": "E",
    "status": "Pending",
    "contractor": "Glass Half Full",
    "rowid": "1248594",
    "final_x": "3703621.09706",
    "final_y": "563198.3544",
    "longitude": "-89.99705386478318",
    "latitude": "30.041909071281008",
    "geocoded_column": {
      "latitude": "30.041909071281008",
      "longitude": "-89.99705386478318"
    }
  },
  {
    "service_request": "2026-1248593",
    "request_type": "Christmas Tree Recycle Pick Up",
    "request_reason": "Christmas Tree Recycle Pick Up",
    "date_created": "2026-01-01T11:00:35.000",
    "date_modified": "2026-01-01T11:00:37.000",
    "request_status": "Pending",
    "responsible_agency": "Office of Resilience and Sustainability",
    "final_address": "4304 Laurel St",
    "address_councildis": "B",
    "status": "Pending",
    "contractor": "Glass Half Full",
    "rowid": "1248593",
    "final_x": "3671470.29486",
    "final_y": "518043.366966",
    "longitude": "-90.1001985572274",
    "latitude": "29.918740023141197",
    "geocoded_column": {
      "latitude": "29.918740023141197",
      "longitude": "-90.1001985572274"
    }
  },
  {
    "service_request": "2026-1248592",
    "request_type": "Christmas Tree Recycle Pick Up",
    "request_reason": "Christmas Tree Recycle Pick Up",
    "date_created": "2026-01-01T10:57:33.000",
    "date_modified": "2026-01-01T10:57:34.000",
    "request_status": "Pending",
    "responsible_agency": "Office of Resilience and Sustainability",
    "final_address": "2919 General Taylor St",
    "address_councildis": "B",
    "status": "Pending",
    "contractor": "Glass Half Full",
    "rowid": "1248592",
    "final_x": "3671562.67355",
    "final_y": "525728.621437",
    "longitude": "-90.09964578391192",
    "latitude": "29.93986927094079",
    "geocoded_column": {
      "latitude": "29.93986927094079",
      "longitude": "-90.09964578391192"
    }
  },
  {
    "service_request": "2026-1248591",
    "request_type": "Trash/Recycling",
    "request_reason": "Request a Large Item Pick Up",
    "date_created": "2026-01-01T10:55:28.000",
    "date_modified": "2026-01-01T10:55:30.000",
    "request_status": "Pending",
    "responsible_agency": "Department of Sanitation",
    "final_address": "4530 Bonita Dr",
    "address_councildis": "E",
    "status": "Assigned to Contractor",
    "contractor": "Waste Pro",
    "rowid": "1248591",
    "final_x": "3704564.40823",
    "final_y": "553926.579736",
    "longitude": "-89.99441506728932",
    "latitude": "30.01638502020288",
    "geocoded_column": {
      "latitude": "30.01638502020288",
      "longitude": "-89.99441506728932"
    }
  },
  {
    "service_request": "2026-1248590",
    "request_type": "Trash/Recycling",
    "request_reason": "Request a Large Item Pick Up",
    "date_created": "2026-01-01T10:50:22.000",
    "date_modified": "2026-01-01T10:50:24.000",
    "request_status": "Pending",
    "responsible_agency": "Department of Sanitation",
    "final_address": "3623 St Ferdinand St",
    "address_councildis": "D",
    "status": "Assigned to Contractor",
    "contractor": "IV Waste",
    "rowid": "1248590",
    "final_x": "3690040.19593",
    "final_y": "546486.092113",
    "longitude": "-90.04057037940096",
    "latitude": "29.996385069313863",
    "geocoded_column": {
      "latitude": "29.996385069313863",
      "longitude": "-90.04057037940096"
    }
  },
  {
    "service_request": "2026-1248589",
    "request_type": "Trash/Recycling",
    "request_reason": "Return Trash Cart",
    "date_created": "2026-01-01T10:29:25.000",
    "date_modified": "2026-01-01T10:29:27.000",
    "request_status": "Pending",
    "responsible_agency": "Department of Sanitation",
    "final_address": "4535 Canal St",
    "address_councildis": "A",
    "status": "Assigned to Contractor",
    "contractor": "IV Waste",
    "rowid": "1248589",
    "final_x": "3669541.00679",
    "final_y": "539665.802378",
    "longitude": "-90.10555701634512",
    "latitude": "29.978251606259533",
    "geocoded_column": {
      "latitude": "29.978251606259533",
      "longitude": "-90.10555701634512"
    }
  },
  {
    "service_request": "2026-1248588",
    "request_type": "Parks & Parkways",
    "request_reason": "Park Maintenance/Clean Up",
    "date_created": "2026-01-01T10:18:24.000",
    "date_modified": "2026-01-01T10:18:27.000",
    "request_status": "Pending",
    "responsible_agency": "Department of Parks & Parkway",
    "final_address": "3300 Royal St",
    "address_councildis": "C",
    "status": "Pending",
    "rowid": "1248588",
    "final_x": "3689585.83292",
    "final_y": "534228.821765",
    "longitude": "-90.04244189162401",
    "latitude": "29.962696019802443",
    "geocoded_column": {
      "latitude": "29.962696019802443",
      "longitude": "-90.04244189162401"
    }
  },
  {
    "service_request": "2026-1248587",
    "request_type": "Trash/Recycling",
    "request_reason": "Request a Large Item Pick Up",
    "date_created": "2026-01-01T10:11:45.000",
    "date_modified": "2026-01-01T10:11:46.000",
    "request_status": "Pending",
    "responsible_agency": "Department of Sanitation",
    "final_address": "1020 Pauline St",
    "address_councildis": "C",
    "status": "Assigned to Contractor",
    "contractor": "IV Waste",
    "rowid": "1248587",
    "final_x": "3691117.51459",
    "final_y": "535195.48679",
    "longitude": "-90.03757054119713",
    "latitude": "29.965306473488177",
    "geocoded_column": {
      "latitude": "29.965306473488177",
      "longitude": "-90.03757054119713"
    }
  },
  {
    "service_request": "2026-1248586",
    "request_type": "Streetlights",
    "request_reason": "Streetlight Outage/Malfunction",
    "date_created": "2026-01-01T10:04:51.000",
    "date_modified": "2026-01-01T10:04:53.000",
    "request_status": "Pending",
    "responsible_agency": "Department of Public Works",
    "final_address": "1500 Elysian Fields Ave",
    "address_councildis": "C",
    "status": "Pending",
    "rowid": "1248586",
    "final_x": "3684787.45788",
    "final_y": "537805.358536",
    "longitude": "-90.05746874112238",
    "latitude": "29.972678024800068",
    "geocoded_column": {
      "latitude": "29.972678024800068",
      "longitude": "-90.05746874112238"
    }
  },
  {
    "service_request": "2026-1248585",
    "request_type": "Trash/Recycling",
    "request_reason": "Request a Large Item Pick Up",
    "date_created": "2026-01-01T09:45:59.000",
    "date_modified": "2026-01-01T09:46:03.000",
    "request_status": "Pending",
    "responsible_agency": "Department of Sanitation",
    "final_address": "0 BLK Across St",
    "address_councildis": "E",
    "status": "Assigned to Contractor",
    "contractor": "Waste Pro",
    "rowid": "1248585",
    "final_x": "3711887.63918",
    "final_y": "553972.247814",
    "longitude": "-89.97127534652184",
    "latitude": "30.01627326470007",
    "geocoded_column": {
      "latitude": "30.01627326470007",
      "longitude": "-89.97127534652184"
    }
  },
  {
    "service_request": "2026-1248584",
    "request_type": "General Services",
    "request_reason": "General Service Request",
    "date_created": "2026-01-01T09:45:20.000",
    "date_modified": "2026-01-01T09:45:22.000",
    "request_status": "Pending",
    "responsible_agency": "Orleans Parish Communication District",
    "final_address": "2135 Columbus St",
    "address_councildis": "D",
    "status": "Pending",
    "rowid": "1248584",
    "final_x": "3680131.74133",
    "final_y": "538472.444937",
    "longitude": "-90.07214915639105",
    "latitude": "29.974654003623222",
    "geocoded_column": {
      "latitude": "29.974654003623222",
      "longitude": "-90.07214915639105"
    }
  },
  {
    "service_request": "2026-1248583",
    "request_type": "Christmas Tree Recycle Pick Up",
    "request_reason": "Christmas Tree Recycle Pick Up",
    "date_created": "2026-01-01T09:29:31.000",
    "date_modified": "2026-01-01T09:29:34.000",
    "request_status": "Pending",
    "responsible_agency": "Office of Resilience and Sustainability",
    "final_address": "45 Maryland Dr",
    "address_councildis": "A",
    "status": "Pending",
    "contractor": "Glass Half Full",
    "rowid": "1248583",
    "final_x": "3663720.43149",
    "final_y": "541293.766092",
    "longitude": "-90.12388630231196",
    "latitude": "29.98289816846354",
    "geocoded_column": {
      "latitude": "29.98289816846354",
      "longitude": "-90.12388630231196"
    }
  },
  {
    "service_request": "2026-1248582",
    "request_type": "Trash/Recycling",
    "request_reason": "Illegal Dumping",
    "date_created": "2026-01-01T09:04:10.000",
    "date_modified": "2026-01-01T09:04:13.000",
    "request_status": "Pending",
    "responsible_agency": "Department of Sanitation",
    "final_address": "1090 Magnolia St",
    "address_councildis": "B",
    "status": "Pending",
    "rowid": "1248582",
    "final_x": "3676564.76526",
    "final_y": "528747.70368",
    "longitude": "-90.08374949315366",
    "latitude": "29.948021715486114",
    "geocoded_column": {
      "latitude": "29.948021715486114",
      "longitude": "-90.08374949315366"
    }
  },
  {
    "service_request": "2026-1248581",
    "request_type": "Trash/Recycling",
    "request_reason": "Request a Large Item Pick Up",
    "date_created": "2026-01-01T08:59:26.000",
    "date_modified": "2026-01-01T08:59:28.000",
    "request_status": "Pending",
    "responsible_agency": "Department of Sanitation",
    "final_address": "6919 Foch Rd",
    "address_councildis": "D",
    "status": "Assigned to Contractor",
    "contractor": "Waste Pro",
    "rowid": "1248581",
    "final_x": "3696710.78461",
    "final_y": "556493.261658",
    "longitude": "-90.01913597698528",
    "latitude": "30.023692418779596",
    "geocoded_column": {
      "latitude": "30.023692418779596",
      "longitude": "-90.01913597698528"
    }
  },
  {
    "service_request": "2026-1248580",
    "request_type": "Christmas Tree Recycle Pick Up",
    "request_reason": "Christmas Tree Recycle Pick Up",
    "date_created": "2026-01-01T08:57:48.000",
    "date_modified": "2026-01-01T08:57:50.000",
    "request_status": "Pending",
    "responsible_agency": "Office of Resilience and Sustainability",
    "final_address": "2841 Chestnut St",
    "address_councildis": "B",
    "status": "Pending",
    "contractor": "Glass Half Full",
    "rowid": "1248580",
    "final_x": "3676325.50881",
    "final_y": "521271.979129",
    "longitude": "-90.08476212396538",
    "latitude": "29.92747309818333",
    "geocoded_column": {
      "latitude": "29.92747309818333",
      "longitude": "-90.08476212396538"
    }
  },
  {
    "service_request": "2026-1248579",
    "request_type": "Trash/Recycling",
    "request_reason": "Request a Large Item Pick Up",
    "date_created": "2026-01-01T08:25:27.000",
    "date_modified": "2026-01-01T08:25:29.000",
    "request_status": "Pending",
    "responsible_agency": "Department of Sanitation",
    "final_address": "0 BLK Ani St",
    "address_councildis": "D",
    "status": "Assigned to Contractor",
    "contractor": "IV Waste",
    "rowid": "1248579",
    "final_x": "3672561.96849",
    "final_y": "554474.005997",
    "longitude": "-90.0955104718156",
    "latitude": "30.01887964634331",
    "geocoded_column": {
      "latitude": "30.01887964634331",
      "longitude": "-90.0955104718156"
    }
  },
  {
    "service_request": "2026-1248578",
    "request_type": "Trash/Recycling",
    "request_reason": "Request a Large Item Pick Up",
    "date_created": "2026-01-01T07:51:25.000",
    "date_modified": "2026-01-01T07:51:27.000",
    "request_status": "Pending",
    "responsible_agency": "Department of Sanitation",
    "final_address": "1525 Aline St",
    "address_councildis": "B",
    "status": "Assigned to Contractor",
    "contractor": "IV Waste",
    "rowid": "1248578",
    "final_x": "3673918.5972",
    "final_y": "521084.039097",
    "longitude": "-90.09236658799759",
    "latitude": "29.927028220068124",
    "geocoded_column": {
      "latitude": "29.927028220068124",
      "longitude": "-90.09236658799759"
    }
  },
  {
    "service_request": "2026-1248577",
    "request_type": "Trash/Recycling",
    "request_reason": "Replace Recycling Cart",
    "date_created": "2026-01-01T07:36:52.000",
    "date_modified": "2026-01-01T07:36:53.000",
    "request_status": "Pending",
    "responsible_agency": "Department of Sanitation",
    "final_address": "340 Audubon Blvd",
    "address_councildis": "A",
    "status": "Pending",
    "rowid": "1248577",
    "final_x": "3667274.70586",
    "final_y": "530274.057985",
    "longitude": "-90.11303073802183",
    "latitude": "29.952493997062536",
    "geocoded_column": {
      "latitude": "29.952493997062536",
      "longitude": "-90.11303073802183"
    }
  },
  {
    "service_request": "2026-1248576",
    "request_type": "Trash/Recycling",
    "request_reason": "Order Trash Cart",
    "date_created": "2026-01-01T07:34:13.000",
    "date_modified": "2026-01-01T07:34:16.000",
    "request_status": "Pending",
    "responsible_agency": "Department of Sanitation",
    "final_address": "340 Audubon Blvd",
    "address_councildis": "A",
    "status": "Assigned to Contractor",
    "contractor": "IV Waste",
    "rowid": "1248576",
    "final_x": "3667274.70586",
    "final_y": "530274.057985",
    "longitude": "-90.11303073802183",
    "latitude": "29.952493997062536",
    "geocoded_column": {
      "latitude": "29.952493997062536",
      "longitude": "-90.11303073802183"
    }
  },
  {
    "service_request": "2026-1248575",
    "request_type": "Streetlights",
    "request_reason": "Streetlight Outage/Malfunction",
    "date_created": "2026-01-01T07:28:00.000",
    "date_modified": "2026-01-01T07:28:02.000",
    "request_status": "Pending",
    "responsible_agency": "Department of Public Works",
    "final_address": "336 Hillary St",
    "address_councildis": "A",
    "status": "Pending",
    "rowid": "1248575",
    "final_x": "3661326.12237",
    "final_y": "525064.776253",
    "longitude": "-90.13198621104692",
    "latitude": "29.938342988262605",
    "geocoded_column": {
      "latitude": "29.938342988262605",
      "longitude": "-90.13198621104692"
    }
  },
  {
    "service_request": "2026-1248574",
    "request_type": "Streetlights",
    "request_reason": "Streetlight Outage/Malfunction",
    "date_created": "2026-01-01T07:26:41.000",
    "date_modified": "2026-01-01T07:26:43.000",
    "request_status": "Pending",
    "responsible_agency": "Department of Public Works",
    "final_address": "336 Hillary St",
    "address_councildis": "A",
    "status": "Pending",
    "rowid": "1248574",
    "final_x": "3661326.12237",
    "final_y": "525064.776253",
    "longitude": "-90.13198621104692",
    "latitude": "29.938342988262605",
    "geocoded_column": {
      "latitude": "29.938342988262605",
      "longitude": "-90.13198621104692"
    }
  },
  {
    "service_request": "2026-1248573",
    "request_type": "Streetlights",
    "request_reason": "Streetlight Outage/Malfunction",
    "date_created": "2026-01-01T07:24:51.000",
    "date_modified": "2026-01-01T07:24:53.000",
    "request_status": "Pending",
    "responsible_agency": "Department of Public Works",
    "final_address": "336 Hillary St",
    "address_councildis": "A",
    "status": "Pending",
    "rowid": "1248573",
    "final_x": "3661326.12237",
    "final_y": "525064.776253",
    "longitude": "-90.13198621104692",
    "latitude": "29.938342988262605",
    "geocoded_column": {
      "latitude": "29.938342988262605",
      "longitude": "-90.13198621104692"
    }
  },
  {
    "service_request": "2026-1248572",
    "request_type": "Trash/Recycling",
    "request_reason": "Request a Large Item Pick Up",
    "date_created": "2026-01-01T07:15:18.000",
    "date_modified": "2026-01-01T07:15:20.000",
    "request_status": "Pending",
    "responsible_agency": "Department of Sanitation",
    "final_address": "511 Spain St",
    "address_councildis": "C",
    "status": "Assigned to Contractor",
    "contractor": "IV Waste",
    "rowid": "1248572",
    "final_x": "3686328.75087",
    "final_y": "534344.782597",
    "longitude": "-90.0527232110235",
    "latitude": "29.963115365763567",
    "geocoded_column": {
      "latitude": "29.963115365763567",
      "longitude": "-90.0527232110235"
    }
  },
  {
    "service_request": "2026-1248571",
    "request_type": "Trash/Recycling",
    "request_reason": "Replace Trash Cart",
    "date_created": "2026-01-01T01:49:23.000",
    "date_modified": "2026-01-01T01:49:26.000",
    "request_status": "Pending",
    "responsible_agency": "Department of Sanitation",
    "final_address": "7021 Reverend Taza Green Sr Ave",
    "address_councildis": "C",
    "status": "Assigned to Contractor",
    "contractor": "Richards Disposal",
    "rowid": "1248571",
    "final_x": "3709931.64401",
    "final_y": "519281.244087",
    "longitude": "-89.97875113780219",
    "latitude": "29.92094959698623",
    "geocoded_column": {
      "latitude": "29.92094959698623",
      "longitude": "-89.97875113780219"
    }
  },
  {
    "service_request": "2026-1248570",
    "request_type": "General Services",
    "request_reason": "General Service Request",
    "date_created": "2026-01-01T01:11:18.000",
    "date_modified": "2026-01-01T01:11:20.000",
    "request_status": "Pending",
    "responsible_agency": "Orleans Parish Communication District",
    "final_address": "4700 Music St",
    "address_councildis": "D",
    "status": "Pending",
    "rowid": "1248570",
    "final_x": "3685568.96022",
    "final_y": "550244.547924",
    "longitude": "-90.05456219053077",
    "latitude": "30.006857414968323",
    "geocoded_column": {
      "latitude": "30.006857414968323",
      "longitude": "-90.05456219053077"
    }
  },
  {
    "service_request": "2025-1248569",
    "request_type": "Traffic Signals",
    "request_reason": "Traffic Signal Malfunctioning or Damaged",
    "date_created": "2025-12-31T23:24:52.000",
    "date_modified": "2025-12-31T23:25:12.000",
    "request_status": "Pending",
    "responsible_agency": "Department of Public Works",
    "final_address": "ELYSIAN FIELDS AVE & N CLAIBORNE AVE",
    "address_councildis": "D",
    "status": "Pending",
    "rowid": "1248569",
    "final_x": "3684815.6",
    "final_y": "538136.98",
    "longitude": "-90.05736820071654",
    "latitude": "29.973589006521028",
    "geocoded_column": {
      "latitude": "29.973589006521028",
      "longitude": "-90.05736820071654"
    }
  },
  {
    "service_request": "2025-1248568",
    "request_type": "Streetlights",
    "request_reason": "Streetlight Outage/Malfunction",
    "date_created": "2025-12-31T23:11:45.000",
    "date_modified": "2025-12-31T23:11:47.000",
    "request_status": "Pending",
    "responsible_agency": "Department of Public Works",
    "final_address": "3400 BLK N Robertson St",
    "address_councildis": "C",
    "status": "Pending",
    "rowid": "1248568",
    "final_x": "3690694.01588",
    "final_y": "537161.303418",
    "longitude": "-90.03883779108558",
    "latitude": "29.970724939339924",
    "geocoded_column": {
      "latitude": "29.970724939339924",
      "longitude": "-90.03883779108558"
    }
  },
  {
    "service_request": "2025-1248567",
    "request_type": "Streetlights",
    "request_reason": "Streetlight Outage/Malfunction",
    "date_created": "2025-12-31T23:10:34.000",
    "date_modified": "2025-12-31T23:10:36.000",
    "request_status": "Pending",
    "responsible_agency": "Department of Public Works",
    "final_address": "3322 N Robertson St",
    "address_councildis": "C",
    "status": "Pending",
    "rowid": "1248567",
    "final_x": "3690393.61072",
    "final_y": "537194.539272",
    "longitude": "-90.03978531899354",
    "latitude": "29.970825654523242",
    "geocoded_column": {
      "latitude": "29.970825654523242",
      "longitude": "-90.03978531899354"
    }
  },
  {
    "service_request": "2025-1248565",
    "request_type": "Property Maintenance",
    "request_reason": "Property Maintenance",
    "date_created": "2025-12-31T21:19:09.000",
    "date_modified": "2025-12-31T21:19:11.000",
    "request_status": "Pending",
    "responsible_agency": "Department of Code Enforcement",
    "final_address": "1111 Poland Ave",
    "address_councildis": "D",
    "status": "Pending",
    "rowid": "1248565",
    "final_x": "3693198.2847",
    "final_y": "535193.421126",
    "longitude": "-90.03099967493971",
    "latitude": "29.965235929674588",
    "geocoded_column": {
      "latitude": "29.965235929674588",
      "longitude": "-90.03099967493971"
    }
  },
  {
    "service_request": "2025-1248564",
    "request_type": "Streetlights",
    "request_reason": "Streetlight Outage/Malfunction",
    "date_created": "2025-12-31T20:48:58.000",
    "date_modified": "2025-12-31T20:49:00.000",
    "request_status": "Pending",
    "responsible_agency": "Department of Public Works",
    "final_address": "1525 Dufossat St",
    "address_councildis": "B",
    "status": "Pending",
    "rowid": "1248564",
    "final_x": "3668161.69364",
    "final_y": "520678.110521",
    "longitude": "-90.11055336688219",
    "latitude": "29.926082227758133",
    "geocoded_column": {
      "latitude": "29.926082227758133",
      "longitude": "-90.11055336688219"
    }
  },
  {
    "service_request": "2025-1248563",
    "request_type": "Healthy Homes",
    "request_reason": "Healthy Homes",
    "date_created": "2025-12-31T20:21:04.000",
    "date_modified": "2025-12-31T20:21:07.000",
    "request_status": "Pending",
    "responsible_agency": "Department of Code Enforcement",
    "final_address": "4407 Annette St",
    "address_councildis": "D",
    "status": "Pending",
    "rowid": "1248563",
    "final_x": "3682174.3661",
    "final_y": "548757.277843",
    "longitude": "-90.06533860223269",
    "latitude": "30.002871687850096",
    "geocoded_column": {
      "latitude": "30.002871687850096",
      "longitude": "-90.06533860223269"
    }
  },
  {
    "service_request": "2025-1248562",
    "request_type": "Roads and Streets",
    "request_reason": "Pothole",
    "date_created": "2025-12-31T20:12:50.000",
    "date_modified": "2025-12-31T20:12:53.000",
    "request_status": "Pending",
    "responsible_agency": "Department of Public Works",
    "final_address": "612 Andrew Higgins Dr",
    "address_councildis": "B",
    "status": "Pending",
    "rowid": "1248562",
    "final_x": "3680463.39189",
    "final_y": "526974.08563",
    "longitude": "-90.07150162970704",
    "latitude": "29.94302737823644",
    "geocoded_column": {
      "latitude": "29.94302737823644",
      "longitude": "-90.07150162970704"
    }
  },
  {
    "service_request": "2025-1248561",
    "request_type": "Trash/Recycling",
    "request_reason": "Request a Large Item Pick Up",
    "date_created": "2025-12-31T19:45:55.000",
    "date_modified": "2025-12-31T19:45:57.000",
    "request_status": "Pending",
    "responsible_agency": "Department of Sanitation",
    "final_address": "27 Heron St",
    "address_councildis": "D",
    "status": "Assigned to Contractor",
    "contractor": "IV Waste",
    "rowid": "1248561",
    "final_x": "3675121.20635",
    "final_y": "555539.144025",
    "longitude": "-90.0873875795427",
    "latitude": "30.021732125048107",
    "geocoded_column": {
      "latitude": "30.021732125048107",
      "longitude": "-90.0873875795427"
    }
  },
  {
    "service_request": "2025-1248560",
    "request_type": "Trash/Recycling",
    "request_reason": "Request a Large Item Pick Up",
    "date_created": "2025-12-31T18:51:58.000",
    "date_modified": "2025-12-31T18:52:00.000",
    "request_status": "Pending",
    "responsible_agency": "Department of Sanitation",
    "final_address": "6201 Wadsworth Dr",
    "address_councildis": "D",
    "status": "Assigned to Contractor",
    "contractor": "IV Waste",
    "rowid": "1248560",
    "final_x": "3681675.46824",
    "final_y": "555682.103833",
    "longitude": "-90.06667285708541",
    "latitude": "30.021927620559083",
    "geocoded_column": {
      "latitude": "30.021927620559083",
      "longitude": "-90.06667285708541"
    }
  },
  {
    "service_request": "2025-1248559",
    "request_type": "Abandoned Vehicles",
    "request_reason": "Abandoned/Junk Vehicles",
    "date_created": "2025-12-31T18:41:53.000",
    "date_modified": "2025-12-31T18:41:55.000",
    "request_status": "Pending",
    "responsible_agency": "Department of Public Works",
    "final_address": "4630 Virgilian St",
    "address_councildis": "D",
    "status": "Pending",
    "rowid": "1248559",
    "final_x": "3697482.29962",
    "final_y": "553217.800279",
    "longitude": "-90.01681707231836",
    "latitude": "30.014661787600016",
    "geocoded_column": {
      "latitude": "30.014661787600016",
      "longitude": "-90.01681707231836"
    }
  },
  {
    "service_request": "2025-1248558",
    "request_type": "Traffic Signals",
    "request_reason": "Traffic Signal Malfunctioning or Damaged",
    "date_created": "2025-12-31T18:39:03.000",
    "date_modified": "2025-12-31T18:39:04.000",
    "request_status": "Pending",
    "responsible_agency": "Department of Public Works",
    "final_address": "2130 N Claiborne Ave",
    "address_councildis": "C",
    "status": "Pending",
    "rowid": "1248558",
    "final_x": "3684695.95586",
    "final_y": "537899.888777",
    "longitude": "-90.05775439735862",
    "latitude": "29.972940751190137",
    "geocoded_column": {
      "latitude": "29.972940751190137",
      "longitude": "-90.05775439735862"
    }
  },
  {
    "service_request": "2025-1248556",
    "request_type": "Abandoned Vehicles",
    "request_reason": "Abandoned/Junk Vehicles",
    "date_created": "2025-12-31T18:24:41.000",
    "date_modified": "2025-12-31T18:24:43.000",
    "request_status": "Pending",
    "responsible_agency": "Department of Public Works",
    "final_address": "4311 Toulouse St",
    "address_councildis": "A",
    "status": "Pending",
    "rowid": "1248556",
    "final_x": "3671320.18785",
    "final_y": "540462.559179",
    "longitude": "-90.09991062071126",
    "latitude": "29.98038987699123",
    "geocoded_column": {
      "latitude": "29.98038987699123",
      "longitude": "-90.09991062071126"
    }
  },
  {
    "service_request": "2025-1248555",
    "request_type": "Trash/Recycling",
    "request_reason": "Order Trash Cart",
    "date_created": "2025-12-31T18:20:55.000",
    "date_modified": "2025-12-31T18:21:02.000",
    "request_status": "Pending",
    "responsible_agency": "Department of Sanitation",
    "final_address": "1618 Richland Rd",
    "address_councildis": "C",
    "status": "Assigned to Contractor",
    "contractor": "Richards Disposal",
    "rowid": "1248555",
    "final_x": "3698017.91453",
    "final_y": "525072.195901",
    "longitude": "-90.0161470399388",
    "latitude": "29.937254615897547",
    "geocoded_column": {
      "latitude": "29.937254615897547",
      "longitude": "-90.0161470399388"
    }
  },
  {
    "service_request": "2025-1248554",
    "request_type": "Trash/Recycling",
    "request_reason": "Repair Trash Cart",
    "date_created": "2025-12-31T17:53:17.000",
    "date_modified": "2025-12-31T17:53:20.000",
    "request_status": "Pending",
    "responsible_agency": "Department of Sanitation",
    "final_address": "5730 St Bernard Ave",
    "address_councildis": "D",
    "status": "Assigned to Contractor",
    "contractor": "IV Waste",
    "rowid": "1248554",
    "final_x": "3676757.51131",
    "final_y": "553538.176535",
    "longitude": "-90.08228631262965",
    "latitude": "30.016181162403058",
    "geocoded_column": {
      "latitude": "30.016181162403058",
      "longitude": "-90.08228631262965"
    }
  },
  {
    "service_request": "2025-1248553",
    "request_type": "Abandoned Vehicles",
    "request_reason": "Abandoned/Junk Vehicles",
    "date_created": "2025-12-31T16:29:53.000",
    "date_modified": "2025-12-31T16:29:54.000",
    "request_status": "Pending",
    "responsible_agency": "Department of Public Works",
    "final_address": "1 Esplanade Ave",
    "address_councildis": "D",
    "status": "Pending",
    "rowid": "1248553",
    "final_x": "3679802.52936",
    "final_y": "537835.516361",
    "longitude": "-90.07321101070511",
    "latitude": "29.9729126289693",
    "geocoded_column": {
      "latitude": "29.9729126289693",
      "longitude": "-90.07321101070511"
    }
  },
  {
    "service_request": "2025-1248552",
    "request_type": "Health Related Request",
    "request_reason": "Noise Ordinance Complaint",
    "date_created": "2025-12-31T16:20:37.000",
    "date_modified": "2025-12-31T16:20:39.000",
    "request_status": "Pending",
    "responsible_agency": "Health Department",
    "final_address": "2444 Dreux Ave, New Orleans, Louisiana, 70122",
    "address_councildis": "D",
    "status": "Pending",
    "rowid": "1248552",
    "final_x": "3685710.50889",
    "final_y": "552075.21519",
    "longitude": "-90.05405043050037",
    "latitude": "30.011886738314047",
    "geocoded_column": {
      "latitude": "30.011886738314047",
      "longitude": "-90.05405043050037"
    }
  },
  {
    "service_request": "2025-1248551",
    "request_type": "Property Maintenance",
    "request_reason": "Property Maintenance",
    "date_created": "2025-12-31T16:10:15.000",
    "date_modified": "2025-12-31T16:10:16.000",
    "request_status": "Pending",
    "responsible_agency": "Department of Code Enforcement",
    "final_address": "717 Peniston St",
    "address_councildis": "B",
    "status": "Pending",
    "rowid": "1248551",
    "final_x": "3673559.63988",
    "final_y": "518493.997111",
    "longitude": "-90.0935881860951",
    "latitude": "29.91991711984172",
    "geocoded_column": {
      "latitude": "29.91991711984172",
      "longitude": "-90.0935881860951"
    }
  },
  {
    "service_request": "2025-1248550",
    "request_type": "Christmas Tree Recycle Pick Up",
    "request_reason": "Christmas Tree Recycle Pick Up",
    "date_created": "2025-12-31T15:29:19.000",
    "date_modified": "2025-12-31T15:29:22.000",
    "request_status": "Pending",
    "responsible_agency": "Office of Resilience and Sustainability",
    "final_address": "6868 Louisville St",
    "address_councildis": "A",
    "status": "Pending",
    "contractor": "Glass Half Full",
    "rowid": "1248550",
    "final_x": "3668186.02951",
    "final_y": "553306.991383",
    "longitude": "-90.10937632608328",
    "latitude": "30.015800024131362",
    "geocoded_column": {
      "latitude": "30.015800024131362",
      "longitude": "-90.10937632608328"
    }
  },
  {
    "service_request": "2025-1248548",
    "request_type": "Abandoned Vehicles",
    "request_reason": "Abandoned/Junk Vehicles",
    "date_created": "2025-12-31T15:01:46.000",
    "date_modified": "2025-12-31T15:01:47.000",
    "request_status": "Pending",
    "responsible_agency": "Department of Public Works",
    "final_address": "803 Taft Pl",
    "address_councildis": "A",
    "status": "Pending",
    "rowid": "1248548",
    "final_x": "3673718.27483",
    "final_y": "539497.11905",
    "longitude": "-90.09236944779335",
    "latitude": "29.97766404958502",
    "geocoded_column": {
      "latitude": "29.97766404958502",
      "longitude": "-90.09236944779335"
    }
  },
  {
    "service_request": "2025-1248549",
    "request_type": "Trash/Recycling",
    "request_reason": "Damaged Caused By Contractor",
    "date_created": "2025-12-31T15:01:46.000",
    "date_modified": "2025-12-31T15:01:47.000",
    "request_status": "Pending",
    "responsible_agency": "Department of Sanitation",
    "final_address": "3318 Somerset Dr",
    "address_councildis": "C",
    "status": "Assigned to Contractor",
    "contractor": "Richards Disposal",
    "rowid": "1248549",
    "final_x": "3702598.67882",
    "final_y": "519066.038647",
    "longitude": "-90.00190571349972",
    "latitude": "29.92059418381005",
    "geocoded_column": {
      "latitude": "29.92059418381005",
      "longitude": "-90.00190571349972"
    }
  },
  {
    "service_request": "2025-1248547",
    "request_type": "Trash/Recycling",
    "request_reason": "Request a Large Item Pick Up",
    "date_created": "2025-12-31T14:58:47.000",
    "date_modified": "2025-12-31T14:58:49.000",
    "request_status": "Pending",
    "responsible_agency": "Department of Sanitation",
    "final_address": "716 Marigny St",
    "address_councildis": "C",
    "status": "Assigned to Contractor",
    "contractor": "IV Waste",
    "rowid": "1248547",
    "final_x": "3685490.62921",
    "final_y": "535054.75015",
    "longitude": "-90.05534488885172",
    "latitude": "29.96509326043727",
    "geocoded_column": {
      "latitude": "29.96509326043727",
      "longitude": "-90.05534488885172"
    }
  },
  {
    "service_request": "2025-1248546",
    "request_type": "Drainage",
    "request_reason": "Drainage Manhole Cover Missing or Damaged",
    "date_created": "2025-12-31T14:51:58.000",
    "date_modified": "2025-12-31T14:51:59.000",
    "request_status": "Pending",
    "responsible_agency": "Sewerage & Water Board",
    "final_address": "4701 Marigny St",
    "address_councildis": "D",
    "status": "Pending",
    "rowid": "1248546",
    "final_x": "3684512.56917",
    "final_y": "550159.0125",
    "longitude": "-90.05790261324752",
    "latitude": "30.006654597983687",
    "geocoded_column": {
      "latitude": "30.006654597983687",
      "longitude": "-90.05790261324752"
    }
  },
  {
    "service_request": "2025-1248545",
    "request_type": "Christmas Tree Recycle Pick Up",
    "request_reason": "Christmas Tree Recycle Pick Up",
    "date_created": "2025-12-31T14:48:52.000",
    "date_modified": "2025-12-31T14:48:55.000",
    "request_status": "Pending",
    "responsible_agency": "Office of Resilience and Sustainability",
    "final_address": "1643 Josephine St",
    "address_councildis": "B",
    "status": "Pending",
    "contractor": "Glass Half Full",
    "rowid": "1248545",
    "final_x": "3677727.88078",
    "final_y": "524249.059196",
    "longitude": "-90.08023240309207",
    "latitude": "29.93561700255386",
    "geocoded_column": {
      "latitude": "29.93561700255386",
      "longitude": "-90.08023240309207"
    }
  },
  {
    "service_request": "2025-1248544",
    "request_type": "Abandoned Vehicles",
    "request_reason": "Abandoned/Junk Vehicles",
    "date_created": "2025-12-31T14:47:49.000",
    "date_modified": "2025-12-31T14:47:51.000",
    "request_status": "Pending",
    "responsible_agency": "Department of Public Works",
    "final_address": "6319 Marais St",
    "address_councildis": "E",
    "status": "Pending",
    "rowid": "1248544",
    "final_x": "3700434.12983",
    "final_y": "533353.10138",
    "longitude": "-90.0082166107722",
    "latitude": "29.95994759159494",
    "geocoded_column": {
      "latitude": "29.95994759159494",
      "longitude": "-90.0082166107722"
    }
  },
  {
    "service_request": "2025-1248543",
    "request_type": "Christmas Tree Recycle Pick Up",
    "request_reason": "Christmas Tree Recycle Pick Up",
    "date_created": "2025-12-31T14:43:31.000",
    "date_modified": "2025-12-31T14:43:32.000",
    "request_status": "Pending",
    "responsible_agency": "Office of Resilience and Sustainability",
    "final_address": "305 Mound Ave",
    "address_councildis": "A",
    "status": "Pending",
    "contractor": "Glass Half Full",
    "rowid": "1248543",
    "final_x": "3666810.8217",
    "final_y": "543969.620814",
    "longitude": "-90.11403531124",
    "latitude": "29.990165806982773",
    "geocoded_column": {
      "latitude": "29.990165806982773",
      "longitude": "-90.11403531124"
    }
  },
  {
    "service_request": "2025-1248542",
    "request_type": "Trash/Recycling",
    "request_reason": "Request a Large Item Pick Up",
    "date_created": "2025-12-31T14:38:07.000",
    "date_modified": "2025-12-31T14:38:12.000",
    "request_status": "Pending",
    "responsible_agency": "Department of Sanitation",
    "final_address": "3114 Pauger St",
    "address_councildis": "D",
    "status": "Assigned to Contractor",
    "contractor": "IV Waste",
    "rowid": "1248542",
    "final_x": "3683451.8685",
    "final_y": "541135.706636",
    "longitude": "-90.06157003507037",
    "latitude": "29.981876142625516",
    "geocoded_column": {
      "latitude": "29.981876142625516",
      "longitude": "-90.06157003507037"
    }
  },
  {
    "service_request": "2025-1248541",
    "request_type": "Trash/Recycling",
    "request_reason": "Damaged Caused By Contractor",
    "date_created": "2025-12-31T14:31:10.000",
    "date_modified": "2025-12-31T14:31:12.000",
    "request_status": "Pending",
    "responsible_agency": "Department of Sanitation",
    "final_address": "5917 Constance St",
    "address_councildis": "A",
    "status": "Assigned to Contractor",
    "contractor": "IV Waste",
    "rowid": "1248541",
    "final_x": "3665005.97351",
    "final_y": "518818.707703",
    "longitude": "-90.12057722448561",
    "latitude": "29.92106167485024",
    "geocoded_column": {
      "latitude": "29.92106167485024",
      "longitude": "-90.12057722448561"
    }
  },
  {
    "service_request": "2025-1248540",
    "request_type": "Trash/Recycling",
    "request_reason": "Request a Large Item Pick Up",
    "date_created": "2025-12-31T14:29:02.000",
    "date_modified": "2025-12-31T14:29:04.000",
    "request_status": "Pending",
    "responsible_agency": "Department of Sanitation",
    "final_address": "7843 Sand St",
    "address_councildis": "E",
    "status": "Assigned to Contractor",
    "contractor": "Waste Pro",
    "rowid": "1248540",
    "final_x": "3720201.6341",
    "final_y": "574325.145194",
    "longitude": "-89.94422750751573",
    "latitude": "30.071961018254406",
    "geocoded_column": {
      "latitude": "30.071961018254406",
      "longitude": "-89.94422750751573"
    }
  },
  {
    "service_request": "2025-1248539",
    "request_type": "Traffic Signals",
    "request_reason": "Traffic Signal Malfunctioning or Damaged",
    "date_created": "2025-12-31T14:26:59.000",
    "date_modified": "2025-12-31T14:27:00.000",
    "request_status": "Pending",
    "responsible_agency": "Department of Public Works",
    "final_address": "6000 Bullard Ave",
    "address_councildis": "E",
    "status": "Pending",
    "rowid": "1248539",
    "final_x": "3714876.25311",
    "final_y": "563881.658913",
    "longitude": "-89.96145788051206",
    "latitude": "30.043422170200817",
    "geocoded_column": {
      "latitude": "30.043422170200817",
      "longitude": "-89.96145788051206"
    }
  },
  {
    "service_request": "2025-1248538",
    "request_type": "Trash/Recycling",
    "request_reason": "Request a Large Item Pick Up",
    "date_created": "2025-12-31T14:25:47.000",
    "date_modified": "2025-12-31T14:25:49.000",
    "request_status": "Pending",
    "responsible_agency": "Department of Sanitation",
    "final_address": "181 W Greenbrier Dr",
    "address_councildis": "E",
    "status": "Assigned to Contractor",
    "contractor": "Waste Pro",
    "rowid": "1248538",
    "final_x": "3716840.30802",
    "final_y": "565045.728098",
    "longitude": "-89.95520646012521",
    "latitude": "30.04655808254989",
    "geocoded_column": {
      "latitude": "30.04655808254989",
      "longitude": "-89.95520646012521"
    }
  },
  {
    "service_request": "2025-1248537",
    "request_type": "General Services",
    "request_reason": "General Service Request",
    "date_created": "2025-12-31T14:24:36.000",
    "date_modified": "2025-12-31T14:24:38.000",
    "request_status": "Pending",
    "responsible_agency": "Orleans Parish Communication District",
    "final_address": "7171 Downman Rd",
    "address_councildis": "D",
    "status": "Pending",
    "rowid": "1248537",
    "final_x": "3695234.87549",
    "final_y": "557024.48393",
    "longitude": "-90.02378034656917",
    "latitude": "30.025199540701447",
    "geocoded_column": {
      "latitude": "30.025199540701447",
      "longitude": "-90.02378034656917"
    }
  },
  {
    "service_request": "2025-1248536",
    "request_type": "Christmas Tree Recycle Pick Up",
    "request_reason": "Christmas Tree Recycle Pick Up",
    "date_created": "2025-12-31T14:03:42.000",
    "date_modified": "2025-12-31T14:03:43.000",
    "request_status": "Pending",
    "responsible_agency": "Office of Resilience and Sustainability",
    "final_address": "3426 Constance St",
    "address_councildis": "B",
    "status": "Pending",
    "contractor": "Glass Half Full",
    "rowid": "1248536",
    "final_x": "3674971.4219",
    "final_y": "519149.267063",
    "longitude": "-90.08910941029684",
    "latitude": "29.921676825662015",
    "geocoded_column": {
      "latitude": "29.921676825662015",
      "longitude": "-90.08910941029684"
    }
  },
  {
    "service_request": "2025-1248535",
    "request_type": "Property Maintenance",
    "request_reason": "Property Maintenance",
    "date_created": "2025-12-31T13:53:59.000",
    "date_modified": "2025-12-31T13:54:00.000",
    "request_status": "Pending",
    "responsible_agency": "Department of Code Enforcement",
    "final_address": "2709 Valence St",
    "address_councildis": "B",
    "status": "Pending",
    "rowid": "1248535",
    "final_x": "3669393.3257",
    "final_y": "524723.14758",
    "longitude": "-90.10652873823751",
    "latitude": "29.937168587119395",
    "geocoded_column": {
      "latitude": "29.937168587119395",
      "longitude": "-90.10652873823751"
    }
  },
  {
    "service_request": "2025-1248534",
    "request_type": "Trash/Recycling",
    "request_reason": "Start Trash Service",
    "date_created": "2025-12-31T13:42:29.000",
    "date_modified": "2025-12-31T13:42:31.000",
    "request_status": "Pending",
    "responsible_agency": "Department of Sanitation",
    "final_address": "2706 General Pershing St",
    "address_councildis": "B",
    "status": "Assigned to Contractor",
    "contractor": "IV Waste",
    "rowid": "1248534",
    "final_x": "3670716.75425",
    "final_y": "524841.302012",
    "longitude": "-90.10234657673205",
    "latitude": "29.937454446027303",
    "geocoded_column": {
      "latitude": "29.937454446027303",
      "longitude": "-90.10234657673205"
    }
  },
  {
    "service_request": "2025-1248533",
    "request_type": "Abandoned Vehicles",
    "request_reason": "Abandoned/Junk Vehicles",
    "date_created": "2025-12-31T13:34:40.000",
    "date_modified": "2025-12-31T13:34:42.000",
    "request_status": "Pending",
    "responsible_agency": "Department of Public Works",
    "final_address": "2806 Ursulines Ave",
    "address_councildis": "A",
    "status": "Pending",
    "rowid": "1248533",
    "final_x": "3677047.19662",
    "final_y": "538495.153801",
    "longitude": "-90.08189013108394",
    "latitude": "29.974809436691864",
    "geocoded_column": {
      "latitude": "29.974809436691864",
      "longitude": "-90.08189013108394"
    }
  },
  {
    "service_request": "2025-1248532",
    "request_type": "Roads and Streets",
    "request_reason": "Pothole",
    "date_created": "2025-12-31T13:33:57.000",
    "date_modified": "2025-12-31T13:34:00.000",
    "request_status": "Pending",
    "responsible_agency": "Department of Public Works",
    "final_address": "336 Decatur St",
    "address_councildis": "C",
    "status": "Pending",
    "rowid": "1248532",
    "final_x": "3682487.1668",
    "final_y": "531072.09325",
    "longitude": "-90.06496886297963",
    "latitude": "29.954234081707234",
    "geocoded_column": {
      "latitude": "29.954234081707234",
      "longitude": "-90.06496886297963"
    }
  },
  {
    "service_request": "2025-1248531",
    "request_type": "Trash/Recycling",
    "request_reason": "Request a Large Item Pick Up",
    "date_created": "2025-12-31T13:17:10.000",
    "date_modified": "2025-12-31T13:17:11.000",
    "request_status": "Pending",
    "responsible_agency": "Department of Sanitation",
    "final_address": "4827 Dodt Ave",
    "address_councildis": "E",
    "status": "Assigned to Contractor",
    "contractor": "Waste Pro",
    "rowid": "1248531",
    "final_x": "3705453.4435",
    "final_y": "555932.337561",
    "longitude": "-89.99153191212967",
    "latitude": "30.021871486086585",
    "geocoded_column": {
      "latitude": "30.021871486086585",
      "longitude": "-89.99153191212967"
    }
  },
  {
    "service_request": "2025-1248530",
    "request_type": "Roads and Streets",
    "request_reason": "Pothole",
    "date_created": "2025-12-31T13:16:22.000",
    "date_modified": "2025-12-31T13:16:24.000",
    "request_status": "Pending",
    "responsible_agency": "Department of Public Works",
    "final_address": "7406 Adventure Ave",
    "address_councildis": "E",
    "status": "Pending",
    "rowid": "1248530",
    "final_x": "3725970.09702",
    "final_y": "570073.607271",
    "longitude": "-89.92615682848015",
    "latitude": "30.0600775546344",
    "geocoded_column": {
      "latitude": "30.0600775546344",
      "longitude": "-89.92615682848015"
    }
  },
  {
    "service_request": "2025-1248529",
    "request_type": "Trash/Recycling",
    "request_reason": "Request a Large Item Pick Up",
    "date_created": "2025-12-31T13:15:22.000",
    "date_modified": "2025-12-31T13:15:24.000",
    "request_status": "Pending",
    "responsible_agency": "Department of Sanitation",
    "final_address": "3760 Mansfield Ave",
    "address_councildis": "C",
    "status": "Assigned to Contractor",
    "contractor": "Richards Disposal",
    "rowid": "1248529",
    "final_x": "3708877.41547",
    "final_y": "517030.781493",
    "longitude": "-89.98216259521274",
    "latitude": "29.914795836610278",
    "geocoded_column": {
      "latitude": "29.914795836610278",
      "longitude": "-89.98216259521274"
    }
  },
  {
    "service_request": "2025-1248528",
    "request_type": "Roads and Streets",
    "request_reason": "Push-up/Pavement Expansion",
    "date_created": "2025-12-31T12:51:15.000",
    "date_modified": "2025-12-31T12:51:16.000",
    "request_status": "Pending",
    "responsible_agency": "Department of Public Works",
    "final_address": "725 Hagan St",
    "address_councildis": "A",
    "status": "Pending",
    "rowid": "1248528",
    "final_x": "3674762.31803",
    "final_y": "538649.247113",
    "longitude": "-90.08910107657262",
    "latitude": "29.975301559389216",
    "geocoded_column": {
      "latitude": "29.975301559389216",
      "longitude": "-90.08910107657262"
    }
  },
  {
    "service_request": "2025-1248527",
    "request_type": "Trash/Recycling",
    "request_reason": "Request a Large Item Pick Up",
    "date_created": "2025-12-31T12:33:04.000",
    "date_modified": "2025-12-31T12:33:05.000",
    "request_status": "Pending",
    "responsible_agency": "Department of Sanitation",
    "final_address": "2113 Forstall St",
    "address_councildis": "E",
    "status": "Assigned to Contractor",
    "contractor": "Waste Pro",
    "rowid": "1248527",
    "final_x": "3697376.07978",
    "final_y": "538043.400137",
    "longitude": "-90.01770315219639",
    "latitude": "29.972941126644542",
    "geocoded_column": {
      "latitude": "29.972941126644542",
      "longitude": "-90.01770315219639"
    }
  },
  {
    "service_request": "2025-1248526",
    "request_type": "Trash/Recycling",
    "request_reason": "Start Trash Service",
    "date_created": "2025-12-31T12:28:54.000",
    "date_modified": "2025-12-31T12:53:23.000",
    "case_close_date": "2025-12-31T06:53:22.000",
    "request_status": "Closed",
    "responsible_agency": "Department of Sanitation",
    "final_address": "1314 Ursulines Ave",
    "address_councildis": "C",
    "status": "Invalid Request",
    "contractor": "IV Waste",
    "contractor_action": "Invalid",
    "rowid": "1248526",
    "final_x": "3681576.56335",
    "final_y": "535032.243974",
    "longitude": "-90.06770606427742",
    "latitude": "29.965150831154816",
    "geocoded_column": {
      "latitude": "29.965150831154816",
      "longitude": "-90.06770606427742"
    }
  },
  {
    "service_request": "2025-1248525",
    "request_type": "Trash/Recycling",
    "request_reason": "Return Trash Cart",
    "date_created": "2025-12-31T12:25:16.000",
    "date_modified": "2025-12-31T12:25:33.000",
    "request_status": "Pending",
    "responsible_agency": "Department of Sanitation",
    "final_address": "6220 Eastover Dr",
    "address_councildis": "E",
    "status": "Assigned to Contractor",
    "contractor": "Waste Pro",
    "rowid": "1248525",
    "final_x": "3717372.8709",
    "final_y": "564672.009634",
    "longitude": "-89.95353752588059",
    "latitude": "30.045512886780045",
    "geocoded_column": {
      "latitude": "30.045512886780045",
      "longitude": "-89.95353752588059"
    }
  },
  {
    "service_request": "2025-1248524",
    "request_type": "Trash/Recycling",
    "request_reason": "Order Recycling Cart",
    "date_created": "2025-12-31T12:22:29.000",
    "date_modified": "2025-12-31T12:22:31.000",
    "request_status": "Pending",
    "responsible_agency": "Department of Sanitation",
    "final_address": "6220 Eastover Dr",
    "address_councildis": "E",
    "status": "Pending",
    "rowid": "1248524",
    "final_x": "3717372.8709",
    "final_y": "564672.009634",
    "longitude": "-89.95353752588059",
    "latitude": "30.045512886780045",
    "geocoded_column": {
      "latitude": "30.045512886780045",
      "longitude": "-89.95353752588059"
    }
  },
  {
    "service_request": "2025-1248523",
    "request_type": "Christmas Tree Recycle Pick Up",
    "request_reason": "Christmas Tree Recycle Pick Up",
    "date_created": "2025-12-31T12:18:14.000",
    "date_modified": "2025-12-31T12:18:16.000",
    "request_status": "Pending",
    "responsible_agency": "Office of Resilience and Sustainability",
    "final_address": "1012 St Peter St",
    "address_councildis": "C",
    "status": "Pending",
    "contractor": "Glass Half Full",
    "rowid": "1248523",
    "final_x": "3681564.94716",
    "final_y": "533139.055172",
    "longitude": "-90.06780877808835",
    "latitude": "29.95994556194692",
    "geocoded_column": {
      "latitude": "29.95994556194692",
      "longitude": "-90.06780877808835"
    }
  },
  {
    "service_request": "2025-1248522",
    "request_type": "Trash/Recycling",
    "request_reason": "Request a Large Item Pick Up",
    "date_created": "2025-12-31T12:13:04.000",
    "date_modified": "2025-12-31T12:13:06.000",
    "request_status": "Pending",
    "responsible_agency": "Department of Sanitation",
    "final_address": "7401 Crestmont Rd",
    "address_councildis": "E",
    "status": "Assigned to Contractor",
    "contractor": "Waste Pro",
    "rowid": "1248522",
    "final_x": "3700001.74794",
    "final_y": "559634.687453",
    "longitude": "-90.00862250317479",
    "latitude": "30.03222593518999",
    "geocoded_column": {
      "latitude": "30.03222593518999",
      "longitude": "-90.00862250317479"
    }
  },
  {
    "service_request": "2025-1248521",
    "request_type": "Trash/Recycling",
    "request_reason": "Repair Trash Cart",
    "date_created": "2025-12-31T12:02:07.000",
    "date_modified": "2025-12-31T12:48:13.000",
    "request_status": "Pending",
    "responsible_agency": "Department of Sanitation",
    "final_address": "7116 Chestnut St",
    "address_councildis": "A",
    "status": "Assigned to Contractor",
    "contractor": "IV Waste",
    "rowid": "1248521",
    "final_x": "3661184.61344",
    "final_y": "521814.177466",
    "longitude": "-90.13254051732282",
    "latitude": "29.929408942464082",
    "geocoded_column": {
      "latitude": "29.929408942464082",
      "longitude": "-90.13254051732282"
    }
  },
  {
    "service_request": "2025-1248520",
    "request_type": "New Orleans Recreation Development Commission (NORDC)",
    "request_reason": "Facilities and Parks Maintenance/Clean Up",
    "date_created": "2025-12-31T11:48:59.000",
    "date_modified": "2025-12-31T11:49:00.000",
    "request_status": "Pending",
    "responsible_agency": "New Orleans Recreation Development Commission",
    "final_address": "0 BLK Blanc Pl",
    "address_councildis": "B",
    "status": "Pending",
    "rowid": "1248520",
    "final_x": "3667951.08401",
    "final_y": "520874.262829",
    "longitude": "-90.11121159835395",
    "latitude": "29.926627762655404",
    "geocoded_column": {
      "latitude": "29.926627762655404",
      "longitude": "-90.11121159835395"
    }
  },
  {
    "service_request": "2025-1248519",
    "request_type": "Trash/Recycling",
    "request_reason": "Request a Large Item Pick Up",
    "date_created": "2025-12-31T11:47:56.000",
    "date_modified": "2025-12-31T11:47:58.000",
    "request_status": "Pending",
    "responsible_agency": "Department of Sanitation",
    "final_address": "4028 Danneel St",
    "address_councildis": "B",
    "status": "Assigned to Contractor",
    "contractor": "IV Waste",
    "rowid": "1248519",
    "final_x": "3671943.78651",
    "final_y": "522363.036666",
    "longitude": "-90.09855705590999",
    "latitude": "29.930603713635673",
    "geocoded_column": {
      "latitude": "29.930603713635673",
      "longitude": "-90.09855705590999"
    }
  },
  {
    "service_request": "2025-1248518",
    "request_type": "Abandoned Vehicles",
    "request_reason": "Abandoned/Junk Vehicles",
    "date_created": "2025-12-31T11:28:27.000",
    "date_modified": "2025-12-31T11:28:28.000",
    "request_status": "Pending",
    "responsible_agency": "Department of Public Works",
    "final_address": "1933 S Gayoso St",
    "address_councildis": "B",
    "status": "Pending",
    "rowid": "1248518",
    "final_x": "3669919.50535",
    "final_y": "529564.444545",
    "longitude": "-90.10470366688105",
    "latitude": "29.95046507876374",
    "geocoded_column": {
      "latitude": "29.95046507876374",
      "longitude": "-90.10470366688105"
    }
  },
  {
    "service_request": "2025-1248517",
    "request_type": "Abandoned Vehicles",
    "request_reason": "Abandoned/Junk Vehicles",
    "date_created": "2025-12-31T11:23:07.000",
    "date_modified": "2025-12-31T11:23:08.000",
    "request_status": "Pending",
    "responsible_agency": "Department of Public Works",
    "final_address": "517 S Telemachus St",
    "address_councildis": "B",
    "status": "Pending",
    "rowid": "1248517",
    "final_x": "3671234.85787",
    "final_y": "536041.019911",
    "longitude": "-90.10033040424878",
    "latitude": "29.968234663669737",
    "geocoded_column": {
      "latitude": "29.968234663669737",
      "longitude": "-90.10033040424878"
    }
  },
  {
    "service_request": "2025-1248516",
    "request_type": "Trash/Recycling",
    "request_reason": "Damaged Caused By Contractor",
    "date_created": "2025-12-31T11:21:37.000",
    "date_modified": "2025-12-31T11:21:38.000",
    "request_status": "Pending",
    "responsible_agency": "Department of Sanitation",
    "final_address": "4030 Vincennes Pl",
    "address_councildis": "B",
    "status": "Assigned to Contractor",
    "contractor": "IV Waste",
    "rowid": "1248516",
    "final_x": "3668444.37646",
    "final_y": "530307.454338",
    "longitude": "-90.10933631225676",
    "latitude": "29.952551522184326",
    "geocoded_column": {
      "latitude": "29.952551522184326",
      "longitude": "-90.10933631225676"
    }
  },
  {
    "service_request": "2025-1248515",
    "request_type": "Christmas Tree Recycle Pick Up",
    "request_reason": "Christmas Tree Recycle Pick Up",
    "date_created": "2025-12-31T11:10:25.000",
    "date_modified": "2025-12-31T11:10:27.000",
    "request_status": "Pending",
    "responsible_agency": "Office of Resilience and Sustainability",
    "final_address": "5706 W Louis Prima Dr",
    "address_councildis": "E",
    "status": "Pending",
    "contractor": "Glass Half Full",
    "rowid": "1248515",
    "final_x": "3715856.08504",
    "final_y": "561620.272351",
    "longitude": "-89.95844698701346",
    "latitude": "30.037171979515666",
    "geocoded_column": {
      "latitude": "30.037171979515666",
      "longitude": "-89.95844698701346"
    }
  },
  {
    "service_request": "2025-1248514",
    "request_type": "Christmas Tree Recycle Pick Up",
    "request_reason": "Christmas Tree Recycle Pick Up",
    "date_created": "2025-12-31T11:05:26.000",
    "date_modified": "2025-12-31T11:05:27.000",
    "request_status": "Pending",
    "responsible_agency": "Office of Resilience and Sustainability",
    "final_address": "5706 W Louis Prima Dr",
    "address_councildis": "E",
    "status": "Pending",
    "contractor": "Glass Half Full",
    "rowid": "1248514",
    "final_x": "3715856.08504",
    "final_y": "561620.272351",
    "longitude": "-89.95844698701346",
    "latitude": "30.037171979515666",
    "geocoded_column": {
      "latitude": "30.037171979515666",
      "longitude": "-89.95844698701346"
    }
  },
  {
    "service_request": "2025-1248513",
    "request_type": "Trash/Recycling",
    "request_reason": "Missed Trash Pick-Up",
    "date_created": "2025-12-31T10:59:07.000",
    "date_modified": "2025-12-31T12:54:20.000",
    "case_close_date": "2025-12-31T06:54:19.000",
    "request_status": "Closed",
    "responsible_agency": "Department of Sanitation",
    "final_address": "0 BLK Across St",
    "address_councildis": "E",
    "status": "Invalid Request",
    "contractor": "Waste Pro",
    "contractor_action": "Invalid",
    "rowid": "1248513",
    "final_x": "3711887.63918",
    "final_y": "553972.247814",
    "longitude": "-89.97127534652184",
    "latitude": "30.01627326470007",
    "geocoded_column": {
      "latitude": "30.01627326470007",
      "longitude": "-89.97127534652184"
    }
  },
  {
    "service_request": "2025-1248512",
    "request_type": "Streetlights",
    "request_reason": "Streetlight Outage/Malfunction",
    "date_created": "2025-12-31T10:47:12.000",
    "date_modified": "2025-12-31T10:47:15.000",
    "request_status": "Pending",
    "responsible_agency": "Department of Public Works",
    "final_address": "4618 Herschel St",
    "address_councildis": "C",
    "status": "Pending",
    "rowid": "1248512",
    "final_x": "3702059.22167",
    "final_y": "520876.690809",
    "longitude": "-90.00354218819567",
    "latitude": "29.925590077799242",
    "geocoded_column": {
      "latitude": "29.925590077799242",
      "longitude": "-90.00354218819567"
    }
  },