[
  {
    "service_request": "2022-868172",
    "request_type": "Trash/Recycling",
    "request_reason": "Start Trash Service",
    "date_created": "2022-03-19T01:22:52.000",
    "date_modified": "2022-03-19T01:22:53.000",
    "request_status": "Pending",
    "responsible_agency": "Department of Sanitation",
    "final_address": "1228 Bourbon St Unit D",
    "address_councildis": "C",
    "status": "Assigned to Contractor",
    "contractor": "Empire Services",
    "rowid": "868172",
    "final_x": "3683578.23561",
    "final_y": "534259.803141",
    "longitude": "-90.06141197822643",
    "latitude": "29.962965939897977",
    "geocoded_column": {
      "latitude": "29.962965939897977",
      "longitude": "-90.06141197822643"
    }
  },
  {
    "service_request": "2022-868171",
    "request_type": "Trash/Recycling",
    "request_reason": "Order Recycling Cart",
    "date_created": "2022-03-19T00:09:14.000",
    "date_modified": "2022-03-19T00:09:14.000",
    "request_status": "Pending",
    "responsible_agency": "Department of Sanitation",
    "final_address": "4801 Corinne St",
    "address_councildis": "E",
    "status": "Pending",
    "rowid": "868171",
    "final_x": "3715097.46085",
    "final_y": "556998.355354",
    "longitude": "-89.96101931548459",
    "latitude": "30.024488562180064",
    "geocoded_column": {
      "latitude": "30.024488562180064",
      "longitude": "-89.96101931548459"
    }
  },
  {
    "service_request": "2022-868170",
    "request_type": "Traffic Signals/Signs/Striping/Streetlights",
    "request_reason": "Street Light Outage/Malfunction",
    "date_created": "2022-03-18T22:40:38.000",
    "date_modified": "2022-03-18T22:41:31.000",
    "request_status": "Pending",
    "responsible_agency": "Department of Public Works",
    "final_address": "3516 Pauger St",
    "address_councildis": "D",
    "status": "Pending",
    "contractor": "Royal Engineering",
    "rowid": "868170",
    "final_x": "3683329.01231",
    "final_y": "542635.080717",
    "longitude": "-90.06190552493432",
    "latitude": "29.986002642565385",
    "geocoded_column": {
      "latitude": "29.986002642565385",
      "longitude": "-90.06190552493432"
    }
  },
  {
    "service_request": "2022-868169",
    "request_type": "Traffic Signals/Signs/Striping/Streetlights",
    "request_reason": "Street Light Outage/Malfunction",
    "date_created": "2022-03-18T22:34:20.000",
    "date_modified": "2022-03-18T22:34:21.000",
    "request_status": "Pending",
    "responsible_agency": "Department of Public Works",
    "final_address": "5530 Vicksburg St",
    "address_councildis": "A",
    "status": "Pending",
    "contractor": "Royal Engineering",
    "rowid": "868169",
    "final_x": "3668647.87118",
    "final_y": "543727.930766",
    "longitude": "-90.10824069863268",
    "latitude": "29.989447363409585",
    "geocoded_column": {
      "latitude": "29.989447363409585",
      "longitude": "-90.10824069863268"
    }
  },
  {
    "service_request": "2022-868168",
    "request_type": "Trash/Recycling",
    "request_reason": "Missed Trash Pick-Up",
    "date_created": "2022-03-18T22:13:42.000",
    "date_modified": "2022-03-18T22:13:42.000",
    "request_status": "Pending",
    "responsible_agency": "Department of Sanitation",
    "final_address": "5701 Coliseum St",
    "address_councildis": "A",
    "status": "Assigned to Contractor",
    "contractor": "Richards Disposal",
    "rowid": "868168",
    "final_x": "3665938.92269",
    "final_y": "519988.979128",
    "longitude": "-90.11759311771988",
    "latitude": "29.9242523694025",
    "geocoded_column": {
      "latitude": "29.9242523694025",
      "longitude": "-90.11759311771988"
    }
  },
  {
    "service_request": "2022-868167",
    "request_type": "Trash/Recycling",
    "request_reason": "Request a Large Item Pick Up",
    "date_created": "2022-03-18T21:49:02.000",
    "date_modified": "2022-03-18T21:49:03.000",
    "request_status": "Pending",
    "responsible_agency": "Department of Sanitation",
    "final_address": "7633 Freret St",
    "address_councildis": "A",
    "status": "Assigned to Contractor",
    "contractor": "Richards Disposal",
    "rowid": "868167",
    "final_x": "3662660.39175",
    "final_y": "526852.167678",
    "longitude": "-90.12771439849908",
    "latitude": "29.943219213312005",
    "geocoded_column": {
      "latitude": "29.943219213312005",
      "longitude": "-90.12771439849908"
    }
  },
  {
    "service_request": "2022-868166",
    "request_type": "Abandoned Vehicles",
    "request_reason": "Abandoned/Junk Vehicles",
    "date_created": "2022-03-18T21:41:14.000",
    "date_modified": "2022-03-18T21:41:14.000",
    "request_status": "Pending",
    "responsible_agency": "Department of Public Works",
    "final_address": "1334 Franklin Ave",
    "address_councildis": "C",
    "status": "Pending",
    "rowid": "868166",
    "final_x": "3687263.1702",
    "final_y": "537467.879752",
    "longitude": "-90.04966194640755",
    "latitude": "29.9716740459899",
    "geocoded_column": {
      "latitude": "29.9716740459899",
      "longitude": "-90.04966194640755"
    }
  },
  {
    "service_request": "2022-868165",
    "request_type": "Traffic Signals/Signs/Striping/Streetlights",
    "request_reason": "Street Light Outage/Malfunction",
    "date_created": "2022-03-18T21:06:43.000",
    "date_modified": "2022-03-18T21:06:43.000",
    "request_status": "Pending",
    "responsible_agency": "Department of Public Works",
    "final_address": "818 Bourbon St",
    "address_councildis": "C",
    "status": "Pending",
    "contractor": "Royal Engineering",
    "rowid": "868165",
    "final_x": "3682615.78152",
    "final_y": "533091.092292",
    "longitude": "-90.06449215420184",
    "latitude": "29.959781726157583",
    "geocoded_column": {
      "latitude": "29.959781726157583",
      "longitude": "-90.06449215420184"
    }
  },
  {
    "service_request": "2022-868164",
    "request_type": "Traffic Signals/Signs/Striping/Streetlights",
    "request_reason": "Traffic Sign Missing/Damaged",
    "date_created": "2022-03-18T20:36:29.000",
    "date_modified": "2022-03-18T20:36:29.000",
    "request_status": "Pending",
    "responsible_agency": "Department of Public Works",
    "final_address": "1200 Decatur St",
    "address_councildis": "C",
    "status": "Pending",
    "rowid": "868164",
    "final_x": "3684316.2342",
    "final_y": "533445.172804",
    "longitude": "-90.05911008089855",
    "latitude": "29.960703440685773",
    "geocoded_column": {
      "latitude": "29.960703440685773",
      "longitude": "-90.05911008089855"
    }
  },
  {
    "service_request": "2022-868163",
    "request_type": "Traffic Signals/Signs/Striping/Streetlights",
    "request_reason": "Street Light Outage/Malfunction",
    "date_created": "2022-03-18T20:34:13.000",
    "date_modified": "2022-03-18T20:34:15.000",
    "request_status": "Pending",
    "responsible_agency": "Department of Public Works",
    "final_address": "TRAFALGAR ST & ROMULUS ST",
    "address_councildis": "A",
    "status": "Pending",
    "contractor": "Royal Engineering",
    "rowid": "868163",
    "final_x": "3677712.9",
    "final_y": "543194.28",
    "longitude": "-90.07962529038728",
    "latitude": "29.98771039913638",
    "geocoded_column": {
      "latitude": "29.98771039913638",
      "longitude": "-90.07962529038728"
    }
  },
  {
    "service_request": "2022-868162",
    "request_type": "Traffic Signals/Signs/Striping/Streetlights",
    "request_reason": "Street Light Outage/Malfunction",
    "date_created": "2022-03-18T20:12:16.000",
    "date_modified": "2022-03-18T20:12:17.000",
    "request_status": "Pending",
    "responsible_agency": "Department of Public Works",
    "final_address": "7 Park Timbers Dr",
    "address_councildis": "C",
    "status": "Pending",
    "contractor": "Royal Engineering",
    "rowid": "868162",
    "final_x": "3699197.85271",
    "final_y": "518309.875062",
    "longitude": "-90.01266798718764",
    "latitude": "29.918623210936165",
    "geocoded_column": {
      "latitude": "29.918623210936165",
      "longitude": "-90.01266798718764"
    }
  },
  {
    "service_request": "2022-868161",
    "request_type": "Traffic Signals/Signs/Striping/Streetlights",
    "request_reason": "Street Light Outage/Malfunction",
    "date_created": "2022-03-18T20:09:41.000",
    "date_modified": "2022-03-18T20:09:42.000",
    "request_status": "Pending",
    "responsible_agency": "Department of Public Works",
    "final_address": "26 Grand Canyon Dr",
    "address_councildis": "C",
    "status": "Pending",
    "contractor": "Royal Engineering",
    "rowid": "868161",
    "final_x": "3699750.71332",
    "final_y": "517157.420853",
    "longitude": "-90.01096488939694",
    "latitude": "29.915436821529568",
    "geocoded_column": {
      "latitude": "29.915436821529568",
      "longitude": "-90.01096488939694"
    }
  },
  {
    "service_request": "2022-868160",
    "request_type": "Traffic Signals/Signs/Striping/Streetlights",
    "request_reason": "Street Light Outage/Malfunction",
    "date_created": "2022-03-18T20:08:10.000",
    "date_modified": "2022-03-18T20:08:10.000",
    "request_status": "Pending",
    "responsible_agency": "Department of Public Works",
    "final_address": "26 Grand Canyon Dr",
    "address_councildis": "C",
    "status": "Pending",
    "contractor": "Royal Engineering",
    "rowid": "868160",
    "final_x": "3699750.71332",
    "final_y": "517157.420853",
    "longitude": "-90.01096488939694",
    "latitude": "29.915436821529568",
    "geocoded_column": {
      "latitude": "29.915436821529568",
      "longitude": "-90.01096488939694"
    }
  },
  {
    "service_request": "2022-868158",
    "request_type": "Roads/Drainage",
    "request_reason": "Street Subsidence (Sinking)",
    "date_created": "2022-03-18T19:35:36.000",
    "date_modified": "2022-03-18T19:35:36.000",
    "request_status": "Pending",
    "responsible_agency": "Department of Public Works",
    "final_address": "601 Royal St",
    "address_councildis": "C",
    "status": "Pending",
    "rowid": "868158",
    "final_x": "3682322.5236",
    "final_y": "532201.323651",
    "longitude": "-90.06544928549894",
    "latitude": "29.957344091691144",
    "geocoded_column": {
      "latitude": "29.957344091691144",
      "longitude": "-90.06544928549894"
    }
  },
  {
    "service_request": "2022-868157",
    "request_type": "Trash/Recycling",
    "request_reason": "Repair Trash Cart",
    "date_created": "2022-03-18T19:20:13.000",
    "date_modified": "2022-03-18T19:20:14.000",
    "request_status": "Pending",
    "responsible_agency": "Department of Sanitation",
    "final_address": "1810 Cambronne St",
    "address_councildis": "A",
    "status": "Assigned to Contractor",
    "contractor": "Richards Disposal",
    "rowid": "868157",
    "final_x": "3662622.02119",
    "final_y": "530762.671298",
    "longitude": "-90.12770563787582",
    "latitude": "29.953972952894105",
    "geocoded_column": {
      "latitude": "29.953972952894105",
      "longitude": "-90.12770563787582"
    }
  },
  {
    "service_request": "2022-868156",
    "request_type": "Traffic Signals/Signs/Striping/Streetlights",
    "request_reason": "Traffic Signal Malfunctioning/Damaged",
    "date_created": "2022-03-18T19:17:53.000",
    "date_modified": "2022-03-18T19:17:53.000",
    "request_status": "Pending",
    "responsible_agency": "Department of Public Works",
    "final_address": "800 Canal St Ste B",
    "address_councildis": "B",
    "status": "Pending",
    "rowid": "868156",
    "final_x": "3680785.85359",
    "final_y": "530838.056194",
    "longitude": "-90.07034907243161",
    "latitude": "29.953642231792724",
    "geocoded_column": {
      "latitude": "29.953642231792724",
      "longitude": "-90.07034907243161"
    }
  },
  {
    "service_request": "2022-868155",
    "request_type": "Trash/Recycling",
    "request_reason": "Request a Large Item Pick Up",
    "date_created": "2022-03-18T18:45:18.000",
    "date_modified": "2022-03-18T18:45:19.000",
    "request_status": "Pending",
    "responsible_agency": "Department of Sanitation",
    "final_address": "7407 Saint Charles Ave, New Orleans, Louisiana, 70118",
    "status": "Assigned to Contractor",
    "rowid": "868155",
    "longitude": "0.0",
    "latitude": "0.0",
    "geocoded_column": {
      "latitude": "0.0",
      "longitude": "0.0"
    }
  },
  {
    "service_request": "2022-868154",
    "request_type": "Trash/Recycling",
    "request_reason": "Request a Large Item Pick Up",
    "date_created": "2022-03-18T18:43:32.000",
    "date_modified": "2022-03-18T18:43:33.000",
    "request_status": "Pending",
    "responsible_agency": "Department of Sanitation",
    "final_address": "7407 Saint Charles Ave, New Orleans, Louisiana, 70118",
    "status": "Assigned to Contractor",
    "rowid": "868154",
    "longitude": "0.0",
    "latitude": "0.0",
    "geocoded_column": {
      "latitude": "0.0",
      "longitude": "0.0"
    }
  },
  {
    "service_request": "2022-868153",
    "request_type": "Trash/Recycling",
    "request_reason": "Repair Trash Cart",
    "date_created": "2022-03-18T18:28:56.000",
    "date_modified": "2022-03-18T18:29:22.000",
    "request_status": "Pending",
    "responsible_agency": "Department of Sanitation",
    "final_address": "1922 Laurel St",
    "address_councildis": "B",
    "status": "Assigned to Contractor",
    "contractor": "Richards Disposal",
    "rowid": "868153",
    "final_x": "3680151.04085",
    "final_y": "522126.322938",
    "longitude": "-90.07265619340751",
    "latitude": "29.92970708873247",
    "geocoded_column": {
      "latitude": "29.92970708873247",
      "longitude": "-90.07265619340751"
    }
  },
  {
    "service_request": "2022-868152",
    "request_type": "Abandoned Vehicles",
    "request_reason": "Abandoned/Junk Vehicles",
    "date_created": "2022-03-18T18:18:08.000",
    "date_modified": "2022-03-18T18:18:08.000",
    "request_status": "Pending",
    "responsible_agency": "Department of Public Works",
    "final_address": "4406 Eden St",
    "address_councildis": "B",
    "status": "Pending",
    "rowid": "868152",
    "final_x": "3669893.73377",
    "final_y": "530616.73837",
    "longitude": "-90.1047494150525",
    "latitude": "29.953359301286916",
    "geocoded_column": {
      "latitude": "29.953359301286916",
      "longitude": "-90.1047494150525"
    }
  },
  {
    "service_request": "2022-868151",
    "request_type": "Abandoned Vehicles",
    "request_reason": "Abandoned/Junk Vehicles",
    "date_created": "2022-03-18T18:16:22.000",
    "date_modified": "2022-03-18T18:16:22.000",
    "request_status": "Pending",
    "responsible_agency": "Department of Public Works",
    "final_address": "4406 Eden St",
    "address_councildis": "B",
    "status": "Pending",
    "rowid": "868151",
    "final_x": "3669893.73377",
    "final_y": "530616.73837",
    "longitude": "-90.1047494150525",
    "latitude": "29.953359301286916",
    "geocoded_column": {
      "latitude": "29.953359301286916",
      "longitude": "-90.1047494150525"
    }
  },
  {
    "service_request": "2022-868150",
    "request_type": "Trash/Recycling",
    "request_reason": "Illegal Dumping",
    "date_created": "2022-03-18T17:55:55.000",
    "date_modified": "2022-03-18T17:58:44.000",
    "request_status": "Pending",
    "responsible_agency": "Department of Sanitation",
    "final_address": "LE BOEUF ST & PELICAN AVE",
    "address_councildis": "C",
    "status": "Pending",
    "rowid": "868150",
    "final_x": "3689881.4",
    "final_y": "530681.58",
    "longitude": "-90.04163480904984",
    "latitude": "29.952933176866093",
    "geocoded_column": {
      "latitude": "29.952933176866093",
      "longitude": "-90.04163480904984"
    }
  },
  {
    "service_request": "2022-868149",
    "request_type": "Property Maintenance",
    "request_reason": "Property Maintenance",
    "date_created": "2022-03-18T17:51:05.000",
    "date_modified": "2022-03-18T17:51:05.000",
    "request_status": "Pending",
    "responsible_agency": "Department of Code Enforcement",
    "final_address": "2614 St Claude Ave",
    "address_councildis": "C",
    "status": "Pending",
    "rowid": "868149",
    "final_x": "3687260.29174",
    "final_y": "536391.462983",
    "longitude": "-90.04970911962272",
    "latitude": "29.968714364924857",
    "geocoded_column": {
      "latitude": "29.968714364924857",
      "longitude": "-90.04970911962272"
    }
  },
  {
    "service_request": "2022-868148",
    "request_type": "Trash/Recycling",
    "request_reason": "Order Trash Cart",
    "date_created": "2022-03-18T17:45:25.000",
    "date_modified": "2022-03-18T17:45:26.000",
    "request_status": "Pending",
    "responsible_agency": "Department of Sanitation",
    "final_address": "4929 Desire Dr",
    "address_councildis": "D",
    "status": "Assigned to Contractor",
    "contractor": "Metro Disposal",
    "rowid": "868148",
    "final_x": "3691675.87465",
    "final_y": "552152.384086",
    "longitude": "-90.03520061372417",
    "latitude": "30.011914447128856",
    "geocoded_column": {
      "latitude": "30.011914447128856",
      "longitude": "-90.03520061372417"
    }
  },
  {
    "service_request": "2022-868147",
    "request_type": "Trash/Recycling",
    "request_reason": "MIssed Recycling Pick-Up",
    "date_created": "2022-03-18T17:40:43.000",
    "date_modified": "2022-03-18T17:40:44.000",
    "request_status": "Pending",
    "responsible_agency": "Department of Sanitation",
    "final_address": "2412 S Saratoga St",
    "address_councildis": "B",
    "status": "Assigned to Contractor",
    "contractor": "Richards Disposal",
    "rowid": "868147",
    "final_x": "3675879.20225",
    "final_y": "524608.144956",
    "longitude": "-90.08605636752623",
    "latitude": "29.936659832396415",
    "geocoded_column": {
      "latitude": "29.936659832396415",
      "longitude": "-90.08605636752623"
    }
  },
  {
    "service_request": "2022-868146",
    "request_type": "Trash/Recycling",
    "request_reason": "Request a Large Item Pick Up",
    "date_created": "2022-03-18T17:37:32.000",
    "date_modified": "2022-03-18T17:37:32.000",
    "request_status": "Pending",
    "responsible_agency": "Department of Sanitation",
    "final_address": "11362 Willow Dr",
    "address_councildis": "C",
    "status": "Assigned to Contractor",
    "contractor": "Richards Disposal",
    "rowid": "868146",
    "final_x": "3726548.99289",
    "final_y": "514573.597811",
    "longitude": "-89.92648093191453",
    "latitude": "29.90745466334144",
    "geocoded_column": {
      "latitude": "29.90745466334144",
      "longitude": "-89.92648093191453"
    }
  },
  {
    "service_request": "2022-868145",
    "request_type": "Trash/Recycling",
    "request_reason": "Repair Trash Cart",
    "date_created": "2022-03-18T17:17:25.000",
    "date_modified": "2022-03-18T17:20:26.000",
    "request_status": "Pending",
    "responsible_agency": "Department of Sanitation",
    "final_address": "3 Park Island Dr, New Orleans, Louisiana, 70122",
    "address_councildis": "A",
    "status": "Assigned to Contractor",
    "contractor": "Metro Disposal",
    "rowid": "868145",
    "final_x": "3676066.52021",
    "final_y": "548480.206802",
    "longitude": "-90.08464369745035",
    "latitude": "30.00229427435717",
    "geocoded_column": {
      "latitude": "30.00229427435717",
      "longitude": "-90.08464369745035"
    }
  },
  {
    "service_request": "2022-868144",
    "request_type": "Abandoned Vehicles",
    "request_reason": "Abandoned/Junk Vehicles",
    "date_created": "2022-03-18T17:15:43.000",
    "date_modified": "2022-03-18T17:19:21.000",
    "request_status": "Pending",
    "responsible_agency": "Department of Public Works",
    "final_address": "901 Sixth St",
    "address_councildis": "B",
    "status": "Pending",
    "rowid": "868144",
    "final_x": "3677052.54312",
    "final_y": "519976.010168",
    "longitude": "-90.08251171312416",
    "latitude": "29.923887800458083",
    "geocoded_column": {
      "latitude": "29.923887800458083",
      "longitude": "-90.08251171312416"
    }
  },
  {
    "service_request": "2022-868143",
    "request_type": "Trash/Recycling",
    "request_reason": "Request a Large Item Pick Up",
    "date_created": "2022-03-18T17:14:40.000",
    "date_modified": "2022-03-18T17:14:41.000",
    "request_status": "Pending",
    "responsible_agency": "Department of Sanitation",
    "final_address": "1119 Wagner St",
    "address_councildis": "C",
    "status": "Assigned to Contractor",
    "contractor": "Richards Disposal",
    "rowid": "868143",
    "final_x": "3690423.35747",
    "final_y": "527218.326719",
    "longitude": "-90.04004697806955",
    "latitude": "29.94339361111188",
    "geocoded_column": {
      "latitude": "29.94339361111188",
      "longitude": "-90.04004697806955"
    }
  },
  {
    "service_request": "2022-868141",
    "request_type": "Trash/Recycling",
    "request_reason": "Request a Large Item Pick Up",
    "date_created": "2022-03-18T17:11:22.000",
    "date_modified": "2022-03-18T17:11:22.000",
    "request_status": "Pending",
    "responsible_agency": "Department of Sanitation",
    "final_address": "8722 Hickory St",
    "address_councildis": "A",
    "status": "Assigned to Contractor",
    "contractor": "Richards Disposal",
    "rowid": "868141",
    "final_x": "3661634.41203",
    "final_y": "531466.736899",
    "longitude": "-90.13080078909681",
    "latitude": "29.95593744207061",
    "geocoded_column": {
      "latitude": "29.95593744207061",
      "longitude": "-90.13080078909681"
    }
  },
  {
    "service_request": "2022-868140",
    "request_type": "Property Maintenance",
    "request_reason": "Property Maintenance",
    "date_created": "2022-03-18T17:10:13.000",
    "date_modified": "2022-03-18T17:10:13.000",
    "request_status": "Pending",
    "responsible_agency": "Department of Code Enforcement",
    "final_address": "4224 Canal St",
    "address_councildis": "A",
    "status": "Pending",
    "rowid": "868140",
    "final_x": "3670363.67649",
    "final_y": "538778.477897",
    "longitude": "-90.10298881403784",
    "latitude": "29.97578750036995",
    "geocoded_column": {
      "latitude": "29.97578750036995",
      "longitude": "-90.10298881403784"
    }
  },
  {
    "service_request": "2022-868139",
    "request_type": "Traffic Signals/Signs/Striping/Streetlights",
    "request_reason": "Street Light Outage/Malfunction",
    "date_created": "2022-03-18T17:10:02.000",
    "date_modified": "2022-03-18T17:12:25.000",
    "request_status": "Pending",
    "responsible_agency": "Department of Public Works",
    "final_address": "Corner of Pauger St. and Burgundy St.(lakeside)",
    "address_councildis": "C",
    "status": "Pending",
    "contractor": "Royal Engineering",
    "rowid": "868139",
    "final_x": "3683932.1",
    "final_y": "535496.28",
    "longitude": "-90.06025113751211",
    "latitude": "29.966355019644272",
    "geocoded_column": {
      "latitude": "29.966355019644272",
      "longitude": "-90.06025113751211"
    }
  },
  {
    "service_request": "2022-868136",
    "request_type": "Traffic Signals/Signs/Striping/Streetlights",
    "request_reason": "Street Light Outage/Malfunction",
    "date_created": "2022-03-18T17:07:11.000",
    "date_modified": "2022-03-18T17:07:12.000",
    "request_status": "Pending",
    "responsible_agency": "Department of Public Works",
    "final_address": "2053 Mandolin St",
    "address_councildis": "D",
    "status": "Pending",
    "contractor": "Royal Engineering",
    "rowid": "868136",
    "final_x": "3683022.22607",
    "final_y": "548450.54229",
    "longitude": "-90.06267084309587",
    "latitude": "30.0020024495759",
    "geocoded_column": {
      "latitude": "30.0020024495759",
      "longitude": "-90.06267084309587"
    }
  },
  {
    "service_request": "2022-868135",
    "request_type": "Trash/Recycling",
    "request_reason": "Missed Trash Pick-Up",
    "date_created": "2022-03-18T17:06:33.000",
    "date_modified": "2022-03-18T17:06:34.000",
    "request_status": "Pending",
    "responsible_agency": "Department of Sanitation",
    "final_address": "8720 Hickory St",
    "address_councildis": "A",
    "status": "Assigned to Contractor",
    "contractor": "Richards Disposal",
    "rowid": "868135",
    "final_x": "3661646.9481",
    "final_y": "531455.816195",
    "longitude": "-90.13076156623289",
    "latitude": "29.955907051901747",
    "geocoded_column": {
      "latitude": "29.955907051901747",
      "longitude": "-90.13076156623289"
    }
  },
  {
    "service_request": "2022-868134",
    "request_type": "Trash/Recycling",
    "request_reason": "Missed Trash Pick-Up",
    "date_created": "2022-03-18T17:03:58.000",
    "date_modified": "2022-03-18T17:04:00.000",
    "request_status": "Pending",
    "responsible_agency": "Department of Sanitation",
    "final_address": "1616 Burdette St",
    "address_councildis": "A",
    "status": "Assigned to Contractor",
    "contractor": "Richards Disposal",
    "rowid": "868134",
    "final_x": "3663810.17043",
    "final_y": "528796.987456",
    "longitude": "-90.12401943713066",
    "latitude": "29.948533528919445",
    "geocoded_column": {
      "latitude": "29.948533528919445",
      "longitude": "-90.12401943713066"
    }
  },
  {
    "service_request": "2022-868133",
    "request_type": "Trash/Recycling",
    "request_reason": "Request a Large Item Pick Up",
    "date_created": "2022-03-18T16:58:31.000",
    "date_modified": "2022-03-18T16:58:33.000",
    "request_status": "Pending",
    "responsible_agency": "Department of Sanitation",
    "final_address": "1326 Behrman Ave",
    "address_councildis": "C",
    "status": "Assigned to Contractor",
    "contractor": "Richards Disposal",
    "rowid": "868133",
    "final_x": "3691437.52214",
    "final_y": "526391.607166",
    "longitude": "-90.03687454419342",
    "latitude": "29.941088902031613",
    "geocoded_column": {
      "latitude": "29.941088902031613",
      "longitude": "-90.03687454419342"
    }
  },
  {
    "service_request": "2022-868132",
    "request_type": "Traffic Signals/Signs/Striping/Streetlights",
    "request_reason": "Street Light Outage/Malfunction",
    "date_created": "2022-03-18T16:55:10.000",
    "date_modified": "2022-03-18T16:55:12.000",
    "request_status": "Pending",
    "responsible_agency": "Department of Public Works",
    "final_address": "61 Camellia Trce",
    "address_councildis": "C",
    "status": "Pending",
    "contractor": "Royal Engineering",
    "rowid": "868132",
    "final_x": "3697145.48682",
    "final_y": "523386.131707",
    "longitude": "-90.0189623928653",
    "latitude": "29.932646067832923",
    "geocoded_column": {
      "latitude": "29.932646067832923",
      "longitude": "-90.0189623928653"
    }
  },
  {
    "service_request": "2022-868131",
    "request_type": "Traffic Signals/Signs/Striping/Streetlights",
    "request_reason": "Street Name Sign Damaged or Missing",
    "date_created": "2022-03-18T16:44:44.000",
    "date_modified": "2022-03-18T16:45:13.000",
    "request_status": "Pending",
    "responsible_agency": "Department of Public Works",
    "final_address": "MAPLE ST & PINE ST",
    "address_councildis": "A",
    "status": "Pending",
    "rowid": "868131",
    "final_x": "3663129.2",
    "final_y": "525484.38",
    "longitude": "-90.12627973745822",
    "latitude": "29.939444661617483",
    "geocoded_column": {
      "latitude": "29.939444661617483",
      "longitude": "-90.12627973745822"
    }
  },
  {
    "service_request": "2022-868130",
    "request_type": "Traffic Signals/Signs/Striping/Streetlights",
    "request_reason": "Street Name Sign Damaged or Missing",
    "date_created": "2022-03-18T16:43:18.000",
    "date_modified": "2022-03-18T16:47:06.000",
    "request_status": "Pending",
    "responsible_agency": "Department of Public Works",
    "final_address": "MAPLE ST & BROADWAY ST",
    "address_councildis": "A",
    "status": "Pending",
    "rowid": "868130",
    "final_x": "3663365.4",
    "final_y": "525333.48",
    "longitude": "-90.12553904105967",
    "latitude": "29.939022890820706",
    "geocoded_column": {
      "latitude": "29.939022890820706",
      "longitude": "-90.12553904105967"
    }
  },
  {
    "service_request": "2022-868129",
    "request_type": "Property Maintenance",
    "request_reason": "Property Maintenance",
    "date_created": "2022-03-18T16:26:12.000",
    "date_modified": "2022-03-18T16:26:12.000",
    "request_status": "Pending",
    "responsible_agency": "Department of Code Enforcement",
    "final_address": "11755 Chef Menteur Hwy",
    "address_councildis": "E",
    "status": "Pending",
    "rowid": "868129",
    "final_x": "3719159.97906",
    "final_y": "557090.575898",
    "longitude": "-89.94817911175872",
    "latitude": "30.02460772396782",
    "geocoded_column": {
      "latitude": "30.02460772396782",
      "longitude": "-89.94817911175872"
    }
  },
  {
    "service_request": "2022-868128",
    "request_type": "Trash/Recycling",
    "request_reason": "Request a Large Item Pick Up",
    "date_created": "2022-03-18T16:17:45.000",
    "date_modified": "2022-03-18T16:17:45.000",
    "request_status": "Pending",
    "responsible_agency": "Department of Sanitation",
    "final_address": "4100 Prytania St",
    "address_councildis": "B",
    "status": "Assigned to Contractor",
    "contractor": "Richards Disposal",
    "rowid": "868128",
    "final_x": "3671965.78734",
    "final_y": "520363.725112",
    "longitude": "-90.09855561660004",
    "latitude": "29.92510559658134",
    "geocoded_column": {
      "latitude": "29.92510559658134",
      "longitude": "-90.09855561660004"
    }
  },
  {
    "service_request": "2022-868127",
    "request_type": "Trash/Recycling",
    "request_reason": "Order Recycling Cart",
    "date_created": "2022-03-18T16:16:04.000",
    "date_modified": "2022-03-18T16:16:04.000",
    "request_status": "Pending",
    "responsible_agency": "Department of Sanitation",
    "final_address": "1661 Milton St",
    "address_councildis": "D",
    "status": "Pending",
    "rowid": "868127",
    "final_x": "3680194.67343",
    "final_y": "546329.645328",
    "longitude": "-90.07167716997611",
    "latitude": "29.996256650979518",
    "geocoded_column": {
      "latitude": "29.996256650979518",
      "longitude": "-90.07167716997611"
    }
  },
  {
    "service_request": "2022-868126",
    "request_type": "Trash/Recycling",
    "request_reason": "Order Trash Cart",
    "date_created": "2022-03-18T16:15:09.000",
    "date_modified": "2022-03-18T16:15:09.000",
    "request_status": "Pending",
    "responsible_agency": "Department of Sanitation",
    "final_address": "1661 Milton St",
    "address_councildis": "D",
    "status": "Assigned to Contractor",
    "contractor": "Metro Disposal",
    "rowid": "868126",
    "final_x": "3680194.67343",
    "final_y": "546329.645328",
    "longitude": "-90.07167716997611",
    "latitude": "29.996256650979518",
    "geocoded_column": {
      "latitude": "29.996256650979518",
      "longitude": "-90.07167716997611"
    }
  },
  {
    "service_request": "2022-868125",
    "request_type": "Trash/Recycling",
    "request_reason": "Replace Trash Cart",
    "date_created": "2022-03-18T16:11:28.000",
    "date_modified": "2022-03-18T16:11:29.000",
    "request_status": "Pending",
    "responsible_agency": "Department of Sanitation",
    "final_address": "2228 Delachaise St",
    "address_councildis": "B",
    "status": "Assigned to Contractor",
    "contractor": "Richards Disposal",
    "rowid": "868125",
    "final_x": "3672856.44219",
    "final_y": "523548.383739",
    "longitude": "-90.09563551161291",
    "latitude": "29.93383596055463",
    "geocoded_column": {
      "latitude": "29.93383596055463",
      "longitude": "-90.09563551161291"
    }
  },
  {
    "service_request": "2022-868124",
    "request_type": "Trash/Recycling",
    "request_reason": "Missed Trash Pick-Up",
    "date_created": "2022-03-18T16:10:30.000",
    "date_modified": "2022-03-18T16:10:31.000",
    "request_status": "Pending",
    "responsible_agency": "Department of Sanitation",
    "final_address": "2228 Delachaise St",
    "address_councildis": "B",
    "status": "Assigned to Contractor",
    "contractor": "Richards Disposal",
    "rowid": "868124",
    "final_x": "3672856.44219",
    "final_y": "523548.383739",
    "longitude": "-90.09563551161291",
    "latitude": "29.93383596055463",
    "geocoded_column": {
      "latitude": "29.93383596055463",
      "longitude": "-90.09563551161291"
    }
  },
  {
    "service_request": "2022-868123",
    "request_type": "Trash/Recycling",
    "request_reason": "Request a Large Item Pick Up",
    "date_created": "2022-03-18T15:58:16.000",
    "date_modified": "2022-03-18T15:58:17.000",
    "request_status": "Pending",
    "responsible_agency": "Department of Sanitation",
    "final_address": "4632 Banks St",
    "address_councildis": "A",
    "status": "Assigned to Contractor",
    "contractor": "Richards Disposal",
    "rowid": "868123",
    "final_x": "3668409.2587",
    "final_y": "538781.968585",
    "longitude": "-90.10916131885587",
    "latitude": "29.97585465686889",
    "geocoded_column": {
      "latitude": "29.97585465686889",
      "longitude": "-90.10916131885587"
    }
  },
  {
    "service_request": "2022-868122",
    "request_type": "Traffic Signals/Signs/Striping/Streetlights",
    "request_reason": "Traffic Signal Malfunctioning/Damaged",
    "date_created": "2022-03-18T15:57:49.000",
    "date_modified": "2022-03-18T15:57:49.000",
    "request_status": "Pending",
    "responsible_agency": "Department of Public Works",
    "final_address": "2211 Prytania St",
    "address_councildis": "B",
    "status": "Pending",
    "rowid": "868122",
    "final_x": "3677796.74229",
    "final_y": "523297.160059",
    "longitude": "-90.08004787593886",
    "latitude": "29.93299752132463",
    "geocoded_column": {
      "latitude": "29.93299752132463",
      "longitude": "-90.08004787593886"
    }
  },
  {
    "service_request": "2022-868121",
    "request_type": "Abandoned Vehicles",
    "request_reason": "Abandoned/Junk Vehicles",
    "date_created": "2022-03-18T15:53:55.000",
    "date_modified": "2022-03-18T15:53:55.000",
    "request_status": "Pending",
    "responsible_agency": "Department of Public Works",
    "final_address": "5220 Magazine St",
    "address_councildis": "B",
    "status": "Pending",
    "rowid": "868121",
    "final_x": "3667844.82772",
    "final_y": "518565.636599",
    "longitude": "-90.11162472399104",
    "latitude": "29.920282885856835",
    "geocoded_column": {
      "latitude": "29.920282885856835",
      "longitude": "-90.11162472399104"
    }
  },
  {
    "service_request": "2022-868120",
    "request_type": "Trash/Recycling",
    "request_reason": "Request a Large Item Pick Up",
    "date_created": "2022-03-18T15:50:23.000",
    "date_modified": "2022-03-18T15:50:23.000",
    "request_status": "Pending",
    "responsible_agency": "Department of Sanitation",
    "final_address": "2842 Baronne St, New Orleans, Louisiana, 70115",
    "address_councildis": "B",
    "status": "Assigned to Contractor",
    "contractor": "Richards Disposal",
    "rowid": "868120",
    "final_x": "3675234.28149",
    "final_y": "522924.098555",
    "longitude": "-90.08815018873362",
    "latitude": "29.932048541034376",
    "geocoded_column": {
      "latitude": "29.932048541034376",
      "longitude": "-90.08815018873362"
    }
  },
  {
    "service_request": "2022-868119",
    "request_type": "Trash/Recycling",
    "request_reason": "Order Recycling Cart",
    "date_created": "2022-03-18T15:47:03.000",
    "date_modified": "2022-03-18T15:47:03.000",
    "request_status": "Pending",
    "responsible_agency": "Department of Sanitation",
    "final_address": "510 Wallace Dr",
    "address_councildis": "D",
    "status": "Pending",
    "rowid": "868119",
    "final_x": "3681413.48623",
    "final_y": "548664.513363",
    "longitude": "-90.06774556320632",
    "latitude": "30.0026397486523",
    "geocoded_column": {
      "latitude": "30.0026397486523",
      "longitude": "-90.06774556320632"
    }
  },
  {
    "service_request": "2022-868118",
    "request_type": "Property Maintenance",
    "request_reason": "Property Maintenance",
    "date_created": "2022-03-18T15:43:32.000",
    "date_modified": "2022-03-18T15:43:32.000",
    "request_status": "Pending",
    "responsible_agency": "Department of Code Enforcement",
    "final_address": "4819 Haydel St",
    "address_councildis": "E",
    "status": "Pending",
    "rowid": "868118",
    "final_x": "3699062.07831",
    "final_y": "554795.960216",
    "longitude": "-90.01176826279816",
    "latitude": "30.018951126063133",
    "geocoded_column": {
      "latitude": "30.018951126063133",
      "longitude": "-90.01176826279816"
    }
  },
  {
    "service_request": "2022-868117",
    "request_type": "Trash/Recycling",
    "request_reason": "Request a Large Item Pick Up",
    "date_created": "2022-03-18T15:40:12.000",
    "date_modified": "2022-03-18T15:40:12.000",
    "request_status": "Pending",
    "responsible_agency": "Department of Sanitation",
    "final_address": "7610 Arbor Dr",
    "address_councildis": "E",
    "status": "Assigned to Contractor",
    "contractor": "Metro Disposal",
    "rowid": "868117",
    "final_x": "3701992.21476",
    "final_y": "558210.097115",
    "longitude": "-90.0023848245938",
    "latitude": "30.028245439813826",
    "geocoded_column": {
      "latitude": "30.028245439813826",
      "longitude": "-90.0023848245938"
    }
  },
  {
    "service_request": "2022-868116",
    "request_type": "Trash/Recycling",
    "request_reason": "Request a Large Item Pick Up",
    "date_created": "2022-03-18T15:39:03.000",
    "date_modified": "2022-03-18T15:39:04.000",
    "request_status": "Pending",
    "responsible_agency": "Department of Sanitation",
    "final_address": "1116 N Derbigny St",
    "address_councildis": "D",
    "status": "Assigned to Contractor",
    "contractor": "Richards Disposal",
    "rowid": "868116",
    "final_x": "3680508.01096",
    "final_y": "536128.917191",
    "longitude": "-90.07104234108606",
    "latitude": "29.968198716628148",
    "geocoded_column": {
      "latitude": "29.968198716628148",
      "longitude": "-90.07104234108606"
    }
  },
  {
    "service_request": "2022-868115",
    "request_type": "Roads/Drainage",
    "request_reason": "Debris in Roadway",
    "date_created": "2022-03-18T15:39:00.000",
    "date_modified": "2022-03-18T15:39:00.000",
    "request_status": "Pending",
    "responsible_agency": "Department of Public Works",
    "final_address": "FRANKLIN AVE & I 610 W ONRAMP & FRANKLIN EXIT & I 10 E ONRAMP",
    "address_councildis": "D",
    "status": "Pending",
    "rowid": "868115",
    "final_x": "3687219.79",
    "final_y": "545203.27",
    "longitude": "-90.04952523721728",
    "latitude": "29.99294496319761",
    "geocoded_column": {
      "latitude": "29.99294496319761",
      "longitude": "-90.04952523721728"
    }
  },
  {
    "service_request": "2022-868114",
    "request_type": "Roads/Drainage",
    "request_reason": "Damaged Sidewalk",
    "date_created": "2022-03-18T15:38:29.000",
    "date_modified": "2022-03-18T15:38:29.000",
    "request_status": "Pending",
    "responsible_agency": "Department of Public Works",
    "final_address": "GRAVIER ST & CARONDELET ST",
    "address_councildis": "B",
    "status": "Pending",
    "rowid": "868114",
    "final_x": "3680519.3",
    "final_y": "530223.58",
    "longitude": "-90.07121210828917",
    "latitude": "29.95196070542126",
    "geocoded_column": {
      "latitude": "29.95196070542126",
      "longitude": "-90.07121210828917"
    }
  },
  {
    "service_request": "2022-868113",
    "request_type": "Traffic Signals/Signs/Striping/Streetlights",
    "request_reason": "Street Light Outage/Malfunction",
    "date_created": "2022-03-18T15:38:05.000",
    "date_modified": "2022-03-18T15:38:06.000",
    "request_status": "Pending",
    "responsible_agency": "Department of Public Works",
    "final_address": "6337 Louisville St",
    "address_councildis": "A",
    "status": "Pending",
    "contractor": "Royal Engineering",
    "rowid": "868113",
    "final_x": "3668054.05511",
    "final_y": "549683.018132",
    "longitude": "-90.10991556056241",
    "latitude": "30.005839243452886",
    "geocoded_column": {
      "latitude": "30.005839243452886",
      "longitude": "-90.10991556056241"
    }
  },
  {
    "service_request": "2022-868111",
    "request_type": "Parks & Parkways",
    "request_reason": "Request Tree Service (Right of Way/Public Property)",
    "date_created": "2022-03-18T15:37:47.000",
    "date_modified": "2022-03-18T15:37:47.000",
    "request_status": "Pending",
    "responsible_agency": "Department of Parks & Parkway",
    "final_address": "720 Jefferson Ave",
    "address_councildis": "A",
    "status": "Pending",
    "rowid": "868111",
    "final_x": "3666502.69953",
    "final_y": "518098.760438",
    "longitude": "-90.11587686087078",
    "latitude": "29.919038402310115",
    "geocoded_column": {
      "latitude": "29.919038402310115",
      "longitude": "-90.11587686087078"
    }
  },
  {
    "service_request": "2022-868109",
    "request_type": "Traffic Signals/Signs/Striping/Streetlights",
    "request_reason": "Street Light Outage/Malfunction",
    "date_created": "2022-03-18T15:32:11.000",
    "date_modified": "2022-03-18T15:32:12.000",
    "request_status": "Pending",
    "responsible_agency": "Department of Public Works",
    "final_address": "9 Blanc Pl",
    "address_councildis": "B",
    "status": "Pending",
    "contractor": "Royal Engineering",
    "rowid": "868109",
    "final_x": "3667860.3961",
    "final_y": "520958.726393",
    "longitude": "-90.11149503314553",
    "latitude": "29.92686266998376",
    "geocoded_column": {
      "latitude": "29.92686266998376",
      "longitude": "-90.11149503314553"
    }
  },
  {
    "service_request": "2022-868108",
    "request_type": "Trash/Recycling",
    "request_reason": "Request a Large Item Pick Up",
    "date_created": "2022-03-18T15:29:34.000",
    "date_modified": "2022-03-18T15:29:35.000",
    "request_status": "Pending",
    "responsible_agency": "Department of Sanitation",
    "final_address": "8631 Cohn St",
    "address_councildis": "A",
    "status": "Assigned to Contractor",
    "contractor": "Richards Disposal",
    "rowid": "868108",
    "final_x": "3662152.29402",
    "final_y": "531573.520643",
    "longitude": "-90.12916194524814",
    "latitude": "29.956216108082657",
    "geocoded_column": {
      "latitude": "29.956216108082657",
      "longitude": "-90.12916194524814"
    }
  },
  {
    "service_request": "2022-868107",
    "request_type": "Trash/Recycling",
    "request_reason": "Order Trash Cart",
    "date_created": "2022-03-18T15:29:11.000",
    "date_modified": "2022-03-18T15:29:13.000",
    "request_status": "Pending",
    "responsible_agency": "Department of Sanitation",
    "final_address": "6617 Lake Willow Dr",
    "address_councildis": "E",
    "status": "Assigned to Contractor",
    "contractor": "Metro Disposal",
    "rowid": "868107",
    "final_x": "3704116.51742",
    "final_y": "559710.645725",
    "longitude": "-89.99561684410428",
    "latitude": "30.03230334638636",
    "geocoded_column": {
      "latitude": "30.03230334638636",
      "longitude": "-89.99561684410428"
    }
  },
  {
    "service_request": "2022-868106",
    "request_type": "Trash/Recycling",
    "request_reason": "Replace Trash Cart",
    "date_created": "2022-03-18T15:28:47.000",
    "date_modified": "2022-03-18T15:28:49.000",
    "request_status": "Pending",
    "responsible_agency": "Department of Sanitation",
    "final_address": "2600 St Andrew St",
    "address_councildis": "B",
    "status": "Assigned to Contractor",
    "contractor": "Richards Disposal",
    "rowid": "868106",
    "final_x": "3675826.1467",
    "final_y": "526912.878782",
    "longitude": "-90.08614466925299",
    "latitude": "29.94299868127544",
    "geocoded_column": {
      "latitude": "29.94299868127544",
      "longitude": "-90.08614466925299"
    }
  },
  {
    "service_request": "2022-868105",
    "request_type": "Trash/Recycling",
    "request_reason": "Missed Trash Pick-Up",
    "date_created": "2022-03-18T15:26:56.000",
    "date_modified": "2022-03-18T15:26:57.000",
    "request_status": "Pending",
    "responsible_agency": "Department of Sanitation",
    "final_address": "1806 Moss St",
    "address_councildis": "A",
    "status": "Assigned to Contractor",
    "contractor": "Metro Disposal",
    "rowid": "868105",
    "final_x": "3675345.49601",
    "final_y": "542994.618189",
    "longitude": "-90.08710998143782",
    "latitude": "29.987232409278484",
    "geocoded_column": {
      "latitude": "29.987232409278484",
      "longitude": "-90.08710998143782"
    }
  },
  {
    "service_request": "2022-868104",
    "request_type": "Traffic Signals/Signs/Striping/Streetlights",
    "request_reason": "Striping/Road Surface Markings",
    "date_created": "2022-03-18T15:25:56.000",
    "date_modified": "2022-03-18T15:25:56.000",
    "request_status": "Pending",
    "responsible_agency": "Department of Public Works",
    "final_address": "1600 Prytania St",
    "address_councildis": "B",
    "status": "Pending",
    "rowid": "868104",
    "final_x": "3679482.54043",
    "final_y": "524913.410236",
    "longitude": "-90.07466988491011",
    "latitude": "29.93739086815776",
    "geocoded_column": {
      "latitude": "29.93739086815776",
      "longitude": "-90.07466988491011"
    }
  },
  {
    "service_request": "2022-868103",
    "request_type": "Traffic Signals/Signs/Striping/Streetlights",
    "request_reason": "Striping/Road Surface Markings",
    "date_created": "2022-03-18T15:25:23.000",
    "date_modified": "2022-03-18T15:25:23.000",
    "request_status": "Pending",
    "responsible_agency": "Department of Public Works",
    "final_address": "1600 Prytania St",
    "address_councildis": "B",
    "status": "Pending",
    "rowid": "868103",
    "final_x": "3679482.54043",
    "final_y": "524913.410236",
    "longitude": "-90.07466988491011",
    "latitude": "29.93739086815776",
    "geocoded_column": {
      "latitude": "29.93739086815776",
      "longitude": "-90.07466988491011"
    }
  },
  {
    "service_request": "2022-868102",
    "request_type": "Trash/Recycling",
    "request_reason": "Order Trash Cart",
    "date_created": "2022-03-18T15:21:18.000",
    "date_modified": "2022-03-18T15:21:19.000",
    "request_status": "Pending",
    "responsible_agency": "Department of Sanitation",
    "final_address": "6528 Marigny St",
    "address_councildis": "D",
    "status": "Assigned to Contractor",
    "contractor": "Metro Disposal",
    "rowid": "868102",
    "final_x": "3683576.79759",
    "final_y": "557461.339163",
    "longitude": "-90.06060270750383",
    "latitude": "30.026761931687332",
    "geocoded_column": {
      "latitude": "30.026761931687332",
      "longitude": "-90.06060270750383"
    }
  },
  {
    "service_request": "2022-868101",
    "request_type": "Abandoned Vehicles",
    "request_reason": "Abandoned/Junk Vehicles",
    "date_created": "2022-03-18T15:14:12.000",
    "date_modified": "2022-03-18T15:14:56.000",
    "request_status": "Pending",
    "responsible_agency": "Department of Public Works",
    "final_address": "3000 Prytania St",
    "address_councildis": "B",
    "status": "Pending",
    "rowid": "868101",
    "final_x": "3675505.19713",
    "final_y": "521548.954489",
    "longitude": "-90.08734214096171",
    "latitude": "29.928259243394383",
    "geocoded_column": {
      "latitude": "29.928259243394383",
      "longitude": "-90.08734214096171"
    }
  },
  {
    "service_request": "2022-868100",
    "request_type": "Traffic Signals/Signs/Striping/Streetlights",
    "request_reason": "Street Name Sign Damaged or Missing",
    "date_created": "2022-03-18T15:13:17.000",
    "date_modified": "2022-03-18T15:13:17.000",
    "request_status": "Pending",
    "responsible_agency": "Department of Public Works",
    "final_address": "COPERNICUS ST & KABEL DR",
    "address_councildis": "C",
    "status": "Pending",
    "rowid": "868100",
    "final_x": "3700792.5",
    "final_y": "522882.58",
    "longitude": "-90.00746754605973",
    "latitude": "29.931145941479905",
    "geocoded_column": {
      "latitude": "29.931145941479905",
      "longitude": "-90.00746754605973"
    }
  },
  {
    "service_request": "2022-868099",
    "request_type": "Traffic Signals/Signs/Striping/Streetlights",
    "request_reason": "Request for Traffic Calming due to Speeding",
    "date_created": "2022-03-18T15:12:28.000",
    "date_modified": "2022-03-18T15:12:28.000",
    "request_status": "Pending",
    "responsible_agency": "Department of Public Works",
    "final_address": "932 Moss St",
    "address_councildis": "A",
    "status": "Pending",
    "rowid": "868099",
    "final_x": "3674976.16001",
    "final_y": "539597.243466",
    "longitude": "-90.0883931760148",
    "latitude": "29.97790183864931",
    "geocoded_column": {
      "latitude": "29.97790183864931",
      "longitude": "-90.0883931760148"
    }
  },
  {
    "service_request": "2022-868098",
    "request_type": "Trash/Recycling",
    "request_reason": "Repair Recycling Cart",
    "date_created": "2022-03-18T15:10:20.000",
    "date_modified": "2022-03-18T15:10:21.000",
    "request_status": "Pending",
    "responsible_agency": "Department of Sanitation",
    "final_address": "7828 Birch St",
    "address_councildis": "A",
    "status": "Pending",
    "rowid": "868098",
    "final_x": "3663534.35328",
    "final_y": "528792.1376",
    "longitude": "-90.1248904731577",
    "latitude": "29.948528194670658",
    "geocoded_column": {
      "latitude": "29.948528194670658",
      "longitude": "-90.1248904731577"
    }
  },
  {
    "service_request": "2022-868097",
    "request_type": "Abandoned Vehicles",
    "request_reason": "Abandoned/Junk Vehicles",
    "date_created": "2022-03-18T15:06:28.000",
    "date_modified": "2022-03-18T15:06:28.000",
    "request_status": "Pending",
    "responsible_agency": "Department of Public Works",
    "final_address": "2303 Broadway St",
    "address_councildis": "A",
    "status": "Pending",
    "rowid": "868097",
    "final_x": "3666505.31668",
    "final_y": "529869.953089",
    "longitude": "-90.11547368991184",
    "latitude": "29.95140534811212",
    "geocoded_column": {
      "latitude": "29.95140534811212",
      "longitude": "-90.11547368991184"
    }
  },
  {
    "service_request": "2022-868096",
    "request_type": "Trash/Recycling",
    "request_reason": "MIssed Recycling Pick-Up",
    "date_created": "2022-03-18T15:03:45.000",
    "date_modified": "2022-03-18T15:34:06.000",
    "request_status": "Pending",
    "responsible_agency": "Department of Sanitation",
    "final_address": "New Orleans,LA",
    "address_councildis": "B",
    "status": "Assigned to Contractor",
    "contractor": "Richards Disposal",
    "rowid": "868096",
    "final_x": "3668558.99514",
    "final_y": "531229.526466",
    "longitude": "-90.1089432864963",
    "latitude": "29.95508355119546",
    "geocoded_column": {
      "latitude": "29.95508355119546",
      "longitude": "-90.1089432864963"
    }
  },
  {
    "service_request": "2022-868095",
    "request_type": "Roads/Drainage",
    "request_reason": "Pothole",
    "date_created": "2022-03-18T14:59:14.000",
    "date_modified": "2022-03-18T14:59:14.000",
    "request_status": "Pending",
    "responsible_agency": "Department of Public Works",
    "final_address": "13400 BLK Curran Rd",
    "address_councildis": "E",
    "status": "Pending",
    "rowid": "868095",
    "final_x": "3716906.61405",
    "final_y": "570809.410006",
    "longitude": "-89.95477774276073",
    "latitude": "30.062403639396067",
    "geocoded_column": {
      "latitude": "30.062403639396067",
      "longitude": "-89.95477774276073"
    }
  },
  {
    "service_request": "2022-868094",
    "request_type": "Roads/Drainage",
    "request_reason": "Pothole",
    "date_created": "2022-03-18T14:58:03.000",
    "date_modified": "2022-03-18T14:59:00.000",
    "request_status": "Pending",
    "responsible_agency": "Department of Public Works",
    "final_address": "13300 BLK Curran Rd",
    "address_councildis": "E",
    "status": "Pending",
    "rowid": "868094",
    "final_x": "3716522.1263",
    "final_y": "570491.066483",
    "longitude": "-89.95600520006414",
    "latitude": "30.06154104031932",
    "geocoded_column": {
      "latitude": "30.06154104031932",
      "longitude": "-89.95600520006414"
    }
  },
  {
    "service_request": "2022-868093",
    "request_type": "Property Maintenance",
    "request_reason": "Property Maintenance",
    "date_created": "2022-03-18T14:57:38.000",
    "date_modified": "2022-03-18T14:57:38.000",
    "request_status": "Pending",
    "responsible_agency": "Department of Code Enforcement",
    "final_address": "4219 N Claiborne Ave",
    "address_councildis": "D",
    "status": "Pending",
    "rowid": "868093",
    "final_x": "3693026.99401",
    "final_y": "537022.488136",
    "longitude": "-90.03147497410414",
    "latitude": "29.97027056918445",
    "geocoded_column": {
      "latitude": "29.97027056918445",
      "longitude": "-90.03147497410414"
    }
  },
  {
    "service_request": "2022-868092",
    "request_type": "Trash/Recycling",
    "request_reason": "Missed Trash Pick-Up",
    "date_created": "2022-03-18T14:56:51.000",
    "date_modified": "2022-03-18T14:56:52.000",
    "request_status": "Pending",
    "responsible_agency": "Department of Sanitation",
    "final_address": "4200 St Charles Ave",
    "address_councildis": "B",
    "status": "Assigned to Contractor",
    "contractor": "Richards Disposal",
    "rowid": "868092",
    "final_x": "3671557.52705",
    "final_y": "520817.083385",
    "longitude": "-90.0998289601185",
    "latitude": "29.92636427767392",
    "geocoded_column": {
      "latitude": "29.92636427767392",
      "longitude": "-90.0998289601185"
    }
  },
  {
    "service_request": "2022-868090",
    "request_type": "Traffic Signals/Signs/Striping/Streetlights",
    "request_reason": "Street Light Outage/Malfunction",
    "date_created": "2022-03-18T14:46:14.000",
    "date_modified": "2022-03-18T15:29:53.000",
    "request_status": "Pending",
    "responsible_agency": "Department of Public Works",
    "final_address": "5010 N Dorgenois St, New Orleans, Louisiana, 70117",
    "address_councildis": "E",
    "status": "Pending",
    "contractor": "Royal Engineering",
    "rowid": "868090",
    "final_x": "3697537.89872",
    "final_y": "539442.106378",
    "longitude": "-90.01714135878656",
    "latitude": "29.976781955012342",
    "geocoded_column": {
      "latitude": "29.976781955012342",
      "longitude": "-90.01714135878656"
    }
  },
  {
    "service_request": "2022-868089",
    "request_type": "Trash/Recycling",
    "request_reason": "MIssed Recycling Pick-Up",
    "date_created": "2022-03-18T14:44:12.000",
    "date_modified": "2022-03-18T14:44:12.000",
    "request_status": "Pending",
    "responsible_agency": "Department of Sanitation",
    "final_address": "1201 Napoleon Ave",
    "address_councildis": "B",
    "status": "Assigned to Contractor",
    "contractor": "Richards Disposal",
    "rowid": "868089",
    "final_x": "3671051.19521",
    "final_y": "519878.151544",
    "longitude": "-90.10145917596243",
    "latitude": "29.923797492741553",
    "geocoded_column": {
      "latitude": "29.923797492741553",
      "longitude": "-90.10145917596243"
    }
  },
  {
    "service_request": "2022-868087",
    "request_type": "Parks & Parkways",
    "request_reason": "Request Tree Service (Right of Way/Public Property)",
    "date_created": "2022-03-18T14:43:30.000",
    "date_modified": "2022-03-18T14:43:30.000",
    "request_status": "Pending",
    "responsible_agency": "Department of Parks & Parkway",
    "final_address": "3125 Esplanade Ave",
    "address_councildis": "A",
    "status": "Pending",
    "rowid": "868087",
    "final_x": "3676360.85077",
    "final_y": "540481.313675",
    "longitude": "-90.08398939135179",
    "latitude": "29.980291287751943",
    "geocoded_column": {
      "latitude": "29.980291287751943",
      "longitude": "-90.08398939135179"
    }
  },
  {
    "service_request": "2022-868086",
    "request_type": "Trash/Recycling",
    "request_reason": "Request a Large Item Pick Up",
    "date_created": "2022-03-18T14:43:28.000",
    "date_modified": "2022-03-18T14:43:29.000",
    "request_status": "Pending",
    "responsible_agency": "Department of Sanitation",
    "final_address": "7701 Dorsett Dr",
    "address_councildis": "E",
    "status": "Assigned to Contractor",
    "contractor": "Metro Disposal",
    "rowid": "868086",
    "final_x": "3712698.19506",
    "final_y": "567653.07818",
    "longitude": "-89.96819939178269",
    "latitude": "30.053863565646584",
    "geocoded_column": {
      "latitude": "30.053863565646584",
      "longitude": "-89.96819939178269"
    }
  },
  {
    "service_request": "2022-868085",
    "request_type": "Trash/Recycling",
    "request_reason": "Order Trash Cart",
    "date_created": "2022-03-18T14:41:42.000",
    "date_modified": "2022-03-18T14:41:43.000",
    "request_status": "Pending",
    "responsible_agency": "Department of Sanitation",
    "final_address": "129 N Roman St",
    "address_councildis": "B",
    "status": "Assigned to Contractor",
    "contractor": "Richards Disposal",
    "rowid": "868085",
    "final_x": "3677965.04456",
    "final_y": "533517.68794",
    "longitude": "-90.07916339855787",
    "latitude": "29.961095507239705",
    "geocoded_column": {
      "latitude": "29.961095507239705",
      "longitude": "-90.07916339855787"
    }
  },
  {
    "service_request": "2022-868084",
    "request_type": "Tax and Revenue",
    "request_reason": "General Tax Question",
    "date_created": "2022-03-18T14:39:20.000",
    "date_modified": "2022-03-18T14:39:20.000",
    "request_status": "Pending",
    "responsible_agency": "Bureau of Revenue",
    "final_address": "1907 St Charles Ave",
    "address_councildis": "B",
    "status": "Pending",
    "rowid": "868084",
    "final_x": "3678259.00379",
    "final_y": "524306.863548",
    "longitude": "-90.078553643016",
    "latitude": "29.93575996361673",
    "geocoded_column": {
      "latitude": "29.93575996361673",
      "longitude": "-90.078553643016"
    }
  },
  {
    "service_request": "2022-868082",
    "request_type": "Trash/Recycling",
    "request_reason": "Missed Trash Pick-Up",
    "date_created": "2022-03-18T14:33:40.000",
    "date_modified": "2022-03-18T14:33:41.000",
    "request_status": "Pending",
    "responsible_agency": "Department of Sanitation",
    "final_address": "3720 Rue Nichole",
    "address_councildis": "C",
    "status": "Assigned to Contractor",
    "contractor": "Richards Disposal",
    "rowid": "868082",
    "final_x": "3704039.25956",
    "final_y": "516801.855605",
    "longitude": "-89.99744182737791",
    "latitude": "29.914322354953338",
    "geocoded_column": {
      "latitude": "29.914322354953338",
      "longitude": "-89.99744182737791"
    }
  },
  {
    "service_request": "2022-868081",
    "request_type": "Trash/Recycling",
    "request_reason": "Replace Trash Cart",
    "date_created": "2022-03-18T14:32:29.000",
    "date_modified": "2022-03-18T14:32:31.000",
    "request_status": "Pending",
    "responsible_agency": "Department of Sanitation",
    "final_address": "6218 Wadsworth Dr",
    "address_councildis": "D",
    "status": "Assigned to Contractor",
    "contractor": "Metro Disposal",
    "rowid": "868081",
    "final_x": "3681570.68316",
    "final_y": "555861.887641",
    "longitude": "-90.06699767271901",
    "latitude": "30.022425144720174",
    "geocoded_column": {
      "latitude": "30.022425144720174",
      "longitude": "-90.06699767271901"
    }
  },
  {
    "service_request": "2022-868080",
    "request_type": "Tax and Revenue",
    "request_reason": "Sales Tax Question",
    "date_created": "2022-03-18T14:32:00.000",
    "date_modified": "2022-03-18T14:32:00.000",
    "request_status": "Pending",
    "responsible_agency": "Bureau of Revenue",
    "status": "Pending",
    "rowid": "868080",
    "longitude": "0.0",
    "latitude": "0.0",
    "geocoded_column": {
      "latitude": "0.0",
      "longitude": "0.0"
    }
  },
  {
    "service_request": "2022-868079",
    "request_type": "Trash/Recycling",
    "request_reason": "Illegal Dumping",
    "date_created": "2022-03-18T14:30:57.000",
    "date_modified": "2022-03-18T14:30:57.000",
    "request_status": "Pending",
    "responsible_agency": "Department of Sanitation",
    "final_address": "ORETHA CASTLE HALEY BLVD & DRYADES ST & CALLIOPE ST",
    "address_councildis": "B",
    "status": "Pending",
    "rowid": "868079",
    "final_x": "3678705.21",
    "final_y": "527297.49",
    "longitude": "-90.07704144738564",
    "latitude": "29.943969753650155",
    "geocoded_column": {
      "latitude": "29.943969753650155",
      "longitude": "-90.07704144738564"
    }
  },
  {
    "service_request": "2022-868078",
    "request_type": "Property Maintenance",
    "request_reason": "Property Maintenance",
    "date_created": "2022-03-18T14:27:24.000",
    "date_modified": "2022-03-18T14:27:24.000",
    "request_status": "Pending",
    "responsible_agency": "Department of Code Enforcement",
    "final_address": "11261 Lake Forest Blvd",
    "address_councildis": "E",
    "status": "Pending",
    "rowid": "868078",
    "final_x": "3716242.57996",
    "final_y": "561824.840543",
    "longitude": "-89.95721782592996",
    "latitude": "30.03772170236868",
    "geocoded_column": {
      "latitude": "30.03772170236868",
      "longitude": "-89.95721782592996"
    }
  },
  {
    "service_request": "2022-868077",
    "request_type": "Trash/Recycling",
    "request_reason": "MIssed Recycling Pick-Up",
    "date_created": "2022-03-18T14:24:12.000",
    "date_modified": "2022-03-18T14:24:15.000",
    "request_status": "Pending",
    "responsible_agency": "Department of Sanitation",
    "final_address": "1569 Valmont St",
    "address_councildis": "B",
    "status": "Assigned to Contractor",
    "contractor": "Richards Disposal",
    "rowid": "868077",
    "final_x": "3667888.50221",
    "final_y": "521037.493497",
    "longitude": "-90.11140365774384",
    "latitude": "29.927078430412067",
    "geocoded_column": {
      "latitude": "29.927078430412067",
      "longitude": "-90.11140365774384"
    }
  },
  {
    "service_request": "2022-868076",
    "request_type": "Trash/Recycling",
    "request_reason": "MIssed Recycling Pick-Up",
    "date_created": "2022-03-18T14:22:48.000",
    "date_modified": "2022-03-18T14:22:49.000",
    "request_status": "Pending",
    "responsible_agency": "Department of Sanitation",
    "final_address": "2231 Wirth Pl",
    "address_councildis": "A",
    "status": "Assigned to Contractor",
    "contractor": "Richards Disposal",
    "rowid": "868076",
    "final_x": "3667151.38125",
    "final_y": "524461.921532",
    "longitude": "-90.11361549587174",
    "latitude": "29.936516110759136",
    "geocoded_column": {
      "latitude": "29.936516110759136",
      "longitude": "-90.11361549587174"
    }
  },
  {
    "service_request": "2022-868075",
    "request_type": "Trash/Recycling",
    "request_reason": "Request a Large Item Pick Up",
    "date_created": "2022-03-18T14:22:11.000",
    "date_modified": "2022-03-18T14:22:11.000",
    "request_status": "Pending",
    "responsible_agency": "Department of Sanitation",
    "final_address": "1636 Amelia St",
    "address_councildis": "B",
    "status": "Assigned to Contractor",
    "contractor": "Richards Disposal",
    "rowid": "868075",
    "final_x": "3672994.69972",
    "final_y": "521404.061369",
    "longitude": "-90.09527218168577",
    "latitude": "29.927935659253567",
    "geocoded_column": {
      "latitude": "29.927935659253567",
      "longitude": "-90.09527218168577"
    }
  },
  {
    "service_request": "2022-868074",
    "request_type": "Property Maintenance",
    "request_reason": "Property Maintenance",
    "date_created": "2022-03-18T14:21:20.000",
    "date_modified": "2022-03-18T14:21:20.000",
    "request_status": "Pending",
    "responsible_agency": "Department of Code Enforcement",
    "final_address": "11061 Lake Forest Blvd",
    "address_councildis": "E",
    "status": "Pending",
    "rowid": "868074",
    "final_x": "3714715.18879",
    "final_y": "560798.357598",
    "longitude": "-89.96208352082046",
    "latitude": "30.03494963575178",
    "geocoded_column": {
      "latitude": "30.03494963575178",
      "longitude": "-89.96208352082046"
    }
  },
  {
    "service_request": "2022-868073",
    "request_type": "Traffic Signals/Signs/Striping/Streetlights",
    "request_reason": "Traffic Sign Missing/Damaged",
    "date_created": "2022-03-18T14:19:26.000",
    "date_modified": "2022-03-18T14:19:26.000",
    "request_status": "Pending",
    "responsible_agency": "Department of Public Works",
    "final_address": "ST CHARLES AVE & ST ANDREW ST",
    "address_councildis": "B",
    "status": "Pending",
    "rowid": "868073",
    "final_x": "3678175.5",
    "final_y": "524171.58",
    "longitude": "-90.07882194183809",
    "latitude": "29.935390492458573",
    "geocoded_column": {
      "latitude": "29.935390492458573",
      "longitude": "-90.07882194183809"
    }
  },
  {
    "service_request": "2022-868072",
    "request_type": "Trash/Recycling",
    "request_reason": "Request a Large Item Pick Up",
    "date_created": "2022-03-18T14:19:16.000",
    "date_modified": "2022-03-18T14:19:16.000",
    "request_status": "Pending",
    "responsible_agency": "Department of Sanitation",
    "final_address": "2519 Memorial Park Dr",
    "address_councildis": "C",
    "status": "Assigned to Contractor",
    "contractor": "Richards Disposal",
    "rowid": "868072",
    "final_x": "3692712.43715",
    "final_y": "521117.329657",
    "longitude": "-90.0330383838204",
    "latitude": "29.926546709190188",
    "geocoded_column": {
      "latitude": "29.926546709190188",
      "longitude": "-90.0330383838204"
    }
  },
  {
    "service_request": "2022-868071",
    "request_type": "Trash/Recycling",
    "request_reason": "Return Recycling Cart",
    "date_created": "2022-03-18T14:17:17.000",
    "date_modified": "2022-03-18T14:17:17.000",
    "request_status": "Pending",
    "responsible_agency": "Department of Sanitation",
    "final_address": "6037 Wingate Dr",
    "address_councildis": "D",
    "status": "Pending",
    "rowid": "868071",
    "final_x": "3681283.37948",
    "final_y": "555087.256793",
    "longitude": "-90.06793251296342",
    "latitude": "30.020303920787264",
    "geocoded_column": {
      "latitude": "30.020303920787264",
      "longitude": "-90.06793251296342"
    }
  },
  {
    "service_request": "2022-868070",
    "request_type": "Roads/Drainage",
    "request_reason": "Street Flooding / Drainage",
    "date_created": "2022-03-18T14:16:11.000",
    "date_modified": "2022-03-18T14:16:11.000",
    "request_status": "Pending",
    "responsible_agency": "Department of Public Works",
    "final_address": "1443 Burbank Dr",
    "address_councildis": "D",
    "status": "Pending",
    "rowid": "868070",
    "final_x": "3677813.38888",
    "final_y": "554367.998104",
    "longitude": "-90.07892149837762",
    "latitude": "30.018431131144773",
    "geocoded_column": {
      "latitude": "30.018431131144773",
      "longitude": "-90.07892149837762"
    }
  },
  {
    "service_request": "2022-868068",
    "request_type": "Traffic Signals/Signs/Striping/Streetlights",
    "request_reason": "Street Light Outage/Malfunction",
    "date_created": "2022-03-18T14:09:00.000",
    "date_modified": "2022-03-18T14:09:01.000",
    "request_status": "Pending",
    "responsible_agency": "Department of Public Works",
    "final_address": "5114 Venus St",
    "address_councildis": "D",
    "status": "Pending",
    "contractor": "Royal Engineering",
    "rowid": "868068",
    "final_x": "3686319.4902",
    "final_y": "551700.342229",
    "longitude": "-90.0521396466708",
    "latitude": "30.01083726591682",
    "geocoded_column": {
      "latitude": "30.01083726591682",
      "longitude": "-90.0521396466708"
    }
  },
  {
    "service_request": "2022-868067",
    "request_type": "Trash/Recycling",
    "request_reason": "Request a Large Item Pick Up",
    "date_created": "2022-03-18T14:00:17.000",
    "date_modified": "2022-03-18T14:00:20.000",
    "request_status": "Pending",
    "responsible_agency": "Department of Sanitation",
    "final_address": "4714 Werner Dr",
    "address_councildis": "E",
    "status": "Assigned to Contractor",
    "contractor": "Metro Disposal",
    "rowid": "868067",
    "final_x": "3704704.73105",
    "final_y": "555115.461337",
    "longitude": "-89.99392780242569",
    "latitude": "30.019649478001735",
    "geocoded_column": {
      "latitude": "30.019649478001735",
      "longitude": "-89.99392780242569"
    }
  },
  {
    "service_request": "2022-868066",
    "request_type": "Safety & Permits",
    "request_reason": "Licenses & Permits",
    "date_created": "2022-03-18T13:59:38.000",
    "date_modified": "2022-03-18T13:59:38.000",
    "request_status": "Pending",
    "responsible_agency": "Safety and Permits",
    "final_address": "636 Pine St",
    "address_councildis": "A",
    "status": "Pending",
    "rowid": "868066",
    "final_x": "3662857.49395",
    "final_y": "525227.538429",
    "longitude": "-90.12714608940935",
    "latitude": "29.93874629623994",
    "geocoded_column": {
      "latitude": "29.93874629623994",
      "longitude": "-90.12714608940935"
    }
  },
  {
    "service_request": "2022-868065",
    "request_type": "Trash/Recycling",
    "request_reason": "Missed Trash Pick-Up",
    "date_created": "2022-03-18T13:58:24.000",
    "date_modified": "2022-03-18T13:58:25.000",
    "request_status": "Pending",
    "responsible_agency": "Department of Sanitation",
    "final_address": "1700 BLK Saint Thomas St",
    "address_councildis": "B",
    "status": "Assigned to Contractor",
    "contractor": "Richards Disposal",
    "rowid": "868065",
    "final_x": "3681317.76167",
    "final_y": "521884.880887",
    "longitude": "-90.06898147353424",
    "latitude": "29.929007854845825",
    "geocoded_column": {
      "latitude": "29.929007854845825",
      "longitude": "-90.06898147353424"
    }
  },
  {
    "service_request": "2022-868064",
    "request_type": "Traffic Signals/Signs/Striping/Streetlights",
    "request_reason": "Street Light Outage/Malfunction",
    "date_created": "2022-03-18T13:58:19.000",
    "date_modified": "2022-03-18T13:58:20.000",
    "request_status": "Pending",
    "responsible_agency": "Department of Public Works",
    "final_address": "8041 Haney Dr",
    "address_councildis": "E",
    "status": "Pending",
    "contractor": "Royal Engineering",
    "rowid": "868064",
    "final_x": "3711808.81675",
    "final_y": "568457.034085",
    "longitude": "-89.97098025766688",
    "latitude": "30.05610322116783",
    "geocoded_column": {
      "latitude": "30.05610322116783",
      "longitude": "-89.97098025766688"
    }
  },
  {
    "service_request": "2022-868063",
    "request_type": "Trash/Recycling",
    "request_reason": "Missed Trash Pick-Up",
    "date_created": "2022-03-18T13:58:07.000",
    "date_modified": "2022-03-18T13:58:08.000",
    "request_status": "Pending",
    "responsible_agency": "Department of Sanitation",
    "final_address": "1600 BLK Saint Thomas St",
    "address_councildis": "B",
    "status": "Assigned to Contractor",
    "contractor": "Richards Disposal",
    "rowid": "868063",
    "final_x": "3681487.3322",
    "final_y": "522577.588163",
    "longitude": "-90.06842203355686",
    "latitude": "29.9309074256013",
    "geocoded_column": {
      "latitude": "29.9309074256013",
      "longitude": "-90.06842203355686"
    }
  },
  {
    "service_request": "2022-868062",
    "request_type": "Trash/Recycling",
    "request_reason": "MIssed Recycling Pick-Up",
    "date_created": "2022-03-18T13:57:13.000",
    "date_modified": "2022-03-18T13:57:14.000",
    "request_status": "Pending",
    "responsible_agency": "Department of Sanitation",
    "final_address": "8135 Nelson St",
    "address_councildis": "A",
    "status": "Assigned to Contractor",
    "contractor": "Richards Disposal",
    "rowid": "868062",
    "final_x": "3664996.39392",
    "final_y": "532087.492675",
    "longitude": "-90.12016401600818",
    "latitude": "29.957546872773094",
    "geocoded_column": {
      "latitude": "29.957546872773094",
      "longitude": "-90.12016401600818"
    }
  },
  {
    "service_request": "2022-868060",
    "request_type": "Traffic Signals/Signs/Striping/Streetlights",
    "request_reason": "Street Light Outage/Malfunction",
    "date_created": "2022-03-18T13:51:55.000",
    "date_modified": "2022-03-18T13:51:56.000",
    "request_status": "Pending",
    "responsible_agency": "Department of Public Works",
    "final_address": "65 Yosemite Dr",
    "address_councildis": "C",
    "status": "Pending",
    "contractor": "Royal Engineering",
    "rowid": "868060",
    "final_x": "3699578.57252",
    "final_y": "516511.424757",
    "longitude": "-90.01153174771811",
    "latitude": "29.913666013012058",
    "geocoded_column": {
      "latitude": "29.913666013012058",
      "longitude": "-90.01153174771811"
    }
  },
  {
    "service_request": "2022-868059",
    "request_type": "Trash/Recycling",
    "request_reason": "Repair Trash Cart",
    "date_created": "2022-03-18T13:49:45.000",
    "date_modified": "2022-03-18T13:49:46.000",
    "request_status": "Pending",
    "responsible_agency": "Department of Sanitation",
    "final_address": "1721 Burdette St",
    "address_councildis": "A",
    "status": "Assigned to Contractor",
    "contractor": "Richards Disposal",
    "rowid": "868059",
    "final_x": "3664134.7458",
    "final_y": "529017.07808",
    "longitude": "-90.12298727150088",
    "latitude": "29.94912928406882",
    "geocoded_column": {
      "latitude": "29.94912928406882",
      "longitude": "-90.12298727150088"
    }
  },
  {
    "service_request": "2022-868058",
    "request_type": "Abandoned Vehicles",
    "request_reason": "Abandoned/Junk Vehicles",
    "date_created": "2022-03-18T13:46:45.000",
    "date_modified": "2022-03-18T13:48:31.000",
    "request_status": "Pending",
    "responsible_agency": "Department of Public Works",
    "final_address": "PAINTERS ST & MADRID ST",
    "address_councildis": "D",
    "status": "Pending",
    "rowid": "868058",
    "final_x": "3686035.0",
    "final_y": "555532.68",
    "longitude": "-90.05290316053579",
    "latitude": "30.021383529113514",
    "geocoded_column": {
      "latitude": "30.021383529113514",
      "longitude": "-90.05290316053579"
    }
  },
  {
    "service_request": "2022-868057",
    "request_type": "Trash/Recycling",
    "request_reason": "Order Trash Cart",
    "date_created": "2022-03-18T13:46:43.000",
    "date_modified": "2022-03-18T13:46:44.000",
    "request_status": "Pending",
    "responsible_agency": "Department of Sanitation",
    "final_address": "1021 Teche St",
    "address_councildis": "C",
    "status": "Assigned to Contractor",
    "contractor": "Richards Disposal",
    "rowid": "868057",
    "final_x": "3686533.42434",
    "final_y": "527713.589055",
    "longitude": "-90.0523109878451",
    "latitude": "29.94487556507266",
    "geocoded_column": {
      "latitude": "29.94487556507266",
      "longitude": "-90.0523109878451"
    }
  },
  {
    "service_request": "2022-868056",
    "request_type": "Trash/Recycling",
    "request_reason": "Missed Trash Pick-Up",
    "date_created": "2022-03-18T13:43:01.000",
    "date_modified": "2022-03-18T13:43:02.000",
    "request_status": "Pending",
    "responsible_agency": "Department of Sanitation",
    "final_address": "1600 BLK Chippewa St",
    "address_councildis": "B",
    "status": "Assigned to Contractor",
    "contractor": "Richards Disposal",
    "rowid": "868056",
    "final_x": "3681072.78775",
    "final_y": "522677.18278",
    "longitude": "-90.06972722527576",
    "latitude": "29.93119385456631",
    "geocoded_column": {
      "latitude": "29.93119385456631",
      "longitude": "-90.06972722527576"
    }
  },
  {
    "service_request": "2022-868055",
    "request_type": "Abandoned Vehicles",
    "request_reason": "Abandoned/Junk Vehicles",
    "date_created": "2022-03-18T13:37:16.000",
    "date_modified": "2022-03-18T13:38:31.000",
    "request_status": "Pending",
    "responsible_agency": "Department of Public Works",
    "final_address": "7451 Restgate Rd",
    "address_councildis": "E",
    "status": "Pending",
    "rowid": "868055",
    "final_x": "3710235.8035",
    "final_y": "564089.455841",
    "longitude": "-89.97611574897103",
    "latitude": "30.04414547643445",
    "geocoded_column": {
      "latitude": "30.04414547643445",
      "longitude": "-89.97611574897103"
    }
  },
  {
    "service_request": "2022-868054",
    "request_type": "Tax and Revenue",
    "request_reason": "Occupational License Tax",
    "date_created": "2022-03-18T13:36:28.000",
    "date_modified": "2022-03-18T14:14:16.000",
    "request_status": "Pending",
    "responsible_agency": "Bureau of Revenue",
    "final_address": "New Orleans,LA",
    "rowid": "868054",
    "longitude": "0.0",
    "latitude": "0.0",
    "geocoded_column": {
      "latitude": "0.0",
      "longitude": "0.0"
    }
  },
  {
    "service_request": "2022-868053",
    "request_type": "Trash/Recycling",
    "request_reason": "Illegal Dumping",
    "date_created": "2022-03-18T13:21:33.000",
    "date_modified": "2022-03-18T13:21:34.000",
    "request_status": "Pending",
    "responsible_agency": "Department of Sanitation",
    "final_address": "3630 N Homestead Dr",
    "address_councildis": "C",
    "status": "Pending",
    "rowid": "868053",
    "final_x": "3697189.04151",
    "final_y": "525351.169213",
    "longitude": "-90.01875372525456",
    "latitude": "29.93804786938636",
    "geocoded_column": {
      "latitude": "29.93804786938636",
      "longitude": "-90.01875372525456"
    }
  },
  {
    "service_request": "2022-868052",
    "request_type": "Abandoned Vehicles",
    "request_reason": "Abandoned/Junk Vehicles",
    "date_created": "2022-03-18T13:18:08.000",
    "date_modified": "2022-03-18T13:20:28.000",
    "request_status": "Pending",
    "responsible_agency": "Department of Public Works",
    "final_address": "15036 Curran Rd",
    "address_councildis": "E",
    "status": "Pending",
    "rowid": "868052",
    "final_x": "3721059.45145",
    "final_y": "574271.884202",
    "longitude": "-89.94151774579107",
    "latitude": "30.071785951162024",
    "geocoded_column": {
      "latitude": "30.071785951162024",
      "longitude": "-89.94151774579107"
    }
  },
  {
    "service_request": "2022-868051",
    "request_type": "Property Maintenance",
    "request_reason": "Property Maintenance",
    "date_created": "2022-03-18T13:16:33.000",
    "date_modified": "2022-03-18T13:16:33.000",
    "request_status": "Pending",
    "responsible_agency": "Department of Code Enforcement",
    "final_address": "2615 Robert St",
    "address_councildis": "B",
    "status": "Pending",
    "rowid": "868051",
    "final_x": "3668894.93044",
    "final_y": "525094.316221",
    "longitude": "-90.10808967682574",
    "latitude": "29.938203844518156",
    "geocoded_column": {
      "latitude": "29.938203844518156",
      "longitude": "-90.10808967682574"
    }
  },
  {
    "service_request": "2022-868050",
    "request_type": "Trash/Recycling",
    "request_reason": "Request a Large Item Pick Up",
    "date_created": "2022-03-18T13:12:53.000",
    "date_modified": "2022-03-18T13:28:31.000",
    "request_status": "Pending",
    "responsible_agency": "Department of Sanitation",
    "final_address": "5641 General Haig St, New Orleans, Louisiana, 70124",
    "address_councildis": "A",
    "status": "Assigned to Contractor",
    "contractor": "Metro Disposal",
    "rowid": "868050",
    "final_x": "3670466.91444",
    "final_y": "544720.090895",
    "longitude": "-90.10246118001068",
    "latitude": "29.992121860231148",
    "geocoded_column": {
      "latitude": "29.992121860231148",
      "longitude": "-90.10246118001068"
    }
  },
  {
    "service_request": "2022-868049",
    "request_type": "Traffic Signals/Signs/Striping/Streetlights",
    "request_reason": "Additional signage",
    "date_created": "2022-03-18T13:11:21.000",
    "date_modified": "2022-03-18T13:11:21.000",
    "request_status": "Pending",
    "responsible_agency": "Department of Public Works",
    "final_address": "2739 Lepage St",
    "address_councildis": "A",
    "status": "Pending",
    "rowid": "868049",
    "final_x": "3677660.91374",
    "final_y": "539864.959498",
    "longitude": "-90.07990453342633",
    "latitude": "29.97855748626517",
    "geocoded_column": {
      "latitude": "29.97855748626517",
      "longitude": "-90.07990453342633"
    }
  },
  {
    "service_request": "2022-868048",
    "request_type": "Roads/Drainage",
    "request_reason": "Catch Basin - Broken/Damage",
    "date_created": "2022-03-18T13:08:35.000",
    "date_modified": "2022-03-18T13:08:35.000",
    "request_status": "Pending",
    "responsible_agency": "Department of Public Works",
    "final_address": "919 St Roch Ave",
    "address_councildis": "C",
    "status": "Pending",
    "rowid": "868048",
    "final_x": "3686567.3599",
    "final_y": "535881.161863",
    "longitude": "-90.05191545620613",
    "latitude": "29.967332540679948",
    "geocoded_column": {
      "latitude": "29.967332540679948",
      "longitude": "-90.05191545620613"
    }
  },
  {
    "service_request": "2022-868046",
    "request_type": "Trash/Recycling",
    "request_reason": "Order Recycling Cart",
    "date_created": "2022-03-18T13:05:01.000",
    "date_modified": "2022-03-18T13:05:01.000",
    "request_status": "Pending",
    "responsible_agency": "Department of Sanitation",
    "final_address": "8227 Green St",
    "address_councildis": "A",
    "status": "Pending",
    "rowid": "868046",
    "final_x": "3662743.79424",
    "final_y": "530098.580993",
    "longitude": "-90.12734319648014",
    "latitude": "29.95214339531321",
    "geocoded_column": {
      "latitude": "29.95214339531321",
      "longitude": "-90.12734319648014"
    }
  },
  {
    "service_request": "2022-868045",
    "request_type": "Roads/Drainage",
    "request_reason": "Damaged Sidewalk",
    "date_created": "2022-03-18T13:04:34.000",
    "date_modified": "2022-03-18T13:04:34.000",
    "request_status": "Pending",
    "responsible_agency": "Department of Public Works",
    "final_address": "700 Canal St",
    "address_councildis": "B",
    "status": "Pending",
    "rowid": "868045",
    "final_x": "3681088.32981",
    "final_y": "530625.904002",
    "longitude": "-90.06940136900302",
    "latitude": "29.95304971412305",
    "geocoded_column": {
      "latitude": "29.95304971412305",
      "longitude": "-90.06940136900302"
    }
  },
  {
    "service_request": "2022-868044",
    "request_type": "Trash/Recycling",
    "request_reason": "Order Recycling Cart",
    "date_created": "2022-03-18T13:04:29.000",
    "date_modified": "2022-03-18T13:04:30.000",
    "request_status": "Pending",
    "responsible_agency": "Department of Sanitation",
    "final_address": "8227 Green St",
    "address_councildis": "A",
    "status": "Pending",
    "rowid": "868044",
    "final_x": "3662743.79424",
    "final_y": "530098.580993",
    "longitude": "-90.12734319648014",
    "latitude": "29.95214339531321",
    "geocoded_column": {
      "latitude": "29.95214339531321",
      "longitude": "-90.12734319648014"
    }
  },
  {
    "service_request": "2022-868043",
    "request_type": "Roads/Drainage",
    "request_reason": "Damaged Sidewalk",
    "date_created": "2022-03-18T13:01:54.000",
    "date_modified": "2022-03-18T13:01:54.000",
    "request_status": "Pending",
    "responsible_agency": "Department of Public Works",
    "final_address": "822 Perdido St",
    "address_councildis": "B",
    "status": "Pending",
    "rowid": "868043",
    "final_x": "3680216.60872",
    "final_y": "529806.256705",
    "longitude": "-90.07218236736891",
    "latitude": "29.950822370911567",
    "geocoded_column": {
      "latitude": "29.950822370911567",
      "longitude": "-90.07218236736891"
    }
  },
  {
    "service_request": "2022-868042",
    "request_type": "Roads/Drainage",
    "request_reason": "Man hole cover issue",
    "date_created": "2022-03-18T12:58:26.000",
    "date_modified": "2022-03-18T12:58:26.000",
    "request_status": "Pending",
    "responsible_agency": "Department of Public Works",
    "final_address": "122 Carondelet St",
    "address_councildis": "B",
    "status": "Pending",
    "rowid": "868042",
    "final_x": "3680769.89499",
    "final_y": "530634.064258",
    "longitude": "-90.07040656238124",
    "latitude": "29.953081806506788",
    "geocoded_column": {
      "latitude": "29.953081806506788",
      "longitude": "-90.07040656238124"
    }
  },
  {
    "service_request": "2022-868041",
    "request_type": "Trash/Recycling",
    "request_reason": "Request a Large Item Pick Up",
    "date_created": "2022-03-18T12:58:05.000",
    "date_modified": "2022-03-18T12:58:06.000",
    "request_status": "Pending",
    "responsible_agency": "Department of Sanitation",
    "final_address": "5541 Bentley Dr",
    "address_councildis": "E",
    "status": "Assigned to Contractor",
    "contractor": "Metro Disposal",
    "rowid": "868041",
    "final_x": "3704038.53079",
    "final_y": "556615.81801",
    "longitude": "-89.99597743012393",
    "latitude": "30.023796275771915",
    "geocoded_column": {
      "latitude": "30.023796275771915",
      "longitude": "-89.99597743012393"
    }
  },
  {
    "service_request": "2022-868040",
    "request_type": "Abandoned Vehicles",
    "request_reason": "Abandoned/Junk Vehicles",
    "date_created": "2022-03-18T12:55:43.000",
    "date_modified": "2022-03-18T12:55:43.000",
    "request_status": "Pending",
    "responsible_agency": "Department of Public Works",
    "final_address": "4537 Shalimar Dr",
    "address_councildis": "D",
    "status": "Pending",
    "rowid": "868040",
    "final_x": "3697341.48055",
    "final_y": "553205.046423",
    "longitude": "-90.01726245233903",
    "latitude": "30.014631167303254",
    "geocoded_column": {
      "latitude": "30.014631167303254",
      "longitude": "-90.01726245233903"
    }
  },
  {
    "service_request": "2022-868039",
    "request_type": "Safety & Permits",
    "request_reason": "School Bus Complaints",
    "date_created": "2022-03-18T12:54:13.000",
    "date_modified": "2022-03-18T12:55:19.000",
    "request_status": "Pending",
    "responsible_agency": "Safety and Permits",
    "final_address": "6617 Lake Willow Dr",
    "address_councildis": "E",
    "status": "Pending",
    "rowid": "868039",
    "final_x": "3704116.51742",
    "final_y": "559710.645725",
    "longitude": "-89.99561684410428",
    "latitude": "30.03230334638636",
    "geocoded_column": {
      "latitude": "30.03230334638636",
      "longitude": "-89.99561684410428"
    }
  },
  {
    "service_request": "2022-868037",
    "request_type": "Trash/Recycling",
    "request_reason": "Missed Trash Pick-Up",
    "date_created": "2022-03-18T12:51:22.000",
    "date_modified": "2022-03-18T12:51:23.000",
    "request_status": "Pending",
    "responsible_agency": "Department of Sanitation",
    "final_address": "1802 Laurel St",
    "address_councildis": "B",
    "status": "Assigned to Contractor",
    "contractor": "Richards Disposal",
    "rowid": "868037",
    "final_x": "3680498.37487",
    "final_y": "522444.32505",
    "longitude": "-90.07154866686257",
    "latitude": "29.930570977706463",
    "geocoded_column": {
      "latitude": "29.930570977706463",
      "longitude": "-90.07154866686257"
    }
  },
  {
    "service_request": "2022-868036",
    "request_type": "Roads/Drainage",
    "request_reason": "Catch Basin - Clogged",
    "date_created": "2022-03-18T12:51:15.000",
    "date_modified": "2022-03-18T12:51:15.000",
    "request_status": "Pending",
    "responsible_agency": "Department of Public Works",
    "final_address": "7915 Means Ave",
    "address_councildis": "E",
    "status": "Pending",
    "rowid": "868036",
    "final_x": "3707639.03889",
    "final_y": "565606.397922",
    "longitude": "-89.9842661685792",
    "latitude": "30.048400777390995",
    "geocoded_column": {
      "latitude": "30.048400777390995",
      "longitude": "-89.9842661685792"
    }
  },
  {
    "service_request": "2022-868035",
    "request_type": "Tax and Revenue",
    "request_reason": "Sales Tax Question",
    "date_created": "2022-03-18T12:49:51.000",
    "date_modified": "2022-03-18T12:49:51.000",
    "request_status": "Pending",
    "responsible_agency": "Bureau of Revenue",
    "status": "Pending",
    "rowid": "868035",
    "longitude": "0.0",
    "latitude": "0.0",
    "geocoded_column": {
      "latitude": "0.0",
      "longitude": "0.0"
    }
  },
  {
    "service_request": "2022-868034",
    "request_type": "Trash/Recycling",
    "request_reason": "Order Recycling Cart",
    "date_created": "2022-03-18T12:49:06.000",
    "date_modified": "2022-03-18T12:49:06.000",
    "request_status": "Pending",
    "responsible_agency": "Department of Sanitation",
    "final_address": "735 Exposition Blvd",
    "address_councildis": "A",
    "status": "Pending",
    "rowid": "868034",
    "final_x": "3663151.76474",
    "final_y": "519806.541944",
    "longitude": "-90.12639731227071",
    "latitude": "29.923831742947172",
    "geocoded_column": {
      "latitude": "29.923831742947172",
      "longitude": "-90.12639731227071"
    }
  },
  {
    "service_request": "2022-868033",
    "request_type": "Trash/Recycling",
    "request_reason": "Repair Trash Cart",
    "date_created": "2022-03-18T12:48:43.000",
    "date_modified": "2022-03-18T14:43:42.000",
    "case_close_date": "2022-03-18T09:43:42.000",
    "request_status": "Closed",
    "responsible_agency": "Department of Sanitation",
    "final_address": "3700 Dickens Dr",
    "address_councildis": "C",
    "status": "Duplicate Case",
    "contractor": "Richards Disposal",
    "rowid": "868033",
    "final_x": "3708030.83742",
    "final_y": "517225.687605",
    "longitude": "-89.98482742994905",
    "latitude": "29.915359183047528",
    "geocoded_column": {
      "latitude": "29.915359183047528",
      "longitude": "-89.98482742994905"
    }
  },
  {
    "service_request": "2022-868032",
    "request_type": "Trash/Recycling",
    "request_reason": "Repair Trash Cart",
    "date_created": "2022-03-18T12:48:10.000",
    "date_modified": "2022-03-18T12:48:10.000",
    "request_status": "Pending",
    "responsible_agency": "Department of Sanitation",
    "final_address": "3700 Dickens Dr",
    "address_councildis": "C",
    "status": "Assigned to Contractor",
    "contractor": "Richards Disposal",
    "rowid": "868032",
    "final_x": "3708030.83742",
    "final_y": "517225.687605",
    "longitude": "-89.98482742994905",
    "latitude": "29.915359183047528",
    "geocoded_column": {
      "latitude": "29.915359183047528",
      "longitude": "-89.98482742994905"
    }
  },
  {
    "service_request": "2022-868031",
    "request_type": "Roads/Drainage",
    "request_reason": "Damaged Sidewalk",
    "date_created": "2022-03-18T12:47:34.000",
    "date_modified": "2022-03-18T12:47:34.000",
    "request_status": "Pending",
    "responsible_agency": "Department of Public Works",
    "final_address": "100 Bourbon St",
    "address_councildis": "C",
    "status": "Pending",
    "rowid": "868031",
    "final_x": "3681026.51387",
    "final_y": "530995.060226",
    "longitude": "-90.06958370079413",
    "latitude": "29.954066643745975",
    "geocoded_column": {
      "latitude": "29.954066643745975",
      "longitude": "-90.06958370079413"
    }
  },
  {
    "service_request": "2022-868030",
    "request_type": "Trash/Recycling",
    "request_reason": "Missed Trash Pick-Up",
    "date_created": "2022-03-18T12:47:03.000",
    "date_modified": "2022-03-18T12:47:03.000",
    "request_status": "Pending",
    "responsible_agency": "Department of Sanitation",
    "final_address": "3433 Dryades St",
    "address_councildis": "B",
    "status": "Assigned to Contractor",
    "contractor": "Richards Disposal",
    "rowid": "868030",
    "final_x": "3673475.28449",
    "final_y": "522468.207546",
    "longitude": "-90.09371874257826",
    "latitude": "29.930847431012168",
    "geocoded_column": {
      "latitude": "29.930847431012168",
      "longitude": "-90.09371874257826"
    }
  },
  {
    "service_request": "2022-868029",
    "request_type": "Tax and Revenue",
    "request_reason": "Sales Tax Question",
    "date_created": "2022-03-18T12:40:45.000",
    "date_modified": "2022-03-18T12:40:46.000",
    "request_status": "Pending",
    "responsible_agency": "Bureau of Revenue",
    "status": "Pending",
    "rowid": "868029",
    "longitude": "0.0",
    "latitude": "0.0",
    "geocoded_column": {
      "latitude": "0.0",
      "longitude": "0.0"
    }
  },
  {
    "service_request": "2022-868028",
    "request_type": "Trash/Recycling",
    "request_reason": "Request a Large Item Pick Up",
    "date_created": "2022-03-18T12:38:32.000",
    "date_modified": "2022-03-18T12:38:33.000",
    "request_status": "Pending",
    "responsible_agency": "Department of Sanitation",
    "final_address": "1232 Henriette Delille St",
    "address_councildis": "C",
    "status": "Assigned to Contractor",
    "contractor": "Richards Disposal",
    "rowid": "868028",
    "final_x": "3682372.99912",
    "final_y": "535273.849542",
    "longitude": "-90.06518252180584",
    "latitude": "29.965790950775602",
    "geocoded_column": {
      "latitude": "29.965790950775602",
      "longitude": "-90.06518252180584"
    }
  },
  {
    "service_request": "2022-868027",
    "request_type": "Trash/Recycling",
    "request_reason": "Order Trash Cart",
    "date_created": "2022-03-18T12:36:27.000",
    "date_modified": "2022-03-18T12:36:28.000",
    "request_status": "Pending",
    "responsible_agency": "Department of Sanitation",
    "final_address": "403 Bouny St",
    "address_councildis": "C",
    "status": "Assigned to Contractor",
    "contractor": "Richards Disposal",
    "rowid": "868027",
    "final_x": "3685899.00098",
    "final_y": "529982.192193",
    "longitude": "-90.05423409442135",
    "latitude": "29.951132939820162",
    "geocoded_column": {
      "latitude": "29.951132939820162",
      "longitude": "-90.05423409442135"
    }
  },
  {
    "service_request": "2022-868026",
    "request_type": "Roads/Drainage",
    "request_reason": "Pothole",
    "date_created": "2022-03-18T12:30:58.000",
    "date_modified": "2022-03-18T12:30:58.000",
    "request_status": "Pending",
    "responsible_agency": "Department of Public Works",
    "final_address": "2407 St Anthony St",
    "address_councildis": "D",
    "status": "Pending",
    "rowid": "868026",
    "final_x": "3683207.45288",
    "final_y": "541052.936524",
    "longitude": "-90.0623449145158",
    "latitude": "29.981656010734717",
    "geocoded_column": {
      "latitude": "29.981656010734717",
      "longitude": "-90.0623449145158"
    }
  },
  {
    "service_request": "2022-868025",
    "request_type": "Property Maintenance",
    "request_reason": "Property Maintenance",
    "date_created": "2022-03-18T12:26:31.000",
    "date_modified": "2022-03-18T12:26:31.000",
    "request_status": "Pending",
    "responsible_agency": "Department of Code Enforcement",
    "final_address": "4437 Flake Ave",
    "address_councildis": "E",
    "status": "Pending",
    "rowid": "868025",
    "final_x": "3706309.53662",
    "final_y": "553716.216855",
    "longitude": "-89.9889090612578",
    "latitude": "30.015750417732416",
    "geocoded_column": {
      "latitude": "30.015750417732416",
      "longitude": "-89.9889090612578"
    }
  },
  {
    "service_request": "2022-868024",
    "request_type": "Property Maintenance",
    "request_reason": "Property Maintenance",
    "date_created": "2022-03-18T12:24:34.000",
    "date_modified": "2022-03-18T12:24:34.000",
    "request_status": "Pending",
    "responsible_agency": "Department of Code Enforcement",
    "final_address": "3135 Sullen Pl",
    "address_councildis": "C",
    "status": "Pending",
    "rowid": "868024",
    "final_x": "3707720.68881",
    "final_y": "519112.882423",
    "longitude": "-89.9857363100851",
    "latitude": "29.920558344960202",
    "geocoded_column": {
      "latitude": "29.920558344960202",
      "longitude": "-89.9857363100851"
    }
  },
  {
    "service_request": "2022-868023",
    "request_type": "Roads/Drainage",
    "request_reason": "Street Subsidence (Sinking)",
    "date_created": "2022-03-18T12:24:15.000",
    "date_modified": "2022-03-18T12:24:15.000",
    "request_status": "Pending",
    "responsible_agency": "Department of Public Works",
    "final_address": "700 Dumaine St",
    "address_councildis": "C",
    "status": "Pending",
    "rowid": "868023",
    "final_x": "3682940.12757",
    "final_y": "533056.751172",
    "longitude": "-90.06346914513743",
    "latitude": "29.959677420068505",
    "geocoded_column": {
      "latitude": "29.959677420068505",
      "longitude": "-90.06346914513743"
    }
  },
  {
    "service_request": "2022-868022",
    "request_type": "Property Maintenance",
    "request_reason": "Property Maintenance",
    "date_created": "2022-03-18T12:20:06.000",
    "date_modified": "2022-03-18T12:20:06.000",
    "request_status": "Pending",
    "responsible_agency": "Department of Code Enforcement",
    "final_address": "26 Flamingo St",
    "address_councildis": "D",
    "status": "Pending",
    "rowid": "868022",
    "final_x": "3674664.54177",
    "final_y": "555185.414873",
    "longitude": "-90.08884266071752",
    "latitude": "30.020773143082437",
    "geocoded_column": {
      "latitude": "30.020773143082437",
      "longitude": "-90.08884266071752"
    }
  },
  {
    "service_request": "2022-868021",
    "request_type": "Trash/Recycling",
    "request_reason": "Illegal Dumping",
    "date_created": "2022-03-18T12:16:00.000",
    "date_modified": "2022-03-18T12:16:00.000",
    "request_status": "Pending",
    "responsible_agency": "Department of Sanitation",
    "final_address": "719 S Solomon St",
    "address_councildis": "A",
    "status": "Pending",
    "rowid": "868021",
    "final_x": "3669027.02126",
    "final_y": "536755.584391",
    "longitude": "-90.10727872243477",
    "latitude": "29.970264618481448",
    "geocoded_column": {
      "latitude": "29.970264618481448",
      "longitude": "-90.10727872243477"
    }
  },