[
  {
    "service_request": "2024-1086131",
    "request_type": "Property Maintenance",
    "request_reason": "Property Maintenance",
    "date_created": "2024-04-18T23:26:56.000",
    "date_modified": "2024-04-18T23:26:56.000",
    "request_status": "Pending",
    "responsible_agency": "Department of Code Enforcement",
    "final_address": "6939 Pinebrook Dr",
    "address_councildis": "E",
    "status": "Pending",
    "rowid": "1086131",
    "final_x": "3720061.10866",
    "final_y": "569277.898534",
    "longitude": "-89.94486509450095",
    "latitude": "30.058087893279666",
    "geocoded_column": {
      "latitude": "30.058087893279666",
      "longitude": "-89.94486509450095"
    }
  },
  {
    "service_request": "2024-1086130",
    "request_type": "Mosquito, Termite & Rodent Control",
    "request_reason": "Mosquito Complaint",
    "date_created": "2024-04-18T23:20:27.000",
    "date_modified": "2024-04-18T23:20:27.000",
    "request_status": "Pending",
    "responsible_agency": "Mosquito, Termite & Rodent Control Board",
    "final_address": "MAYO RD & SPRINGLAKE DR",
    "address_councildis": "E",
    "status": "Pending",
    "rowid": "1086130",
    "final_x": "3701273.2",
    "final_y": "559366.38",
    "longitude": "-90.0046144856614",
    "latitude": "30.031447714852614",
    "geocoded_column": {
      "latitude": "30.031447714852614",
      "longitude": "-90.0046144856614"
    }
  },
  {
    "service_request": "2024-1086129",
    "request_type": "Trash/Recycling",
    "request_reason": "Illegal Dumping",
    "date_created": "2024-04-18T23:14:30.000",
    "date_modified": "2024-04-18T23:14:30.000",
    "request_status": "Pending",
    "responsible_agency": "Department of Sanitation",
    "final_address": "6941 Edgefield Dr",
    "address_councildis": "E",
    "status": "Pending",
    "rowid": "1086129",
    "final_x": "3719197.7381",
    "final_y": "568706.475813",
    "longitude": "-89.9476159217673",
    "latitude": "30.05654545601053",
    "geocoded_column": {
      "latitude": "30.05654545601053",
      "longitude": "-89.9476159217673"
    }
  },
  {
    "service_request": "2024-1086128",
    "request_type": "Trash/Recycling",
    "request_reason": "Replace Trash Cart",
    "date_created": "2024-04-18T23:12:21.000",
    "date_modified": "2024-04-18T23:12:22.000",
    "request_status": "Pending",
    "responsible_agency": "Department of Sanitation",
    "final_address": "821 Barracks St",
    "address_councildis": "C",
    "status": "Assigned to Contractor",
    "contractor": "Empire Services",
    "rowid": "1086128",
    "final_x": "3683463.97916",
    "final_y": "534549.167685",
    "longitude": "-90.06176264505741",
    "latitude": "29.963765079774706",
    "geocoded_column": {
      "latitude": "29.963765079774706",
      "longitude": "-90.06176264505741"
    }
  },
  {
    "service_request": "2024-1086127",
    "request_type": "Abandoned Vehicles",
    "request_reason": "Abandoned/Junk Vehicles",
    "date_created": "2024-04-18T23:11:15.000",
    "date_modified": "2024-04-18T23:11:15.000",
    "request_status": "Pending",
    "responsible_agency": "Department of Public Works",
    "final_address": "7051 Edgefield Dr",
    "address_councildis": "E",
    "status": "Pending",
    "rowid": "1086127",
    "final_x": "3718804.48799",
    "final_y": "569237.738278",
    "longitude": "-89.94883861720355",
    "latitude": "30.05801927781096",
    "geocoded_column": {
      "latitude": "30.05801927781096",
      "longitude": "-89.94883861720355"
    }
  },
  {
    "service_request": "2024-1086126",
    "request_type": "Safety & Permits",
    "request_reason": "Construction permit",
    "date_created": "2024-04-18T22:59:58.000",
    "date_modified": "2024-04-18T22:59:58.000",
    "request_status": "Pending",
    "responsible_agency": "Department of Code Enforcement",
    "final_address": "2938 Ursulines Ave",
    "address_councildis": "A",
    "status": "Pending",
    "rowid": "1086126",
    "final_x": "3676527.46056",
    "final_y": "538901.495882",
    "longitude": "-90.08351759158572",
    "latitude": "29.97594233594543",
    "geocoded_column": {
      "latitude": "29.97594233594543",
      "longitude": "-90.08351759158572"
    }
  },
  {
    "service_request": "2024-1086125",
    "request_type": "Roads/Drainage",
    "request_reason": "Pothole",
    "date_created": "2024-04-18T22:52:30.000",
    "date_modified": "2024-04-18T22:52:30.000",
    "request_status": "Pending",
    "responsible_agency": "Department of Public Works",
    "final_address": "6218 Camp St",
    "address_councildis": "A",
    "status": "Pending",
    "rowid": "1086125",
    "final_x": "3663735.52493",
    "final_y": "519935.705976",
    "longitude": "-90.12455028280617",
    "latitude": "29.924169983324653",
    "geocoded_column": {
      "latitude": "29.924169983324653",
      "longitude": "-90.12455028280617"
    }
  },
  {
    "service_request": "2024-1086124",
    "request_type": "Roads/Drainage",
    "request_reason": "Pothole",
    "date_created": "2024-04-18T22:43:30.000",
    "date_modified": "2024-04-18T22:43:30.000",
    "request_status": "Pending",
    "responsible_agency": "Department of Public Works",
    "final_address": "6070 Chestnut St",
    "address_councildis": "A",
    "status": "Pending",
    "rowid": "1086124",
    "final_x": "3664412.78983",
    "final_y": "519991.592952",
    "longitude": "-90.12241052146828",
    "latitude": "29.92430399204139",
    "geocoded_column": {
      "latitude": "29.92430399204139",
      "longitude": "-90.12241052146828"
    }
  },
  {
    "service_request": "2024-1086123",
    "request_type": "Utility Poles",
    "request_reason": "Utility Pole Leaning",
    "date_created": "2024-04-18T22:39:32.000",
    "date_modified": "2024-04-18T22:39:36.000",
    "request_status": "Pending",
    "responsible_agency": "Utility Company Collective",
    "final_address": "500 BLK Saint Mary St",
    "address_councildis": "B",
    "status": "Pending",
    "rowid": "1086123",
    "final_x": "3681114.01241",
    "final_y": "521328.280622",
    "longitude": "-90.0696440471433",
    "latitude": "29.92748356734202",
    "geocoded_column": {
      "latitude": "29.92748356734202",
      "longitude": "-90.0696440471433"
    }
  },
  {
    "service_request": "2024-1086122",
    "request_type": "Abandoned Vehicles",
    "request_reason": "Abandoned/Junk Vehicles",
    "date_created": "2024-04-18T22:37:44.000",
    "date_modified": "2024-04-18T22:37:44.000",
    "request_status": "Pending",
    "responsible_agency": "Department of Public Works",
    "final_address": "8018 Brevard Ave",
    "address_councildis": "E",
    "status": "Pending",
    "rowid": "1086122",
    "final_x": "3705687.41572",
    "final_y": "564591.927009",
    "longitude": "-89.99047195922661",
    "latitude": "30.04567442198553",
    "geocoded_column": {
      "latitude": "30.04567442198553",
      "longitude": "-89.99047195922661"
    }
  },
  {
    "service_request": "2024-1086121",
    "request_type": "Traffic Signals/Signs/Striping/Streetlights",
    "request_reason": "Street Light Outage/Malfunction",
    "date_created": "2024-04-18T21:54:16.000",
    "date_modified": "2024-04-18T21:54:17.000",
    "request_status": "Pending",
    "responsible_agency": "Department of Public Works",
    "final_address": "13890 Chef Menteur Hwy",
    "address_councildis": "E",
    "status": "Assigned to Contractor",
    "contractor": "Legacy Professional Services",
    "rowid": "1086121",
    "final_x": "3727786.85395",
    "final_y": "560227.000861",
    "longitude": "-89.92079792303684",
    "latitude": "30.032942035932845",
    "geocoded_column": {
      "latitude": "30.032942035932845",
      "longitude": "-89.92079792303684"
    }
  },
  {
    "service_request": "2024-1086120",
    "request_type": "Roads/Drainage",
    "request_reason": "Pothole",
    "date_created": "2024-04-18T21:44:11.000",
    "date_modified": "2024-04-18T21:44:11.000",
    "request_status": "Pending",
    "responsible_agency": "Department of Public Works",
    "final_address": "1243 Eleonore St",
    "address_councildis": "A",
    "status": "Pending",
    "rowid": "1086120",
    "final_x": "3665605.8066",
    "final_y": "520611.361848",
    "longitude": "-90.1186238261171",
    "latitude": "29.925973440138286",
    "geocoded_column": {
      "latitude": "29.925973440138286",
      "longitude": "-90.1186238261171"
    }
  },
  {
    "service_request": "2024-1086119",
    "request_type": "Traffic Signals/Signs/Striping/Streetlights",
    "request_reason": "Street Light Outage/Malfunction",
    "date_created": "2024-04-18T21:42:14.000",
    "date_modified": "2024-04-18T21:42:14.000",
    "request_status": "Pending",
    "responsible_agency": "Department of Public Works",
    "final_address": "13900 Chef Menteur Hwy",
    "address_councildis": "E",
    "status": "Assigned to Contractor",
    "contractor": "Legacy Professional Services",
    "rowid": "1086119",
    "final_x": "3728014.31616",
    "final_y": "560176.281693",
    "longitude": "-89.92008110955125",
    "latitude": "30.03279486714193",
    "geocoded_column": {
      "latitude": "30.03279486714193",
      "longitude": "-89.92008110955125"
    }
  },
  {
    "service_request": "2024-1086118",
    "request_type": "Property Maintenance",
    "request_reason": "Property Maintenance",
    "date_created": "2024-04-18T21:36:47.000",
    "date_modified": "2024-04-18T21:36:47.000",
    "request_status": "Pending",
    "responsible_agency": "Department of Code Enforcement",
    "final_address": "1616 s gayoso st",
    "address_councildis": "B",
    "status": "Pending",
    "rowid": "1086118",
    "final_x": "3670622.59943",
    "final_y": "530437.881922",
    "longitude": "-90.10245402977579",
    "latitude": "29.952845996205077",
    "geocoded_column": {
      "latitude": "29.952845996205077",
      "longitude": "-90.10245402977579"
    }
  },
  {
    "service_request": "2024-1086117",
    "request_type": "Traffic Signals/Signs/Striping/Streetlights",
    "request_reason": "Street Light Outage/Malfunction",
    "date_created": "2024-04-18T21:33:14.000",
    "date_modified": "2024-04-18T21:33:14.000",
    "request_status": "Pending",
    "responsible_agency": "Department of Public Works",
    "final_address": "4511 Michoud Blvd",
    "address_councildis": "E",
    "status": "Assigned to Contractor",
    "contractor": "Legacy Professional Services",
    "rowid": "1086117",
    "final_x": "3725772.00025",
    "final_y": "559318.625053",
    "longitude": "-89.92720017781144",
    "latitude": "30.030512516200748",
    "geocoded_column": {
      "latitude": "30.030512516200748",
      "longitude": "-89.92720017781144"
    }
  },
  {
    "service_request": "2024-1086116",
    "request_type": "Traffic Signals/Signs/Striping/Streetlights",
    "request_reason": "Street Light Outage/Malfunction",
    "date_created": "2024-04-18T21:29:54.000",
    "date_modified": "2024-04-18T21:29:55.000",
    "request_status": "Pending",
    "responsible_agency": "Department of Public Works",
    "final_address": "4511 Michoud Blvd",
    "address_councildis": "E",
    "status": "Assigned to Contractor",
    "contractor": "Legacy Professional Services",
    "rowid": "1086116",
    "final_x": "3725772.00025",
    "final_y": "559318.625053",
    "longitude": "-89.92720017781144",
    "latitude": "30.030512516200748",
    "geocoded_column": {
      "latitude": "30.030512516200748",
      "longitude": "-89.92720017781144"
    }
  },
  {
    "service_request": "2024-1086114",
    "request_type": "Traffic Signals/Signs/Striping/Streetlights",
    "request_reason": "Street Light Outage/Malfunction",
    "date_created": "2024-04-18T20:58:36.000",
    "date_modified": "2024-04-18T20:58:36.000",
    "request_status": "Pending",
    "responsible_agency": "Department of Public Works",
    "final_address": "6105 Canal Blvd",
    "address_councildis": "A",
    "status": "Assigned to Contractor",
    "contractor": "Legacy Professional Services",
    "rowid": "1086114",
    "final_x": "3668583.39898",
    "final_y": "547959.412562",
    "longitude": "-90.1083014504169",
    "latitude": "30.001084376450088",
    "geocoded_column": {
      "latitude": "30.001084376450088",
      "longitude": "-90.1083014504169"
    }
  },
  {
    "service_request": "2024-1086112",
    "request_type": "Trash/Recycling",
    "request_reason": "Replace Trash Cart",
    "date_created": "2024-04-18T20:55:22.000",
    "date_modified": "2024-04-18T20:55:23.000",
    "request_status": "Pending",
    "responsible_agency": "Department of Sanitation",
    "final_address": "406 Henry Clay Ave",
    "address_councildis": "A",
    "status": "Assigned to Contractor",
    "contractor": "IV Waste",
    "rowid": "1086112",
    "final_x": "3663210.89523",
    "final_y": "518339.596406",
    "longitude": "-90.12625943864438",
    "latitude": "29.91979638725064",
    "geocoded_column": {
      "latitude": "29.91979638725064",
      "longitude": "-90.12625943864438"
    }
  },
  {
    "service_request": "2024-1086111",
    "request_type": "Traffic Signals/Signs/Striping/Streetlights",
    "request_reason": "Traffic Sign Missing/Damaged",
    "date_created": "2024-04-18T20:42:49.000",
    "date_modified": "2024-04-18T20:42:49.000",
    "request_status": "Pending",
    "responsible_agency": "Department of Public Works",
    "final_address": "501 OBannon St Ste 110",
    "address_councildis": "C",
    "status": "Pending",
    "rowid": "1086111",
    "final_x": "3692237.01392",
    "final_y": "529488.548417",
    "longitude": "-90.03423955827897",
    "latitude": "29.94957952687735",
    "geocoded_column": {
      "latitude": "29.94957952687735",
      "longitude": "-90.03423955827897"
    }
  },
  {
    "service_request": "2024-1086110",
    "request_type": "Trash/Recycling",
    "request_reason": "Order Recycling Cart",
    "date_created": "2024-04-18T20:40:32.000",
    "date_modified": "2024-04-18T20:40:32.000",
    "request_status": "Pending",
    "responsible_agency": "Department of Sanitation",
    "final_address": "824 Josephine St",
    "address_councildis": "B",
    "status": "Pending",
    "rowid": "1086110",
    "final_x": "3679673.71643",
    "final_y": "521577.953145",
    "longitude": "-90.07418204538531",
    "latitude": "29.928213683101536",
    "geocoded_column": {
      "latitude": "29.928213683101536",
      "longitude": "-90.07418204538531"
    }
  },
  {
    "service_request": "2024-1086109",
    "request_type": "Traffic Signals/Signs/Striping/Streetlights",
    "request_reason": "Traffic Sign Missing/Damaged",
    "date_created": "2024-04-18T20:40:18.000",
    "date_modified": "2024-04-18T20:40:18.000",
    "request_status": "Pending",
    "responsible_agency": "Department of Public Works",
    "final_address": "501 OBannon St Ste 110",
    "address_councildis": "C",
    "status": "Pending",
    "rowid": "1086109",
    "final_x": "3692237.01392",
    "final_y": "529488.548417",
    "longitude": "-90.03423955827897",
    "latitude": "29.94957952687735",
    "geocoded_column": {
      "latitude": "29.94957952687735",
      "longitude": "-90.03423955827897"
    }
  },
  {
    "service_request": "2024-1086108",
    "request_type": "Trash/Recycling",
    "request_reason": "Replace Trash Cart",
    "date_created": "2024-04-18T20:37:08.000",
    "date_modified": "2024-04-18T20:37:08.000",
    "request_status": "Pending",
    "responsible_agency": "Department of Sanitation",
    "final_address": "5724 Marshal Foch St",
    "address_councildis": "A",
    "status": "Assigned to Contractor",
    "contractor": "IV Waste",
    "rowid": "1086108",
    "final_x": "3669621.39201",
    "final_y": "545515.45224",
    "longitude": "-90.10510509291545",
    "latitude": "29.994333777147773",
    "geocoded_column": {
      "latitude": "29.994333777147773",
      "longitude": "-90.10510509291545"
    }
  },
  {
    "service_request": "2024-1086107",
    "request_type": "Trash/Recycling",
    "request_reason": "MIssed Recycling Pick-Up",
    "date_created": "2024-04-18T20:25:52.000",
    "date_modified": "2024-04-18T20:25:52.000",
    "request_status": "Pending",
    "responsible_agency": "Department of Sanitation",
    "final_address": "4845 Camp St",
    "address_councildis": "B",
    "status": "Assigned to Contractor",
    "contractor": "IV Waste",
    "rowid": "1086107",
    "final_x": "3669091.36026",
    "final_y": "519029.252343",
    "longitude": "-90.10767434601514",
    "latitude": "29.921521078661076",
    "geocoded_column": {
      "latitude": "29.921521078661076",
      "longitude": "-90.10767434601514"
    }
  },
  {
    "service_request": "2024-1086106",
    "request_type": "Abandoned Vehicles",
    "request_reason": "Vehicle Blocking Your Driveway",
    "date_created": "2024-04-18T20:12:30.000",
    "date_modified": "2024-04-18T20:12:30.000",
    "request_status": "Pending",
    "responsible_agency": "Department of Public Works",
    "final_address": "1415 Cadiz St",
    "address_councildis": "B",
    "status": "Pending",
    "rowid": "1086106",
    "final_x": "3670194.42606",
    "final_y": "520336.638584",
    "longitude": "-90.10414816717436",
    "latitude": "29.92508348560516",
    "geocoded_column": {
      "latitude": "29.92508348560516",
      "longitude": "-90.10414816717436"
    }
  },
  {
    "service_request": "2024-1086105",
    "request_type": "Trash/Recycling",
    "request_reason": "Replace Trash Cart",
    "date_created": "2024-04-18T20:06:56.000",
    "date_modified": "2024-04-18T20:06:57.000",
    "request_status": "Pending",
    "responsible_agency": "Department of Sanitation",
    "final_address": "515 N Salcedo St",
    "address_councildis": "A",
    "status": "Assigned to Contractor",
    "contractor": "IV Waste",
    "rowid": "1086105",
    "final_x": "3675062.60264",
    "final_y": "537437.85332",
    "longitude": "-90.08819427109528",
    "latitude": "29.971961670118265",
    "geocoded_column": {
      "latitude": "29.971961670118265",
      "longitude": "-90.08819427109528"
    }
  },
  {
    "service_request": "2024-1086104",
    "request_type": "Trash/Recycling",
    "request_reason": "Request a Large Item Pick Up",
    "date_created": "2024-04-18T19:54:45.000",
    "date_modified": "2024-04-18T19:54:45.000",
    "request_status": "Pending",
    "responsible_agency": "Department of Sanitation",
    "final_address": "7440 Alabama St",
    "address_councildis": "D",
    "status": "Assigned to Contractor",
    "contractor": "Waste Pro",
    "rowid": "1086104",
    "final_x": "3695001.17603",
    "final_y": "558056.641883",
    "longitude": "-90.02448154306744",
    "latitude": "30.028044924776378",
    "geocoded_column": {
      "latitude": "30.028044924776378",
      "longitude": "-90.02448154306744"
    }
  },
  {
    "service_request": "2024-1086103",
    "request_type": "Trash/Recycling",
    "request_reason": "Replace Trash Cart",
    "date_created": "2024-04-18T19:48:20.000",
    "date_modified": "2024-04-18T19:48:21.000",
    "request_status": "Pending",
    "responsible_agency": "Department of Sanitation",
    "final_address": "2905 Pine St",
    "address_councildis": "B",
    "status": "Assigned to Contractor",
    "contractor": "IV Waste",
    "rowid": "1086103",
    "final_x": "3667348.51521",
    "final_y": "531805.637955",
    "longitude": "-90.11274616578179",
    "latitude": "29.95670317938622",
    "geocoded_column": {
      "latitude": "29.95670317938622",
      "longitude": "-90.11274616578179"
    }
  },
  {
    "service_request": "2024-1086102",
    "request_type": "Graffiti Removal",
    "request_reason": "Graffiti Removal",
    "date_created": "2024-04-18T19:45:43.000",
    "date_modified": "2024-04-18T19:45:43.000",
    "request_status": "Pending",
    "responsible_agency": "Department of Code Enforcement",
    "final_address": "237 Basin St",
    "address_councildis": "C",
    "status": "Pending",
    "rowid": "1086102",
    "final_x": "3680172.49256",
    "final_y": "532376.167043",
    "longitude": "-90.07223235666983",
    "latitude": "29.95789009194436",
    "geocoded_column": {
      "latitude": "29.95789009194436",
      "longitude": "-90.07223235666983"
    }
  },
  {
    "service_request": "2024-1086101",
    "request_type": "Trash/Recycling",
    "request_reason": "Repair Recycling Cart",
    "date_created": "2024-04-18T19:35:13.000",
    "date_modified": "2024-04-18T19:35:13.000",
    "request_status": "Pending",
    "responsible_agency": "Department of Sanitation",
    "final_address": "528 Arabella St",
    "address_councildis": "A",
    "status": "Pending",
    "rowid": "1086101",
    "final_x": "3665622.43597",
    "final_y": "518187.566454",
    "longitude": "-90.11865244081021",
    "latitude": "29.919308278963253",
    "geocoded_column": {
      "latitude": "29.919308278963253",
      "longitude": "-90.11865244081021"
    }
  },
  {
    "service_request": "2024-1086100",
    "request_type": "Trash/Recycling",
    "request_reason": "Request a Large Item Pick Up",
    "date_created": "2024-04-18T19:31:52.000",
    "date_modified": "2024-04-18T19:31:53.000",
    "request_status": "Pending",
    "responsible_agency": "Department of Sanitation",
    "final_address": "New Orleans,LA",
    "status": "Assigned to Contractor",
    "rowid": "1086100",
    "longitude": "0.0",
    "latitude": "0.0",
    "geocoded_column": {
      "latitude": "0.0",
      "longitude": "0.0"
    }
  },
  {
    "service_request": "2024-1086099",
    "request_type": "Trash/Recycling",
    "request_reason": "Missed Trash Pick-Up",
    "date_created": "2024-04-18T19:17:09.000",
    "date_modified": "2024-04-18T19:17:10.000",
    "request_status": "Pending",
    "responsible_agency": "Department of Sanitation",
    "final_address": "2501 Amelia St, New Orleans, Louisiana, 70115",
    "address_councildis": "B",
    "status": "Assigned to Contractor",
    "contractor": "IV Waste",
    "rowid": "1086099",
    "final_x": "3672390.71553",
    "final_y": "524322.746748",
    "longitude": "-90.09707941732725",
    "latitude": "29.93597903240438",
    "geocoded_column": {
      "latitude": "29.93597903240438",
      "longitude": "-90.09707941732725"
    }
  },
  {
    "service_request": "2024-1086098",
    "request_type": "Trash/Recycling",
    "request_reason": "Request a Large Item Pick Up",
    "date_created": "2024-04-18T19:05:59.000",
    "date_modified": "2024-04-18T19:05:59.000",
    "request_status": "Pending",
    "responsible_agency": "Department of Sanitation",
    "final_address": "1024 First St",
    "address_councildis": "B",
    "status": "Assigned to Contractor",
    "contractor": "IV Waste",
    "rowid": "1086098",
    "final_x": "3678124.2052",
    "final_y": "521373.039929",
    "longitude": "-90.07908058893027",
    "latitude": "29.92769696742458",
    "geocoded_column": {
      "latitude": "29.92769696742458",
      "longitude": "-90.07908058893027"
    }
  },
  {
    "service_request": "2024-1086097",
    "request_type": "Trash/Recycling",
    "request_reason": "Replace Trash Cart",
    "date_created": "2024-04-18T19:03:39.000",
    "date_modified": "2024-04-18T19:03:39.000",
    "request_status": "Pending",
    "responsible_agency": "Department of Sanitation",
    "final_address": "1024 First St",
    "address_councildis": "B",
    "status": "Assigned to Contractor",
    "contractor": "IV Waste",
    "rowid": "1086097",
    "final_x": "3678124.2052",
    "final_y": "521373.039929",
    "longitude": "-90.07908058893027",
    "latitude": "29.92769696742458",
    "geocoded_column": {
      "latitude": "29.92769696742458",
      "longitude": "-90.07908058893027"
    }
  },
  {
    "service_request": "2024-1086096",
    "request_type": "EMS",
    "request_reason": "EMS General",
    "date_created": "2024-04-18T18:54:00.000",
    "date_modified": "2024-04-18T18:54:00.000",
    "request_status": "Pending",
    "responsible_agency": "Emergency Medical Services",
    "final_address": "2300 BLK Saint Thomas St",
    "address_councildis": "B",
    "status": "Pending",
    "rowid": "1086096",
    "final_x": "3679507.92901",
    "final_y": "520285.375227",
    "longitude": "-90.07475021784438",
    "latitude": "29.92466452440149",
    "geocoded_column": {
      "latitude": "29.92466452440149",
      "longitude": "-90.07475021784438"
    }
  },
  {
    "service_request": "2024-1086095",
    "request_type": "Trash/Recycling",
    "request_reason": "MIssed Recycling Pick-Up",
    "date_created": "2024-04-18T18:51:51.000",
    "date_modified": "2024-04-18T18:51:52.000",
    "request_status": "Pending",
    "responsible_agency": "Department of Sanitation",
    "final_address": "1316 Mandeville St",
    "address_councildis": "C",
    "status": "Assigned to Contractor",
    "contractor": "IV Waste",
    "rowid": "1086095",
    "final_x": "3685667.5805",
    "final_y": "537253.011848",
    "longitude": "-90.05470862331691",
    "latitude": "29.97113228835502",
    "geocoded_column": {
      "latitude": "29.97113228835502",
      "longitude": "-90.05470862331691"
    }
  },
  {
    "service_request": "2024-1086094",
    "request_type": "Abandoned Vehicles",
    "request_reason": "Abandoned/Junk Vehicles",
    "date_created": "2024-04-18T18:49:18.000",
    "date_modified": "2024-04-18T18:49:18.000",
    "request_status": "Pending",
    "responsible_agency": "Department of Public Works",
    "final_address": "2747 Bay St",
    "address_councildis": "D",
    "status": "Pending",
    "rowid": "1086094",
    "final_x": "3688359.35075",
    "final_y": "545314.395151",
    "longitude": "-90.04592163005296",
    "latitude": "29.993215361443266",
    "geocoded_column": {
      "latitude": "29.993215361443266",
      "longitude": "-90.04592163005296"
    }
  },
  {
    "service_request": "2024-1086093",
    "request_type": "Trash/Recycling",
    "request_reason": "Return Trash Cart",
    "date_created": "2024-04-18T18:48:22.000",
    "date_modified": "2024-04-18T18:48:22.000",
    "request_status": "Pending",
    "responsible_agency": "Department of Sanitation",
    "final_address": "1129 Port St",
    "address_councildis": "C",
    "status": "Assigned to Contractor",
    "contractor": "IV Waste",
    "rowid": "1086093",
    "final_x": "3687519.61756",
    "final_y": "536690.583047",
    "longitude": "-90.04887956655656",
    "latitude": "29.969528850028425",
    "geocoded_column": {
      "latitude": "29.969528850028425",
      "longitude": "-90.04887956655656"
    }
  },
  {
    "service_request": "2024-1086092",
    "request_type": "Trash/Recycling",
    "request_reason": "Replace Trash Cart",
    "date_created": "2024-04-18T18:48:13.000",
    "date_modified": "2024-04-18T18:48:13.000",
    "request_status": "Pending",
    "responsible_agency": "Department of Sanitation",
    "final_address": "5717 Clara St",
    "address_councildis": "A",
    "status": "Assigned to Contractor",
    "contractor": "IV Waste",
    "rowid": "1086092",
    "final_x": "3667252.04308",
    "final_y": "525212.226941",
    "longitude": "-90.11327247957752",
    "latitude": "29.938576263350477",
    "geocoded_column": {
      "latitude": "29.938576263350477",
      "longitude": "-90.11327247957752"
    }
  },
  {
    "service_request": "2024-1086091",
    "request_type": "Mosquito, Termite & Rodent Control",
    "request_reason": "Mosquito Complaint",
    "date_created": "2024-04-18T18:42:10.000",
    "date_modified": "2024-04-18T18:42:10.000",
    "request_status": "Pending",
    "responsible_agency": "Mosquito, Termite & Rodent Control Board",
    "final_address": "MAYO RD & SPRINGLAKE DR",
    "address_councildis": "E",
    "status": "Pending",
    "rowid": "1086091",
    "final_x": "3701273.2",
    "final_y": "559366.38",
    "longitude": "-90.0046144856614",
    "latitude": "30.031447714852614",
    "geocoded_column": {
      "latitude": "30.031447714852614",
      "longitude": "-90.0046144856614"
    }
  },
  {
    "service_request": "2024-1086090",
    "request_type": "Mosquito, Termite & Rodent Control",
    "request_reason": "Mosquito Complaint",
    "date_created": "2024-04-18T18:40:06.000",
    "date_modified": "2024-04-18T18:40:06.000",
    "request_status": "Pending",
    "responsible_agency": "Mosquito, Termite & Rodent Control Board",
    "final_address": "COVE DR & SPRINGLAKE DR",
    "address_councildis": "E",
    "status": "Pending",
    "rowid": "1086090",
    "final_x": "3700149.1",
    "final_y": "558891.78",
    "longitude": "-90.00818401351903",
    "latitude": "30.03017854189874",
    "geocoded_column": {
      "latitude": "30.03017854189874",
      "longitude": "-90.00818401351903"
    }
  },
  {
    "service_request": "2024-1086089",
    "request_type": "Abandoned Vehicles",
    "request_reason": "Abandoned/Junk Vehicles",
    "date_created": "2024-04-18T18:38:07.000",
    "date_modified": "2024-04-18T18:38:07.000",
    "request_status": "Pending",
    "responsible_agency": "Department of Public Works",
    "final_address": "2809 Annette St",
    "address_councildis": "D",
    "status": "Pending",
    "rowid": "1086089",
    "final_x": "3682660.87612",
    "final_y": "542554.661581",
    "longitude": "-90.06401871518612",
    "latitude": "29.985801886301882",
    "geocoded_column": {
      "latitude": "29.985801886301882",
      "longitude": "-90.06401871518612"
    }
  },
  {
    "service_request": "2024-1086088",
    "request_type": "Traffic Signals/Signs/Striping/Streetlights",
    "request_reason": "Traffic Sign Missing/Damaged",
    "date_created": "2024-04-18T18:35:51.000",
    "date_modified": "2024-04-18T18:35:51.000",
    "request_status": "Pending",
    "responsible_agency": "Department of Public Works",
    "final_address": "100 BLK N Carrollton Ave",
    "address_councildis": "A",
    "status": "Pending",
    "rowid": "1086088",
    "final_x": "3671209.18871",
    "final_y": "538468.700081",
    "longitude": "-90.10032896944338",
    "latitude": "29.97491072585336",
    "geocoded_column": {
      "latitude": "29.97491072585336",
      "longitude": "-90.10032896944338"
    }
  },
  {
    "service_request": "2024-1086087",
    "request_type": "Traffic Signals/Signs/Striping/Streetlights",
    "request_reason": "Street Light Outage/Malfunction",
    "date_created": "2024-04-18T18:24:52.000",
    "date_modified": "2024-04-18T18:24:53.000",
    "request_status": "Pending",
    "responsible_agency": "Department of Public Works",
    "final_address": "2625 Pauger St",
    "address_councildis": "D",
    "status": "Assigned to Contractor",
    "contractor": "Legacy Professional Services",
    "rowid": "1086087",
    "final_x": "3683657.81263",
    "final_y": "539414.247754",
    "longitude": "-90.06097994164423",
    "latitude": "29.97713644712658",
    "geocoded_column": {
      "latitude": "29.97713644712658",
      "longitude": "-90.06097994164423"
    }
  },
  {
    "service_request": "2024-1086086",
    "request_type": "Traffic Signals/Signs/Striping/Streetlights",
    "request_reason": "Street Light Outage/Malfunction",
    "date_created": "2024-04-18T18:22:54.000",
    "date_modified": "2024-04-18T18:22:54.000",
    "request_status": "Pending",
    "responsible_agency": "Department of Public Works",
    "final_address": "2780 Verbena St",
    "address_councildis": "D",
    "status": "Assigned to Contractor",
    "contractor": "Legacy Professional Services",
    "rowid": "1086086",
    "final_x": "3688366.35971",
    "final_y": "547868.49717",
    "longitude": "-90.04580883409615",
    "latitude": "30.00023800240996",
    "geocoded_column": {
      "latitude": "30.00023800240996",
      "longitude": "-90.04580883409615"
    }
  },
  {
    "service_request": "2024-1086085",
    "request_type": "Trash/Recycling",
    "request_reason": "Order Recycling Cart",
    "date_created": "2024-04-18T18:19:26.000",
    "date_modified": "2024-04-18T18:19:26.000",
    "request_status": "Pending",
    "responsible_agency": "Department of Sanitation",
    "final_address": "132 N Norman C Francis Prkwy",
    "address_councildis": "B",
    "status": "Pending",
    "rowid": "1086085",
    "final_x": "3673547.41019",
    "final_y": "536932.220808",
    "longitude": "-90.09299678654595",
    "latitude": "29.97061653804212",
    "geocoded_column": {
      "latitude": "29.97061653804212",
      "longitude": "-90.09299678654595"
    }
  },
  {
    "service_request": "2024-1086084",
    "request_type": "Trash/Recycling",
    "request_reason": "Illegal Dumping",
    "date_created": "2024-04-18T17:57:16.000",
    "date_modified": "2024-04-18T17:57:16.000",
    "request_status": "Pending",
    "responsible_agency": "Department of Sanitation",
    "final_address": "1406 Congress St",
    "address_councildis": "C",
    "status": "Pending",
    "rowid": "1086084",
    "final_x": "3690974.21507",
    "final_y": "536767.027016",
    "longitude": "-90.03796696769459",
    "latitude": "29.969632111320664",
    "geocoded_column": {
      "latitude": "29.969632111320664",
      "longitude": "-90.03796696769459"
    }
  },
  {
    "service_request": "2024-1086083",
    "request_type": "Trash/Recycling",
    "request_reason": "MIssed Recycling Pick-Up",
    "date_created": "2024-04-18T17:55:11.000",
    "date_modified": "2024-04-18T17:55:11.000",
    "request_status": "Pending",
    "responsible_agency": "Department of Sanitation",
    "final_address": "716 Arabella St",
    "address_councildis": "A",
    "status": "Assigned to Contractor",
    "contractor": "IV Waste",
    "rowid": "1086083",
    "final_x": "3665747.91725",
    "final_y": "518760.718199",
    "longitude": "-90.11823717315387",
    "latitude": "29.92088060857142",
    "geocoded_column": {
      "latitude": "29.92088060857142",
      "longitude": "-90.11823717315387"
    }
  },
  {
    "service_request": "2024-1086082",
    "request_type": "Roads/Drainage",
    "request_reason": "Damaged Sidewalk",
    "date_created": "2024-04-18T17:42:06.000",
    "date_modified": "2024-04-18T17:42:06.000",
    "request_status": "Pending",
    "responsible_agency": "Department of Public Works",
    "final_address": "1600 BLK Saint Thomas St",
    "address_councildis": "B",
    "status": "Pending",
    "rowid": "1086082",
    "final_x": "3681487.3322",
    "final_y": "522577.588163",
    "longitude": "-90.06842203355686",
    "latitude": "29.9309074256013",
    "geocoded_column": {
      "latitude": "29.9309074256013",
      "longitude": "-90.06842203355686"
    }
  },
  {
    "service_request": "2024-1086081",
    "request_type": "Utility Poles",
    "request_reason": "Utility Pole Leaning",
    "date_created": "2024-04-18T17:36:20.000",
    "date_modified": "2024-04-18T17:36:30.000",
    "request_status": "Pending",
    "responsible_agency": "Utility Company Collective",
    "final_address": "6020 Louisville St",
    "address_councildis": "A",
    "status": "Pending",
    "rowid": "1086081",
    "final_x": "3667666.83597",
    "final_y": "547505.56469",
    "longitude": "-90.11121225097226",
    "latitude": "29.999863363928466",
    "geocoded_column": {
      "latitude": "29.999863363928466",
      "longitude": "-90.11121225097226"
    }
  },
  {
    "service_request": "2024-1086080",
    "request_type": "Roads/Drainage",
    "request_reason": "Street Flooding / Drainage",
    "date_created": "2024-04-18T17:35:09.000",
    "date_modified": "2024-04-18T17:35:09.000",
    "request_status": "Pending",
    "responsible_agency": "Department of Public Works",
    "final_address": "4540 General Early Dr",
    "address_councildis": "D",
    "status": "Pending",
    "rowid": "1086080",
    "final_x": "3691130.92003",
    "final_y": "550797.577877",
    "longitude": "-90.03697077821109",
    "latitude": "30.00820619509401",
    "geocoded_column": {
      "latitude": "30.00820619509401",
      "longitude": "-90.03697077821109"
    }
  },
  {
    "service_request": "2024-1086079",
    "request_type": "Trash/Recycling",
    "request_reason": "Repair Trash Cart",
    "date_created": "2024-04-18T17:31:30.000",
    "date_modified": "2024-04-18T17:31:30.000",
    "request_status": "Pending",
    "responsible_agency": "Department of Sanitation",
    "final_address": "3236 Sabine St",
    "address_councildis": "C",
    "status": "Assigned to Contractor",
    "contractor": "Richards Disposal",
    "rowid": "1086079",
    "final_x": "3695079.22742",
    "final_y": "517872.247158",
    "longitude": "-90.02568402005211",
    "latitude": "29.917549766596093",
    "geocoded_column": {
      "latitude": "29.917549766596093",
      "longitude": "-90.02568402005211"
    }
  },
  {
    "service_request": "2024-1086078",
    "request_type": "Property Maintenance",
    "request_reason": "Property Maintenance",
    "date_created": "2024-04-18T17:29:06.000",
    "date_modified": "2024-04-18T17:29:06.000",
    "request_status": "Pending",
    "responsible_agency": "Department of Code Enforcement",
    "final_address": "835 Broadway St",
    "address_councildis": "A",
    "status": "Pending",
    "rowid": "1086078",
    "final_x": "3663580.36397",
    "final_y": "525520.834685",
    "longitude": "-90.1248541327603",
    "latitude": "29.939531824420126",
    "geocoded_column": {
      "latitude": "29.939531824420126",
      "longitude": "-90.1248541327603"
    }
  },
  {
    "service_request": "2024-1086077",
    "request_type": "Trash/Recycling",
    "request_reason": "Missed Trash Pick-Up",
    "date_created": "2024-04-18T17:23:42.000",
    "date_modified": "2024-04-18T17:23:43.000",
    "request_status": "Pending",
    "responsible_agency": "Department of Sanitation",
    "final_address": "834 Audubon St",
    "address_councildis": "A",
    "status": "Assigned to Contractor",
    "contractor": "IV Waste",
    "rowid": "1086077",
    "final_x": "3663745.7833",
    "final_y": "525401.800637",
    "longitude": "-90.12433584444115",
    "latitude": "29.939199720522865",
    "geocoded_column": {
      "latitude": "29.939199720522865",
      "longitude": "-90.12433584444115"
    }
  },
  {
    "service_request": "2024-1086076",
    "request_type": "Trash/Recycling",
    "request_reason": "Illegal Dumping",
    "date_created": "2024-04-18T17:22:33.000",
    "date_modified": "2024-04-18T17:22:33.000",
    "request_status": "Pending",
    "responsible_agency": "Department of Sanitation",
    "final_address": "VESPASIAN ST & SHALETT ST",
    "address_councildis": "C",
    "status": "Pending",
    "rowid": "1086076",
    "final_x": "3694208.1",
    "final_y": "522899.48",
    "longitude": "-90.02825293486575",
    "latitude": "29.931400262602203",
    "geocoded_column": {
      "latitude": "29.931400262602203",
      "longitude": "-90.02825293486575"
    }
  },
  {
    "service_request": "2024-1086075",
    "request_type": "Trash/Recycling",
    "request_reason": "Order Trash Cart",
    "date_created": "2024-04-18T17:11:03.000",
    "date_modified": "2024-04-18T17:11:04.000",
    "request_status": "Pending",
    "responsible_agency": "Department of Sanitation",
    "final_address": "4601 Loyola Ave",
    "address_councildis": "B",
    "status": "Assigned to Contractor",
    "contractor": "IV Waste",
    "rowid": "1086075",
    "final_x": "3669843.54791",
    "final_y": "522953.161787",
    "longitude": "-90.1051672500346",
    "latitude": "29.93228843353475",
    "geocoded_column": {
      "latitude": "29.93228843353475",
      "longitude": "-90.1051672500346"
    }
  },
  {
    "service_request": "2024-1086073",
    "request_type": "Trash/Recycling",
    "request_reason": "Request a Large Item Pick Up",
    "date_created": "2024-04-18T17:00:39.000",
    "date_modified": "2024-04-18T17:00:40.000",
    "request_status": "Pending",
    "responsible_agency": "Department of Sanitation",
    "final_address": "931 Fats Domino Ave",
    "address_councildis": "E",
    "status": "Assigned to Contractor",
    "contractor": "Waste Pro",
    "rowid": "1086073",
    "final_x": "3697931.89629",
    "final_y": "533218.8489",
    "longitude": "-90.01612294333694",
    "latitude": "29.959657775251515",
    "geocoded_column": {
      "latitude": "29.959657775251515",
      "longitude": "-90.01612294333694"
    }
  },
  {
    "service_request": "2024-1086072",
    "request_type": "Parks & Parkways",
    "request_reason": "Request Grass Cutting Service (City Owned Property)",
    "date_created": "2024-04-18T16:58:42.000",
    "date_modified": "2024-04-18T16:58:43.000",
    "request_status": "Pending",
    "responsible_agency": "Department of Parks & Parkway",
    "final_address": "2829 Gentilly Blvd",
    "address_councildis": "D",
    "status": "Pending",
    "rowid": "1086072",
    "final_x": "3681841.70408",
    "final_y": "547441.985233",
    "longitude": "-90.06643546902984",
    "latitude": "29.999265221622156",
    "geocoded_column": {
      "latitude": "29.999265221622156",
      "longitude": "-90.06643546902984"
    }
  },
  {
    "service_request": "2024-1086071",
    "request_type": "Trash/Recycling",
    "request_reason": "Order Recycling Cart",
    "date_created": "2024-04-18T16:50:03.000",
    "date_modified": "2024-04-18T16:50:03.000",
    "request_status": "Pending",
    "responsible_agency": "Department of Sanitation",
    "final_address": "3438 Nashville Ave",
    "address_councildis": "A",
    "status": "Pending",
    "rowid": "1086071",
    "final_x": "3668066.7433",
    "final_y": "528442.043968",
    "longitude": "-90.11059156491869",
    "latitude": "29.94743333818245",
    "geocoded_column": {
      "latitude": "29.94743333818245",
      "longitude": "-90.11059156491869"
    }
  },
  {
    "service_request": "2024-1086070",
    "request_type": "Trash/Recycling",
    "request_reason": "Replace Trash Cart",
    "date_created": "2024-04-18T16:49:40.000",
    "date_modified": "2024-04-18T16:49:40.000",
    "request_status": "Pending",
    "responsible_agency": "Department of Sanitation",
    "final_address": "6348 Kuebel Dr",
    "address_councildis": "E",
    "status": "Assigned to Contractor",
    "contractor": "Waste Pro",
    "rowid": "1086070",
    "final_x": "3696371.68176",
    "final_y": "560123.787485",
    "longitude": "-90.02007598993431",
    "latitude": "30.033685667318085",
    "geocoded_column": {
      "latitude": "30.033685667318085",
      "longitude": "-90.02007598993431"
    }
  },
  {
    "service_request": "2024-1086069",
    "request_type": "Trash/Recycling",
    "request_reason": "Order Trash Cart",
    "date_created": "2024-04-18T16:49:35.000",
    "date_modified": "2024-04-18T16:49:35.000",
    "request_status": "Pending",
    "responsible_agency": "Department of Sanitation",
    "final_address": "3438 Nashville Ave",
    "address_councildis": "A",
    "status": "Assigned to Contractor",
    "contractor": "IV Waste",
    "rowid": "1086069",
    "final_x": "3668066.7433",
    "final_y": "528442.043968",
    "longitude": "-90.11059156491869",
    "latitude": "29.94743333818245",
    "geocoded_column": {
      "latitude": "29.94743333818245",
      "longitude": "-90.11059156491869"
    }
  },
  {
    "service_request": "2024-1086068",
    "request_type": "Trash/Recycling",
    "request_reason": "Order Trash Cart",
    "date_created": "2024-04-18T16:47:53.000",
    "date_modified": "2024-04-18T16:47:54.000",
    "request_status": "Pending",
    "responsible_agency": "Department of Sanitation",
    "final_address": "6348 Kuebel Dr",
    "address_councildis": "E",
    "status": "Assigned to Contractor",
    "contractor": "Waste Pro",
    "rowid": "1086068",
    "final_x": "3696371.68176",
    "final_y": "560123.787485",
    "longitude": "-90.02007598993431",
    "latitude": "30.033685667318085",
    "geocoded_column": {
      "latitude": "30.033685667318085",
      "longitude": "-90.02007598993431"
    }
  },
  {
    "service_request": "2024-1086067",
    "request_type": "Traffic Signals/Signs/Striping/Streetlights",
    "request_reason": "Street Light Outage/Malfunction",
    "date_created": "2024-04-18T16:43:54.000",
    "date_modified": "2024-04-18T16:43:54.000",
    "request_status": "Pending",
    "responsible_agency": "Department of Public Works",
    "final_address": "1048 S Genois St",
    "address_councildis": "B",
    "status": "Assigned to Contractor",
    "contractor": "Legacy Professional Services",
    "rowid": "1086067",
    "final_x": "3669871.99194",
    "final_y": "533369.263812",
    "longitude": "-90.10472487555376",
    "latitude": "29.960928478549373",
    "geocoded_column": {
      "latitude": "29.960928478549373",
      "longitude": "-90.10472487555376"
    }
  },
  {
    "service_request": "2024-1086066",
    "request_type": "Trash/Recycling",
    "request_reason": "Dead Animal Pick Up",
    "date_created": "2024-04-18T16:36:38.000",
    "date_modified": "2024-04-18T18:15:52.000",
    "case_close_date": "2024-04-18T13:15:52.000",
    "request_status": "Closed",
    "responsible_agency": "Department of Sanitation",
    "final_address": "3118 Toulouse St",
    "address_councildis": "A",
    "status": "Resolved",
    "contractor": "IV Waste",
    "contractor_action": "Completed",
    "rowid": "1086066",
    "final_x": "3675024.1243",
    "final_y": "537598.125896",
    "longitude": "-90.0883102922405",
    "latitude": "29.972403514829598",
    "geocoded_column": {
      "latitude": "29.972403514829598",
      "longitude": "-90.0883102922405"
    }
  },
  {
    "service_request": "2024-1086065",
    "request_type": "Traffic Signals/Signs/Striping/Streetlights",
    "request_reason": "Street Light Outage/Malfunction",
    "date_created": "2024-04-18T16:35:05.000",
    "date_modified": "2024-04-18T16:35:05.000",
    "request_status": "Pending",
    "responsible_agency": "Department of Public Works",
    "final_address": "2006 Audubon St",
    "address_councildis": "A",
    "status": "Assigned to Contractor",
    "contractor": "Legacy Professional Services",
    "rowid": "1086065",
    "final_x": "3665948.1104",
    "final_y": "528832.655936",
    "longitude": "-90.1172678416555",
    "latitude": "29.948569389807318",
    "geocoded_column": {
      "latitude": "29.948569389807318",
      "longitude": "-90.1172678416555"
    }
  },
  {
    "service_request": "2024-1086064",
    "request_type": "Trash/Recycling",
    "request_reason": "Order Recycling Cart",
    "date_created": "2024-04-18T16:34:12.000",
    "date_modified": "2024-04-18T16:34:13.000",
    "request_status": "Pending",
    "responsible_agency": "Department of Sanitation",
    "final_address": "4801 Dauphine St",
    "address_councildis": "E",
    "status": "Pending",
    "rowid": "1086064",
    "final_x": "3694778.14947",
    "final_y": "533403.32218",
    "longitude": "-90.02607506178333",
    "latitude": "29.960264321450513",
    "geocoded_column": {
      "latitude": "29.960264321450513",
      "longitude": "-90.02607506178333"
    }
  },
  {
    "service_request": "2024-1086063",
    "request_type": "Trash/Recycling",
    "request_reason": "Repair Trash Cart",
    "date_created": "2024-04-18T16:33:27.000",
    "date_modified": "2024-04-18T16:33:27.000",
    "request_status": "Pending",
    "responsible_agency": "Department of Sanitation",
    "final_address": "4801 Dauphine St",
    "address_councildis": "E",
    "status": "Assigned to Contractor",
    "contractor": "Waste Pro",
    "rowid": "1086063",
    "final_x": "3694778.14947",
    "final_y": "533403.32218",
    "longitude": "-90.02607506178333",
    "latitude": "29.960264321450513",
    "geocoded_column": {
      "latitude": "29.960264321450513",
      "longitude": "-90.02607506178333"
    }
  },
  {
    "service_request": "2024-1086062",
    "request_type": "Trash/Recycling",
    "request_reason": "Order Trash Cart",
    "date_created": "2024-04-18T16:32:34.000",
    "date_modified": "2024-04-18T16:32:35.000",
    "request_status": "Pending",
    "responsible_agency": "Department of Sanitation",
    "final_address": "4800 Camelot Dr",
    "address_councildis": "E",
    "status": "Assigned to Contractor",
    "contractor": "Waste Pro",
    "rowid": "1086062",
    "final_x": "3708254.78219",
    "final_y": "556049.376345",
    "longitude": "-89.98267612757552",
    "latitude": "30.022102800246827",
    "geocoded_column": {
      "latitude": "30.022102800246827",
      "longitude": "-89.98267612757552"
    }
  },
  {
    "service_request": "2024-1086061",
    "request_type": "Parks & Parkways",
    "request_reason": "Request Tree Service (Right of Way/Public Property)",
    "date_created": "2024-04-18T16:29:39.000",
    "date_modified": "2024-04-18T16:29:39.000",
    "request_status": "Pending",
    "responsible_agency": "Department of Parks & Parkway",
    "final_address": "3528 Meadow Park Ln",
    "address_councildis": "C",
    "status": "Pending",
    "rowid": "1086061",
    "final_x": "3704132.44791",
    "final_y": "511429.45656",
    "longitude": "-89.99734540590656",
    "latitude": "29.899547101460573",
    "geocoded_column": {
      "latitude": "29.899547101460573",
      "longitude": "-89.99734540590656"
    }
  },
  {
    "service_request": "2024-1086060",
    "request_type": "Roads/Drainage",
    "request_reason": "Pothole",
    "date_created": "2024-04-18T16:25:55.000",
    "date_modified": "2024-04-18T16:25:55.000",
    "request_status": "Pending",
    "responsible_agency": "Department of Public Works",
    "final_address": "13000 Calais St",
    "address_councildis": "E",
    "status": "Pending",
    "rowid": "1086060",
    "final_x": "3723860.54361",
    "final_y": "560327.627933",
    "longitude": "-89.933201363243",
    "latitude": "30.033351220644654",
    "geocoded_column": {
      "latitude": "30.033351220644654",
      "longitude": "-89.933201363243"
    }
  },
  {
    "service_request": "2024-1086059",
    "request_type": "Traffic Signals/Signs/Striping/Streetlights",
    "request_reason": "Crosswalks and Signage",
    "date_created": "2024-04-18T16:14:33.000",
    "date_modified": "2024-04-18T16:14:33.000",
    "request_status": "Pending",
    "responsible_agency": "Department of Public Works",
    "final_address": "BURGUNDY ST & FRENCHMEN ST",
    "address_councildis": "C",
    "status": "Pending",
    "rowid": "1086059",
    "final_x": "3684651.7",
    "final_y": "535550.98",
    "longitude": "-90.05797673365942",
    "latitude": "29.966483422338076",
    "geocoded_column": {
      "latitude": "29.966483422338076",
      "longitude": "-90.05797673365942"
    }
  },
  {
    "service_request": "2024-1086057",
    "request_type": "Trash/Recycling",
    "request_reason": "Replace Trash Cart",
    "date_created": "2024-04-18T16:08:26.000",
    "date_modified": "2024-04-18T16:08:26.000",
    "request_status": "Pending",
    "responsible_agency": "Department of Sanitation",
    "final_address": "3719 Red Oak Ct",
    "address_councildis": "C",
    "status": "Assigned to Contractor",
    "contractor": "Richards Disposal",
    "rowid": "1086057",
    "final_x": "3703250.11044",
    "final_y": "514233.296947",
    "longitude": "-90.00002696588575",
    "latitude": "29.907284970200415",
    "geocoded_column": {
      "latitude": "29.907284970200415",
      "longitude": "-90.00002696588575"
    }
  },
  {
    "service_request": "2024-1086056",
    "request_type": "Trash/Recycling",
    "request_reason": "Request a Large Item Pick Up",
    "date_created": "2024-04-18T16:07:41.000",
    "date_modified": "2024-04-18T16:29:13.000",
    "case_close_date": "2024-04-18T11:29:13.000",
    "request_status": "Closed",
    "responsible_agency": "Department of Sanitation",
    "final_address": "1512 Seventh St",
    "address_councildis": "B",
    "status": "Assigned to Contractor",
    "contractor": "IV Waste",
    "contractor_action": "Completed",
    "rowid": "1086056",
    "final_x": "3675410.41998",
    "final_y": "521714.598842",
    "longitude": "-90.08763564703419",
    "latitude": "29.928717545200886",
    "geocoded_column": {
      "latitude": "29.928717545200886",
      "longitude": "-90.08763564703419"
    }
  },
  {
    "service_request": "2024-1086055",
    "request_type": "Trash/Recycling",
    "request_reason": "Repair Trash Cart",
    "date_created": "2024-04-18T16:05:42.000",
    "date_modified": "2024-04-18T16:05:43.000",
    "request_status": "Pending",
    "responsible_agency": "Department of Sanitation",
    "final_address": "13434 N Lemans St",
    "address_councildis": "E",
    "status": "Assigned to Contractor",
    "contractor": "Waste Pro",
    "rowid": "1086055",
    "final_x": "3725347.51206",
    "final_y": "562941.392672",
    "longitude": "-89.92840118215935",
    "latitude": "30.040487953836255",
    "geocoded_column": {
      "latitude": "30.040487953836255",
      "longitude": "-89.92840118215935"
    }
  },
  {
    "service_request": "2024-1086054",
    "request_type": "Safety & Permits",
    "request_reason": "Licenses & Permits",
    "date_created": "2024-04-18T16:01:08.000",
    "date_modified": "2024-04-18T16:01:08.000",
    "request_status": "Pending",
    "responsible_agency": "Safety and Permits",
    "final_address": "4200 Erato St",
    "address_councildis": "B",
    "status": "Pending",
    "rowid": "1086054",
    "final_x": "3671078.23419",
    "final_y": "531331.231554",
    "longitude": "-90.10098499630955",
    "latitude": "29.955288946853482",
    "geocoded_column": {
      "latitude": "29.955288946853482",
      "longitude": "-90.10098499630955"
    }
  },
  {
    "service_request": "2024-1086053",
    "request_type": "Parks & Parkways",
    "request_reason": "Request Tree Service (Right of Way/Public Property)",
    "date_created": "2024-04-18T16:00:01.000",
    "date_modified": "2024-04-18T16:00:02.000",
    "request_status": "Pending",
    "responsible_agency": "Department of Parks & Parkway",
    "final_address": "8504 Pritchard Pl",
    "address_councildis": "A",
    "status": "Pending",
    "rowid": "1086053",
    "final_x": "3664931.68928",
    "final_y": "533861.139525",
    "longitude": "-90.12030904459176",
    "latitude": "29.962425704759166",
    "geocoded_column": {
      "latitude": "29.962425704759166",
      "longitude": "-90.12030904459176"
    }
  },
  {
    "service_request": "2024-1086051",
    "request_type": "Trash/Recycling",
    "request_reason": "Replace Trash Cart",
    "date_created": "2024-04-18T15:56:37.000",
    "date_modified": "2024-04-18T15:56:38.000",
    "request_status": "Pending",
    "responsible_agency": "Department of Sanitation",
    "final_address": "2520 Touro St",
    "address_councildis": "D",
    "status": "Assigned to Contractor",
    "contractor": "IV Waste",
    "rowid": "1086051",
    "final_x": "3683774.0477",
    "final_y": "541596.95342",
    "longitude": "-90.06053625909428",
    "latitude": "29.983134572803795",
    "geocoded_column": {
      "latitude": "29.983134572803795",
      "longitude": "-90.06053625909428"
    }
  },
  {
    "service_request": "2024-1086050",
    "request_type": "Trash/Recycling",
    "request_reason": "Illegal Dumping",
    "date_created": "2024-04-18T15:56:33.000",
    "date_modified": "2024-04-18T15:56:34.000",
    "request_status": "Pending",
    "responsible_agency": "Department of Sanitation",
    "final_address": "14241 Dwyer Blvd",
    "address_councildis": "E",
    "status": "Pending",
    "rowid": "1086050",
    "final_x": "3729320.18419",
    "final_y": "563292.360352",
    "longitude": "-89.91583270279429",
    "latitude": "30.041318437700998",
    "geocoded_column": {
      "latitude": "30.041318437700998",
      "longitude": "-89.91583270279429"
    }
  },
  {
    "service_request": "2024-1086049",
    "request_type": "Roads/Drainage",
    "request_reason": "Street Flooding / Drainage",
    "date_created": "2024-04-18T15:55:58.000",
    "date_modified": "2024-04-18T16:00:09.000",
    "case_close_date": "2024-04-18T11:00:09.000",
    "request_status": "Closed",
    "responsible_agency": "Department of Public Works",
    "final_address": "1320 Magazine St",
    "address_councildis": "B",
    "status": "Referred to Property Owner",
    "rowid": "1086049",
    "final_x": "3680543.78203",
    "final_y": "525068.503165",
    "longitude": "-90.07131408243661",
    "latitude": "29.937785225779564",
    "geocoded_column": {
      "latitude": "29.937785225779564",
      "longitude": "-90.07131408243661"
    }
  },
  {
    "service_request": "2024-1086048",
    "request_type": "Roads/Drainage",
    "request_reason": "Damaged Sidewalk",
    "date_created": "2024-04-18T15:55:36.000",
    "date_modified": "2024-04-18T15:55:36.000",
    "request_status": "Pending",
    "responsible_agency": "Department of Public Works",
    "final_address": "1032 Jena St",
    "address_councildis": "B",
    "status": "Pending",
    "rowid": "1086048",
    "final_x": "3670546.69991",
    "final_y": "519369.767543",
    "longitude": "-90.10306891898438",
    "latitude": "29.922414502352225",
    "geocoded_column": {
      "latitude": "29.922414502352225",
      "longitude": "-90.10306891898438"
    }
  },
  {
    "service_request": "2024-1086047",
    "request_type": "Roads/Drainage",
    "request_reason": "Catch Basin - Clogged",
    "date_created": "2024-04-18T15:54:56.000",
    "date_modified": "2024-04-18T15:54:56.000",
    "request_status": "Pending",
    "responsible_agency": "Department of Public Works",
    "final_address": "5001 Columbia St",
    "address_councildis": "D",
    "status": "Pending",
    "rowid": "1086047",
    "final_x": "3690504.35728",
    "final_y": "558628.457244",
    "longitude": "-90.03867074244016",
    "latitude": "30.029757670826903",
    "geocoded_column": {
      "latitude": "30.029757670826903",
      "longitude": "-90.03867074244016"
    }
  },
  {
    "service_request": "2024-1086046",
    "request_type": "Trash/Recycling",
    "request_reason": "Order Trash Cart",
    "date_created": "2024-04-18T15:53:17.000",
    "date_modified": "2024-04-18T15:53:18.000",
    "request_status": "Pending",
    "responsible_agency": "Department of Sanitation",
    "final_address": "3200 Nashville Ave",
    "address_councildis": "A",
    "status": "Assigned to Contractor",
    "contractor": "IV Waste",
    "rowid": "1086046",
    "final_x": "3667811.03521",
    "final_y": "527543.226431",
    "longitude": "-90.11142919954386",
    "latitude": "29.94496938197459",
    "geocoded_column": {
      "latitude": "29.94496938197459",
      "longitude": "-90.11142919954386"
    }
  },
  {
    "service_request": "2024-1086045",
    "request_type": "Trash/Recycling",
    "request_reason": "Order Trash Cart",
    "date_created": "2024-04-18T15:52:35.000",
    "date_modified": "2024-04-18T16:01:59.000",
    "request_status": "Pending",
    "responsible_agency": "Department of Sanitation",
    "final_address": "5530 Atlanta St",
    "address_councildis": "A",
    "status": "Assigned to Contractor",
    "contractor": "IV Waste",
    "rowid": "1086045",
    "final_x": "3666659.05831",
    "final_y": "520907.853817",
    "longitude": "-90.11528905848313",
    "latitude": "29.92675795563615",
    "geocoded_column": {
      "latitude": "29.92675795563615",
      "longitude": "-90.11528905848313"
    }
  },
  {
    "service_request": "2024-1086044",
    "request_type": "Abandoned Vehicles",
    "request_reason": "Abandoned/Junk Vehicles",
    "date_created": "2024-04-18T15:49:16.000",
    "date_modified": "2024-04-18T15:49:16.000",
    "request_status": "Pending",
    "responsible_agency": "Department of Public Works",
    "final_address": "ST HELENA PL & WILLOWBROOK DR",
    "address_councildis": "E",
    "status": "Pending",
    "rowid": "1086044",
    "final_x": "3727360.5",
    "final_y": "563976.88",
    "longitude": "-89.92199926449402",
    "latitude": "30.04326709491202",
    "geocoded_column": {
      "latitude": "30.04326709491202",
      "longitude": "-89.92199926449402"
    }
  },
  {
    "service_request": "2024-1086043",
    "request_type": "Abandoned Vehicles",
    "request_reason": "Abandoned/Junk Vehicles",
    "date_created": "2024-04-18T15:44:14.000",
    "date_modified": "2024-04-18T15:44:14.000",
    "request_status": "Pending",
    "responsible_agency": "Department of Public Works",
    "final_address": "3100 BLK Martin Luther King, Jr. Blvd",
    "address_councildis": "B",
    "status": "Pending",
    "rowid": "1086043",
    "final_x": "3674591.637",
    "final_y": "528391.512887",
    "longitude": "-90.0899916671098",
    "latitude": "29.947101327579748",
    "geocoded_column": {
      "latitude": "29.947101327579748",
      "longitude": "-90.0899916671098"
    }
  },
  {
    "service_request": "2024-1086042",
    "request_type": "Property Maintenance",
    "request_reason": "Property Maintenance",
    "date_created": "2024-04-18T15:42:38.000",
    "date_modified": "2024-04-18T15:42:38.000",
    "request_status": "Pending",
    "responsible_agency": "Department of Code Enforcement",
    "final_address": "7601 Adventure Ave",
    "address_councildis": "E",
    "status": "Pending",
    "rowid": "1086042",
    "final_x": "3725628.40844",
    "final_y": "570697.487655",
    "longitude": "-89.92721267374101",
    "latitude": "30.061804495082974",
    "geocoded_column": {
      "latitude": "30.061804495082974",
      "longitude": "-89.92721267374101"
    }
  },
  {
    "service_request": "2024-1086041",
    "request_type": "Abandoned Vehicles",
    "request_reason": "Abandoned/Junk Vehicles",
    "date_created": "2024-04-18T15:38:37.000",
    "date_modified": "2024-04-18T15:40:10.000",
    "request_status": "Pending",
    "responsible_agency": "Department of Public Works",
    "final_address": "2118 N Dorgenois St",
    "address_councildis": "D",
    "status": "Pending",
    "rowid": "1086041",
    "final_x": "3683650.18581",
    "final_y": "541356.07758",
    "longitude": "-90.06093592656393",
    "latitude": "29.982476031491625",
    "geocoded_column": {
      "latitude": "29.982476031491625",
      "longitude": "-90.06093592656393"
    }
  },
  {
    "service_request": "2024-1086040",
    "request_type": "Trash/Recycling",
    "request_reason": "Order Trash Cart",
    "date_created": "2024-04-18T15:37:23.000",
    "date_modified": "2024-04-18T15:37:24.000",
    "request_status": "Pending",
    "responsible_agency": "Department of Sanitation",
    "final_address": "5706 Royal St",
    "address_councildis": "E",
    "status": "Assigned to Contractor",
    "contractor": "Waste Pro",
    "rowid": "1086040",
    "final_x": "3698023.51248",
    "final_y": "532120.840707",
    "longitude": "-90.01587350765337",
    "latitude": "29.956635745444167",
    "geocoded_column": {
      "latitude": "29.956635745444167",
      "longitude": "-90.01587350765337"
    }
  },
  {
    "service_request": "2024-1086039",
    "request_type": "Roads/Drainage",
    "request_reason": "Pothole",
    "date_created": "2024-04-18T15:37:16.000",
    "date_modified": "2024-04-18T15:37:16.000",
    "request_status": "Pending",
    "responsible_agency": "Department of Public Works",
    "final_address": "HARRISON AVE & MARCONI DR",
    "address_councildis": "A",
    "status": "Pending",
    "rowid": "1086039",
    "final_x": "3671555.5",
    "final_y": "549053.28",
    "longitude": "-90.09887508622282",
    "latitude": "30.00400442416237",
    "geocoded_column": {
      "latitude": "30.00400442416237",
      "longitude": "-90.09887508622282"
    }
  },
  {
    "service_request": "2024-1086038",
    "request_type": "Parks & Parkways",
    "request_reason": "Request Tree Service (Right of Way/Public Property)",
    "date_created": "2024-04-18T15:35:24.000",
    "date_modified": "2024-04-18T15:35:25.000",
    "request_status": "Pending",
    "responsible_agency": "Department of Parks & Parkway",
    "final_address": "3547 Rue Colette",
    "address_councildis": "C",
    "status": "Pending",
    "rowid": "1086038",
    "final_x": "3704479.78526",
    "final_y": "517420.01055",
    "longitude": "-89.99602861928297",
    "latitude": "29.916007938923745",
    "geocoded_column": {
      "latitude": "29.916007938923745",
      "longitude": "-89.99602861928297"
    }
  },
  {
    "service_request": "2024-1086037",
    "request_type": "Roads/Drainage",
    "request_reason": "Catch Basin - Clogged",
    "date_created": "2024-04-18T15:35:00.000",
    "date_modified": "2024-04-18T15:35:00.000",
    "request_status": "Pending",
    "responsible_agency": "Department of Public Works",
    "final_address": "2472 Bedford Dr",
    "address_councildis": "C",
    "status": "Pending",
    "rowid": "1086037",
    "final_x": "3705275.6387",
    "final_y": "521779.81849",
    "longitude": "-89.99335568763448",
    "latitude": "29.92797033317305",
    "geocoded_column": {
      "latitude": "29.92797033317305",
      "longitude": "-89.99335568763448"
    }
  },
  {
    "service_request": "2024-1086036",
    "request_type": "Abandoned Vehicles",
    "request_reason": "Abandoned/Junk Vehicles",
    "date_created": "2024-04-18T15:34:46.000",
    "date_modified": "2024-04-18T15:34:46.000",
    "request_status": "Pending",
    "responsible_agency": "Department of Public Works",
    "final_address": "2035 Mirabeau Ave",
    "address_councildis": "D",
    "status": "Pending",
    "rowid": "1086036",
    "final_x": "3682652.47893",
    "final_y": "550693.138197",
    "longitude": "-90.06376041819077",
    "latitude": "30.00818004983145",
    "geocoded_column": {
      "latitude": "30.00818004983145",
      "longitude": "-90.06376041819077"
    }
  },
  {
    "service_request": "2024-1086035",
    "request_type": "Trash/Recycling",
    "request_reason": "Replace Trash Cart",
    "date_created": "2024-04-18T15:30:56.000",
    "date_modified": "2024-04-18T15:30:56.000",
    "request_status": "Pending",
    "responsible_agency": "Department of Sanitation",
    "final_address": "117 S Hennessey St",
    "address_councildis": "A",
    "status": "Assigned to Contractor",
    "contractor": "IV Waste",
    "rowid": "1086035",
    "final_x": "3670091.20404",
    "final_y": "538767.771337",
    "longitude": "-90.10384972407047",
    "latitude": "29.975766102718488",
    "geocoded_column": {
      "latitude": "29.975766102718488",
      "longitude": "-90.10384972407047"
    }
  },
  {
    "service_request": "2024-1086034",
    "request_type": "Trash/Recycling",
    "request_reason": "Request a Large Item Pick Up",
    "date_created": "2024-04-18T15:28:52.000",
    "date_modified": "2024-04-18T15:28:53.000",
    "request_status": "Pending",
    "responsible_agency": "Department of Sanitation",
    "final_address": "6219 Brunswick Ct",
    "address_councildis": "C",
    "status": "Assigned to Contractor",
    "contractor": "Richards Disposal",
    "rowid": "1086034",
    "final_x": "3707065.05073",
    "final_y": "517005.234037",
    "longitude": "-89.98788395441818",
    "latitude": "29.914784229666893",
    "geocoded_column": {
      "latitude": "29.914784229666893",
      "longitude": "-89.98788395441818"
    }
  },
  {
    "service_request": "2024-1086033",
    "request_type": "Trash/Recycling",
    "request_reason": "Request a Large Item Pick Up",
    "date_created": "2024-04-18T15:28:49.000",
    "date_modified": "2024-04-18T15:28:50.000",
    "request_status": "Pending",
    "responsible_agency": "Department of Sanitation",
    "final_address": "5701 Durbridge Dr",
    "address_councildis": "C",
    "status": "Assigned to Contractor",
    "contractor": "Richards Disposal",
    "rowid": "1086033",
    "final_x": "3704748.35262",
    "final_y": "521637.949113",
    "longitude": "-89.99502542555685",
    "latitude": "29.927597186408732",
    "geocoded_column": {
      "latitude": "29.927597186408732",
      "longitude": "-89.99502542555685"
    }
  },
  {
    "service_request": "2024-1086032",
    "request_type": "Property Maintenance",
    "request_reason": "Property Maintenance",
    "date_created": "2024-04-18T15:28:21.000",
    "date_modified": "2024-04-18T15:28:22.000",
    "request_status": "Pending",
    "responsible_agency": "Department of Code Enforcement",
    "final_address": "2816 Jackson Ave",
    "address_councildis": "B",
    "status": "Pending",
    "rowid": "1086032",
    "final_x": "3674703.38152",
    "final_y": "527432.433919",
    "longitude": "-90.08967171425064",
    "latitude": "29.944460842155664",
    "geocoded_column": {
      "latitude": "29.944460842155664",
      "longitude": "-90.08967171425064"
    }
  },
  {
    "service_request": "2024-1086031",
    "request_type": "Trash/Recycling",
    "request_reason": "Request a Large Item Pick Up",
    "date_created": "2024-04-18T15:27:41.000",
    "date_modified": "2024-04-18T15:27:41.000",
    "request_status": "Pending",
    "responsible_agency": "Department of Sanitation",
    "final_address": "7347 Read Blvd",
    "address_councildis": "E",
    "status": "Assigned to Contractor",
    "contractor": "Waste Pro",
    "rowid": "1086031",
    "final_x": "3709278.85413",
    "final_y": "563308.174176",
    "longitude": "-89.97916928963214",
    "latitude": "30.042028396015056",
    "geocoded_column": {
      "latitude": "30.042028396015056",
      "longitude": "-89.97916928963214"
    }
  },
  {
    "service_request": "2024-1086030",
    "request_type": "Abandoned Vehicles",
    "request_reason": "Abandoned/Junk Vehicles",
    "date_created": "2024-04-18T15:27:35.000",
    "date_modified": "2024-04-18T15:27:35.000",
    "request_status": "Pending",
    "responsible_agency": "Department of Public Works",
    "final_address": "4900 BLK Banks St",
    "address_councildis": "A",
    "status": "Pending",
    "rowid": "1086030",
    "final_x": "3667718.67863",
    "final_y": "539364.312135",
    "longitude": "-90.11132275975453",
    "latitude": "29.97747617454464",
    "geocoded_column": {
      "latitude": "29.97747617454464",
      "longitude": "-90.11132275975453"
    }
  },
  {
    "service_request": "2024-1086029",
    "request_type": "Safety & Permits",
    "request_reason": "Licenses & Permits",
    "date_created": "2024-04-18T15:26:54.000",
    "date_modified": "2024-04-18T15:26:55.000",
    "request_status": "Pending",
    "responsible_agency": "Safety and Permits",
    "final_address": "4330 Woodland Ave",
    "address_councildis": "E",
    "status": "Pending",
    "rowid": "1086029",
    "final_x": "3716299.29983",
    "final_y": "554481.759768",
    "longitude": "-89.95731725349505",
    "latitude": "30.01752928961312",
    "geocoded_column": {
      "latitude": "30.01752928961312",
      "longitude": "-89.95731725349505"
    }
  },
  {
    "service_request": "2024-1086028",
    "request_type": "Trash/Recycling",
    "request_reason": "Request a Large Item Pick Up",
    "date_created": "2024-04-18T15:26:52.000",
    "date_modified": "2024-04-18T15:27:30.000",
    "request_status": "Pending",
    "responsible_agency": "Department of Sanitation",
    "final_address": "5445 Grand Bayou Dr",
    "address_councildis": "E",
    "status": "Assigned to Contractor",
    "contractor": "Waste Pro",
    "rowid": "1086028",
    "final_x": "3725782.70931",
    "final_y": "563918.063905",
    "longitude": "-89.9269879519494",
    "latitude": "30.043158715755137",
    "geocoded_column": {
      "latitude": "30.043158715755137",
      "longitude": "-89.9269879519494"
    }
  },
  {
    "service_request": "2024-1086027",
    "request_type": "Trash/Recycling",
    "request_reason": "Request a Large Item Pick Up",
    "date_created": "2024-04-18T15:26:18.000",
    "date_modified": "2024-04-18T15:52:22.000",
    "case_close_date": "2024-04-18T10:52:22.000",
    "request_status": "Closed",
    "responsible_agency": "Department of Sanitation",
    "final_address": "1817 Robert St",
    "address_councildis": "B",
    "status": "Assigned to Contractor",
    "contractor": "IV Waste",
    "contractor_action": "Completed",
    "rowid": "1086027",
    "final_x": "3668803.08084",
    "final_y": "522327.217914",
    "longitude": "-90.10847303994348",
    "latitude": "29.93059791193593",
    "geocoded_column": {
      "latitude": "29.93059791193593",
      "longitude": "-90.10847303994348"
    }
  },
  {
    "service_request": "2024-1086026",
    "request_type": "Abandoned Vehicles",
    "request_reason": "Vehicle Blocking Your Driveway",
    "date_created": "2024-04-18T15:25:18.000",
    "date_modified": "2024-04-18T15:25:18.000",
    "request_status": "Pending",
    "responsible_agency": "Department of Public Works",
    "final_address": "4450 Gawain Dr",
    "address_councildis": "E",
    "status": "Pending",
    "rowid": "1086026",
    "final_x": "3707120.87953",
    "final_y": "553757.019607",
    "longitude": "-89.98634409167175",
    "latitude": "30.01583640934403",
    "geocoded_column": {
      "latitude": "30.01583640934403",
      "longitude": "-89.98634409167175"
    }
  },
  {
    "service_request": "2024-1086025",
    "request_type": "Trash/Recycling",
    "request_reason": "Request a Large Item Pick Up",
    "date_created": "2024-04-18T15:25:13.000",
    "date_modified": "2024-04-18T15:25:13.000",
    "request_status": "Pending",
    "responsible_agency": "Department of Sanitation",
    "final_address": "11308 King Richard Dr",
    "address_councildis": "E",
    "status": "Assigned to Contractor",
    "contractor": "Waste Pro",
    "rowid": "1086025",
    "final_x": "3717314.2334",
    "final_y": "556428.16009",
    "longitude": "-89.95403647609145",
    "latitude": "30.02284756597243",
    "geocoded_column": {
      "latitude": "30.02284756597243",
      "longitude": "-89.95403647609145"
    }
  },
  {
    "service_request": "2024-1086024",
    "request_type": "Trash/Recycling",
    "request_reason": "Missed Trash Pick-Up",
    "date_created": "2024-04-18T15:23:40.000",
    "date_modified": "2024-04-18T16:12:50.000",
    "case_close_date": "2024-04-18T11:12:50.000",
    "request_status": "Closed",
    "responsible_agency": "Department of Sanitation",
    "final_address": "1525 Aline St",
    "address_councildis": "B",
    "status": "Invalid Request",
    "contractor": "IV Waste",
    "contractor_action": "Invalid",
    "rowid": "1086024",
    "final_x": "3673918.5972",
    "final_y": "521084.039097",
    "longitude": "-90.09236658799759",
    "latitude": "29.927028220068124",
    "geocoded_column": {
      "latitude": "29.927028220068124",
      "longitude": "-90.09236658799759"
    }
  },
  {
    "service_request": "2024-1086023",
    "request_type": "Trash/Recycling",
    "request_reason": "Request a Large Item Pick Up",
    "date_created": "2024-04-18T15:22:58.000",
    "date_modified": "2024-04-18T15:43:00.000",
    "case_close_date": "2024-04-18T10:43:00.000",
    "request_status": "Closed",
    "responsible_agency": "Department of Sanitation",
    "final_address": "1931 Orleans Ave",
    "address_councildis": "D",
    "status": "Duplicate Request",
    "contractor": "IV Waste",
    "contractor_action": "Invalid Request",
    "rowid": "1086023",
    "final_x": "3679105.96098",
    "final_y": "535350.26855",
    "longitude": "-90.07549706731277",
    "latitude": "29.966100093909354",
    "geocoded_column": {
      "latitude": "29.966100093909354",
      "longitude": "-90.07549706731277"
    }
  },
  {
    "service_request": "2024-1086022",
    "request_type": "Trash/Recycling",
    "request_reason": "Request a Large Item Pick Up",
    "date_created": "2024-04-18T15:21:25.000",
    "date_modified": "2024-04-18T15:59:42.000",
    "case_close_date": "2024-04-18T10:59:42.000",
    "request_status": "Closed",
    "responsible_agency": "Department of Sanitation",
    "final_address": "1931 Orleans Ave",
    "address_councildis": "D",
    "status": "Assigned to Contractor",
    "contractor": "IV Waste",
    "contractor_action": "Completed",
    "rowid": "1086022",
    "final_x": "3679105.96098",
    "final_y": "535350.26855",
    "longitude": "-90.07549706731277",
    "latitude": "29.966100093909354",
    "geocoded_column": {
      "latitude": "29.966100093909354",
      "longitude": "-90.07549706731277"
    }
  },
  {
    "service_request": "2024-1086021",
    "request_type": "Abandoned Vehicles",
    "request_reason": "Abandoned/Junk Vehicles",
    "date_created": "2024-04-18T15:20:10.000",
    "date_modified": "2024-04-18T15:20:10.000",
    "request_status": "Pending",
    "responsible_agency": "Department of Public Works",
    "final_address": "5172 St Anthony Ave",
    "address_councildis": "D",
    "status": "Inspected",
    "rowid": "1086021",
    "final_x": "3682169.34101",
    "final_y": "551679.903061",
    "longitude": "-90.06525229746441",
    "latitude": "30.010908006632683",
    "geocoded_column": {
      "latitude": "30.010908006632683",
      "longitude": "-90.06525229746441"
    }
  },
  {
    "service_request": "2024-1086020",
    "request_type": "Roads/Drainage",
    "request_reason": "Catch Basin - Clogged",
    "date_created": "2024-04-18T15:19:03.000",
    "date_modified": "2024-04-18T15:19:24.000",
    "request_status": "Pending",
    "responsible_agency": "Department of Public Works",
    "final_address": "1439 Patterson St",
    "address_councildis": "C",
    "status": "Pending",
    "rowid": "1086020",
    "final_x": "3690221.1064",
    "final_y": "530991.056642",
    "longitude": "-90.04055114469845",
    "latitude": "29.953773596499573",
    "geocoded_column": {
      "latitude": "29.953773596499573",
      "longitude": "-90.04055114469845"
    }
  },
  {
    "service_request": "2024-1086019",
    "request_type": "Trash/Recycling",
    "request_reason": "Request a Large Item Pick Up",
    "date_created": "2024-04-18T15:17:05.000",
    "date_modified": "2024-04-18T15:17:05.000",
    "request_status": "Pending",
    "responsible_agency": "Department of Sanitation",
    "final_address": "6971 Neptune Ct",
    "address_councildis": "E",
    "status": "Assigned to Contractor",
    "contractor": "Waste Pro",
    "rowid": "1086019",
    "final_x": "3702074.5034",
    "final_y": "558851.450012",
    "longitude": "-90.00210125365591",
    "latitude": "30.030006283497265",
    "geocoded_column": {
      "latitude": "30.030006283497265",
      "longitude": "-90.00210125365591"
    }
  },
  {
    "service_request": "2024-1086018",
    "request_type": "Trash/Recycling",
    "request_reason": "Order Recycling Cart",
    "date_created": "2024-04-18T15:16:21.000",
    "date_modified": "2024-04-18T15:16:21.000",
    "request_status": "Pending",
    "responsible_agency": "Department of Sanitation",
    "final_address": "3625 Fairmont Dr",
    "address_councildis": "D",
    "status": "Pending",
    "rowid": "1086018",
    "final_x": "3685625.46524",
    "final_y": "545674.312528",
    "longitude": "-90.05454481489876",
    "latitude": "29.99428918201717",
    "geocoded_column": {
      "latitude": "29.99428918201717",
      "longitude": "-90.05454481489876"
    }
  },
  {
    "service_request": "2024-1086017",
    "request_type": "Roads/Drainage",
    "request_reason": "Accessibility Ramps, Curbs and Sidewalk Repair",
    "date_created": "2024-04-18T15:15:42.000",
    "date_modified": "2024-04-18T15:15:42.000",
    "request_status": "Pending",
    "responsible_agency": "Department of Public Works",
    "final_address": "1011 Poland Ave",
    "address_councildis": "C",
    "status": "Pending",
    "rowid": "1086017",
    "final_x": "3693018.11683",
    "final_y": "534657.824518",
    "longitude": "-90.03158784847328",
    "latitude": "29.963768857075504",
    "geocoded_column": {
      "latitude": "29.963768857075504",
      "longitude": "-90.03158784847328"
    }
  },
  {
    "service_request": "2024-1086016",
    "request_type": "Trash/Recycling",
    "request_reason": "Replace Trash Cart",
    "date_created": "2024-04-18T15:15:38.000",
    "date_modified": "2024-04-18T15:15:39.000",
    "request_status": "Pending",
    "responsible_agency": "Department of Sanitation",
    "final_address": "3625 Fairmont Dr",
    "address_councildis": "D",
    "status": "Assigned to Contractor",
    "contractor": "IV Waste",
    "rowid": "1086016",
    "final_x": "3685625.46524",
    "final_y": "545674.312528",
    "longitude": "-90.05454481489876",
    "latitude": "29.99428918201717",
    "geocoded_column": {
      "latitude": "29.99428918201717",
      "longitude": "-90.05454481489876"
    }
  },
  {
    "service_request": "2024-1086015",
    "request_type": "Trash/Recycling",
    "request_reason": "Request a Large Item Pick Up",
    "date_created": "2024-04-18T15:11:40.000",
    "date_modified": "2024-04-18T15:11:40.000",
    "request_status": "Pending",
    "responsible_agency": "Department of Sanitation",
    "final_address": "1719 Lamanche St",
    "address_councildis": "E",
    "status": "Assigned to Contractor",
    "contractor": "Waste Pro",
    "rowid": "1086015",
    "final_x": "3699056.19178",
    "final_y": "536088.023623",
    "longitude": "-90.01246825583902",
    "latitude": "29.96751139518556",
    "geocoded_column": {
      "latitude": "29.96751139518556",
      "longitude": "-90.01246825583902"
    }
  },
  {
    "service_request": "2024-1086014",
    "request_type": "Property Maintenance",
    "request_reason": "Property Maintenance",
    "date_created": "2024-04-18T15:10:14.000",
    "date_modified": "2024-04-18T15:37:00.000",
    "case_close_date": "2024-04-18T10:37:00.000",
    "request_status": "Closed",
    "responsible_agency": "Department of Code Enforcement",
    "final_address": "2261 Pressburg St",
    "address_councildis": "D",
    "status": "Referred to Code Enforcement",
    "rowid": "1086014",
    "final_x": "3684139.39938",
    "final_y": "554692.409624",
    "longitude": "-90.058922259547",
    "latitude": "30.01913120279681",
    "geocoded_column": {
      "latitude": "30.01913120279681",
      "longitude": "-90.058922259547"
    }
  },
  {
    "service_request": "2024-1086013",
    "request_type": "Roads/Drainage",
    "request_reason": "Damaged Sidewalk",
    "date_created": "2024-04-18T15:08:02.000",
    "date_modified": "2024-04-18T15:08:03.000",
    "request_status": "Pending",
    "responsible_agency": "Department of Public Works",
    "final_address": "2312 Laurel St",
    "address_councildis": "B",
    "status": "Pending",
    "rowid": "1086013",
    "final_x": "3678905.698",
    "final_y": "521159.287033",
    "longitude": "-90.07662100362506",
    "latitude": "29.927085672007042",
    "geocoded_column": {
      "latitude": "29.927085672007042",
      "longitude": "-90.07662100362506"
    }
  },
  {
    "service_request": "2024-1086012",
    "request_type": "Traffic Signals/Signs/Striping/Streetlights",
    "request_reason": "Street Light Outage/Malfunction",
    "date_created": "2024-04-18T15:06:16.000",
    "date_modified": "2024-04-18T15:06:17.000",
    "request_status": "Pending",
    "responsible_agency": "Department of Public Works",
    "final_address": "2472 Bedford Dr",
    "address_councildis": "C",
    "status": "Assigned to Contractor",
    "contractor": "Legacy Professional Services",
    "rowid": "1086012",
    "final_x": "3705275.6387",
    "final_y": "521779.81849",
    "longitude": "-89.99335568763448",
    "latitude": "29.92797033317305",
    "geocoded_column": {
      "latitude": "29.92797033317305",
      "longitude": "-89.99335568763448"
    }
  },
  {
    "service_request": "2024-1086011",
    "request_type": "Trash/Recycling",
    "request_reason": "Missed Trash Pick-Up",
    "date_created": "2024-04-18T15:03:36.000",
    "date_modified": "2024-04-18T15:03:36.000",
    "request_status": "Pending",
    "responsible_agency": "Department of Sanitation",
    "final_address": "8903 Bunker Hill Rd, New Orleans, Louisiana, 70127",
    "address_councildis": "E",
    "status": "Assigned to Contractor",
    "contractor": "Waste Pro",
    "rowid": "1086011",
    "final_x": "3705826.57348",
    "final_y": "561617.139679",
    "longitude": "-89.9901423660194",
    "latitude": "30.037490450497124",
    "geocoded_column": {
      "latitude": "30.037490450497124",
      "longitude": "-89.9901423660194"
    }
  },
  {
    "service_request": "2024-1086010",
    "request_type": "Trash/Recycling",
    "request_reason": "Request a Large Item Pick Up",
    "date_created": "2024-04-18T15:03:11.000",
    "date_modified": "2024-04-18T16:03:07.000",
    "case_close_date": "2024-04-18T11:03:07.000",
    "request_status": "Closed",
    "responsible_agency": "Department of Sanitation",
    "final_address": "2105 Sere St",
    "address_councildis": "D",
    "status": "Assigned to Contractor",
    "contractor": "IV Waste",
    "contractor_action": "Completed",
    "rowid": "1086010",
    "final_x": "3683536.53724",
    "final_y": "545895.132816",
    "longitude": "-90.06113570906878",
    "latitude": "29.99496029618937",
    "geocoded_column": {
      "latitude": "29.99496029618937",
      "longitude": "-90.06113570906878"
    }
  },
  {
    "service_request": "2024-1086009",
    "request_type": "Trash/Recycling",
    "request_reason": "Request a Large Item Pick Up",
    "date_created": "2024-04-18T14:59:10.000",
    "date_modified": "2024-04-18T14:59:10.000",
    "request_status": "Pending",
    "responsible_agency": "Department of Sanitation",
    "final_address": "7701 Symmes Ave",
    "address_councildis": "E",
    "status": "Assigned to Contractor",
    "contractor": "Waste Pro",
    "rowid": "1086009",
    "final_x": "3707781.64875",
    "final_y": "564826.71517",
    "longitude": "-89.98384446453092",
    "latitude": "30.046252344682884",
    "geocoded_column": {
      "latitude": "30.046252344682884",
      "longitude": "-89.98384446453092"
    }
  },
  {
    "service_request": "2024-1086008",
    "request_type": "Trash/Recycling",
    "request_reason": "Request a Large Item Pick Up",
    "date_created": "2024-04-18T14:58:13.000",
    "date_modified": "2024-04-18T16:22:07.000",
    "case_close_date": "2024-04-18T11:22:07.000",
    "request_status": "Closed",
    "responsible_agency": "Department of Sanitation",
    "final_address": "1015 Louisiana Ave",
    "address_councildis": "B",
    "status": "Assigned to Contractor",
    "contractor": "IV Waste",
    "contractor_action": "Completed",
    "rowid": "1086008",
    "final_x": "3675199.70267",
    "final_y": "519448.536567",
    "longitude": "-90.08837856136961",
    "latitude": "29.922492902670886",
    "geocoded_column": {
      "latitude": "29.922492902670886",
      "longitude": "-90.08837856136961"
    }
  },
  {
    "service_request": "2024-1086007",
    "request_type": "Trash/Recycling",
    "request_reason": "Request a Large Item Pick Up",
    "date_created": "2024-04-18T14:56:12.000",
    "date_modified": "2024-04-18T16:33:04.000",
    "request_status": "Pending",
    "responsible_agency": "Department of Sanitation",
    "final_address": "3317 Short St, New Orleans, Louisiana, 70125",
    "address_councildis": "B",
    "status": "Assigned to Contractor",
    "contractor": "IV Waste",
    "rowid": "1086007",
    "final_x": "3667477.17185",
    "final_y": "533693.625093",
    "longitude": "-90.1122763780639",
    "latitude": "29.96189075381497",
    "geocoded_column": {
      "latitude": "29.96189075381497",
      "longitude": "-90.1122763780639"
    }
  },
  {
    "service_request": "2024-1086006",
    "request_type": "Trash/Recycling",
    "request_reason": "Order Trash Cart",
    "date_created": "2024-04-18T14:46:23.000",
    "date_modified": "2024-04-18T14:46:39.000",
    "request_status": "Pending",
    "responsible_agency": "Department of Sanitation",
    "final_address": "1526 N Prieur St",
    "address_councildis": "D",
    "status": "Assigned to Contractor",
    "contractor": "IV Waste",
    "rowid": "1086006",
    "final_x": "3681074.67291",
    "final_y": "537974.072521",
    "longitude": "-90.06918851289835",
    "latitude": "29.973255080901684",
    "geocoded_column": {
      "latitude": "29.973255080901684",
      "longitude": "-90.06918851289835"
    }
  },
  {
    "service_request": "2024-1086005",
    "request_type": "Property Maintenance",
    "request_reason": "Property Maintenance",
    "date_created": "2024-04-18T14:46:20.000",
    "date_modified": "2024-04-18T14:52:02.000",
    "case_close_date": "2024-04-18T09:52:01.000",
    "request_status": "Closed",
    "responsible_agency": "Department of Code Enforcement",
    "final_address": "7919 Mullet St",
    "address_councildis": "E",
    "status": "Referred to Code Enforcement",
    "rowid": "1086005",
    "final_x": "3698827.2113",
    "final_y": "561042.760286",
    "longitude": "-90.01228279822755",
    "latitude": "30.036134875485953",
    "geocoded_column": {
      "latitude": "30.036134875485953",
      "longitude": "-90.01228279822755"
    }
  },
  {
    "service_request": "2024-1086004",
    "request_type": "Parks & Parkways",
    "request_reason": "Request Tree Service (Right of Way/Public Property)",
    "date_created": "2024-04-18T14:46:10.000",
    "date_modified": "2024-04-18T14:46:11.000",
    "request_status": "Pending",
    "responsible_agency": "Department of Parks & Parkway",
    "final_address": "ELLEN PARK PL & GENERAL MEYER AVE",
    "address_councildis": "C",
    "status": "Pending",
    "rowid": "1086004",
    "final_x": "3702911.2",
    "final_y": "522822.48",
    "longitude": "-90.00078134216132",
    "latitude": "29.93091310732571",
    "geocoded_column": {
      "latitude": "29.93091310732571",
      "longitude": "-90.00078134216132"
    }
  },
  {
    "service_request": "2024-1086003",
    "request_type": "Trash/Recycling",
    "request_reason": "Order Trash Cart",
    "date_created": "2024-04-18T14:43:00.000",
    "date_modified": "2024-04-18T14:43:01.000",
    "request_status": "Pending",
    "responsible_agency": "Department of Sanitation",
    "final_address": "5109 Tchoupitoulas St",
    "address_councildis": "B",
    "status": "Assigned to Contractor",
    "contractor": "IV Waste",
    "rowid": "1086003",
    "final_x": "3668204.40897",
    "final_y": "517250.355573",
    "longitude": "-90.11053399833722",
    "latitude": "29.916655729851744",
    "geocoded_column": {
      "latitude": "29.916655729851744",
      "longitude": "-90.11053399833722"
    }
  },
  {
    "service_request": "2024-1086002",
    "request_type": "Trash/Recycling",
    "request_reason": "Illegal Dumping",
    "date_created": "2024-04-18T14:42:25.000",
    "date_modified": "2024-04-18T14:42:26.000",
    "request_status": "Pending",
    "responsible_agency": "Department of Code Enforcement",
    "final_address": "1221 Tricou St",
    "address_councildis": "E",
    "status": "Pending",
    "rowid": "1086002",
    "final_x": "3700370.61162",
    "final_y": "533538.937925",
    "longitude": "-90.00841040058616",
    "latitude": "29.96046059537722",
    "geocoded_column": {
      "latitude": "29.96046059537722",
      "longitude": "-90.00841040058616"
    }
  },
  {
    "service_request": "2024-1086001",
    "request_type": "Roads/Drainage",
    "request_reason": "Catch Basin - Clogged",
    "date_created": "2024-04-18T14:40:31.000",
    "date_modified": "2024-04-18T14:41:11.000",
    "request_status": "Pending",
    "responsible_agency": "Department of Public Works",
    "final_address": "BENJAMIN ST & CALHOUN ST",
    "address_councildis": "A",
    "status": "Pending",
    "rowid": "1086001",
    "final_x": "3664649.7",
    "final_y": "522548.28",
    "longitude": "-90.1215773264407",
    "latitude": "29.931327189670636",
    "geocoded_column": {
      "latitude": "29.931327189670636",
      "longitude": "-90.1215773264407"
    }
  },
  {
    "service_request": "2024-1086000",
    "request_type": "Trash/Recycling",
    "request_reason": "Replace Trash Cart",
    "date_created": "2024-04-18T14:37:56.000",
    "date_modified": "2024-04-18T14:37:57.000",
    "request_status": "Pending",
    "responsible_agency": "Department of Sanitation",
    "final_address": "6408 Baccich St",
    "address_councildis": "D",
    "status": "Assigned to Contractor",
    "contractor": "IV Waste",
    "rowid": "1086000",
    "final_x": "3687316.27023",
    "final_y": "556914.421914",
    "longitude": "-90.04880576414595",
    "latitude": "30.0251433749277",
    "geocoded_column": {
      "latitude": "30.0251433749277",
      "longitude": "-90.04880576414595"
    }
  },
  {
    "service_request": "2024-1085999",
    "request_type": "Trash/Recycling",
    "request_reason": "MIssed Recycling Pick-Up",
    "date_created": "2024-04-18T14:37:23.000",
    "date_modified": "2024-04-18T15:16:03.000",
    "case_close_date": "2024-04-18T10:16:03.000",
    "request_status": "Closed",
    "responsible_agency": "Department of Sanitation",
    "final_address": "1334 Henry Clay Ave",
    "address_councildis": "A",
    "status": "Invalid Request",
    "contractor": "IV Waste",
    "contractor_action": "Invalid",
    "rowid": "1085999",
    "final_x": "3664463.52551",
    "final_y": "521447.226105",
    "longitude": "-90.12220179822322",
    "latitude": "29.928305051290806",
    "geocoded_column": {
      "latitude": "29.928305051290806",
      "longitude": "-90.12220179822322"
    }
  },
  {
    "service_request": "2024-1085998",
    "request_type": "Traffic Signals/Signs/Striping/Streetlights",
    "request_reason": "Request for Stop Sign",
    "date_created": "2024-04-18T14:36:23.000",
    "date_modified": "2024-04-18T14:36:24.000",
    "request_status": "Pending",
    "responsible_agency": "Department of Public Works",
    "final_address": "SHORT ST & PLUM ST",
    "address_councildis": "A",
    "status": "Pending",
    "rowid": "1085998",
    "final_x": "3662536.4",
    "final_y": "528323.88",
    "longitude": "-90.12805699761114",
    "latitude": "29.94726953832913",
    "geocoded_column": {
      "latitude": "29.94726953832913",
      "longitude": "-90.12805699761114"
    }
  },
  {
    "service_request": "2024-1085997",
    "request_type": "Trash/Recycling",
    "request_reason": "Request a Large Item Pick Up",
    "date_created": "2024-04-18T14:33:12.000",
    "date_modified": "2024-04-18T14:33:12.000",
    "request_status": "Pending",
    "responsible_agency": "Department of Sanitation",
    "final_address": "5400 Constance St",
    "address_councildis": "A",
    "status": "Assigned to Contractor",
    "contractor": "IV Waste",
    "rowid": "1085997",
    "final_x": "3666611.31604",
    "final_y": "518336.179574",
    "longitude": "-90.11552604821307",
    "latitude": "29.91968805676968",
    "geocoded_column": {
      "latitude": "29.91968805676968",
      "longitude": "-90.11552604821307"
    }
  },
  {
    "service_request": "2024-1085996",
    "request_type": "Roads/Drainage",
    "request_reason": "Pothole",
    "date_created": "2024-04-18T14:31:42.000",
    "date_modified": "2024-04-18T14:31:42.000",
    "request_status": "Pending",
    "responsible_agency": "Department of Public Works",
    "final_address": "2116 Independence St",
    "address_councildis": "D",
    "status": "Pending",
    "rowid": "1085996",
    "final_x": "3691875.89648",
    "final_y": "539424.662922",
    "longitude": "-90.03502429189591",
    "latitude": "29.97691160778575",
    "geocoded_column": {
      "latitude": "29.97691160778575",
      "longitude": "-90.03502429189591"
    }
  },
  {
    "service_request": "2024-1085995",
    "request_type": "Trash/Recycling",
    "request_reason": "Repair Trash Cart",
    "date_created": "2024-04-18T14:28:16.000",
    "date_modified": "2024-04-18T14:28:17.000",
    "request_status": "Pending",
    "responsible_agency": "Department of Sanitation",
    "final_address": "1937 Casa Calvo St",
    "address_councildis": "C",
    "status": "Assigned to Contractor",
    "contractor": "Richards Disposal",
    "rowid": "1085995",
    "final_x": "3691900.60592",
    "final_y": "523989.03654",
    "longitude": "-90.035498424485",
    "latitude": "29.934468237517773",
    "geocoded_column": {
      "latitude": "29.934468237517773",
      "longitude": "-90.035498424485"
    }
  },
  {
    "service_request": "2024-1085994",
    "request_type": "Abandoned Vehicles",
    "request_reason": "Abandoned/Junk Vehicles",
    "date_created": "2024-04-18T14:27:58.000",
    "date_modified": "2024-04-18T14:27:58.000",
    "request_status": "Pending",
    "responsible_agency": "Department of Public Works",
    "final_address": "6564 Fleur-De-Lis Dr",
    "address_councildis": "A",
    "status": "Pending",
    "rowid": "1085994",
    "final_x": "3665311.79796",
    "final_y": "551746.099541",
    "longitude": "-90.11850992582671",
    "latitude": "30.01159222292",
    "geocoded_column": {
      "latitude": "30.01159222292",
      "longitude": "-90.11850992582671"
    }
  },
  {
    "service_request": "2024-1085993",
    "request_type": "Trash/Recycling",
    "request_reason": "Request a Large Item Pick Up",
    "date_created": "2024-04-18T14:25:25.000",
    "date_modified": "2024-04-18T14:25:26.000",
    "request_status": "Pending",
    "responsible_agency": "Department of Sanitation",
    "final_address": "4819 Schindler Dr",
    "address_councildis": "E",
    "status": "Assigned to Contractor",
    "contractor": "Waste Pro",
    "rowid": "1085993",
    "final_x": "3714374.14866",
    "final_y": "556998.019482",
    "longitude": "-89.96330484227559",
    "latitude": "30.02451143810169",
    "geocoded_column": {
      "latitude": "30.02451143810169",
      "longitude": "-89.96330484227559"
    }
  },
  {
    "service_request": "2024-1085992",
    "request_type": "Abandoned Vehicles",
    "request_reason": "Abandoned/Junk Vehicles",
    "date_created": "2024-04-18T14:24:33.000",
    "date_modified": "2024-04-18T14:24:33.000",
    "request_status": "Pending",
    "responsible_agency": "Department of Public Works",
    "final_address": "4900 Virgilian St",
    "address_councildis": "D",
    "status": "Pending",
    "rowid": "1085992",
    "final_x": "3697328.62704",
    "final_y": "554522.590552",
    "longitude": "-90.01725525038188",
    "latitude": "30.01825432217562",
    "geocoded_column": {
      "latitude": "30.01825432217562",
      "longitude": "-90.01725525038188"
    }
  },
  {
    "service_request": "2024-1085991",
    "request_type": "Abandoned Vehicles",
    "request_reason": "Abandoned/Junk Vehicles",
    "date_created": "2024-04-18T14:23:43.000",
    "date_modified": "2024-04-18T14:23:43.000",
    "request_status": "Pending",
    "responsible_agency": "Department of Public Works",
    "final_address": "7008 Whitmore Pl",
    "address_councildis": "E",
    "status": "Pending",
    "rowid": "1085991",
    "final_x": "3719061.84191",
    "final_y": "569124.794406",
    "longitude": "-89.94802947690046",
    "latitude": "30.057700176550508",
    "geocoded_column": {
      "latitude": "30.057700176550508",
      "longitude": "-89.94802947690046"
    }
  },
  {
    "service_request": "2024-1085989",
    "request_type": "Abandoned Vehicles",
    "request_reason": "Abandoned/Junk Vehicles",
    "date_created": "2024-04-18T14:22:17.000",
    "date_modified": "2024-04-18T14:22:18.000",
    "request_status": "Pending",
    "responsible_agency": "Department of Public Works",
    "final_address": "200 S Scott St",
    "address_councildis": "A",
    "status": "Pending",
    "rowid": "1085989",
    "final_x": "3671538.36372",
    "final_y": "537439.15956",
    "longitude": "-90.09932436614052",
    "latitude": "29.972070093465597",
    "geocoded_column": {
      "latitude": "29.972070093465597",
      "longitude": "-90.09932436614052"
    }
  },