[
  {
    "service_request": "2023-987964",
    "request_type": "Trash/Recycling",
    "request_reason": "Request a Large Item Pick Up",
    "date_created": "2023-04-03T00:55:18.000",
    "date_modified": "2023-04-03T00:55:19.000",
    "request_status": "Pending",
    "responsible_agency": "Department of Sanitation",
    "final_address": "7329 Vanderkloot Ave",
    "address_councildis": "E",
    "status": "Assigned to Contractor",
    "contractor": "Waste Pro",
    "rowid": "987964",
    "final_x": "3706351.72823",
    "final_y": "562577.974304",
    "longitude": "-89.98844712772154",
    "latitude": "30.040115428587033",
    "geocoded_column": {
      "latitude": "30.040115428587033",
      "longitude": "-89.98844712772154"
    }
  },
  {
    "service_request": "2023-987963",
    "request_type": "Trash/Recycling",
    "request_reason": "Request a Large Item Pick Up",
    "date_created": "2023-04-03T00:43:09.000",
    "date_modified": "2023-04-03T00:43:10.000",
    "request_status": "Pending",
    "responsible_agency": "Department of Sanitation",
    "final_address": "26 Grand Canyon Dr",
    "address_councildis": "C",
    "status": "Assigned to Contractor",
    "contractor": "Richards Disposal",
    "rowid": "987963",
    "final_x": "3699750.71332",
    "final_y": "517157.420853",
    "longitude": "-90.01096488939694",
    "latitude": "29.915436821529568",
    "geocoded_column": {
      "latitude": "29.915436821529568",
      "longitude": "-90.01096488939694"
    }
  },
  {
    "service_request": "2023-987962",
    "request_type": "Parks & Parkways",
    "request_reason": "Tree Stump (removal, grind)",
    "date_created": "2023-04-02T23:31:41.000",
    "date_modified": "2023-04-02T23:31:41.000",
    "request_status": "Pending",
    "responsible_agency": "Department of Parks & Parkway",
    "final_address": "3430 Franklin Ave",
    "address_councildis": "D",
    "status": "Pending",
    "rowid": "987962",
    "final_x": "3687113.74735",
    "final_y": "545728.565456",
    "longitude": "-90.04984162010189",
    "latitude": "29.994392603544135",
    "geocoded_column": {
      "latitude": "29.994392603544135",
      "longitude": "-90.04984162010189"
    }
  },
  {
    "service_request": "2023-987961",
    "request_type": "Abandoned Vehicles",
    "request_reason": "Vehicle Blocking Your Driveway",
    "date_created": "2023-04-02T22:34:58.000",
    "date_modified": "2023-04-02T22:34:58.000",
    "request_status": "Pending",
    "responsible_agency": "Department of Public Works",
    "final_address": "5641 Canal Blvd",
    "address_councildis": "A",
    "status": "Pending",
    "rowid": "987961",
    "final_x": "3668444.98446",
    "final_y": "545127.667983",
    "longitude": "-90.10883431302736",
    "latitude": "29.993302124145785",
    "geocoded_column": {
      "latitude": "29.993302124145785",
      "longitude": "-90.10883431302736"
    }
  },
  {
    "service_request": "2023-987960",
    "request_type": "Health Related Request",
    "request_reason": "Noise Ordinance Complaint",
    "date_created": "2023-04-02T22:19:00.000",
    "date_modified": "2023-04-02T22:19:00.000",
    "request_status": "Pending",
    "responsible_agency": "Health Department",
    "final_address": "1011 N Claiborne Ave, New Orleans, Louisiana, 70116",
    "address_councildis": "D",
    "status": "Pending",
    "rowid": "987960",
    "final_x": "3680426.3741",
    "final_y": "535647.846086",
    "longitude": "-90.07131688638961",
    "latitude": "29.966878408641293",
    "geocoded_column": {
      "latitude": "29.966878408641293",
      "longitude": "-90.07131688638961"
    }
  },
  {
    "service_request": "2023-987959",
    "request_type": "Trash/Recycling",
    "request_reason": "Replace Trash Cart",
    "date_created": "2023-04-02T22:13:07.000",
    "date_modified": "2023-04-02T22:13:08.000",
    "request_status": "Pending",
    "responsible_agency": "Department of Sanitation",
    "final_address": "2111 Dante St",
    "address_councildis": "A",
    "status": "Assigned to Contractor",
    "contractor": "Richards Disposal",
    "rowid": "987959",
    "final_x": "3663684.09171",
    "final_y": "531277.843714",
    "longitude": "-90.12433487366032",
    "latitude": "29.955358740117745",
    "geocoded_column": {
      "latitude": "29.955358740117745",
      "longitude": "-90.12433487366032"
    }
  },
  {
    "service_request": "2023-987958",
    "request_type": "Traffic Signals/Signs/Striping/Streetlights",
    "request_reason": "Street Light Outage/Malfunction",
    "date_created": "2023-04-02T22:12:33.000",
    "date_modified": "2023-04-02T22:12:33.000",
    "request_status": "Pending",
    "responsible_agency": "Department of Public Works",
    "final_address": "4646 Wright Rd",
    "address_councildis": "E",
    "status": "Assigned to Contractor",
    "contractor": "Legacy Professional Services",
    "rowid": "987958",
    "final_x": "3716626.99724",
    "final_y": "556433.51113",
    "longitude": "-89.95620775698325",
    "latitude": "30.02288500771418",
    "geocoded_column": {
      "latitude": "30.02288500771418",
      "longitude": "-89.95620775698325"
    }
  },
  {
    "service_request": "2023-987957",
    "request_type": "Health Related Request",
    "request_reason": "Noise Ordinance Complaint",
    "date_created": "2023-04-02T22:10:52.000",
    "date_modified": "2023-04-02T22:10:52.000",
    "request_status": "Pending",
    "responsible_agency": "Health Department",
    "final_address": "711 Bourbon St, New Orleans, Louisiana, 70116",
    "address_councildis": "C",
    "status": "Pending",
    "rowid": "987957",
    "final_x": "3682299.38447",
    "final_y": "532765.705988",
    "longitude": "-90.06550263299877",
    "latitude": "29.95889665479323",
    "geocoded_column": {
      "latitude": "29.95889665479323",
      "longitude": "-90.06550263299877"
    }
  },
  {
    "service_request": "2023-987956",
    "request_type": "Health Related Request",
    "request_reason": "Noise Ordinance Complaint",
    "date_created": "2023-04-02T22:10:25.000",
    "date_modified": "2023-04-02T22:10:25.000",
    "request_status": "Pending",
    "responsible_agency": "Health Department",
    "final_address": "711 Bourbon St, New Orleans, Louisiana, 70116",
    "address_councildis": "C",
    "status": "Pending",
    "rowid": "987956",
    "final_x": "3682299.38447",
    "final_y": "532765.705988",
    "longitude": "-90.06550263299877",
    "latitude": "29.95889665479323",
    "geocoded_column": {
      "latitude": "29.95889665479323",
      "longitude": "-90.06550263299877"
    }
  },
  {
    "service_request": "2023-987954",
    "request_type": "Trash/Recycling",
    "request_reason": "Request a Large Item Pick Up",
    "date_created": "2023-04-02T21:41:24.000",
    "date_modified": "2023-04-02T21:41:24.000",
    "request_status": "Pending",
    "responsible_agency": "Department of Sanitation",
    "final_address": "4430 Lancelot Dr, New Orleans, Louisiana, 70127",
    "address_councildis": "E",
    "status": "Assigned to Contractor",
    "contractor": "Waste Pro",
    "rowid": "987954",
    "final_x": "3707544.13688",
    "final_y": "553760.070743",
    "longitude": "-89.98500668723098",
    "latitude": "30.01583111096896",
    "geocoded_column": {
      "latitude": "30.01583111096896",
      "longitude": "-89.98500668723098"
    }
  },
  {
    "service_request": "2023-987952",
    "request_type": "Trash/Recycling",
    "request_reason": "Order Recycling Cart",
    "date_created": "2023-04-02T21:14:27.000",
    "date_modified": "2023-04-02T21:14:27.000",
    "request_status": "Pending",
    "responsible_agency": "Department of Sanitation",
    "final_address": "730 Huntlee Dr",
    "address_councildis": "C",
    "status": "Pending",
    "rowid": "987952",
    "final_x": "3701812.55837",
    "final_y": "519716.521272",
    "longitude": "-90.00436329930108",
    "latitude": "29.92240788060357",
    "geocoded_column": {
      "latitude": "29.92240788060357",
      "longitude": "-90.00436329930108"
    }
  },
  {
    "service_request": "2023-987951",
    "request_type": "Property Maintenance",
    "request_reason": "Property Maintenance",
    "date_created": "2023-04-02T21:06:03.000",
    "date_modified": "2023-04-02T21:06:03.000",
    "request_status": "Pending",
    "responsible_agency": "Department of Code Enforcement",
    "final_address": "1906 Delachaise St",
    "address_councildis": "B",
    "status": "Pending",
    "rowid": "987951",
    "final_x": "3673329.24488",
    "final_y": "522452.755706",
    "longitude": "-90.09418029754065",
    "latitude": "29.93080928688228",
    "geocoded_column": {
      "latitude": "29.93080928688228",
      "longitude": "-90.09418029754065"
    }
  },
  {
    "service_request": "2023-987950",
    "request_type": "Property Maintenance",
    "request_reason": "Property Maintenance",
    "date_created": "2023-04-02T20:22:54.000",
    "date_modified": "2023-04-02T20:22:54.000",
    "request_status": "Pending",
    "responsible_agency": "Department of Code Enforcement",
    "final_address": "1569 Athis St",
    "address_councildis": "D",
    "status": "Pending",
    "rowid": "987950",
    "final_x": "3678916.07899",
    "final_y": "553855.734487",
    "longitude": "-90.07545517078597",
    "latitude": "30.0169893528633",
    "geocoded_column": {
      "latitude": "30.0169893528633",
      "longitude": "-90.07545517078597"
    }
  },
  {
    "service_request": "2023-987949",
    "request_type": "Property Maintenance",
    "request_reason": "Property Maintenance",
    "date_created": "2023-04-02T20:22:39.000",
    "date_modified": "2023-04-02T20:22:39.000",
    "request_status": "Pending",
    "responsible_agency": "Department of Code Enforcement",
    "final_address": "1569 Athis St",
    "address_councildis": "D",
    "status": "Pending",
    "rowid": "987949",
    "final_x": "3678916.07899",
    "final_y": "553855.734487",
    "longitude": "-90.07545517078597",
    "latitude": "30.0169893528633",
    "geocoded_column": {
      "latitude": "30.0169893528633",
      "longitude": "-90.07545517078597"
    }
  },
  {
    "service_request": "2023-987948",
    "request_type": "Abandoned Vehicles",
    "request_reason": "Abandoned/Junk Vehicles",
    "date_created": "2023-04-02T19:47:25.000",
    "date_modified": "2023-04-02T19:47:25.000",
    "request_status": "Pending",
    "responsible_agency": "Department of Public Works",
    "final_address": "1943 N Rampart St, New Orleans, Louisiana, 70116",
    "address_councildis": "C",
    "status": "Pending",
    "rowid": "987948",
    "final_x": "3684229.0758",
    "final_y": "535901.470151",
    "longitude": "-90.05929906686211",
    "latitude": "29.967460076499936",
    "geocoded_column": {
      "latitude": "29.967460076499936",
      "longitude": "-90.05929906686211"
    }
  },
  {
    "service_request": "2023-987947",
    "request_type": "Trash/Recycling",
    "request_reason": "Replace Trash Cart",
    "date_created": "2023-04-02T19:45:39.000",
    "date_modified": "2023-04-02T19:45:40.000",
    "request_status": "Pending",
    "responsible_agency": "Department of Sanitation",
    "final_address": "3147 Royal St",
    "address_councildis": "C",
    "status": "Assigned to Contractor",
    "contractor": "IV Waste",
    "rowid": "987947",
    "final_x": "3688979.10799",
    "final_y": "534449.628229",
    "longitude": "-90.04434999913762",
    "latitude": "29.96332194144711",
    "geocoded_column": {
      "latitude": "29.96332194144711",
      "longitude": "-90.04434999913762"
    }
  },
  {
    "service_request": "2023-987946",
    "request_type": "Trash/Recycling",
    "request_reason": "Order Recycling Cart",
    "date_created": "2023-04-02T19:43:40.000",
    "date_modified": "2023-04-02T19:43:40.000",
    "request_status": "Pending",
    "responsible_agency": "Department of Sanitation",
    "final_address": "3147 Royal St",
    "address_councildis": "C",
    "status": "Pending",
    "rowid": "987946",
    "final_x": "3688979.10799",
    "final_y": "534449.628229",
    "longitude": "-90.04434999913762",
    "latitude": "29.96332194144711",
    "geocoded_column": {
      "latitude": "29.96332194144711",
      "longitude": "-90.04434999913762"
    }
  },
  {
    "service_request": "2023-987945",
    "request_type": "Health Related Request",
    "request_reason": "Noise Ordinance Complaint",
    "date_created": "2023-04-02T19:40:45.000",
    "date_modified": "2023-04-02T19:40:45.000",
    "request_status": "Pending",
    "responsible_agency": "Health Department",
    "final_address": "1943 N Rampart St, New Orleans, Louisiana, 70116",
    "address_councildis": "C",
    "status": "Pending",
    "rowid": "987945",
    "final_x": "3684229.0758",
    "final_y": "535901.470151",
    "longitude": "-90.05929906686211",
    "latitude": "29.967460076499936",
    "geocoded_column": {
      "latitude": "29.967460076499936",
      "longitude": "-90.05929906686211"
    }
  },
  {
    "service_request": "2023-987942",
    "request_type": "Trash/Recycling",
    "request_reason": "Request a Large Item Pick Up",
    "date_created": "2023-04-02T19:07:51.000",
    "date_modified": "2023-04-02T19:07:52.000",
    "request_status": "Pending",
    "responsible_agency": "Department of Sanitation",
    "final_address": "7911 Cynthia Dr",
    "address_councildis": "E",
    "status": "Assigned to Contractor",
    "contractor": "Waste Pro",
    "rowid": "987942",
    "final_x": "3702133.61047",
    "final_y": "560542.983262",
    "longitude": "-90.00185236443579",
    "latitude": "30.03465545404194",
    "geocoded_column": {
      "latitude": "30.03465545404194",
      "longitude": "-90.00185236443579"
    }
  },
  {
    "service_request": "2023-987941",
    "request_type": "Trash/Recycling",
    "request_reason": "Request a Large Item Pick Up",
    "date_created": "2023-04-02T19:01:50.000",
    "date_modified": "2023-04-02T19:01:51.000",
    "request_status": "Pending",
    "responsible_agency": "Department of Sanitation",
    "final_address": "3869 Pauger St",
    "address_councildis": "D",
    "status": "Assigned to Contractor",
    "contractor": "IV Waste",
    "rowid": "987941",
    "final_x": "3683222.92962",
    "final_y": "544904.638863",
    "longitude": "-90.06216107048799",
    "latitude": "29.992246360462815",
    "geocoded_column": {
      "latitude": "29.992246360462815",
      "longitude": "-90.06216107048799"
    }
  },
  {
    "service_request": "2023-987940",
    "request_type": "Property Maintenance",
    "request_reason": "Property Maintenance",
    "date_created": "2023-04-02T18:52:59.000",
    "date_modified": "2023-04-02T18:52:59.000",
    "request_status": "Pending",
    "responsible_agency": "Department of Code Enforcement",
    "final_address": "10674 Hayne Blvd",
    "address_councildis": "E",
    "status": "Pending",
    "rowid": "987940",
    "final_x": "3708677.71851",
    "final_y": "566415.495331",
    "longitude": "-89.98095318507202",
    "latitude": "30.050591803740197",
    "geocoded_column": {
      "latitude": "30.050591803740197",
      "longitude": "-89.98095318507202"
    }
  },
  {
    "service_request": "2023-987939",
    "request_type": "Trash/Recycling",
    "request_reason": "Replace Trash Cart",
    "date_created": "2023-04-02T18:44:43.000",
    "date_modified": "2023-04-02T18:44:44.000",
    "request_status": "Pending",
    "responsible_agency": "Department of Sanitation",
    "final_address": "5923 Colbert St",
    "address_councildis": "A",
    "status": "Assigned to Contractor",
    "contractor": "IV Waste",
    "rowid": "987939",
    "final_x": "3667436.78721",
    "final_y": "546987.620113",
    "longitude": "-90.11195642851327",
    "latitude": "29.998445939683787",
    "geocoded_column": {
      "latitude": "29.998445939683787",
      "longitude": "-90.11195642851327"
    }
  },
  {
    "service_request": "2023-987938",
    "request_type": "Abandoned Vehicles",
    "request_reason": "Abandoned/Junk Vehicles",
    "date_created": "2023-04-02T18:38:12.000",
    "date_modified": "2023-04-02T18:38:12.000",
    "request_status": "Pending",
    "responsible_agency": "Department of Public Works",
    "final_address": "327 S Lopez St",
    "address_councildis": "B",
    "status": "Pending",
    "rowid": "987938",
    "final_x": "3673206.7851",
    "final_y": "535451.049798",
    "longitude": "-90.09412311169746",
    "latitude": "29.96655395140333",
    "geocoded_column": {
      "latitude": "29.96655395140333",
      "longitude": "-90.09412311169746"
    }
  },
  {
    "service_request": "2023-987937",
    "request_type": "Abandoned Vehicles",
    "request_reason": "Abandoned/Junk Vehicles",
    "date_created": "2023-04-02T18:34:12.000",
    "date_modified": "2023-04-02T18:34:12.000",
    "request_status": "Pending",
    "responsible_agency": "Department of Public Works",
    "final_address": "327 S Lopez St",
    "address_councildis": "B",
    "status": "Pending",
    "rowid": "987937",
    "final_x": "3673206.7851",
    "final_y": "535451.049798",
    "longitude": "-90.09412311169746",
    "latitude": "29.96655395140333",
    "geocoded_column": {
      "latitude": "29.96655395140333",
      "longitude": "-90.09412311169746"
    }
  },
  {
    "service_request": "2023-987936",
    "request_type": "Trash/Recycling",
    "request_reason": "Request a Large Item Pick Up",
    "date_created": "2023-04-02T18:29:43.000",
    "date_modified": "2023-04-02T18:29:44.000",
    "request_status": "Pending",
    "responsible_agency": "Department of Sanitation",
    "final_address": "327 S Lopez St",
    "address_councildis": "B",
    "status": "Assigned to Contractor",
    "contractor": "Richards Disposal",
    "rowid": "987936",
    "final_x": "3673206.7851",
    "final_y": "535451.049798",
    "longitude": "-90.09412311169746",
    "latitude": "29.96655395140333",
    "geocoded_column": {
      "latitude": "29.96655395140333",
      "longitude": "-90.09412311169746"
    }
  },
  {
    "service_request": "2023-987935",
    "request_type": "Trash/Recycling",
    "request_reason": "Request a Large Item Pick Up",
    "date_created": "2023-04-02T18:18:40.000",
    "date_modified": "2023-04-02T18:18:41.000",
    "request_status": "Pending",
    "responsible_agency": "Department of Sanitation",
    "final_address": "2317 Jena St",
    "address_councildis": "B",
    "status": "Assigned to Contractor",
    "contractor": "Richards Disposal",
    "rowid": "987935",
    "final_x": "3670224.54535",
    "final_y": "523474.156091",
    "longitude": "-90.10394682726233",
    "latitude": "29.933709766065302",
    "geocoded_column": {
      "latitude": "29.933709766065302",
      "longitude": "-90.10394682726233"
    }
  },
  {
    "service_request": "2023-987934",
    "request_type": "Trash/Recycling",
    "request_reason": "Request a Large Item Pick Up",
    "date_created": "2023-04-02T18:08:52.000",
    "date_modified": "2023-04-02T18:08:52.000",
    "request_status": "Pending",
    "responsible_agency": "Department of Sanitation",
    "final_address": "1516 Robert St",
    "address_councildis": "B",
    "status": "Assigned to Contractor",
    "contractor": "Richards Disposal",
    "rowid": "987934",
    "final_x": "3668617.50503",
    "final_y": "520561.9822",
    "longitude": "-90.10911841476718",
    "latitude": "29.925749528965472",
    "geocoded_column": {
      "latitude": "29.925749528965472",
      "longitude": "-90.10911841476718"
    }
  },
  {
    "service_request": "2023-987933",
    "request_type": "Abandoned Vehicles",
    "request_reason": "Abandoned/Junk Vehicles",
    "date_created": "2023-04-02T17:55:21.000",
    "date_modified": "2023-04-02T17:55:22.000",
    "request_status": "Pending",
    "responsible_agency": "Department of Public Works",
    "final_address": "SISTER ST & ST CLAUDE BRIDGE",
    "address_councildis": "E",
    "status": "Pending",
    "rowid": "987933",
    "final_x": "3694676.7",
    "final_y": "534644.28",
    "longitude": "-90.02635071873871",
    "latitude": "29.96367969974573",
    "geocoded_column": {
      "latitude": "29.96367969974573",
      "longitude": "-90.02635071873871"
    }
  },
  {
    "service_request": "2023-987932",
    "request_type": "Traffic Signals/Signs/Striping/Streetlights",
    "request_reason": "Street Light Outage/Malfunction",
    "date_created": "2023-04-02T17:54:15.000",
    "date_modified": "2023-04-02T17:54:15.000",
    "request_status": "Pending",
    "responsible_agency": "Department of Public Works",
    "final_address": "8920 Heaton St",
    "address_councildis": "A",
    "status": "Assigned to Contractor",
    "contractor": "Legacy Professional Services",
    "rowid": "987932",
    "final_x": "3667109.70471",
    "final_y": "538506.405257",
    "longitude": "-90.11327496130778",
    "latitude": "29.97513506213522",
    "geocoded_column": {
      "latitude": "29.97513506213522",
      "longitude": "-90.11327496130778"
    }
  },
  {
    "service_request": "2023-987931",
    "request_type": "Abandoned Vehicles",
    "request_reason": "Abandoned/Junk Vehicles",
    "date_created": "2023-04-02T17:52:02.000",
    "date_modified": "2023-04-02T17:52:02.000",
    "request_status": "Pending",
    "responsible_agency": "Department of Public Works",
    "final_address": "1722 N Tonti St",
    "address_councildis": "D",
    "status": "Pending",
    "rowid": "987931",
    "final_x": "3680806.66722",
    "final_y": "540012.789643",
    "longitude": "-90.06996393761757",
    "latitude": "29.978868973802165",
    "geocoded_column": {
      "latitude": "29.978868973802165",
      "longitude": "-90.06996393761757"
    }
  },
  {
    "service_request": "2023-987930",
    "request_type": "Roads/Drainage",
    "request_reason": "Pothole",
    "date_created": "2023-04-02T17:48:07.000",
    "date_modified": "2023-04-02T17:48:07.000",
    "request_status": "Pending",
    "responsible_agency": "Department of Public Works",
    "final_address": "8920 Heaton St",
    "address_councildis": "A",
    "status": "Pending",
    "rowid": "987930",
    "final_x": "3667109.70471",
    "final_y": "538506.405257",
    "longitude": "-90.11327496130778",
    "latitude": "29.97513506213522",
    "geocoded_column": {
      "latitude": "29.97513506213522",
      "longitude": "-90.11327496130778"
    }
  },
  {
    "service_request": "2023-987929",
    "request_type": "Trash/Recycling",
    "request_reason": "Request a Large Item Pick Up",
    "date_created": "2023-04-02T17:27:22.000",
    "date_modified": "2023-04-02T17:27:23.000",
    "request_status": "Pending",
    "responsible_agency": "Department of Sanitation",
    "final_address": "4925 Magnolia St",
    "address_councildis": "B",
    "status": "Assigned to Contractor",
    "contractor": "Richards Disposal",
    "rowid": "987929",
    "final_x": "3668992.72366",
    "final_y": "524649.02662",
    "longitude": "-90.10779596962165",
    "latitude": "29.93697656582906",
    "geocoded_column": {
      "latitude": "29.93697656582906",
      "longitude": "-90.10779596962165"
    }
  },
  {
    "service_request": "2023-987928",
    "request_type": "Trash/Recycling",
    "request_reason": "Illegal Dumping",
    "date_created": "2023-04-02T17:24:32.000",
    "date_modified": "2023-04-02T17:24:32.000",
    "request_status": "Pending",
    "responsible_agency": "Department of Sanitation",
    "final_address": "1712 N Roman St",
    "address_councildis": "D",
    "status": "Pending",
    "rowid": "987928",
    "final_x": "3682318.10127",
    "final_y": "538644.414345",
    "longitude": "-90.0652380892336",
    "latitude": "29.97506050968245",
    "geocoded_column": {
      "latitude": "29.97506050968245",
      "longitude": "-90.0652380892336"
    }
  },
  {
    "service_request": "2023-987927",
    "request_type": "Safety & Permits",
    "request_reason": "Licenses & Permits",
    "date_created": "2023-04-02T17:19:46.000",
    "date_modified": "2023-04-02T17:19:46.000",
    "request_status": "Pending",
    "responsible_agency": "Safety and Permits",
    "final_address": "3634 Frenchmen St",
    "address_councildis": "D",
    "status": "Pending",
    "rowid": "987927",
    "final_x": "3683749.64501",
    "final_y": "546088.593296",
    "longitude": "-90.06045573745213",
    "latitude": "29.995485735863653",
    "geocoded_column": {
      "latitude": "29.995485735863653",
      "longitude": "-90.06045573745213"
    }
  },
  {
    "service_request": "2023-987926",
    "request_type": "Trash/Recycling",
    "request_reason": "Request a Large Item Pick Up",
    "date_created": "2023-04-02T17:15:25.000",
    "date_modified": "2023-04-02T17:15:26.000",
    "request_status": "Pending",
    "responsible_agency": "Department of Sanitation",
    "final_address": "800 Weiblen Pl",
    "address_councildis": "A",
    "status": "Assigned to Contractor",
    "contractor": "IV Waste",
    "rowid": "987926",
    "final_x": "3668426.98906",
    "final_y": "542529.110541",
    "longitude": "-90.10897886649977",
    "latitude": "29.986157508466217",
    "geocoded_column": {
      "latitude": "29.986157508466217",
      "longitude": "-90.10897886649977"
    }
  },
  {
    "service_request": "2023-987924",
    "request_type": "Health Related Request",
    "request_reason": "Noise Ordinance Complaint",
    "date_created": "2023-04-02T16:55:48.000",
    "date_modified": "2023-04-02T16:55:48.000",
    "request_status": "Pending",
    "responsible_agency": "Health Department",
    "final_address": "1931 Orleans Ave",
    "address_councildis": "D",
    "status": "Pending",
    "rowid": "987924",
    "final_x": "3679105.96098",
    "final_y": "535350.26855",
    "longitude": "-90.07549706731277",
    "latitude": "29.966100093909354",
    "geocoded_column": {
      "latitude": "29.966100093909354",
      "longitude": "-90.07549706731277"
    }
  },
  {
    "service_request": "2023-987923",
    "request_type": "Trash/Recycling",
    "request_reason": "Request a Large Item Pick Up",
    "date_created": "2023-04-02T16:42:07.000",
    "date_modified": "2023-04-02T16:42:08.000",
    "request_status": "Pending",
    "responsible_agency": "Department of Sanitation",
    "final_address": "6320 Laurel St",
    "address_councildis": "A",
    "status": "Assigned to Contractor",
    "contractor": "Richards Disposal",
    "rowid": "987923",
    "final_x": "3662841.00333",
    "final_y": "518802.169463",
    "longitude": "-90.12741164526388",
    "latitude": "29.92107902852174",
    "geocoded_column": {
      "latitude": "29.92107902852174",
      "longitude": "-90.12741164526388"
    }
  },
  {
    "service_request": "2023-987922",
    "request_type": "Trash/Recycling",
    "request_reason": "Request a Large Item Pick Up",
    "date_created": "2023-04-02T16:40:59.000",
    "date_modified": "2023-04-02T16:41:00.000",
    "request_status": "Pending",
    "responsible_agency": "Department of Sanitation",
    "final_address": "3222 Baudin St",
    "address_councildis": "B",
    "status": "Assigned to Contractor",
    "contractor": "Richards Disposal",
    "rowid": "987922",
    "final_x": "3672707.53947",
    "final_y": "535030.017158",
    "longitude": "-90.0957140885652",
    "latitude": "29.965411089772164",
    "geocoded_column": {
      "latitude": "29.965411089772164",
      "longitude": "-90.0957140885652"
    }
  },
  {
    "service_request": "2023-987921",
    "request_type": "Trash/Recycling",
    "request_reason": "Replace Trash Cart",
    "date_created": "2023-04-02T16:38:21.000",
    "date_modified": "2023-04-02T16:38:21.000",
    "request_status": "Pending",
    "responsible_agency": "Department of Sanitation",
    "final_address": "6 Olympic Ct",
    "address_councildis": "C",
    "status": "Assigned to Contractor",
    "contractor": "Richards Disposal",
    "rowid": "987921",
    "final_x": "3700121.36919",
    "final_y": "516452.425525",
    "longitude": "-90.00982067146907",
    "latitude": "29.913486556899286",
    "geocoded_column": {
      "latitude": "29.913486556899286",
      "longitude": "-90.00982067146907"
    }
  },
  {
    "service_request": "2023-987920",
    "request_type": "Property Maintenance",
    "request_reason": "Property Maintenance",
    "date_created": "2023-04-02T16:36:12.000",
    "date_modified": "2023-04-02T16:36:12.000",
    "request_status": "Pending",
    "responsible_agency": "Department of Code Enforcement",
    "final_address": "8714 Colapissa St",
    "address_councildis": "A",
    "status": "Pending",
    "rowid": "987920",
    "final_x": "3664829.04231",
    "final_y": "534907.395206",
    "longitude": "-90.12059822247502",
    "latitude": "29.965305551557726",
    "geocoded_column": {
      "latitude": "29.965305551557726",
      "longitude": "-90.12059822247502"
    }
  },
  {
    "service_request": "2023-987919",
    "request_type": "Trash/Recycling",
    "request_reason": "Order Recycling Cart",
    "date_created": "2023-04-02T16:30:05.000",
    "date_modified": "2023-04-02T16:30:05.000",
    "request_status": "Pending",
    "responsible_agency": "Department of Sanitation",
    "final_address": "244 Jewel St Unit A",
    "address_councildis": "D",
    "status": "Pending",
    "rowid": "987919",
    "final_x": "3667396.42433",
    "final_y": "555759.605529",
    "longitude": "-90.1117885198132",
    "latitude": "30.022567013625256",
    "geocoded_column": {
      "latitude": "30.022567013625256",
      "longitude": "-90.1117885198132"
    }
  },
  {
    "service_request": "2023-987918",
    "request_type": "Safety & Permits",
    "request_reason": "Licenses & Permits",
    "date_created": "2023-04-02T16:23:01.000",
    "date_modified": "2023-04-02T16:23:01.000",
    "request_status": "Pending",
    "responsible_agency": "Safety and Permits",
    "final_address": "720 Brooklyn Ave",
    "address_councildis": "C",
    "status": "Pending",
    "rowid": "987918",
    "final_x": "3686165.87446",
    "final_y": "528827.156032",
    "longitude": "-90.05343217989588",
    "latitude": "29.94794878971786",
    "geocoded_column": {
      "latitude": "29.94794878971786",
      "longitude": "-90.05343217989588"
    }
  },
  {
    "service_request": "2023-987917",
    "request_type": "Roads/Drainage",
    "request_reason": "Pothole",
    "date_created": "2023-04-02T15:53:06.000",
    "date_modified": "2023-04-02T15:53:06.000",
    "request_status": "Pending",
    "responsible_agency": "Department of Public Works",
    "final_address": "3318 Law St Apt C",
    "address_councildis": "D",
    "status": "Pending",
    "rowid": "987917",
    "final_x": "3691354.96598",
    "final_y": "541350.2795",
    "longitude": "-90.03660072392954",
    "latitude": "29.982222585556453",
    "geocoded_column": {
      "latitude": "29.982222585556453",
      "longitude": "-90.03660072392954"
    }
  },
  {
    "service_request": "2023-987916",
    "request_type": "Trash/Recycling",
    "request_reason": "MIssed Recycling Pick-Up",
    "date_created": "2023-04-02T15:47:59.000",
    "date_modified": "2023-04-02T15:48:00.000",
    "request_status": "Pending",
    "responsible_agency": "Department of Sanitation",
    "final_address": "4428 Eden St",
    "address_councildis": "B",
    "status": "Assigned to Contractor",
    "contractor": "Richards Disposal",
    "rowid": "987916",
    "final_x": "3669761.70868",
    "final_y": "530697.962626",
    "longitude": "-90.10516354600372",
    "latitude": "29.95358653303468",
    "geocoded_column": {
      "latitude": "29.95358653303468",
      "longitude": "-90.10516354600372"
    }
  },
  {
    "service_request": "2023-987915",
    "request_type": "Trash/Recycling",
    "request_reason": "Request a Large Item Pick Up",
    "date_created": "2023-04-02T15:40:42.000",
    "date_modified": "2023-04-02T15:40:42.000",
    "request_status": "Pending",
    "responsible_agency": "Department of Sanitation",
    "final_address": "7530 Lady Gray St",
    "address_councildis": "E",
    "status": "Assigned to Contractor",
    "contractor": "Waste Pro",
    "rowid": "987915",
    "final_x": "3710148.29304",
    "final_y": "564907.600738",
    "longitude": "-89.97636169715221",
    "latitude": "30.046397896000524",
    "geocoded_column": {
      "latitude": "30.046397896000524",
      "longitude": "-89.97636169715221"
    }
  },
  {
    "service_request": "2023-987914",
    "request_type": "Trash/Recycling",
    "request_reason": "MIssed Recycling Pick-Up",
    "date_created": "2023-04-02T15:40:19.000",
    "date_modified": "2023-04-02T15:40:20.000",
    "request_status": "Pending",
    "responsible_agency": "Department of Sanitation",
    "final_address": "4515 Laurel St",
    "address_councildis": "B",
    "status": "Assigned to Contractor",
    "contractor": "Richards Disposal",
    "rowid": "987914",
    "final_x": "3670575.96468",
    "final_y": "518034.11039",
    "longitude": "-90.10302181118436",
    "latitude": "29.91874100484792",
    "geocoded_column": {
      "latitude": "29.91874100484792",
      "longitude": "-90.10302181118436"
    }
  },
  {
    "service_request": "2023-987913",
    "request_type": "Abandoned Vehicles",
    "request_reason": "Abandoned/Junk Vehicles",
    "date_created": "2023-04-02T15:34:35.000",
    "date_modified": "2023-04-02T15:34:36.000",
    "request_status": "Pending",
    "responsible_agency": "Department of Public Works",
    "final_address": "4233 Palmyra St",
    "address_councildis": "A",
    "status": "Pending",
    "rowid": "987913",
    "final_x": "3669907.00775",
    "final_y": "538299.866185",
    "longitude": "-90.1044473182127",
    "latitude": "29.974484954524815",
    "geocoded_column": {
      "latitude": "29.974484954524815",
      "longitude": "-90.1044473182127"
    }
  },
  {
    "service_request": "2023-987912",
    "request_type": "Trash/Recycling",
    "request_reason": "Request a Large Item Pick Up",
    "date_created": "2023-04-02T15:34:10.000",
    "date_modified": "2023-04-02T15:34:11.000",
    "request_status": "Pending",
    "responsible_agency": "Department of Sanitation",
    "final_address": "2823 Banks St",
    "address_councildis": "B",
    "status": "Assigned to Contractor",
    "contractor": "Richards Disposal",
    "rowid": "987912",
    "final_x": "3674031.83713",
    "final_y": "534669.867718",
    "longitude": "-90.09154433712438",
    "latitude": "29.964381403227797",
    "geocoded_column": {
      "latitude": "29.964381403227797",
      "longitude": "-90.09154433712438"
    }
  },
  {
    "service_request": "2023-987911",
    "request_type": "Trash/Recycling",
    "request_reason": "Request a Large Item Pick Up",
    "date_created": "2023-04-02T15:13:16.000",
    "date_modified": "2023-04-02T15:13:17.000",
    "request_status": "Pending",
    "responsible_agency": "Department of Sanitation",
    "final_address": "317 Delaronde St",
    "address_councildis": "C",
    "status": "Assigned to Contractor",
    "contractor": "Richards Disposal",
    "rowid": "987911",
    "final_x": "3686409.18204",
    "final_y": "530836.54253",
    "longitude": "-90.05259304831472",
    "latitude": "29.953466441492537",
    "geocoded_column": {
      "latitude": "29.953466441492537",
      "longitude": "-90.05259304831472"
    }
  },
  {
    "service_request": "2023-987910",
    "request_type": "Abandoned Vehicles",
    "request_reason": "Abandoned/Junk Vehicles",
    "date_created": "2023-04-02T14:20:07.000",
    "date_modified": "2023-04-02T14:20:07.000",
    "request_status": "Pending",
    "responsible_agency": "Department of Public Works",
    "final_address": "701 Pine St",
    "address_councildis": "A",
    "status": "Pending",
    "rowid": "987910",
    "final_x": "3663014.34407",
    "final_y": "525239.945277",
    "longitude": "-90.12665048145074",
    "latitude": "29.938775870191222",
    "geocoded_column": {
      "latitude": "29.938775870191222",
      "longitude": "-90.12665048145074"
    }
  },
  {
    "service_request": "2023-987909",
    "request_type": "Trash/Recycling",
    "request_reason": "Request a Large Item Pick Up",
    "date_created": "2023-04-02T14:05:40.000",
    "date_modified": "2023-04-02T14:05:41.000",
    "request_status": "Pending",
    "responsible_agency": "Department of Sanitation",
    "final_address": "5230 Tchoupitoulas St",
    "address_councildis": "B",
    "status": "Assigned to Contractor",
    "contractor": "Richards Disposal",
    "rowid": "987909",
    "final_x": "3667737.20698",
    "final_y": "517143.647157",
    "longitude": "-90.11201227511778",
    "latitude": "29.916376016273656",
    "geocoded_column": {
      "latitude": "29.916376016273656",
      "longitude": "-90.11201227511778"
    }
  },
  {
    "service_request": "2023-987908",
    "request_type": "Trash/Recycling",
    "request_reason": "Request a Large Item Pick Up",
    "date_created": "2023-04-02T13:57:54.000",
    "date_modified": "2023-04-02T13:58:11.000",
    "request_status": "Pending",
    "responsible_agency": "Department of Sanitation",
    "final_address": "2601 Royal St",
    "address_councildis": "C",
    "status": "Assigned to Contractor",
    "contractor": "IV Waste",
    "rowid": "987908",
    "final_x": "3686778.46486",
    "final_y": "534992.593542",
    "longitude": "-90.05128018210614",
    "latitude": "29.964882793535896",
    "geocoded_column": {
      "latitude": "29.964882793535896",
      "longitude": "-90.05128018210614"
    }
  },
  {
    "service_request": "2023-987907",
    "request_type": "Trash/Recycling",
    "request_reason": "Replace Trash Cart",
    "date_created": "2023-04-02T13:47:38.000",
    "date_modified": "2023-04-02T13:47:38.000",
    "request_status": "Pending",
    "responsible_agency": "Department of Sanitation",
    "final_address": "6657 Harbourview Dr",
    "address_councildis": "E",
    "status": "Assigned to Contractor",
    "contractor": "Waste Pro",
    "rowid": "987907",
    "final_x": "3699301.31504",
    "final_y": "556112.638234",
    "longitude": "-90.01096435184365",
    "latitude": "30.022563899676236",
    "geocoded_column": {
      "latitude": "30.022563899676236",
      "longitude": "-90.01096435184365"
    }
  },
  {
    "service_request": "2023-987906",
    "request_type": "Abandoned Vehicles",
    "request_reason": "Abandoned/Junk Vehicles",
    "date_created": "2023-04-02T13:27:21.000",
    "date_modified": "2023-04-02T13:27:21.000",
    "request_status": "Pending",
    "responsible_agency": "Department of Public Works",
    "final_address": "609 Atlantic Ave",
    "address_councildis": "C",
    "status": "Pending",
    "rowid": "987906",
    "final_x": "3688738.73487",
    "final_y": "529342.818625",
    "longitude": "-90.04529034914393",
    "latitude": "29.949287412424077",
    "geocoded_column": {
      "latitude": "29.949287412424077",
      "longitude": "-90.04529034914393"
    }
  },
  {
    "service_request": "2023-987905",
    "request_type": "Trash/Recycling",
    "request_reason": "Request a Large Item Pick Up",
    "date_created": "2023-04-02T13:06:43.000",
    "date_modified": "2023-04-02T13:06:44.000",
    "request_status": "Pending",
    "responsible_agency": "Department of Sanitation",
    "final_address": "3824 Orleans Ave",
    "address_councildis": "A",
    "status": "Assigned to Contractor",
    "contractor": "Richards Disposal",
    "rowid": "987905",
    "final_x": "3673291.07016",
    "final_y": "539537.871882",
    "longitude": "-90.09371731597302",
    "latitude": "29.977788820881468",
    "geocoded_column": {
      "latitude": "29.977788820881468",
      "longitude": "-90.09371731597302"
    }
  },
  {
    "service_request": "2023-987904",
    "request_type": "Trash/Recycling",
    "request_reason": "Missed Trash Pick-Up",
    "date_created": "2023-04-02T12:59:02.000",
    "date_modified": "2023-04-02T12:59:02.000",
    "request_status": "Pending",
    "responsible_agency": "Department of Sanitation",
    "final_address": "21 Arbor Cir",
    "address_councildis": "C",
    "status": "Assigned to Contractor",
    "contractor": "Richards Disposal",
    "rowid": "987904",
    "final_x": "3716727.24184",
    "final_y": "516846.132981",
    "longitude": "-89.95739306760501",
    "latitude": "29.91403126248606",
    "geocoded_column": {
      "latitude": "29.91403126248606",
      "longitude": "-89.95739306760501"
    }
  },
  {
    "service_request": "2023-987903",
    "request_type": "Abandoned Vehicles",
    "request_reason": "Abandoned/Junk Vehicles",
    "date_created": "2023-04-02T12:52:05.000",
    "date_modified": "2023-04-02T12:52:05.000",
    "request_status": "Pending",
    "responsible_agency": "Department of Public Works",
    "final_address": "1100 State St, New Orleans, Louisiana, 70118",
    "address_councildis": "A",
    "status": "Pending",
    "rowid": "987903",
    "final_x": "3664950.20308",
    "final_y": "520257.593592",
    "longitude": "-90.12070520084384",
    "latitude": "29.925019782851088",
    "geocoded_column": {
      "latitude": "29.925019782851088",
      "longitude": "-90.12070520084384"
    }
  },
  {
    "service_request": "2023-987902",
    "request_type": "Trash/Recycling",
    "request_reason": "Order Recycling Cart",
    "date_created": "2023-04-02T12:49:50.000",
    "date_modified": "2023-04-02T12:49:50.000",
    "request_status": "Pending",
    "responsible_agency": "Department of Sanitation",
    "final_address": "426 38Th St",
    "address_councildis": "A",
    "status": "Pending",
    "rowid": "987902",
    "final_x": "3664758.57261",
    "final_y": "552652.730006",
    "longitude": "-90.12022747647777",
    "latitude": "30.014101256457497",
    "geocoded_column": {
      "latitude": "30.014101256457497",
      "longitude": "-90.12022747647777"
    }
  },
  {
    "service_request": "2023-987901",
    "request_type": "Traffic Signals/Signs/Striping/Streetlights",
    "request_reason": "Traffic Signal Malfunctioning/Damaged",
    "date_created": "2023-04-02T12:25:54.000",
    "date_modified": "2023-04-02T12:25:54.000",
    "request_status": "Pending",
    "responsible_agency": "Department of Public Works",
    "final_address": "5242 Elysian Fields Ave",
    "address_councildis": "D",
    "status": "Pending",
    "rowid": "987901",
    "final_x": "3683609.70735",
    "final_y": "552179.390166",
    "longitude": "-90.0606840913317",
    "latitude": "30.01223750587499",
    "geocoded_column": {
      "latitude": "30.01223750587499",
      "longitude": "-90.0606840913317"
    }
  },
  {
    "service_request": "2023-987900",
    "request_type": "Trash/Recycling",
    "request_reason": "Missed Trash Pick-Up",
    "date_created": "2023-04-02T12:11:18.000",
    "date_modified": "2023-04-02T12:11:18.000",
    "request_status": "Pending",
    "responsible_agency": "Department of Sanitation",
    "final_address": "600 Frenchmen St",
    "address_councildis": "C",
    "status": "Assigned to Contractor",
    "contractor": "IV Waste",
    "rowid": "987900",
    "final_x": "3684703.58383",
    "final_y": "534508.649285",
    "longitude": "-90.05784952637325",
    "latitude": "29.963615784985706",
    "geocoded_column": {
      "latitude": "29.963615784985706",
      "longitude": "-90.05784952637325"
    }
  },
  {
    "service_request": "2023-987898",
    "request_type": "Trash/Recycling",
    "request_reason": "Start Trash Service",
    "date_created": "2023-04-02T11:59:36.000",
    "date_modified": "2023-04-02T11:59:37.000",
    "request_status": "Pending",
    "responsible_agency": "Department of Sanitation",
    "final_address": "1801 Treasure St",
    "address_councildis": "D",
    "status": "Assigned to Contractor",
    "contractor": "IV Waste",
    "rowid": "987898",
    "final_x": "3681459.87957",
    "final_y": "543838.232462",
    "longitude": "-90.06776740016346",
    "latitude": "29.98936778175376",
    "geocoded_column": {
      "latitude": "29.98936778175376",
      "longitude": "-90.06776740016346"
    }
  },
  {
    "service_request": "2023-987897",
    "request_type": "Abandoned Vehicles",
    "request_reason": "Abandoned/Junk Vehicles",
    "date_created": "2023-04-02T11:59:00.000",
    "date_modified": "2023-04-02T11:59:00.000",
    "request_status": "Pending",
    "responsible_agency": "Department of Public Works",
    "final_address": "3623 DHemecourt St",
    "address_councildis": "B",
    "status": "Pending",
    "rowid": "987897",
    "final_x": "3671261.32065",
    "final_y": "535782.834311",
    "longitude": "-90.10025560783725",
    "latitude": "29.96752395686001",
    "geocoded_column": {
      "latitude": "29.96752395686001",
      "longitude": "-90.10025560783725"
    }
  },
  {
    "service_request": "2023-987896",
    "request_type": "Mosquito, Termite & Rodent Control",
    "request_reason": "Non-Rodent Complaint (Mice, Possums, Snakes)",
    "date_created": "2023-04-02T11:56:31.000",
    "date_modified": "2023-04-02T11:56:31.000",
    "request_status": "Pending",
    "responsible_agency": "Mosquito, Termite & Rodent Control Board",
    "final_address": "6505 West End Blvd",
    "address_councildis": "A",
    "status": "Pending",
    "rowid": "987896",
    "final_x": "3666691.25172",
    "final_y": "550891.346197",
    "longitude": "-90.11418037454106",
    "latitude": "30.009201664009527",
    "geocoded_column": {
      "latitude": "30.009201664009527",
      "longitude": "-90.11418037454106"
    }
  },
  {
    "service_request": "2023-987895",
    "request_type": "Traffic Signals/Signs/Striping/Streetlights",
    "request_reason": "Traffic Signal Malfunctioning/Damaged",
    "date_created": "2023-04-02T11:47:34.000",
    "date_modified": "2023-04-02T11:47:35.000",
    "request_status": "Pending",
    "responsible_agency": "Department of Public Works",
    "final_address": "FILMORE ST & ELYSIAN FIELDS AVE",
    "address_councildis": "D",
    "status": "Pending",
    "rowid": "987895",
    "final_x": "3683670.4",
    "final_y": "552282.68",
    "longitude": "-90.06048871194535",
    "latitude": "30.01251966165882",
    "geocoded_column": {
      "latitude": "30.01251966165882",
      "longitude": "-90.06048871194535"
    }
  },
  {
    "service_request": "2023-987894",
    "request_type": "Trash/Recycling",
    "request_reason": "Order Recycling Cart",
    "date_created": "2023-04-02T11:45:39.000",
    "date_modified": "2023-04-02T11:45:39.000",
    "request_status": "Pending",
    "responsible_agency": "Department of Sanitation",
    "final_address": "7640 Rochon Ave",
    "address_councildis": "E",
    "status": "Pending",
    "rowid": "987894",
    "final_x": "3718513.88281",
    "final_y": "571752.62948",
    "longitude": "-89.94966118381188",
    "latitude": "30.064943831702916",
    "geocoded_column": {
      "latitude": "30.064943831702916",
      "longitude": "-89.94966118381188"
    }
  },
  {
    "service_request": "2023-987893",
    "request_type": "Trash/Recycling",
    "request_reason": "Request a Large Item Pick Up",
    "date_created": "2023-04-02T11:41:03.000",
    "date_modified": "2023-04-02T11:41:04.000",
    "request_status": "Pending",
    "responsible_agency": "Department of Sanitation",
    "final_address": "7640 Rochon Ave",
    "address_councildis": "E",
    "status": "Assigned to Contractor",
    "contractor": "Waste Pro",
    "rowid": "987893",
    "final_x": "3718513.88281",
    "final_y": "571752.62948",
    "longitude": "-89.94966118381188",
    "latitude": "30.064943831702916",
    "geocoded_column": {
      "latitude": "30.064943831702916",
      "longitude": "-89.94966118381188"
    }
  },
  {
    "service_request": "2023-987892",
    "request_type": "Traffic Signals/Signs/Striping/Streetlights",
    "request_reason": "Traffic Sign Missing/Damaged",
    "date_created": "2023-04-02T11:39:40.000",
    "date_modified": "2023-04-02T11:39:40.000",
    "request_status": "Pending",
    "responsible_agency": "Department of Public Works",
    "final_address": "1116 Louisiana Ave",
    "address_councildis": "B",
    "status": "Pending",
    "rowid": "987892",
    "final_x": "3674858.20776",
    "final_y": "519676.609144",
    "longitude": "-90.08944870890062",
    "latitude": "29.923130226747578",
    "geocoded_column": {
      "latitude": "29.923130226747578",
      "longitude": "-90.08944870890062"
    }
  },
  {
    "service_request": "2023-987891",
    "request_type": "Abandoned Vehicles",
    "request_reason": "Abandoned/Junk Vehicles",
    "date_created": "2023-04-02T11:32:22.000",
    "date_modified": "2023-04-02T11:32:22.000",
    "request_status": "Pending",
    "responsible_agency": "Department of Public Works",
    "final_address": "1100 Dufossat St",
    "address_councildis": "B",
    "status": "Pending",
    "rowid": "987891",
    "final_x": "3668009.44564",
    "final_y": "519435.945271",
    "longitude": "-90.11107579784193",
    "latitude": "29.922671132979715",
    "geocoded_column": {
      "latitude": "29.922671132979715",
      "longitude": "-90.11107579784193"
    }
  },
  {
    "service_request": "2023-987890",
    "request_type": "Abandoned Vehicles",
    "request_reason": "Abandoned/Junk Vehicles",
    "date_created": "2023-04-02T11:27:57.000",
    "date_modified": "2023-04-02T11:27:57.000",
    "request_status": "Pending",
    "responsible_agency": "Department of Public Works",
    "final_address": "1100 Dufossat St",
    "address_councildis": "B",
    "status": "Pending",
    "rowid": "987890",
    "final_x": "3668009.44564",
    "final_y": "519435.945271",
    "longitude": "-90.11107579784193",
    "latitude": "29.922671132979715",
    "geocoded_column": {
      "latitude": "29.922671132979715",
      "longitude": "-90.11107579784193"
    }
  },
  {
    "service_request": "2023-987889",
    "request_type": "Trash/Recycling",
    "request_reason": "Replace Recycling Cart",
    "date_created": "2023-04-02T11:20:34.000",
    "date_modified": "2023-04-02T11:20:34.000",
    "request_status": "Pending",
    "responsible_agency": "Department of Sanitation",
    "final_address": "2216 Wirth Pl",
    "address_councildis": "A",
    "status": "Pending",
    "rowid": "987889",
    "final_x": "3667026.72327",
    "final_y": "524340.441276",
    "longitude": "-90.11401312858841",
    "latitude": "29.93618572702672",
    "geocoded_column": {
      "latitude": "29.93618572702672",
      "longitude": "-90.11401312858841"
    }
  },
  {
    "service_request": "2023-987888",
    "request_type": "Trash/Recycling",
    "request_reason": "Repair Trash Cart",
    "date_created": "2023-04-02T11:20:06.000",
    "date_modified": "2023-04-02T11:20:07.000",
    "request_status": "Pending",
    "responsible_agency": "Department of Sanitation",
    "final_address": "815 Spain St",
    "address_councildis": "C",
    "status": "Assigned to Contractor",
    "contractor": "IV Waste",
    "rowid": "987888",
    "final_x": "3686245.12514",
    "final_y": "535462.859974",
    "longitude": "-90.05294783720854",
    "latitude": "29.96619226060629",
    "geocoded_column": {
      "latitude": "29.96619226060629",
      "longitude": "-90.05294783720854"
    }
  },
  {
    "service_request": "2023-987886",
    "request_type": "Abandoned Vehicles",
    "request_reason": "Vehicle Blocking Your Driveway",
    "date_created": "2023-04-02T10:59:48.000",
    "date_modified": "2023-04-02T10:59:48.000",
    "request_status": "Pending",
    "responsible_agency": "Department of Public Works",
    "final_address": "618 Peniston St, New Orleans, Louisiana, 70115",
    "address_councildis": "B",
    "status": "Pending",
    "rowid": "987886",
    "final_x": "3673555.60347",
    "final_y": "518208.731126",
    "longitude": "-90.09361066933421",
    "latitude": "29.91913284954132",
    "geocoded_column": {
      "latitude": "29.91913284954132",
      "longitude": "-90.09361066933421"
    }
  },
  {
    "service_request": "2023-987885",
    "request_type": "Trash/Recycling",
    "request_reason": "Illegal Dumping",
    "date_created": "2023-04-02T10:47:13.000",
    "date_modified": "2023-04-02T10:47:13.000",
    "request_status": "Pending",
    "responsible_agency": "Department of Sanitation",
    "final_address": "4000 Macarthur Blvd",
    "address_councildis": "C",
    "status": "Pending",
    "rowid": "987885",
    "final_x": "3698398.51748",
    "final_y": "520532.278776",
    "longitude": "-90.01511034989466",
    "latitude": "29.924759371532485",
    "geocoded_column": {
      "latitude": "29.924759371532485",
      "longitude": "-90.01511034989466"
    }
  },
  {
    "service_request": "2023-987884",
    "request_type": "Trash/Recycling",
    "request_reason": "Request a Large Item Pick Up",
    "date_created": "2023-04-02T10:41:39.000",
    "date_modified": "2023-04-02T10:41:40.000",
    "request_status": "Pending",
    "responsible_agency": "Department of Sanitation",
    "final_address": "2320 Adams St",
    "address_councildis": "A",
    "status": "Assigned to Contractor",
    "contractor": "Richards Disposal",
    "rowid": "987884",
    "final_x": "3665767.22036",
    "final_y": "530414.508034",
    "longitude": "-90.1177860056734",
    "latitude": "29.952924247447044",
    "geocoded_column": {
      "latitude": "29.952924247447044",
      "longitude": "-90.1177860056734"
    }
  },
  {
    "service_request": "2023-987883",
    "request_type": "Roads/Drainage",
    "request_reason": "Street Flooding / Drainage",
    "date_created": "2023-04-02T10:41:37.000",
    "date_modified": "2023-04-02T10:41:37.000",
    "request_status": "Pending",
    "responsible_agency": "Department of Public Works",
    "final_address": "4000 Macarthur Blvd",
    "address_councildis": "C",
    "status": "Pending",
    "rowid": "987883",
    "final_x": "3698398.51748",
    "final_y": "520532.278776",
    "longitude": "-90.01511034989466",
    "latitude": "29.924759371532485",
    "geocoded_column": {
      "latitude": "29.924759371532485",
      "longitude": "-90.01511034989466"
    }
  },
  {
    "service_request": "2023-987882",
    "request_type": "Roads/Drainage",
    "request_reason": "Street Flooding / Drainage",
    "date_created": "2023-04-02T10:41:07.000",
    "date_modified": "2023-04-02T10:41:07.000",
    "request_status": "Pending",
    "responsible_agency": "Department of Public Works",
    "final_address": "N ROMAN ST & URSULINES AVE",
    "address_councildis": "D",
    "status": "Pending",
    "rowid": "987882",
    "final_x": "3680104.26",
    "final_y": "536236.43",
    "longitude": "-90.07231366659076",
    "latitude": "29.968506563838073",
    "geocoded_column": {
      "latitude": "29.968506563838073",
      "longitude": "-90.07231366659076"
    }
  },
  {
    "service_request": "2023-987881",
    "request_type": "Trash/Recycling",
    "request_reason": "Order Trash Cart",
    "date_created": "2023-04-02T10:38:12.000",
    "date_modified": "2023-04-02T10:38:13.000",
    "request_status": "Pending",
    "responsible_agency": "Department of Sanitation",
    "final_address": "4317 S Claiborne Ave",
    "address_councildis": "B",
    "status": "Assigned to Contractor",
    "contractor": "Richards Disposal",
    "rowid": "987881",
    "final_x": "3670587.07828",
    "final_y": "526004.805565",
    "longitude": "-90.10271652344177",
    "latitude": "29.940657533937014",
    "geocoded_column": {
      "latitude": "29.940657533937014",
      "longitude": "-90.10271652344177"
    }
  },
  {
    "service_request": "2023-987880",
    "request_type": "Trash/Recycling",
    "request_reason": "Request a Large Item Pick Up",
    "date_created": "2023-04-02T10:26:40.000",
    "date_modified": "2023-04-02T10:26:41.000",
    "request_status": "Pending",
    "responsible_agency": "Department of Sanitation",
    "final_address": "4232 Prentiss Ave",
    "address_councildis": "D",
    "status": "Assigned to Contractor",
    "contractor": "IV Waste",
    "rowid": "987880",
    "final_x": "3689703.94703",
    "final_y": "554069.759704",
    "longitude": "-90.0413624495546",
    "latitude": "30.017247800226293",
    "geocoded_column": {
      "latitude": "30.017247800226293",
      "longitude": "-90.0413624495546"
    }
  },
  {
    "service_request": "2023-987879",
    "request_type": "Roads/Drainage",
    "request_reason": "Pothole",
    "date_created": "2023-04-02T10:22:49.000",
    "date_modified": "2023-04-02T10:22:49.000",
    "request_status": "Pending",
    "responsible_agency": "Department of Public Works",
    "final_address": "2622 Wisteria St",
    "address_councildis": "D",
    "status": "Pending",
    "rowid": "987879",
    "final_x": "3687200.51081",
    "final_y": "548312.431122",
    "longitude": "-90.04947609400337",
    "latitude": "30.001494628997417",
    "geocoded_column": {
      "latitude": "30.001494628997417",
      "longitude": "-90.04947609400337"
    }
  },
  {
    "service_request": "2023-987878",
    "request_type": "Trash/Recycling",
    "request_reason": "Missed Trash Pick-Up",
    "date_created": "2023-04-02T10:20:14.000",
    "date_modified": "2023-04-02T10:20:14.000",
    "request_status": "Pending",
    "responsible_agency": "Department of Sanitation",
    "final_address": "6130 Morrison Rd",
    "address_councildis": "D",
    "status": "Assigned to Contractor",
    "contractor": "Waste Pro",
    "rowid": "987878",
    "final_x": "3696170.17507",
    "final_y": "557627.501915",
    "longitude": "-90.02080313222386",
    "latitude": "30.02682818577731",
    "geocoded_column": {
      "latitude": "30.02682818577731",
      "longitude": "-90.02080313222386"
    }
  },
  {
    "service_request": "2023-987877",
    "request_type": "Trash/Recycling",
    "request_reason": "Request a Large Item Pick Up",
    "date_created": "2023-04-02T10:18:42.000",
    "date_modified": "2023-04-02T10:18:43.000",
    "request_status": "Pending",
    "responsible_agency": "Department of Sanitation",
    "final_address": "823 N Alexander St",
    "address_councildis": "A",
    "status": "Assigned to Contractor",
    "contractor": "Richards Disposal",
    "rowid": "987877",
    "final_x": "3671655.04571",
    "final_y": "541419.81326",
    "longitude": "-90.09882042003532",
    "latitude": "29.983012083575773",
    "geocoded_column": {
      "latitude": "29.983012083575773",
      "longitude": "-90.09882042003532"
    }
  },
  {
    "service_request": "2023-987876",
    "request_type": "Traffic Signals/Signs/Striping/Streetlights",
    "request_reason": "Request for Traffic Calming due to Speeding",
    "date_created": "2023-04-02T09:57:00.000",
    "date_modified": "2023-04-02T09:57:00.000",
    "request_status": "Pending",
    "responsible_agency": "Department of Public Works",
    "final_address": "VINCENT RD & HAYNE BLVD",
    "address_councildis": "E",
    "status": "Pending",
    "rowid": "987876",
    "final_x": "3717313.5",
    "final_y": "572894.08",
    "longitude": "-89.9534122226147",
    "latitude": "30.06812214510888",
    "geocoded_column": {
      "latitude": "30.06812214510888",
      "longitude": "-89.9534122226147"
    }
  },
  {
    "service_request": "2023-987875",
    "request_type": "Trash/Recycling",
    "request_reason": "Order Trash Cart",
    "date_created": "2023-04-02T09:51:58.000",
    "date_modified": "2023-04-02T09:51:59.000",
    "request_status": "Pending",
    "responsible_agency": "Department of Sanitation",
    "final_address": "1549 Calhoun St",
    "address_councildis": "A",
    "status": "Assigned to Contractor",
    "contractor": "Richards Disposal",
    "rowid": "987875",
    "final_x": "3664744.86452",
    "final_y": "522647.80313",
    "longitude": "-90.12127357922667",
    "latitude": "29.931598079201997",
    "geocoded_column": {
      "latitude": "29.931598079201997",
      "longitude": "-90.12127357922667"
    }
  },
  {
    "service_request": "2023-987873",
    "request_type": "Trash/Recycling",
    "request_reason": "Replace Trash Cart",
    "date_created": "2023-04-02T09:03:41.000",
    "date_modified": "2023-04-02T09:03:41.000",
    "request_status": "Pending",
    "responsible_agency": "Department of Sanitation",
    "final_address": "1533 St Andrew St",
    "address_councildis": "B",
    "status": "Assigned to Contractor",
    "contractor": "Richards Disposal",
    "rowid": "987873",
    "final_x": "3678370.75323",
    "final_y": "524000.83398",
    "longitude": "-90.07821143103696",
    "latitude": "29.93491511761264",
    "geocoded_column": {
      "latitude": "29.93491511761264",
      "longitude": "-90.07821143103696"
    }
  },
  {
    "service_request": "2023-987872",
    "request_type": "Property Maintenance",
    "request_reason": "Property Maintenance",
    "date_created": "2023-04-02T09:02:32.000",
    "date_modified": "2023-04-02T09:02:32.000",
    "request_status": "Pending",
    "responsible_agency": "Department of Code Enforcement",
    "final_address": "1603 N Rocheblave St",
    "address_councildis": "D",
    "status": "Pending",
    "rowid": "987872",
    "final_x": "3679940.40239",
    "final_y": "539563.974986",
    "longitude": "-90.07271552539618",
    "latitude": "29.97766112309966",
    "geocoded_column": {
      "latitude": "29.97766112309966",
      "longitude": "-90.07271552539618"
    }
  },
  {
    "service_request": "2023-987871",
    "request_type": "Abandoned Vehicles",
    "request_reason": "Abandoned/Junk Vehicles",
    "date_created": "2023-04-02T08:47:40.000",
    "date_modified": "2023-04-02T08:47:40.000",
    "request_status": "Pending",
    "responsible_agency": "Department of Public Works",
    "final_address": "1621 N Rocheblave St",
    "address_councildis": "D",
    "status": "Pending",
    "rowid": "987871",
    "final_x": "3680015.10824",
    "final_y": "539672.778186",
    "longitude": "-90.07247579756294",
    "latitude": "29.977958034062734",
    "geocoded_column": {
      "latitude": "29.977958034062734",
      "longitude": "-90.07247579756294"
    }
  },
  {
    "service_request": "2023-987870",
    "request_type": "Trash/Recycling",
    "request_reason": "Request a Large Item Pick Up",
    "date_created": "2023-04-02T08:10:32.000",
    "date_modified": "2023-04-02T08:10:32.000",
    "request_status": "Pending",
    "responsible_agency": "Department of Sanitation",
    "final_address": "2828 Aubry St",
    "address_councildis": "D",
    "status": "Assigned to Contractor",
    "contractor": "IV Waste",
    "rowid": "987870",
    "final_x": "3678970.58146",
    "final_y": "541616.966796",
    "longitude": "-90.07570738500701",
    "latitude": "29.983335440802563",
    "geocoded_column": {
      "latitude": "29.983335440802563",
      "longitude": "-90.07570738500701"
    }
  },
  {
    "service_request": "2023-987869",
    "request_type": "Trash/Recycling",
    "request_reason": "Request a Large Item Pick Up",
    "date_created": "2023-04-02T07:48:36.000",
    "date_modified": "2023-04-02T07:48:36.000",
    "request_status": "Pending",
    "responsible_agency": "Department of Sanitation",
    "final_address": "2729 Constance St, New Orleans, Louisiana, 70130",
    "address_councildis": "B",
    "status": "Assigned to Contractor",
    "contractor": "Richards Disposal",
    "rowid": "987869",
    "final_x": "3677314.54677",
    "final_y": "520584.0942",
    "longitude": "-90.0816636935538",
    "latitude": "29.925551967506564",
    "geocoded_column": {
      "latitude": "29.925551967506564",
      "longitude": "-90.0816636935538"
    }
  },
  {
    "service_request": "2023-987868",
    "request_type": "Trash/Recycling",
    "request_reason": "Request a Large Item Pick Up",
    "date_created": "2023-04-02T07:46:09.000",
    "date_modified": "2023-04-02T07:46:10.000",
    "request_status": "Pending",
    "responsible_agency": "Department of Sanitation",
    "final_address": "2828 Aubry St",
    "address_councildis": "D",
    "status": "Assigned to Contractor",
    "contractor": "IV Waste",
    "rowid": "987868",
    "final_x": "3678970.58146",
    "final_y": "541616.966796",
    "longitude": "-90.07570738500701",
    "latitude": "29.983335440802563",
    "geocoded_column": {
      "latitude": "29.983335440802563",
      "longitude": "-90.07570738500701"
    }
  },
  {
    "service_request": "2023-987867",
    "request_type": "Property Maintenance",
    "request_reason": "Property Maintenance",
    "date_created": "2023-04-02T07:32:18.000",
    "date_modified": "2023-04-02T07:32:19.000",
    "request_status": "Pending",
    "responsible_agency": "Department of Code Enforcement",
    "final_address": "916 N Tonti St",
    "address_councildis": "D",
    "status": "Pending",
    "rowid": "987867",
    "final_x": "3678350.16648",
    "final_y": "536785.18644",
    "longitude": "-90.07783419739992",
    "latitude": "29.970068419656577",
    "geocoded_column": {
      "latitude": "29.970068419656577",
      "longitude": "-90.07783419739992"
    }
  },
  {
    "service_request": "2023-987866",
    "request_type": "Taxi Issues",
    "request_reason": "Taxi Lost & Found Item",
    "date_created": "2023-04-02T05:05:30.000",
    "date_modified": "2023-04-02T05:05:31.000",
    "request_status": "Pending",
    "responsible_agency": "Ground Transportation Bureau",
    "final_address": "315 Julia St",
    "address_councildis": "B",
    "status": "Pending",
    "rowid": "987866",
    "final_x": "3682106.51797",
    "final_y": "527638.180735",
    "longitude": "-90.06629069704503",
    "latitude": "29.944803560865584",
    "geocoded_column": {
      "latitude": "29.944803560865584",
      "longitude": "-90.06629069704503"
    }
  },
  {
    "service_request": "2023-987865",
    "request_type": "Abandoned Vehicles",
    "request_reason": "Abandoned/Junk Vehicles",
    "date_created": "2023-04-02T01:16:08.000",
    "date_modified": "2023-04-02T01:16:08.000",
    "request_status": "Pending",
    "responsible_agency": "Department of Public Works",
    "final_address": "2000 Touro St",
    "address_councildis": "D",
    "status": "Pending",
    "rowid": "987865",
    "final_x": "3683931.60361",
    "final_y": "539587.54113",
    "longitude": "-90.06010914043023",
    "latitude": "29.97760458096168",
    "geocoded_column": {
      "latitude": "29.97760458096168",
      "longitude": "-90.06010914043023"
    }
  },
  {
    "service_request": "2023-987864",
    "request_type": "Health Related Request",
    "request_reason": "Noise Ordinance Complaint",
    "date_created": "2023-04-02T01:05:47.000",
    "date_modified": "2023-04-02T01:05:47.000",
    "request_status": "Pending",
    "responsible_agency": "Health Department",
    "final_address": "1011 N Claiborne Ave, New Orleans, Louisiana, 70116",
    "address_councildis": "D",
    "status": "Pending",
    "rowid": "987864",
    "final_x": "3680426.3741",
    "final_y": "535647.846086",
    "longitude": "-90.07131688638961",
    "latitude": "29.966878408641293",
    "geocoded_column": {
      "latitude": "29.966878408641293",
      "longitude": "-90.07131688638961"
    }
  },
  {
    "service_request": "2023-987863",
    "request_type": "Trash/Recycling",
    "request_reason": "Order Trash Cart",
    "date_created": "2023-04-01T23:54:52.000",
    "date_modified": "2023-04-01T23:54:53.000",
    "request_status": "Pending",
    "responsible_agency": "Department of Sanitation",
    "final_address": "2501 S Johnson St",
    "address_councildis": "B",
    "status": "Assigned to Contractor",
    "contractor": "Richards Disposal",
    "rowid": "987863",
    "final_x": "3673130.11694",
    "final_y": "528389.00192",
    "longitude": "-90.09460632713592",
    "latitude": "29.947137948830918",
    "geocoded_column": {
      "latitude": "29.947137948830918",
      "longitude": "-90.09460632713592"
    }
  },
  {
    "service_request": "2023-987862",
    "request_type": "Trash/Recycling",
    "request_reason": "MIssed Recycling Pick-Up",
    "date_created": "2023-04-01T23:39:46.000",
    "date_modified": "2023-04-01T23:39:47.000",
    "request_status": "Pending",
    "responsible_agency": "Department of Sanitation",
    "final_address": "3108 College Ct",
    "address_councildis": "B",
    "status": "Assigned to Contractor",
    "contractor": "Richards Disposal",
    "rowid": "987862",
    "final_x": "3668438.72218",
    "final_y": "531824.666499",
    "longitude": "-90.10930299017294",
    "latitude": "29.956723524055274",
    "geocoded_column": {
      "latitude": "29.956723524055274",
      "longitude": "-90.10930299017294"
    }
  },
  {
    "service_request": "2023-987861",
    "request_type": "Health Related Request",
    "request_reason": "Noise Ordinance Complaint",
    "date_created": "2023-04-01T23:31:35.000",
    "date_modified": "2023-04-01T23:31:35.000",
    "request_status": "Pending",
    "responsible_agency": "Health Department",
    "final_address": "1011 N Claiborne Ave, New Orleans, Louisiana, 70116",
    "address_councildis": "D",
    "status": "Pending",
    "rowid": "987861",
    "final_x": "3680426.3741",
    "final_y": "535647.846086",
    "longitude": "-90.07131688638961",
    "latitude": "29.966878408641293",
    "geocoded_column": {
      "latitude": "29.966878408641293",
      "longitude": "-90.07131688638961"
    }
  },
  {
    "service_request": "2023-987860",
    "request_type": "Health Related Request",
    "request_reason": "Noise Ordinance Complaint",
    "date_created": "2023-04-01T23:25:44.000",
    "date_modified": "2023-04-01T23:25:44.000",
    "request_status": "Pending",
    "responsible_agency": "Health Department",
    "final_address": "1011 N Claiborne Ave, New Orleans, Louisiana, 70116",
    "address_councildis": "D",
    "status": "Pending",
    "rowid": "987860",
    "final_x": "3680426.3741",
    "final_y": "535647.846086",
    "longitude": "-90.07131688638961",
    "latitude": "29.966878408641293",
    "geocoded_column": {
      "latitude": "29.966878408641293",
      "longitude": "-90.07131688638961"
    }
  },
  {
    "service_request": "2023-987859",
    "request_type": "Health Related Request",
    "request_reason": "Noise Ordinance Complaint",
    "date_created": "2023-04-01T23:09:45.000",
    "date_modified": "2023-04-01T23:09:45.000",
    "request_status": "Pending",
    "responsible_agency": "Health Department",
    "final_address": "1011 N Claiborne Ave, New Orleans, Louisiana, 70116",
    "address_councildis": "D",
    "status": "Pending",
    "rowid": "987859",
    "final_x": "3680426.3741",
    "final_y": "535647.846086",
    "longitude": "-90.07131688638961",
    "latitude": "29.966878408641293",
    "geocoded_column": {
      "latitude": "29.966878408641293",
      "longitude": "-90.07131688638961"
    }
  },
  {
    "service_request": "2023-987857",
    "request_type": "Trash/Recycling",
    "request_reason": "Request a Large Item Pick Up",
    "date_created": "2023-04-01T22:27:19.000",
    "date_modified": "2023-04-01T22:27:20.000",
    "request_status": "Pending",
    "responsible_agency": "Department of Sanitation",
    "final_address": "3024 N Roman St",
    "address_councildis": "D",
    "status": "Assigned to Contractor",
    "contractor": "IV Waste",
    "rowid": "987857",
    "final_x": "3689264.86819",
    "final_y": "538685.456457",
    "longitude": "-90.04329700773516",
    "latitude": "29.97496014039204",
    "geocoded_column": {
      "latitude": "29.97496014039204",
      "longitude": "-90.04329700773516"
    }
  },
  {
    "service_request": "2023-987856",
    "request_type": "Trash/Recycling",
    "request_reason": "Order Recycling Cart",
    "date_created": "2023-04-01T22:10:55.000",
    "date_modified": "2023-04-01T22:10:55.000",
    "request_status": "Pending",
    "responsible_agency": "Department of Sanitation",
    "final_address": "3723 Pin Oak Ave",
    "address_councildis": "C",
    "status": "Pending",
    "rowid": "987856",
    "final_x": "3704400.79178",
    "final_y": "514448.040179",
    "longitude": "-89.99638740365819",
    "latitude": "29.907838574189594",
    "geocoded_column": {
      "latitude": "29.907838574189594",
      "longitude": "-89.99638740365819"
    }
  },
  {
    "service_request": "2023-987855",
    "request_type": "Trash/Recycling",
    "request_reason": "Replace Trash Cart",
    "date_created": "2023-04-01T22:09:30.000",
    "date_modified": "2023-04-01T22:09:30.000",
    "request_status": "Pending",
    "responsible_agency": "Department of Sanitation",
    "final_address": "3723 Pin Oak Ave",
    "address_councildis": "C",
    "status": "Assigned to Contractor",
    "contractor": "Richards Disposal",
    "rowid": "987855",
    "final_x": "3704400.79178",
    "final_y": "514448.040179",
    "longitude": "-89.99638740365819",
    "latitude": "29.907838574189594",
    "geocoded_column": {
      "latitude": "29.907838574189594",
      "longitude": "-89.99638740365819"
    }
  },
  {
    "service_request": "2023-987854",
    "request_type": "Abandoned Vehicles",
    "request_reason": "Abandoned/Junk Vehicles",
    "date_created": "2023-04-01T22:06:01.000",
    "date_modified": "2023-04-01T22:06:02.000",
    "request_status": "Pending",
    "responsible_agency": "Department of Public Works",
    "final_address": "822 Delery St",
    "address_councildis": "E",
    "status": "Pending",
    "rowid": "987854",
    "final_x": "3700015.13271",
    "final_y": "532024.484931",
    "longitude": "-90.00958817192482",
    "latitude": "29.956307686154886",
    "geocoded_column": {
      "latitude": "29.956307686154886",
      "longitude": "-90.00958817192482"
    }
  },
  {
    "service_request": "2023-987853",
    "request_type": "Abandoned Vehicles",
    "request_reason": "Abandoned/Junk Vehicles",
    "date_created": "2023-04-01T21:46:35.000",
    "date_modified": "2023-04-01T21:46:35.000",
    "request_status": "Pending",
    "responsible_agency": "Department of Public Works",
    "final_address": "1119 N Prieur St",
    "address_councildis": "D",
    "status": "Pending",
    "rowid": "987853",
    "final_x": "3679899.02037",
    "final_y": "536614.106439",
    "longitude": "-90.07294870427998",
    "latitude": "29.969551253559796",
    "geocoded_column": {
      "latitude": "29.969551253559796",
      "longitude": "-90.07294870427998"
    }
  },
  {
    "service_request": "2023-987851",
    "request_type": "Trash/Recycling",
    "request_reason": "Order Recycling Cart",
    "date_created": "2023-04-01T21:35:27.000",
    "date_modified": "2023-04-01T21:35:27.000",
    "request_status": "Pending",
    "responsible_agency": "Department of Sanitation",
    "final_address": "1521 Jefferson Ave",
    "address_councildis": "B",
    "status": "Pending",
    "rowid": "987851",
    "final_x": "3667260.59994",
    "final_y": "520745.586169",
    "longitude": "-90.11339560029512",
    "latitude": "29.926294174549934",
    "geocoded_column": {
      "latitude": "29.926294174549934",
      "longitude": "-90.11339560029512"
    }
  },
  {
    "service_request": "2023-987850",
    "request_type": "Trash/Recycling",
    "request_reason": "Request a Large Item Pick Up",
    "date_created": "2023-04-01T21:31:33.000",
    "date_modified": "2023-04-01T21:31:34.000",
    "request_status": "Pending",
    "responsible_agency": "Department of Sanitation",
    "final_address": "2126 Amelia St",
    "address_councildis": "B",
    "status": "Assigned to Contractor",
    "contractor": "Richards Disposal",
    "rowid": "987850",
    "final_x": "3672604.381",
    "final_y": "523122.238715",
    "longitude": "-90.09644578114124",
    "latitude": "29.932671683627404",
    "geocoded_column": {
      "latitude": "29.932671683627404",
      "longitude": "-90.09644578114124"
    }
  },
  {
    "service_request": "2023-987849",
    "request_type": "Trash/Recycling",
    "request_reason": "Repair Trash Cart",
    "date_created": "2023-04-01T20:46:40.000",
    "date_modified": "2023-04-01T20:46:40.000",
    "request_status": "Pending",
    "responsible_agency": "Department of Sanitation",
    "final_address": "7400 Malvern Dr",
    "address_councildis": "E",
    "status": "Assigned to Contractor",
    "contractor": "Waste Pro",
    "rowid": "987849",
    "final_x": "3702638.90922",
    "final_y": "560854.263838",
    "longitude": "-90.00024411357406",
    "latitude": "30.035495199628862",
    "geocoded_column": {
      "latitude": "30.035495199628862",
      "longitude": "-90.00024411357406"
    }
  },
  {
    "service_request": "2023-987848",
    "request_type": "Abandoned Vehicles",
    "request_reason": "Abandoned/Junk Vehicles",
    "date_created": "2023-04-01T20:41:54.000",
    "date_modified": "2023-04-01T20:41:55.000",
    "request_status": "Pending",
    "responsible_agency": "Department of Public Works",
    "final_address": "2508 Gladiolus St",
    "address_councildis": "D",
    "status": "Pending",
    "rowid": "987848",
    "final_x": "3686415.04367",
    "final_y": "547376.838737",
    "longitude": "-90.05199050611235",
    "latitude": "29.99894626346455",
    "geocoded_column": {
      "latitude": "29.99894626346455",
      "longitude": "-90.05199050611235"
    }
  },
  {
    "service_request": "2023-987847",
    "request_type": "Trash/Recycling",
    "request_reason": "Order Recycling Cart",
    "date_created": "2023-04-01T20:24:09.000",
    "date_modified": "2023-04-01T20:24:09.000",
    "request_status": "Pending",
    "responsible_agency": "Department of Sanitation",
    "final_address": "3424 Delachaise St",
    "address_councildis": "B",
    "status": "Pending",
    "rowid": "987847",
    "final_x": "3671384.59348",
    "final_y": "527558.604543",
    "longitude": "-90.10014583046076",
    "latitude": "29.94490639913504",
    "geocoded_column": {
      "latitude": "29.94490639913504",
      "longitude": "-90.10014583046076"
    }
  },
  {
    "service_request": "2023-987845",
    "request_type": "Trash/Recycling",
    "request_reason": "Order Recycling Cart",
    "date_created": "2023-04-01T20:05:05.000",
    "date_modified": "2023-04-01T20:05:05.000",
    "request_status": "Pending",
    "responsible_agency": "Department of Sanitation",
    "final_address": "3819 DHemecourt St",
    "address_councildis": "B",
    "status": "Pending",
    "rowid": "987845",
    "final_x": "3670735.6651",
    "final_y": "536167.542727",
    "longitude": "-90.10190258638417",
    "latitude": "29.96859731978876",
    "geocoded_column": {
      "latitude": "29.96859731978876",
      "longitude": "-90.10190258638417"
    }
  },
  {
    "service_request": "2023-987844",
    "request_type": "Trash/Recycling",
    "request_reason": "Missed Trash Pick-Up",
    "date_created": "2023-04-01T19:27:41.000",
    "date_modified": "2023-04-01T19:27:42.000",
    "request_status": "Pending",
    "responsible_agency": "Department of Sanitation",
    "final_address": "8524 Huntington Park Dr",
    "address_councildis": "E",
    "status": "Assigned to Contractor",
    "contractor": "Waste Pro",
    "rowid": "987844",
    "final_x": "3705275.10027",
    "final_y": "560077.547869",
    "longitude": "-89.99194209562998",
    "latitude": "30.033274941454422",
    "geocoded_column": {
      "latitude": "30.033274941454422",
      "longitude": "-89.99194209562998"
    }
  },
  {
    "service_request": "2023-987843",
    "request_type": "Health Related Request",
    "request_reason": "Noise Ordinance Complaint",
    "date_created": "2023-04-01T19:13:20.000",
    "date_modified": "2023-04-01T19:13:20.000",
    "request_status": "Pending",
    "responsible_agency": "Health Department",
    "final_address": "2549 Banks St",
    "address_councildis": "B",
    "status": "Pending",
    "rowid": "987843",
    "final_x": "3675148.01403",
    "final_y": "533816.262341",
    "longitude": "-90.08804882988795",
    "latitude": "29.962000967671727",
    "geocoded_column": {
      "latitude": "29.962000967671727",
      "longitude": "-90.08804882988795"
    }
  },
  {
    "service_request": "2023-987842",
    "request_type": "Safety & Permits",
    "request_reason": "Licenses & Permits",
    "date_created": "2023-04-01T19:11:30.000",
    "date_modified": "2023-04-01T19:11:30.000",
    "request_status": "Pending",
    "responsible_agency": "Safety and Permits",
    "status": "Pending",
    "rowid": "987842",
    "longitude": "0.0",
    "latitude": "0.0",
    "geocoded_column": {
      "latitude": "0.0",
      "longitude": "0.0"
    }
  },
  {
    "service_request": "2023-987841",
    "request_type": "Safety & Permits",
    "request_reason": "Licenses & Permits",
    "date_created": "2023-04-01T19:10:38.000",
    "date_modified": "2023-04-01T19:10:38.000",
    "request_status": "Pending",
    "responsible_agency": "Safety and Permits",
    "final_address": "2549 Banks St",
    "address_councildis": "B",
    "status": "Pending",
    "rowid": "987841",
    "final_x": "3675148.01403",
    "final_y": "533816.262341",
    "longitude": "-90.08804882988795",
    "latitude": "29.962000967671727",
    "geocoded_column": {
      "latitude": "29.962000967671727",
      "longitude": "-90.08804882988795"
    }
  },
  {
    "service_request": "2023-987840",
    "request_type": "Safety & Permits",
    "request_reason": "Licenses & Permits",
    "date_created": "2023-04-01T19:09:33.000",
    "date_modified": "2023-04-01T19:09:33.000",
    "request_status": "Pending",
    "responsible_agency": "Safety and Permits",
    "final_address": "2549 Banks St",
    "address_councildis": "B",
    "status": "Pending",
    "rowid": "987840",
    "final_x": "3675148.01403",
    "final_y": "533816.262341",
    "longitude": "-90.08804882988795",
    "latitude": "29.962000967671727",
    "geocoded_column": {
      "latitude": "29.962000967671727",
      "longitude": "-90.08804882988795"
    }
  },
  {
    "service_request": "2023-987839",
    "request_type": "Health Related Request",
    "request_reason": "Noise Ordinance Complaint",
    "date_created": "2023-04-01T19:06:07.000",
    "date_modified": "2023-04-01T19:06:07.000",
    "request_status": "Pending",
    "responsible_agency": "Health Department",
    "final_address": "2549 Banks St",
    "address_councildis": "B",
    "status": "Pending",
    "rowid": "987839",
    "final_x": "3675148.01403",
    "final_y": "533816.262341",
    "longitude": "-90.08804882988795",
    "latitude": "29.962000967671727",
    "geocoded_column": {
      "latitude": "29.962000967671727",
      "longitude": "-90.08804882988795"
    }
  },
  {
    "service_request": "2023-987838",
    "request_type": "Roads/Drainage",
    "request_reason": "Street Flooding / Drainage",
    "date_created": "2023-04-01T18:50:03.000",
    "date_modified": "2023-04-01T18:50:03.000",
    "request_status": "Pending",
    "responsible_agency": "Department of Public Works",
    "final_address": "2016 Sixth St",
    "address_councildis": "B",
    "status": "Pending",
    "rowid": "987838",
    "final_x": "3674589.93032",
    "final_y": "523567.948155",
    "longitude": "-90.09016229038991",
    "latitude": "29.933838156137774",
    "geocoded_column": {
      "latitude": "29.933838156137774",
      "longitude": "-90.09016229038991"
    }
  },
  {
    "service_request": "2023-987837",
    "request_type": "Trash/Recycling",
    "request_reason": "Repair Recycling Cart",
    "date_created": "2023-04-01T18:38:14.000",
    "date_modified": "2023-04-01T18:38:14.000",
    "request_status": "Pending",
    "responsible_agency": "Department of Sanitation",
    "final_address": "13061 River Rd",
    "address_councildis": "C",
    "status": "Pending",
    "rowid": "987837",
    "final_x": "3731143.17677",
    "final_y": "509711.401902",
    "longitude": "-89.91217170394083",
    "latitude": "29.893929491895186",
    "geocoded_column": {
      "latitude": "29.893929491895186",
      "longitude": "-89.91217170394083"
    }
  },
  {
    "service_request": "2023-987836",
    "request_type": "Trash/Recycling",
    "request_reason": "Dead Animal Pick Up",
    "date_created": "2023-04-01T18:33:20.000",
    "date_modified": "2023-04-01T18:33:21.000",
    "request_status": "Pending",
    "responsible_agency": "Department of Sanitation",
    "final_address": "MAGAZINE ST & FOUCHER ST",
    "address_councildis": "B",
    "status": "Assigned to Contractor",
    "contractor": "Richards Disposal",
    "rowid": "987836",
    "final_x": "3674169.0",
    "final_y": "519305.78",
    "longitude": "-90.09163696144715",
    "latitude": "29.92213112012501",
    "geocoded_column": {
      "latitude": "29.92213112012501",
      "longitude": "-90.09163696144715"
    }
  },
  {
    "service_request": "2023-987835",
    "request_type": "Trash/Recycling",
    "request_reason": "Request a Large Item Pick Up",
    "date_created": "2023-04-01T18:14:49.000",
    "date_modified": "2023-04-01T18:14:50.000",
    "request_status": "Pending",
    "responsible_agency": "Department of Sanitation",
    "final_address": "4930 S Johnson St",
    "address_councildis": "B",
    "status": "Assigned to Contractor",
    "contractor": "Richards Disposal",
    "rowid": "987835",
    "final_x": "3668951.87111",
    "final_y": "526957.405374",
    "longitude": "-90.10784700131288",
    "latitude": "29.943325063246196",
    "geocoded_column": {
      "latitude": "29.943325063246196",
      "longitude": "-90.10784700131288"
    }
  },
  {
    "service_request": "2023-987834",
    "request_type": "Roads/Drainage",
    "request_reason": "Catch Basin - Broken/Damage",
    "date_created": "2023-04-01T17:38:10.000",
    "date_modified": "2023-04-01T17:38:10.000",
    "request_status": "Pending",
    "responsible_agency": "Department of Public Works",
    "final_address": "2400 General Taylor St",
    "address_councildis": "B",
    "status": "Pending",
    "rowid": "987834",
    "final_x": "3671928.75003",
    "final_y": "523860.571004",
    "longitude": "-90.09855357953026",
    "latitude": "29.934721895435402",
    "geocoded_column": {
      "latitude": "29.934721895435402",
      "longitude": "-90.09855357953026"
    }
  },
  {
    "service_request": "2023-987833",
    "request_type": "Property Maintenance",
    "request_reason": "Property Maintenance",
    "date_created": "2023-04-01T17:22:50.000",
    "date_modified": "2023-04-01T17:22:50.000",
    "request_status": "Pending",
    "responsible_agency": "Department of Code Enforcement",
    "final_address": "1825 Second St",
    "address_councildis": "B",
    "status": "Pending",
    "rowid": "987833",
    "final_x": "3676177.95944",
    "final_y": "523885.334332",
    "longitude": "-90.08513803491786",
    "latitude": "29.934663394254432",
    "geocoded_column": {
      "latitude": "29.934663394254432",
      "longitude": "-90.08513803491786"
    }
  },
  {
    "service_request": "2023-987832",
    "request_type": "Traffic Signals/Signs/Striping/Streetlights",
    "request_reason": "Traffic Sign Missing/Damaged",
    "date_created": "2023-04-01T17:22:16.000",
    "date_modified": "2023-04-01T17:22:16.000",
    "request_status": "Pending",
    "responsible_agency": "Department of Public Works",
    "final_address": "3501 Canal St",
    "address_councildis": "B",
    "status": "Pending",
    "rowid": "987832",
    "final_x": "3672900.84948",
    "final_y": "537127.22836",
    "longitude": "-90.09503205017036",
    "latitude": "29.97117197142354",
    "geocoded_column": {
      "latitude": "29.97117197142354",
      "longitude": "-90.09503205017036"
    }
  },
  {
    "service_request": "2023-987831",
    "request_type": "Trash/Recycling",
    "request_reason": "Illegal Dumping",
    "date_created": "2023-04-01T17:13:08.000",
    "date_modified": "2023-04-01T17:13:08.000",
    "request_status": "Pending",
    "responsible_agency": "Department of Sanitation",
    "final_address": "1765 N Roman St",
    "address_councildis": "D",
    "status": "Pending",
    "rowid": "987831",
    "final_x": "3682761.3428",
    "final_y": "538753.014089",
    "longitude": "-90.06383441915382",
    "latitude": "29.97534562579741",
    "geocoded_column": {
      "latitude": "29.97534562579741",
      "longitude": "-90.06383441915382"
    }
  },
  {
    "service_request": "2023-987829",
    "request_type": "Safety & Permits",
    "request_reason": "Licenses & Permits",
    "date_created": "2023-04-01T16:53:36.000",
    "date_modified": "2023-04-01T16:53:36.000",
    "request_status": "Pending",
    "responsible_agency": "Safety and Permits",
    "final_address": "1934 Marengo St",
    "address_councildis": "B",
    "status": "Pending",
    "rowid": "987829",
    "final_x": "3671760.05198",
    "final_y": "522348.849338",
    "longitude": "-90.09913756242088",
    "latitude": "29.93057014599546",
    "geocoded_column": {
      "latitude": "29.93057014599546",
      "longitude": "-90.09913756242088"
    }
  },
  {
    "service_request": "2023-987828",
    "request_type": "Trash/Recycling",
    "request_reason": "Repair Recycling Cart",
    "date_created": "2023-04-01T16:51:17.000",
    "date_modified": "2023-04-01T16:51:17.000",
    "request_status": "Pending",
    "responsible_agency": "Department of Sanitation",
    "final_address": "1117 Robert St",
    "address_councildis": "B",
    "status": "Pending",
    "rowid": "987828",
    "final_x": "3668710.70138",
    "final_y": "519493.487799",
    "longitude": "-90.10886026485268",
    "latitude": "29.922808769872223",
    "geocoded_column": {
      "latitude": "29.922808769872223",
      "longitude": "-90.10886026485268"
    }
  },
  {
    "service_request": "2023-987827",
    "request_type": "Trash/Recycling",
    "request_reason": "Repair Recycling Cart",
    "date_created": "2023-04-01T16:51:14.000",
    "date_modified": "2023-04-01T16:51:14.000",
    "request_status": "Pending",
    "responsible_agency": "Department of Sanitation",
    "final_address": "1117 Robert St",
    "address_councildis": "B",
    "status": "Pending",
    "rowid": "987827",
    "final_x": "3668710.70138",
    "final_y": "519493.487799",
    "longitude": "-90.10886026485268",
    "latitude": "29.922808769872223",
    "geocoded_column": {
      "latitude": "29.922808769872223",
      "longitude": "-90.10886026485268"
    }
  },
  {
    "service_request": "2023-987826",
    "request_type": "Trash/Recycling",
    "request_reason": "Request a Large Item Pick Up",
    "date_created": "2023-04-01T16:35:31.000",
    "date_modified": "2023-04-01T16:35:32.000",
    "request_status": "Pending",
    "responsible_agency": "Department of Sanitation",
    "final_address": "2823 Baronne St",
    "address_councildis": "B",
    "status": "Assigned to Contractor",
    "contractor": "Richards Disposal",
    "rowid": "987826",
    "final_x": "3675326.33429",
    "final_y": "523063.301051",
    "longitude": "-90.0878548104668",
    "latitude": "29.932428551701157",
    "geocoded_column": {
      "latitude": "29.932428551701157",
      "longitude": "-90.0878548104668"
    }
  },
  {
    "service_request": "2023-987825",
    "request_type": "Roads/Drainage",
    "request_reason": "Catch Basin - Broken/Damage",
    "date_created": "2023-04-01T16:24:21.000",
    "date_modified": "2023-04-01T16:24:21.000",
    "request_status": "Pending",
    "responsible_agency": "Department of Public Works",
    "final_address": "4400 S Claiborne Ave",
    "address_councildis": "B",
    "status": "Pending",
    "rowid": "987825",
    "final_x": "3670231.31655",
    "final_y": "525685.574333",
    "longitude": "-90.10385054127941",
    "latitude": "29.939790252726013",
    "geocoded_column": {
      "latitude": "29.939790252726013",
      "longitude": "-90.10385054127941"
    }
  },
  {
    "service_request": "2023-987824",
    "request_type": "Roads/Drainage",
    "request_reason": "Catch Basin - Clogged",
    "date_created": "2023-04-01T16:23:40.000",
    "date_modified": "2023-04-01T16:23:40.000",
    "request_status": "Pending",
    "responsible_agency": "Department of Public Works",
    "final_address": "219 Loyola Ave",
    "address_councildis": "B",
    "status": "Pending",
    "rowid": "987824",
    "final_x": "3679187.08405",
    "final_y": "531134.900674",
    "longitude": "-90.07538702704547",
    "latitude": "29.95450681241384",
    "geocoded_column": {
      "latitude": "29.95450681241384",
      "longitude": "-90.07538702704547"
    }
  },
  {
    "service_request": "2023-987823",
    "request_type": "Trash/Recycling",
    "request_reason": "Replace Trash Cart",
    "date_created": "2023-04-01T16:02:16.000",
    "date_modified": "2023-04-01T16:02:17.000",
    "request_status": "Pending",
    "responsible_agency": "Department of Sanitation",
    "final_address": "2018 Jena St",
    "address_councildis": "B",
    "status": "Assigned to Contractor",
    "contractor": "Richards Disposal",
    "rowid": "987823",
    "final_x": "3670248.22311",
    "final_y": "522420.883514",
    "longitude": "-90.10390775443514",
    "latitude": "29.930812906158515",
    "geocoded_column": {
      "latitude": "29.930812906158515",
      "longitude": "-90.10390775443514"
    }
  },
  {
    "service_request": "2023-987822",
    "request_type": "Property Maintenance",
    "request_reason": "Property Maintenance",
    "date_created": "2023-04-01T15:59:23.000",
    "date_modified": "2023-04-01T15:59:23.000",
    "request_status": "Pending",
    "responsible_agency": "Department of Code Enforcement",
    "final_address": "923 Seventh St",
    "address_councildis": "B",
    "status": "Pending",
    "rowid": "987822",
    "final_x": "3676706.34792",
    "final_y": "519939.06348",
    "longitude": "-90.08360579961605",
    "latitude": "29.923796595864864",
    "geocoded_column": {
      "latitude": "29.923796595864864",
      "longitude": "-90.08360579961605"
    }
  },
  {
    "service_request": "2023-987821",
    "request_type": "Trash/Recycling",
    "request_reason": "Request a Large Item Pick Up",
    "date_created": "2023-04-01T15:50:59.000",
    "date_modified": "2023-04-01T15:50:59.000",
    "request_status": "Pending",
    "responsible_agency": "Department of Sanitation",
    "final_address": "7929 Freret St",
    "address_councildis": "A",
    "status": "Assigned to Contractor",
    "contractor": "Richards Disposal",
    "rowid": "987821",
    "final_x": "3661926.85114",
    "final_y": "527522.518655",
    "longitude": "-90.13000815603785",
    "latitude": "29.9450836666227",
    "geocoded_column": {
      "latitude": "29.9450836666227",
      "longitude": "-90.13000815603785"
    }
  },
  {
    "service_request": "2023-987820",
    "request_type": "Roads/Drainage",
    "request_reason": "Street Subsidence (Sinking)",
    "date_created": "2023-04-01T15:44:14.000",
    "date_modified": "2023-04-01T15:44:14.000",
    "request_status": "Pending",
    "responsible_agency": "Department of Public Works",
    "final_address": "1005 S Telemachus St",
    "address_councildis": "B",
    "status": "Pending",
    "rowid": "987820",
    "final_x": "3669694.84212",
    "final_y": "533883.325317",
    "longitude": "-90.10526688493242",
    "latitude": "29.96234719884988",
    "geocoded_column": {
      "latitude": "29.96234719884988",
      "longitude": "-90.10526688493242"
    }
  },
  {
    "service_request": "2023-987819",
    "request_type": "Roads/Drainage",
    "request_reason": "Street Subsidence (Sinking)",
    "date_created": "2023-04-01T15:41:09.000",
    "date_modified": "2023-04-01T15:41:09.000",
    "request_status": "Pending",
    "responsible_agency": "Department of Public Works",
    "final_address": "1005 S Telemachus St",
    "address_councildis": "B",
    "status": "Pending",
    "rowid": "987819",
    "final_x": "3669694.84212",
    "final_y": "533883.325317",
    "longitude": "-90.10526688493242",
    "latitude": "29.96234719884988",
    "geocoded_column": {
      "latitude": "29.96234719884988",
      "longitude": "-90.10526688493242"
    }
  },
  {
    "service_request": "2023-987818",
    "request_type": "Trash/Recycling",
    "request_reason": "Illegal Dumping",
    "date_created": "2023-04-01T15:29:42.000",
    "date_modified": "2023-04-01T15:29:42.000",
    "request_status": "Pending",
    "responsible_agency": "Department of Sanitation",
    "final_address": "3306 Freret St",
    "address_councildis": "B",
    "status": "Pending",
    "rowid": "987818",
    "final_x": "3673216.20398",
    "final_y": "524581.798204",
    "longitude": "-90.09446448474058",
    "latitude": "29.936666824652583",
    "geocoded_column": {
      "latitude": "29.936666824652583",
      "longitude": "-90.09446448474058"
    }
  },
  {
    "service_request": "2023-987817",
    "request_type": "Trash/Recycling",
    "request_reason": "Illegal Dumping",
    "date_created": "2023-04-01T15:28:06.000",
    "date_modified": "2023-04-01T15:28:06.000",
    "request_status": "Pending",
    "responsible_agency": "Department of Sanitation",
    "final_address": "2400 Jackson Ave",
    "address_councildis": "B",
    "status": "Pending",
    "rowid": "987817",
    "final_x": "3675569.19349",
    "final_y": "526308.323262",
    "longitude": "-90.08697669595185",
    "latitude": "29.941344040353535",
    "geocoded_column": {
      "latitude": "29.941344040353535",
      "longitude": "-90.08697669595185"
    }
  },
  {
    "service_request": "2023-987816",
    "request_type": "Trash/Recycling",
    "request_reason": "Illegal Dumping",
    "date_created": "2023-04-01T15:26:10.000",
    "date_modified": "2023-04-01T15:26:10.000",
    "request_status": "Pending",
    "responsible_agency": "Department of Sanitation",
    "final_address": "1132 S Liberty St",
    "address_councildis": "B",
    "status": "Pending",
    "rowid": "987816",
    "final_x": "3677568.31688",
    "final_y": "527828.684543",
    "longitude": "-90.08061259801728",
    "latitude": "29.94546458757646",
    "geocoded_column": {
      "latitude": "29.94546458757646",
      "longitude": "-90.08061259801728"
    }
  },
  {
    "service_request": "2023-987815",
    "request_type": "Abandoned Vehicles",
    "request_reason": "Abandoned/Junk Vehicles",
    "date_created": "2023-04-01T15:06:08.000",
    "date_modified": "2023-04-01T15:06:08.000",
    "request_status": "Pending",
    "responsible_agency": "Department of Public Works",
    "final_address": "7031 Barrington Ct",
    "address_councildis": "E",
    "status": "Pending",
    "rowid": "987815",
    "final_x": "3714117.36594",
    "final_y": "565088.731298",
    "longitude": "-89.9638106640602",
    "latitude": "30.046766090966496",
    "geocoded_column": {
      "latitude": "30.046766090966496",
      "longitude": "-89.9638106640602"
    }
  },
  {
    "service_request": "2023-987814",
    "request_type": "Abandoned Vehicles",
    "request_reason": "Vehicle Blocking Your Driveway",
    "date_created": "2023-04-01T15:00:38.000",
    "date_modified": "2023-04-01T15:00:38.000",
    "request_status": "Pending",
    "responsible_agency": "Department of Public Works",
    "final_address": "7031 Barrington Ct",
    "address_councildis": "E",
    "status": "Pending",
    "rowid": "987814",
    "final_x": "3714117.36594",
    "final_y": "565088.731298",
    "longitude": "-89.9638106640602",
    "latitude": "30.046766090966496",
    "geocoded_column": {
      "latitude": "30.046766090966496",
      "longitude": "-89.9638106640602"
    }
  },
  {
    "service_request": "2023-987813",
    "request_type": "Trash/Recycling",
    "request_reason": "Request a Large Item Pick Up",
    "date_created": "2023-04-01T14:59:18.000",
    "date_modified": "2023-04-01T14:59:58.000",
    "request_status": "Pending",
    "responsible_agency": "Department of Sanitation",
    "final_address": "4720 Touro St",
    "address_councildis": "D",
    "contractor": "IV Waste",
    "rowid": "987813",
    "final_x": "3683085.84264",
    "final_y": "550054.273172",
    "longitude": "-90.06241367740945",
    "latitude": "30.006410192097633",
    "geocoded_column": {
      "latitude": "30.006410192097633",
      "longitude": "-90.06241367740945"
    }
  },