[
  {
    "service_request": "2026-1293571",
    "request_type": "Drainage",
    "request_reason": "Catch Basin Frame and Cover Missing or Damaged",
    "date_created": "2026-06-23T23:29:11.000",
    "date_modified": "2026-06-23T23:29:14.000",
    "request_status": "Pending",
    "responsible_agency": "Sewerage & Water Board",
    "final_address": "1000 BLK Convention Center Blvd",
    "address_councildis": "B",
    "status": "Pending",
    "rowid": "1293571",
    "final_x": "3682660.28523",
    "final_y": "526362.188533",
    "longitude": "-90.06458689679323",
    "latitude": "29.941278161216513",
    "geocoded_column": {
      "latitude": "29.941278161216513",
      "longitude": "-90.06458689679323"
    }
  },
  {
    "service_request": "2026-1293570",
    "request_type": "Streetlights",
    "request_reason": "Streetlight Outage/Malfunction",
    "date_created": "2026-06-23T23:27:12.000",
    "date_modified": "2026-06-23T23:27:14.000",
    "request_status": "Pending",
    "responsible_agency": "Department of Public Works",
    "final_address": "4412 Annette St",
    "address_councildis": "D",
    "status": "Pending",
    "rowid": "1293570",
    "final_x": "3682094.67592",
    "final_y": "548817.533907",
    "longitude": "-90.06558824832715",
    "latitude": "30.003039794962085",
    "geocoded_column": {
      "latitude": "30.003039794962085",
      "longitude": "-90.06558824832715"
    }
  },
  {
    "service_request": "2026-1293569",
    "request_type": "Roads and Streets",
    "request_reason": "Road Shoulder Damage",
    "date_created": "2026-06-23T23:12:19.000",
    "date_modified": "2026-06-23T23:12:22.000",
    "request_status": "Pending",
    "responsible_agency": "Department of Public Works",
    "final_address": "8811 Curran Rd",
    "address_councildis": "E",
    "status": "Pending",
    "rowid": "1293569",
    "final_x": "3704695.32926",
    "final_y": "562899.70448",
    "longitude": "-89.993669948625",
    "latitude": "30.04105341184681",
    "geocoded_column": {
      "latitude": "30.04105341184681",
      "longitude": "-89.993669948625"
    }
  },
  {
    "service_request": "2026-1293568",
    "request_type": "Roads and Streets",
    "request_reason": "Push-up/Pavement Expansion",
    "date_created": "2026-06-23T23:07:35.000",
    "date_modified": "2026-06-23T23:07:38.000",
    "request_status": "Pending",
    "responsible_agency": "Department of Public Works",
    "final_address": "1533 Music St",
    "address_councildis": "C",
    "status": "Pending",
    "rowid": "1293568",
    "final_x": "3686741.43606",
    "final_y": "538185.208073",
    "longitude": "-90.05128431100103",
    "latitude": "29.973662508869445",
    "geocoded_column": {
      "latitude": "29.973662508869445",
      "longitude": "-90.05128431100103"
    }
  },
  {
    "service_request": "2026-1293567",
    "request_type": "Roads and Streets",
    "request_reason": "Street Subsidence (Sinking)",
    "date_created": "2026-06-23T22:32:41.000",
    "date_modified": "2026-06-23T22:32:43.000",
    "request_status": "Pending",
    "responsible_agency": "Sewerage & Water Board",
    "final_address": "4808 Haydel St",
    "address_councildis": "E",
    "status": "Pending",
    "rowid": "1293567",
    "final_x": "3698923.61892",
    "final_y": "554789.049176",
    "longitude": "-90.01220599496042",
    "latitude": "30.018936513580737",
    "geocoded_column": {
      "latitude": "30.018936513580737",
      "longitude": "-90.01220599496042"
    }
  },
  {
    "service_request": "2026-1293566",
    "request_type": "Street and Traffic Signs",
    "request_reason": "Stop Sign Missing or Damaged",
    "date_created": "2026-06-23T22:30:45.000",
    "date_modified": "2026-06-23T22:30:47.000",
    "request_status": "Pending",
    "responsible_agency": "Department of Public Works",
    "final_address": "3205 Fern St",
    "address_councildis": "B",
    "status": "Pending",
    "rowid": "1293566",
    "final_x": "3667414.85607",
    "final_y": "533165.459268",
    "longitude": "-90.11249093253848",
    "latitude": "29.960440297731015",
    "geocoded_column": {
      "latitude": "29.960440297731015",
      "longitude": "-90.11249093253848"
    }
  },
  {
    "service_request": "2026-1293565",
    "request_type": "Safety & Permits",
    "request_reason": "Zoning Enforcement",
    "date_created": "2026-06-23T22:20:42.000",
    "date_modified": "2026-06-23T22:20:44.000",
    "request_status": "Pending",
    "responsible_agency": "Safety and Permits",
    "final_address": "1447 Euterpe St",
    "address_councildis": "B",
    "status": "Pending",
    "rowid": "1293565",
    "final_x": "3679417.93039",
    "final_y": "524712.076924",
    "longitude": "-90.07488084404304",
    "latitude": "29.93683921940913",
    "geocoded_column": {
      "latitude": "29.93683921940913",
      "longitude": "-90.07488084404304"
    }
  },
  {
    "service_request": "2026-1293564",
    "request_type": "Trash/Recycling",
    "request_reason": "Request a Large Item Pick Up",
    "date_created": "2026-06-23T21:30:58.000",
    "date_modified": "2026-06-23T21:30:59.000",
    "request_status": "Pending",
    "responsible_agency": "Department of Sanitation",
    "final_address": "6211 Providence Pl",
    "address_councildis": "D",
    "status": "Assigned to Contractor",
    "contractor": "IV Waste",
    "rowid": "1293564",
    "final_x": "3688364.15311",
    "final_y": "556398.879834",
    "longitude": "-90.04551293459805",
    "latitude": "30.02369348472246",
    "geocoded_column": {
      "latitude": "30.02369348472246",
      "longitude": "-90.04551293459805"
    }
  },
  {
    "service_request": "2026-1293563",
    "request_type": "Streetlights",
    "request_reason": "Streetlight Outage/Malfunction",
    "date_created": "2026-06-23T21:30:16.000",
    "date_modified": "2026-06-23T21:30:17.000",
    "request_status": "Pending",
    "responsible_agency": "Department of Public Works",
    "final_address": "929 Taft Pl",
    "address_councildis": "A",
    "status": "Pending",
    "rowid": "1293563",
    "final_x": "3673824.94785",
    "final_y": "540324.326219",
    "longitude": "-90.09200423416856",
    "latitude": "29.979935409426496",
    "geocoded_column": {
      "latitude": "29.979935409426496",
      "longitude": "-90.09200423416856"
    }
  },
  {
    "service_request": "2026-1293562",
    "request_type": "Property Maintenance",
    "request_reason": "Property Maintenance",
    "date_created": "2026-06-23T21:29:02.000",
    "date_modified": "2026-06-23T21:29:04.000",
    "request_status": "Pending",
    "responsible_agency": "Department of Code Enforcement",
    "final_address": "1822 Mercedes Blvd",
    "address_councildis": "C",
    "status": "Pending",
    "rowid": "1293562",
    "final_x": "3698226.59485",
    "final_y": "524124.165884",
    "longitude": "-90.01552264871364",
    "latitude": "29.934641263696495",
    "geocoded_column": {
      "latitude": "29.934641263696495",
      "longitude": "-90.01552264871364"
    }
  },
  {
    "service_request": "2026-1293561",
    "request_type": "Streetlights",
    "request_reason": "Streetlight Outage/Malfunction",
    "date_created": "2026-06-23T21:27:47.000",
    "date_modified": "2026-06-23T21:27:49.000",
    "request_status": "Pending",
    "responsible_agency": "Department of Public Works",
    "final_address": "5025 Willow St",
    "address_councildis": "B",
    "status": "Pending",
    "rowid": "1293561",
    "final_x": "3668680.10772",
    "final_y": "525354.336189",
    "longitude": "-90.10875912108402",
    "latitude": "29.93892513016516",
    "geocoded_column": {
      "latitude": "29.93892513016516",
      "longitude": "-90.10875912108402"
    }
  },
  {
    "service_request": "2026-1293560",
    "request_type": "Trash/Recycling",
    "request_reason": "Replace Trash Cart",
    "date_created": "2026-06-23T21:03:55.000",
    "date_modified": "2026-06-23T21:03:58.000",
    "request_status": "Pending",
    "responsible_agency": "Department of Sanitation",
    "final_address": "5090 E St Andrews Cir",
    "address_councildis": "E",
    "status": "Assigned to Contractor",
    "contractor": "Waste Pro",
    "rowid": "1293560",
    "final_x": "3719361.60057",
    "final_y": "560351.195997",
    "longitude": "-89.9474174143551",
    "latitude": "30.033566412661138",
    "geocoded_column": {
      "latitude": "30.033566412661138",
      "longitude": "-89.9474174143551"
    }
  },
  {
    "service_request": "2026-1293559",
    "request_type": "Trash/Recycling",
    "request_reason": "Request a Large Item Pick Up",
    "date_created": "2026-06-23T20:46:09.000",
    "date_modified": "2026-06-23T20:46:11.000",
    "request_status": "Pending",
    "responsible_agency": "Department of Sanitation",
    "final_address": "4851 Ken Ct",
    "address_councildis": "C",
    "status": "Assigned to Contractor",
    "contractor": "Richards Disposal",
    "rowid": "1293559",
    "final_x": "3702144.70257",
    "final_y": "518440.761846",
    "longitude": "-90.00336160432953",
    "latitude": "29.918889384303846",
    "geocoded_column": {
      "latitude": "29.918889384303846",
      "longitude": "-90.00336160432953"
    }
  },
  {
    "service_request": "2026-1293558",
    "request_type": "Streetlights",
    "request_reason": "New Streetlight Request",
    "date_created": "2026-06-23T20:38:41.000",
    "date_modified": "2026-06-23T20:38:43.000",
    "request_status": "Pending",
    "responsible_agency": "Department of Public Works",
    "final_address": "7800 BLK Maple St",
    "address_councildis": "A",
    "status": "Pending",
    "rowid": "1293558",
    "final_x": "3661721.38748",
    "final_y": "526691.635709",
    "longitude": "-90.13068440617222",
    "latitude": "29.94280493462387",
    "geocoded_column": {
      "latitude": "29.94280493462387",
      "longitude": "-90.13068440617222"
    }
  },
  {
    "service_request": "2026-1293557",
    "request_type": "Drainage",
    "request_reason": "Catch Basin Not Draining",
    "date_created": "2026-06-23T20:35:26.000",
    "date_modified": "2026-06-23T20:35:29.000",
    "request_status": "Pending",
    "responsible_agency": "Sewerage & Water Board",
    "final_address": "1307 Constance St",
    "address_councildis": "B",
    "status": "Pending",
    "rowid": "1293557",
    "final_x": "3680854.29487",
    "final_y": "525085.851133",
    "longitude": "-90.0703331654778",
    "latitude": "29.937823519515696",
    "geocoded_column": {
      "latitude": "29.937823519515696",
      "longitude": "-90.0703331654778"
    }
  },
  {
    "service_request": "2026-1293556",
    "request_type": "Trash/Recycling",
    "request_reason": "Illegal Dumping",
    "date_created": "2026-06-23T20:04:50.000",
    "date_modified": "2026-06-23T20:04:52.000",
    "request_status": "Pending",
    "responsible_agency": "Department of Sanitation",
    "final_address": "2513 Loyola Ave",
    "address_councildis": "B",
    "status": "Pending",
    "rowid": "1293556",
    "final_x": "3675387.47835",
    "final_y": "524781.986492",
    "longitude": "-90.08760279660952",
    "latitude": "29.93715254833771",
    "geocoded_column": {
      "latitude": "29.93715254833771",
      "longitude": "-90.08760279660952"
    }
  },
  {
    "service_request": "2026-1293555",
    "request_type": "Trash/Recycling",
    "request_reason": "Request a Large Item Pick Up",
    "date_created": "2026-06-23T20:02:00.000",
    "date_modified": "2026-06-23T20:02:14.000",
    "request_status": "Pending",
    "responsible_agency": "Department of Sanitation",
    "final_address": "8000 Spruce St",
    "address_councildis": "A",
    "status": "Assigned to Contractor",
    "contractor": "IV Waste",
    "rowid": "1293555",
    "final_x": "3664128.91533",
    "final_y": "530145.872961",
    "longitude": "-90.12296803284937",
    "latitude": "29.952233274702746",
    "geocoded_column": {
      "latitude": "29.952233274702746",
      "longitude": "-90.12296803284937"
    }
  },
  {
    "service_request": "2026-1293554",
    "request_type": "Trash/Recycling",
    "request_reason": "Missed Trash Pick-Up",
    "date_created": "2026-06-23T20:00:59.000",
    "date_modified": "2026-06-23T20:01:01.000",
    "request_status": "Pending",
    "responsible_agency": "Department of Sanitation",
    "final_address": "4538 Toulouse St",
    "address_councildis": "A",
    "status": "Assigned to Contractor",
    "contractor": "IV Waste",
    "rowid": "1293554",
    "final_x": "3670494.16743",
    "final_y": "540994.676299",
    "longitude": "-90.10250150019665",
    "latitude": "29.981877441000393",
    "geocoded_column": {
      "latitude": "29.981877441000393",
      "longitude": "-90.10250150019665"
    }
  },
  {
    "service_request": "2026-1293553",
    "request_type": "Property Maintenance",
    "request_reason": "Property Maintenance",
    "date_created": "2026-06-23T19:52:27.000",
    "date_modified": "2026-06-23T19:52:29.000",
    "request_status": "Pending",
    "responsible_agency": "Department of Code Enforcement",
    "final_address": "8607 Apple St",
    "address_councildis": "A",
    "status": "Pending",
    "rowid": "1293553",
    "final_x": "3664004.32282",
    "final_y": "533380.843972",
    "longitude": "-90.12325356790173",
    "latitude": "29.96113201111841",
    "geocoded_column": {
      "latitude": "29.96113201111841",
      "longitude": "-90.12325356790173"
    }
  },
  {
    "service_request": "2026-1293552",
    "request_type": "Property Maintenance",
    "request_reason": "Property Maintenance",
    "date_created": "2026-06-23T19:47:31.000",
    "date_modified": "2026-06-23T19:47:34.000",
    "request_status": "Pending",
    "responsible_agency": "Department of Code Enforcement",
    "final_address": "8607 Apple St",
    "address_councildis": "A",
    "status": "Pending",
    "rowid": "1293552",
    "final_x": "3664004.32282",
    "final_y": "533380.843972",
    "longitude": "-90.12325356790173",
    "latitude": "29.96113201111841",
    "geocoded_column": {
      "latitude": "29.96113201111841",
      "longitude": "-90.12325356790173"
    }
  },
  {
    "service_request": "2026-1293551",
    "request_type": "Trash/Recycling",
    "request_reason": "Request a Large Item Pick Up",
    "date_created": "2026-06-23T19:44:36.000",
    "date_modified": "2026-06-23T19:44:39.000",
    "request_status": "Pending",
    "responsible_agency": "Department of Sanitation",
    "final_address": "7072 E Tamaron Blvd",
    "address_councildis": "E",
    "status": "Assigned to Contractor",
    "contractor": "Waste Pro",
    "rowid": "1293551",
    "final_x": "3718729.58245",
    "final_y": "568605.228069",
    "longitude": "-89.94909953457669",
    "latitude": "30.056282625632136",
    "geocoded_column": {
      "latitude": "30.056282625632136",
      "longitude": "-89.94909953457669"
    }
  },
  {
    "service_request": "2026-1293550",
    "request_type": "Utility Poles",
    "request_reason": "Utility Pole Leaning",
    "date_created": "2026-06-23T19:42:20.000",
    "date_modified": "2026-06-23T19:42:24.000",
    "request_status": "Pending",
    "responsible_agency": "Utility Company Collective",
    "final_address": "5979 Argonne Blvd",
    "address_councildis": "A",
    "status": "Pending",
    "rowid": "1293550",
    "final_x": "3670205.19316",
    "final_y": "547067.167761",
    "longitude": "-90.1032083142158",
    "latitude": "29.99858323808711",
    "geocoded_column": {
      "latitude": "29.99858323808711",
      "longitude": "-90.1032083142158"
    }
  },
  {
    "service_request": "2026-1293549",
    "request_type": "Trash/Recycling",
    "request_reason": "Order Recycling Cart",
    "date_created": "2026-06-23T19:41:22.000",
    "date_modified": "2026-06-23T19:41:28.000",
    "request_status": "Pending",
    "responsible_agency": "Department of Sanitation",
    "final_address": "947 Hagan Ave, New Orleans, Louisiana, 70119",
    "status": "Pending",
    "rowid": "1293549",
    "longitude": "0.0",
    "latitude": "0.0",
    "geocoded_column": {
      "latitude": "0.0",
      "longitude": "0.0"
    }
  },
  {
    "service_request": "2026-1293548",
    "request_type": "Trash/Recycling",
    "request_reason": "Repair Trash Cart",
    "date_created": "2026-06-23T19:39:25.000",
    "date_modified": "2026-06-23T19:39:26.000",
    "request_status": "Pending",
    "responsible_agency": "Department of Sanitation",
    "final_address": "947 Hagan Ave, New Orleans, Louisiana, 70119",
    "status": "Assigned to Contractor",
    "rowid": "1293548",
    "longitude": "0.0",
    "latitude": "0.0",
    "geocoded_column": {
      "latitude": "0.0",
      "longitude": "0.0"
    }
  },
  {
    "service_request": "2026-1293547",
    "request_type": "Trash/Recycling",
    "request_reason": "Order Recycling Cart",
    "date_created": "2026-06-23T19:39:07.000",
    "date_modified": "2026-06-23T19:39:09.000",
    "request_status": "Pending",
    "responsible_agency": "Department of Sanitation",
    "final_address": "5142 Toulon St, New Orleans, Louisiana, 70129",
    "address_councildis": "E",
    "status": "Pending",
    "rowid": "1293547",
    "final_x": "3723543.84159",
    "final_y": "562038.272671",
    "longitude": "-89.93413615009774",
    "latitude": "30.03806542980204",
    "geocoded_column": {
      "latitude": "30.03806542980204",
      "longitude": "-89.93413615009774"
    }
  },
  {
    "service_request": "2026-1293545",
    "request_type": "Property Maintenance",
    "request_reason": "Property Maintenance",
    "date_created": "2026-06-23T19:36:52.000",
    "date_modified": "2026-06-23T19:36:55.000",
    "request_status": "Pending",
    "responsible_agency": "Department of Code Enforcement",
    "final_address": "8607 Apple St",
    "address_councildis": "A",
    "status": "Pending",
    "rowid": "1293545",
    "final_x": "3664004.32282",
    "final_y": "533380.843972",
    "longitude": "-90.12325356790173",
    "latitude": "29.96113201111841",
    "geocoded_column": {
      "latitude": "29.96113201111841",
      "longitude": "-90.12325356790173"
    }
  },
  {
    "service_request": "2026-1293546",
    "request_type": "Property Maintenance",
    "request_reason": "Property Maintenance",
    "date_created": "2026-06-23T19:36:52.000",
    "date_modified": "2026-06-23T19:36:54.000",
    "request_status": "Pending",
    "responsible_agency": "Department of Code Enforcement",
    "final_address": "8607 Apple St",
    "address_councildis": "A",
    "status": "Pending",
    "rowid": "1293546",
    "final_x": "3664004.32282",
    "final_y": "533380.843972",
    "longitude": "-90.12325356790173",
    "latitude": "29.96113201111841",
    "geocoded_column": {
      "latitude": "29.96113201111841",
      "longitude": "-90.12325356790173"
    }
  },
  {
    "service_request": "2026-1293544",
    "request_type": "Roads and Streets",
    "request_reason": "Pothole",
    "date_created": "2026-06-23T19:27:41.000",
    "date_modified": "2026-06-23T19:27:43.000",
    "request_status": "Pending",
    "responsible_agency": "Department of Public Works",
    "final_address": "1330 Pine St",
    "address_councildis": "A",
    "status": "Pending",
    "rowid": "1293544",
    "final_x": "3664227.41274",
    "final_y": "527194.620159",
    "longitude": "-90.12275547416247",
    "latitude": "29.944115419040454",
    "geocoded_column": {
      "latitude": "29.944115419040454",
      "longitude": "-90.12275547416247"
    }
  },
  {
    "service_request": "2026-1293543",
    "request_type": "Trash/Recycling",
    "request_reason": "Replace Recycling Cart",
    "date_created": "2026-06-23T19:23:26.000",
    "date_modified": "2026-06-23T19:23:27.000",
    "request_status": "Pending",
    "responsible_agency": "Department of Sanitation",
    "final_address": "3651 Post Oak Ave",
    "address_councildis": "C",
    "status": "Pending",
    "rowid": "1293543",
    "final_x": "3703891.78814",
    "final_y": "514395.539891",
    "longitude": "-89.99799580533414",
    "latitude": "29.90771053669274",
    "geocoded_column": {
      "latitude": "29.90771053669274",
      "longitude": "-89.99799580533414"
    }
  },
  {
    "service_request": "2026-1293542",
    "request_type": "Trash/Recycling",
    "request_reason": "Return Trash Cart",
    "date_created": "2026-06-23T19:21:16.000",
    "date_modified": "2026-06-23T19:21:18.000",
    "request_status": "Pending",
    "responsible_agency": "Department of Sanitation",
    "final_address": "214 Crystal St",
    "address_councildis": "D",
    "status": "Assigned to Contractor",
    "contractor": "IV Waste",
    "rowid": "1293542",
    "final_x": "3667242.30273",
    "final_y": "556035.205209",
    "longitude": "-90.11226622933913",
    "latitude": "30.023329331748187",
    "geocoded_column": {
      "latitude": "30.023329331748187",
      "longitude": "-90.11226622933913"
    }
  },
  {
    "service_request": "2026-1293541",
    "request_type": "Trash/Recycling",
    "request_reason": "Replace Trash Cart",
    "date_created": "2026-06-23T19:17:07.000",
    "date_modified": "2026-06-23T19:17:10.000",
    "request_status": "Pending",
    "responsible_agency": "Department of Sanitation",
    "final_address": "5724 Memphis St",
    "address_councildis": "A",
    "status": "Assigned to Contractor",
    "contractor": "IV Waste",
    "rowid": "1293541",
    "final_x": "3668985.52282",
    "final_y": "545568.29704",
    "longitude": "-90.10711194028991",
    "latitude": "29.994497808145802",
    "geocoded_column": {
      "latitude": "29.994497808145802",
      "longitude": "-90.10711194028991"
    }
  },
  {
    "service_request": "2026-1293540",
    "request_type": "Trash/Recycling",
    "request_reason": "Replace Trash Cart",
    "date_created": "2026-06-23T19:09:10.000",
    "date_modified": "2026-06-23T19:09:11.000",
    "request_status": "Pending",
    "responsible_agency": "Department of Sanitation",
    "final_address": "2044 L. B. Landry Ave",
    "address_councildis": "C",
    "status": "Assigned to Contractor",
    "contractor": "Richards Disposal",
    "rowid": "1293540",
    "final_x": "3690039.19977",
    "final_y": "522975.790523",
    "longitude": "-90.04141088311829",
    "latitude": "29.931739993918352",
    "geocoded_column": {
      "latitude": "29.931739993918352",
      "longitude": "-90.04141088311829"
    }
  },
  {
    "service_request": "2026-1293539",
    "request_type": "Trash/Recycling",
    "request_reason": "Order Second Trash Cart",
    "date_created": "2026-06-23T19:08:52.000",
    "date_modified": "2026-06-23T19:08:53.000",
    "request_status": "Pending",
    "responsible_agency": "Department of Sanitation",
    "final_address": "5724 Memphis St",
    "address_councildis": "A",
    "status": "Assigned to Contractor",
    "contractor": "IV Waste",
    "rowid": "1293539",
    "final_x": "3668985.52282",
    "final_y": "545568.29704",
    "longitude": "-90.10711194028991",
    "latitude": "29.994497808145802",
    "geocoded_column": {
      "latitude": "29.994497808145802",
      "longitude": "-90.10711194028991"
    }
  },
  {
    "service_request": "2026-1293538",
    "request_type": "Trash/Recycling",
    "request_reason": "MIssed Recycling Pick-Up",
    "date_created": "2026-06-23T19:06:25.000",
    "date_modified": "2026-06-23T19:06:28.000",
    "request_status": "Pending",
    "responsible_agency": "Department of Sanitation",
    "final_address": "7317 Canal Blvd",
    "address_councildis": "D",
    "status": "Assigned to Contractor",
    "contractor": "IV Waste",
    "rowid": "1293538",
    "final_x": "3669401.40929",
    "final_y": "555706.839321",
    "longitude": "-90.10545500948639",
    "latitude": "30.02236300076703",
    "geocoded_column": {
      "latitude": "30.02236300076703",
      "longitude": "-90.10545500948639"
    }
  },
  {
    "service_request": "2026-1293537",
    "request_type": "Trash/Recycling",
    "request_reason": "Repair Trash Cart",
    "date_created": "2026-06-23T19:06:10.000",
    "date_modified": "2026-06-23T19:06:12.000",
    "request_status": "Pending",
    "responsible_agency": "Department of Sanitation",
    "final_address": "947 Hagan St",
    "address_councildis": "A",
    "status": "Assigned to Contractor",
    "contractor": "IV Waste",
    "rowid": "1293537",
    "final_x": "3675334.2052",
    "final_y": "539403.984074",
    "longitude": "-90.08726898071527",
    "latitude": "29.977359740214812",
    "geocoded_column": {
      "latitude": "29.977359740214812",
      "longitude": "-90.08726898071527"
    }
  },
  {
    "service_request": "2026-1293536",
    "request_type": "Trash/Recycling",
    "request_reason": "Request a Large Item Pick Up",
    "date_created": "2026-06-23T18:58:57.000",
    "date_modified": "2026-06-23T18:58:59.000",
    "request_status": "Pending",
    "responsible_agency": "Department of Sanitation",
    "final_address": "5646 Hawthorne Pl",
    "address_councildis": "A",
    "status": "Assigned to Contractor",
    "contractor": "IV Waste",
    "rowid": "1293536",
    "final_x": "3667808.55405",
    "final_y": "545015.413839",
    "longitude": "-90.11084848265003",
    "latitude": "29.993012149294913",
    "geocoded_column": {
      "latitude": "29.993012149294913",
      "longitude": "-90.11084848265003"
    }
  },
  {
    "service_request": "2026-1293535",
    "request_type": "Trash/Recycling",
    "request_reason": "Order Trash Cart",
    "date_created": "2026-06-23T18:56:34.000",
    "date_modified": "2026-06-23T18:56:36.000",
    "request_status": "Pending",
    "responsible_agency": "Department of Sanitation",
    "final_address": "4172 Iberville St",
    "address_councildis": "A",
    "status": "Assigned to Contractor",
    "contractor": "IV Waste",
    "rowid": "1293535",
    "final_x": "3670828.75335",
    "final_y": "538960.120202",
    "longitude": "-90.10151379919144",
    "latitude": "29.9762732159431",
    "geocoded_column": {
      "latitude": "29.9762732159431",
      "longitude": "-90.10151379919144"
    }
  },
  {
    "service_request": "2026-1293534",
    "request_type": "Road Striping",
    "request_reason": "Lane Striping or other Pavement Markings",
    "date_created": "2026-06-23T18:54:15.000",
    "date_modified": "2026-06-23T18:54:16.000",
    "request_status": "Pending",
    "responsible_agency": "Department of Public Works",
    "final_address": "4800 Canal St",
    "address_councildis": "A",
    "status": "Pending",
    "rowid": "1293534",
    "final_x": "3668726.27777",
    "final_y": "540033.165771",
    "longitude": "-90.10811782560283",
    "latitude": "29.979285710546975",
    "geocoded_column": {
      "latitude": "29.979285710546975",
      "longitude": "-90.10811782560283"
    }
  },
  {
    "service_request": "2026-1293533",
    "request_type": "Roads and Streets",
    "request_reason": "Pothole",
    "date_created": "2026-06-23T18:51:31.000",
    "date_modified": "2026-06-23T18:51:33.000",
    "request_status": "Pending",
    "responsible_agency": "Department of Public Works",
    "final_address": "4706 Cleveland Ave",
    "address_councildis": "A",
    "status": "Pending",
    "rowid": "1293533",
    "final_x": "3668784.62881",
    "final_y": "539524.309578",
    "longitude": "-90.10795071688476",
    "latitude": "29.977884812119623",
    "geocoded_column": {
      "latitude": "29.977884812119623",
      "longitude": "-90.10795071688476"
    }
  },
  {
    "service_request": "2026-1293532",
    "request_type": "Roads and Streets",
    "request_reason": "Pothole",
    "date_created": "2026-06-23T18:47:21.000",
    "date_modified": "2026-06-23T18:47:23.000",
    "request_status": "Pending",
    "responsible_agency": "Department of Public Works",
    "final_address": "4401 Paris Ave",
    "address_councildis": "D",
    "status": "Pending",
    "rowid": "1293532",
    "final_x": "3679554.62965",
    "final_y": "548587.339155",
    "longitude": "-90.07362061677966",
    "latitude": "30.00248386955318",
    "geocoded_column": {
      "latitude": "30.00248386955318",
      "longitude": "-90.07362061677966"
    }
  },
  {
    "service_request": "2026-1293531",
    "request_type": "Property Maintenance",
    "request_reason": "Property Maintenance",
    "date_created": "2026-06-23T18:43:44.000",
    "date_modified": "2026-06-23T18:43:45.000",
    "request_status": "Pending",
    "responsible_agency": "Department of Code Enforcement",
    "final_address": "5601 Edenboro Rd",
    "address_councildis": "E",
    "status": "Pending",
    "rowid": "1293531",
    "final_x": "3708119.08491",
    "final_y": "558288.730076",
    "longitude": "-89.98302150877993",
    "latitude": "30.028264545096892",
    "geocoded_column": {
      "latitude": "30.028264545096892",
      "longitude": "-89.98302150877993"
    }
  },
  {
    "service_request": "2026-1293530",
    "request_type": "Trash/Recycling",
    "request_reason": "Request a Large Item Pick Up",
    "date_created": "2026-06-23T18:42:16.000",
    "date_modified": "2026-06-23T18:42:19.000",
    "request_status": "Pending",
    "responsible_agency": "Department of Sanitation",
    "final_address": "1552 Athis St",
    "address_councildis": "D",
    "status": "Assigned to Contractor",
    "contractor": "IV Waste",
    "rowid": "1293530",
    "final_x": "3678775.34229",
    "final_y": "553689.064919",
    "longitude": "-90.07590561957352",
    "latitude": "30.016535319237647",
    "geocoded_column": {
      "latitude": "30.016535319237647",
      "longitude": "-90.07590561957352"
    }
  },
  {
    "service_request": "2026-1293529",
    "request_type": "Property Maintenance",
    "request_reason": "Property Maintenance",
    "date_created": "2026-06-23T18:40:19.000",
    "date_modified": "2026-06-23T18:40:24.000",
    "request_status": "Pending",
    "responsible_agency": "Department of Code Enforcement",
    "final_address": "8600 Lake Forest Blvd",
    "address_councildis": "E",
    "status": "Pending",
    "rowid": "1293529",
    "final_x": "3706233.01867",
    "final_y": "557882.382491",
    "longitude": "-89.98899638685525",
    "latitude": "30.027208226926486",
    "geocoded_column": {
      "latitude": "30.027208226926486",
      "longitude": "-89.98899638685525"
    }
  },
  {
    "service_request": "2026-1293528",
    "request_type": "General Services",
    "request_reason": "General Service Request",
    "date_created": "2026-06-23T18:36:52.000",
    "date_modified": "2026-06-23T18:36:54.000",
    "request_status": "Pending",
    "responsible_agency": "Orleans Parish Communication District",
    "final_address": "100 Aurora Dr",
    "address_councildis": "C",
    "status": "Pending",
    "rowid": "1293528",
    "final_x": "3706942.45419",
    "final_y": "521299.505721",
    "longitude": "-89.98811178210633",
    "latitude": "29.92659593916675",
    "geocoded_column": {
      "latitude": "29.92659593916675",
      "longitude": "-89.98811178210633"
    }
  },
  {
    "service_request": "2026-1293527",
    "request_type": "Roads and Streets",
    "request_reason": "Pothole",
    "date_created": "2026-06-23T18:31:55.000",
    "date_modified": "2026-06-23T18:31:56.000",
    "request_status": "Pending",
    "responsible_agency": "Department of Public Works",
    "final_address": "100 Woodland Pl",
    "address_councildis": "C",
    "status": "Pending",
    "rowid": "1293527",
    "final_x": "3705905.60177",
    "final_y": "521960.669562",
    "longitude": "-89.99136036996275",
    "latitude": "29.928447338614497",
    "geocoded_column": {
      "latitude": "29.928447338614497",
      "longitude": "-89.99136036996275"
    }
  },
  {
    "service_request": "2026-1293526",
    "request_type": "Trash/Recycling",
    "request_reason": "Repair Recycling Cart",
    "date_created": "2026-06-23T18:29:38.000",
    "date_modified": "2026-06-23T18:29:40.000",
    "request_status": "Pending",
    "responsible_agency": "Department of Sanitation",
    "final_address": "4718 Annette St",
    "address_councildis": "D",
    "status": "Pending",
    "rowid": "1293526",
    "final_x": "3681963.0566",
    "final_y": "549942.271636",
    "longitude": "-90.06596475186177",
    "latitude": "30.00613642303206",
    "geocoded_column": {
      "latitude": "30.00613642303206",
      "longitude": "-90.06596475186177"
    }
  },
  {
    "service_request": "2026-1293525",
    "request_type": "Drainage",
    "request_reason": "Catch Basin Not Draining",
    "date_created": "2026-06-23T18:28:09.000",
    "date_modified": "2026-06-23T18:28:13.000",
    "request_status": "Pending",
    "responsible_agency": "Sewerage & Water Board",
    "final_address": "100 BLK Woodland Pl",
    "address_councildis": "C",
    "status": "Pending",
    "rowid": "1293525",
    "final_x": "3705744.91295",
    "final_y": "521779.496583",
    "longitude": "-89.99187432131302",
    "latitude": "29.9279543500221",
    "geocoded_column": {
      "latitude": "29.9279543500221",
      "longitude": "-89.99187432131302"
    }
  },
  {
    "service_request": "2026-1293524",
    "request_type": "Utility Poles",
    "request_reason": "Wires Sagging/Hanging Low",
    "date_created": "2026-06-23T18:14:04.000",
    "date_modified": "2026-06-23T18:14:07.000",
    "request_status": "Pending",
    "responsible_agency": "Utility Company Collective",
    "final_address": "1737 Third St",
    "address_councildis": "B",
    "status": "Pending",
    "rowid": "1293524",
    "final_x": "3676084.26171",
    "final_y": "523474.841787",
    "longitude": "-90.08544795041675",
    "latitude": "29.933537480000762",
    "geocoded_column": {
      "latitude": "29.933537480000762",
      "longitude": "-90.08544795041675"
    }
  },
  {
    "service_request": "2026-1293523",
    "request_type": "Trash/Recycling",
    "request_reason": "Request a Large Item Pick Up",
    "date_created": "2026-06-23T18:10:37.000",
    "date_modified": "2026-06-23T18:10:38.000",
    "request_status": "Pending",
    "responsible_agency": "Department of Sanitation",
    "final_address": "5520 S Tonti St",
    "address_councildis": "B",
    "status": "Assigned to Contractor",
    "contractor": "IV Waste",
    "rowid": "1293523",
    "final_x": "3668232.66369",
    "final_y": "527989.001087",
    "longitude": "-90.1100829593664",
    "latitude": "29.9461827479449",
    "geocoded_column": {
      "latitude": "29.9461827479449",
      "longitude": "-90.1100829593664"
    }
  },
  {
    "service_request": "2026-1293522",
    "request_type": "Parks & Grass Service",
    "request_reason": "Park Maintenance/Clean Up",
    "date_created": "2026-06-23T18:00:21.000",
    "date_modified": "2026-06-23T18:00:23.000",
    "request_status": "Pending",
    "responsible_agency": "Department of Parks & Parkways",
    "final_address": "6201 Wadsworth Dr",
    "address_councildis": "D",
    "status": "Pending",
    "rowid": "1293522",
    "final_x": "3681675.46824",
    "final_y": "555682.103833",
    "longitude": "-90.06667285708541",
    "latitude": "30.021927620559083",
    "geocoded_column": {
      "latitude": "30.021927620559083",
      "longitude": "-90.06667285708541"
    }
  },
  {
    "service_request": "2026-1293521",
    "request_type": "Trash/Recycling",
    "request_reason": "Request a Large Item Pick Up",
    "date_created": "2026-06-23T17:54:31.000",
    "date_modified": "2026-06-23T17:54:39.000",
    "request_status": "Pending",
    "responsible_agency": "Department of Sanitation",
    "final_address": "2200 Charbonnet St",
    "address_councildis": "E",
    "status": "Assigned to Contractor",
    "contractor": "Waste Pro",
    "rowid": "1293521",
    "final_x": "3699659.36304",
    "final_y": "537787.7458",
    "longitude": "-90.01050147225612",
    "latitude": "29.972165886684184",
    "geocoded_column": {
      "latitude": "29.972165886684184",
      "longitude": "-90.01050147225612"
    }
  },
  {
    "service_request": "2026-1293520",
    "request_type": "General Services",
    "request_reason": "General Service Request",
    "date_created": "2026-06-23T17:47:13.000",
    "date_modified": "2026-06-23T17:47:14.000",
    "request_status": "Pending",
    "responsible_agency": "Orleans Parish Communication District",
    "final_address": "1018 Upperline St",
    "address_councildis": "B",
    "status": "Pending",
    "rowid": "1293520",
    "final_x": "3668975.18145",
    "final_y": "519081.796087",
    "longitude": "-90.10803929954572",
    "latitude": "29.921668973901316",
    "geocoded_column": {
      "latitude": "29.921668973901316",
      "longitude": "-90.10803929954572"
    }
  },
  {
    "service_request": "2026-1293519",
    "request_type": "Trash/Recycling",
    "request_reason": "Return Recycling Cart",
    "date_created": "2026-06-23T17:39:35.000",
    "date_modified": "2026-06-23T17:39:37.000",
    "request_status": "Pending",
    "responsible_agency": "Department of Sanitation",
    "final_address": "7456 Hurst St",
    "address_councildis": "A",
    "status": "Pending",
    "rowid": "1293519",
    "final_x": "3661313.29114",
    "final_y": "524177.391804",
    "longitude": "-90.13205609176296",
    "latitude": "29.935903331096814",
    "geocoded_column": {
      "latitude": "29.935903331096814",
      "longitude": "-90.13205609176296"
    }
  },
  {
    "service_request": "2026-1293518",
    "request_type": "Roads and Streets",
    "request_reason": "Street Subsidence (Sinking)",
    "date_created": "2026-06-23T17:28:59.000",
    "date_modified": "2026-06-23T17:29:01.000",
    "request_status": "Pending",
    "responsible_agency": "Sewerage & Water Board",
    "final_address": "5310 Bellaire Dr",
    "address_councildis": "A",
    "status": "Pending",
    "rowid": "1293518",
    "final_x": "3663918.25767",
    "final_y": "543191.585293",
    "longitude": "-90.12319815774373",
    "latitude": "29.988110789554327",
    "geocoded_column": {
      "latitude": "29.988110789554327",
      "longitude": "-90.12319815774373"
    }
  },
  {
    "service_request": "2026-1293517",
    "request_type": "Roads and Streets",
    "request_reason": "Push-up/Pavement Expansion",
    "date_created": "2026-06-23T17:25:42.000",
    "date_modified": "2026-06-23T17:25:44.000",
    "request_status": "Pending",
    "responsible_agency": "Department of Public Works",
    "final_address": "118 City Park Ave",
    "address_councildis": "A",
    "status": "Pending",
    "rowid": "1293517",
    "final_x": "3667651.43245",
    "final_y": "540854.232907",
    "longitude": "-90.1114849682831",
    "latitude": "29.98157492613766",
    "geocoded_column": {
      "latitude": "29.98157492613766",
      "longitude": "-90.1114849682831"
    }
  },
  {
    "service_request": "2026-1293516",
    "request_type": "Parks & Grass Service",
    "request_reason": "Request Grass Cutting Service (City Owned Property)",
    "date_created": "2026-06-23T17:24:33.000",
    "date_modified": "2026-06-23T17:24:35.000",
    "request_status": "Pending",
    "responsible_agency": "Department of Parks & Parkways",
    "final_address": "4510 S Galvez St",
    "address_councildis": "B",
    "status": "Pending",
    "rowid": "1293516",
    "final_x": "3669688.28948",
    "final_y": "527371.816703",
    "longitude": "-90.10550791402946",
    "latitude": "29.944442882632234",
    "geocoded_column": {
      "latitude": "29.944442882632234",
      "longitude": "-90.10550791402946"
    }
  },
  {
    "service_request": "2026-1293515",
    "request_type": "Roads and Streets",
    "request_reason": "Pothole",
    "date_created": "2026-06-23T17:22:21.000",
    "date_modified": "2026-06-23T17:22:23.000",
    "request_status": "Pending",
    "responsible_agency": "Department of Public Works",
    "final_address": "124 City Park Ave",
    "address_councildis": "A",
    "status": "Pending",
    "rowid": "1293515",
    "final_x": "3667708.96186",
    "final_y": "540840.634635",
    "longitude": "-90.1113037210702",
    "latitude": "29.981535848569045",
    "geocoded_column": {
      "latitude": "29.981535848569045",
      "longitude": "-90.1113037210702"
    }
  },
  {
    "service_request": "2026-1293514",
    "request_type": "Trash/Recycling",
    "request_reason": "Order Second Trash Cart",
    "date_created": "2026-06-23T17:21:11.000",
    "date_modified": "2026-06-23T17:21:13.000",
    "request_status": "Pending",
    "responsible_agency": "Department of Sanitation",
    "final_address": "4601 Read Blvd",
    "address_councildis": "E",
    "status": "Assigned to Contractor",
    "contractor": "Waste Pro",
    "rowid": "1293514",
    "final_x": "3712965.27678",
    "final_y": "555323.236121",
    "longitude": "-89.96781964918311",
    "latitude": "30.019952686432354",
    "geocoded_column": {
      "latitude": "30.019952686432354",
      "longitude": "-89.96781964918311"
    }
  },
  {
    "service_request": "2026-1293513",
    "request_type": "Trash/Recycling",
    "request_reason": "Repair Recycling Cart",
    "date_created": "2026-06-23T17:16:20.000",
    "date_modified": "2026-06-23T17:16:37.000",
    "request_status": "Pending",
    "responsible_agency": "Department of Sanitation",
    "final_address": "7744 St Charles Ave",
    "address_councildis": "A",
    "status": "Pending",
    "rowid": "1293513",
    "final_x": "3661392.67366",
    "final_y": "525997.454014",
    "longitude": "-90.13174522285735",
    "latitude": "29.940905637962846",
    "geocoded_column": {
      "latitude": "29.940905637962846",
      "longitude": "-90.13174522285735"
    }
  },
  {
    "service_request": "2026-1293512",
    "request_type": "Trash/Recycling",
    "request_reason": "Order Trash Cart",
    "date_created": "2026-06-23T17:00:20.000",
    "date_modified": "2026-06-23T17:00:22.000",
    "request_status": "Pending",
    "responsible_agency": "Department of Sanitation",
    "final_address": "0 BLK Agriculture Pl",
    "address_councildis": "D",
    "status": "Assigned to Contractor",
    "contractor": "IV Waste",
    "rowid": "1293512",
    "final_x": "3689891.40135",
    "final_y": "543419.290574",
    "longitude": "-90.04114966127275",
    "latitude": "29.987957086684915",
    "geocoded_column": {
      "latitude": "29.987957086684915",
      "longitude": "-90.04114966127275"
    }
  },
  {
    "service_request": "2026-1293511",
    "request_type": "Roads and Streets",
    "request_reason": "Sidewalk Damaged or Missing",
    "date_created": "2026-06-23T16:58:40.000",
    "date_modified": "2026-06-23T16:59:04.000",
    "request_status": "Pending",
    "responsible_agency": "Department of Public Works",
    "final_address": "5230 Macarthur Blvd",
    "address_councildis": "C",
    "status": "Pending",
    "rowid": "1293511",
    "final_x": "3703475.4762",
    "final_y": "519914.351032",
    "longitude": "-89.99910691235067",
    "latitude": "29.922898706793884",
    "geocoded_column": {
      "latitude": "29.922898706793884",
      "longitude": "-89.99910691235067"
    }
  },
  {
    "service_request": "2026-1293510",
    "request_type": "Trash/Recycling",
    "request_reason": "Request a Large Item Pick Up",
    "date_created": "2026-06-23T16:57:19.000",
    "date_modified": "2026-06-23T16:57:22.000",
    "request_status": "Pending",
    "responsible_agency": "Department of Sanitation",
    "final_address": "5230 Macarthur Blvd",
    "address_councildis": "C",
    "status": "Assigned to Contractor",
    "contractor": "Richards Disposal",
    "rowid": "1293510",
    "final_x": "3703475.4762",
    "final_y": "519914.351032",
    "longitude": "-89.99910691235067",
    "latitude": "29.922898706793884",
    "geocoded_column": {
      "latitude": "29.922898706793884",
      "longitude": "-89.99910691235067"
    }
  },
  {
    "service_request": "2026-1293509",
    "request_type": "Trash/Recycling",
    "request_reason": "Request a Large Item Pick Up",
    "date_created": "2026-06-23T16:56:46.000",
    "date_modified": "2026-06-23T16:56:48.000",
    "request_status": "Pending",
    "responsible_agency": "Department of Sanitation",
    "final_address": "4783 Lancelot Dr",
    "address_councildis": "E",
    "status": "Assigned to Contractor",
    "contractor": "Waste Pro",
    "rowid": "1293509",
    "final_x": "3707491.54142",
    "final_y": "555797.698329",
    "longitude": "-89.98509711235381",
    "latitude": "30.02143549900781",
    "geocoded_column": {
      "latitude": "30.02143549900781",
      "longitude": "-89.98509711235381"
    }
  },
  {
    "service_request": "2026-1293507",
    "request_type": "Trash/Recycling",
    "request_reason": "Request a Large Item Pick Up",
    "date_created": "2026-06-23T16:54:56.000",
    "date_modified": "2026-06-23T16:54:58.000",
    "request_status": "Pending",
    "responsible_agency": "Department of Sanitation",
    "final_address": "10917 Chaucer St",
    "address_councildis": "E",
    "status": "Assigned to Contractor",
    "contractor": "Waste Pro",
    "rowid": "1293507",
    "final_x": "3712665.00344",
    "final_y": "561865.298143",
    "longitude": "-89.96852219755374",
    "latitude": "30.03795059793073",
    "geocoded_column": {
      "latitude": "30.03795059793073",
      "longitude": "-89.96852219755374"
    }
  },
  {
    "service_request": "2026-1293506",
    "request_type": "Trash/Recycling",
    "request_reason": "Illegal Dumping",
    "date_created": "2026-06-23T16:52:49.000",
    "date_modified": "2026-06-23T16:52:51.000",
    "request_status": "Pending",
    "responsible_agency": "Department of Sanitation",
    "final_address": "1841 Almonaster Ave",
    "address_councildis": "D",
    "status": "Pending",
    "rowid": "1293506",
    "final_x": "3687877.38985",
    "final_y": "539270.357962",
    "longitude": "-90.04765828073785",
    "latitude": "29.976611292295242",
    "geocoded_column": {
      "latitude": "29.976611292295242",
      "longitude": "-90.04765828073785"
    }
  },
  {
    "service_request": "2026-1293505",
    "request_type": "Safety & Permits",
    "request_reason": "Zoning Enforcement",
    "date_created": "2026-06-23T16:49:24.000",
    "date_modified": "2026-06-23T16:49:26.000",
    "request_status": "Pending",
    "responsible_agency": "Safety and Permits",
    "final_address": "1915 Octavia St",
    "address_councildis": "A",
    "status": "Pending",
    "rowid": "1293505",
    "final_x": "3667375.05402",
    "final_y": "522837.155451",
    "longitude": "-90.11296398053096",
    "latitude": "29.932041974502514",
    "geocoded_column": {
      "latitude": "29.932041974502514",
      "longitude": "-90.11296398053096"
    }
  },
  {
    "service_request": "2026-1293504",
    "request_type": "Trash/Recycling",
    "request_reason": "Illegal Dumping",
    "date_created": "2026-06-23T16:47:07.000",
    "date_modified": "2026-06-23T16:47:09.000",
    "request_status": "Pending",
    "responsible_agency": "Department of Sanitation",
    "final_address": "2628 N Roman St",
    "address_councildis": "D",
    "status": "Pending",
    "rowid": "1293504",
    "final_x": "3688034.08323",
    "final_y": "538989.620874",
    "longitude": "-90.04717334842266",
    "latitude": "29.975834529073385",
    "geocoded_column": {
      "latitude": "29.975834529073385",
      "longitude": "-90.04717334842266"
    }
  },
  {
    "service_request": "2026-1293503",
    "request_type": "Trash/Recycling",
    "request_reason": "Request a Large Item Pick Up",
    "date_created": "2026-06-23T16:45:36.000",
    "date_modified": "2026-06-23T16:45:38.000",
    "request_status": "Pending",
    "responsible_agency": "Department of Sanitation",
    "final_address": "12940 Chanelle Ct",
    "address_councildis": "E",
    "status": "Assigned to Contractor",
    "contractor": "Waste Pro",
    "rowid": "1293503",
    "final_x": "3717045.10213",
    "final_y": "567647.5553",
    "longitude": "-89.95446025664477",
    "latitude": "30.053705265808734",
    "geocoded_column": {
      "latitude": "30.053705265808734",
      "longitude": "-89.95446025664477"
    }
  },
  {
    "service_request": "2026-1293502",
    "request_type": "Trash/Recycling",
    "request_reason": "Request a Large Item Pick Up",
    "date_created": "2026-06-23T16:45:02.000",
    "date_modified": "2026-06-23T16:45:06.000",
    "request_status": "Pending",
    "responsible_agency": "Department of Sanitation",
    "final_address": "7701 Duke Ct",
    "address_councildis": "E",
    "status": "Assigned to Contractor",
    "contractor": "Waste Pro",
    "rowid": "1293502",
    "final_x": "3700275.43178",
    "final_y": "560836.67363",
    "longitude": "-90.00771370583345",
    "latitude": "30.035522228191482",
    "geocoded_column": {
      "latitude": "30.035522228191482",
      "longitude": "-90.00771370583345"
    }
  },
  {
    "service_request": "2026-1293501",
    "request_type": "Trash/Recycling",
    "request_reason": "Request a Large Item Pick Up",
    "date_created": "2026-06-23T16:36:50.000",
    "date_modified": "2026-06-23T16:36:52.000",
    "request_status": "Pending",
    "responsible_agency": "Department of Sanitation",
    "final_address": "5818 St Bernard Ave",
    "address_councildis": "D",
    "status": "Assigned to Contractor",
    "contractor": "IV Waste",
    "rowid": "1293501",
    "final_x": "3676753.58702",
    "final_y": "553851.554327",
    "longitude": "-90.08228790121657",
    "latitude": "30.017042956287135",
    "geocoded_column": {
      "latitude": "30.017042956287135",
      "longitude": "-90.08228790121657"
    }
  },
  {
    "service_request": "2026-1293500",
    "request_type": "Street and Traffic Signs",
    "request_reason": "Traffic or Parking Sign Damaged or Missing",
    "date_created": "2026-06-23T16:35:42.000",
    "date_modified": "2026-06-23T16:35:44.000",
    "request_status": "Pending",
    "responsible_agency": "Department of Public Works",
    "final_address": "7431 Ebbtide Dr",
    "address_councildis": "E",
    "status": "Pending",
    "rowid": "1293500",
    "final_x": "3702464.10647",
    "final_y": "560981.417054",
    "longitude": "-90.00079184355705",
    "latitude": "30.035850412017517",
    "geocoded_column": {
      "latitude": "30.035850412017517",
      "longitude": "-90.00079184355705"
    }
  },
  {
    "service_request": "2026-1293499",
    "request_type": "Trash/Recycling",
    "request_reason": "Repair Trash Cart",
    "date_created": "2026-06-23T16:28:37.000",
    "date_modified": "2026-06-23T16:28:38.000",
    "request_status": "Pending",
    "responsible_agency": "Department of Sanitation",
    "final_address": "1032 St Ferdinand St",
    "address_councildis": "C",
    "status": "Assigned to Contractor",
    "contractor": "IV Waste",
    "rowid": "1293499",
    "final_x": "3687647.83164",
    "final_y": "536158.780423",
    "longitude": "-90.04849348886256",
    "latitude": "29.968062626100245",
    "geocoded_column": {
      "latitude": "29.968062626100245",
      "longitude": "-90.04849348886256"
    }
  },
  {
    "service_request": "2026-1293498",
    "request_type": "Trash/Recycling",
    "request_reason": "Request a Large Item Pick Up",
    "date_created": "2026-06-23T16:26:22.000",
    "date_modified": "2026-06-23T16:26:25.000",
    "request_status": "Pending",
    "responsible_agency": "Department of Sanitation",
    "final_address": "4222 N Claiborne Ave",
    "address_councildis": "D",
    "status": "Assigned to Contractor",
    "contractor": "IV Waste",
    "rowid": "1293498",
    "final_x": "3693036.80003",
    "final_y": "536925.34964",
    "longitude": "-90.03144749128171",
    "latitude": "29.970003166415367",
    "geocoded_column": {
      "latitude": "29.970003166415367",
      "longitude": "-90.03144749128171"
    }
  },
  {
    "service_request": "2026-1293497",
    "request_type": "Trash/Recycling",
    "request_reason": "Request a Large Item Pick Up",
    "date_created": "2026-06-23T16:20:01.000",
    "date_modified": "2026-06-23T16:20:03.000",
    "request_status": "Pending",
    "responsible_agency": "Department of Sanitation",
    "final_address": "1807 Forstall St",
    "address_councildis": "E",
    "status": "Assigned to Contractor",
    "contractor": "Waste Pro",
    "rowid": "1293497",
    "final_x": "3697044.30755",
    "final_y": "536875.259144",
    "longitude": "-90.01879327042298",
    "latitude": "29.96973962790549",
    "geocoded_column": {
      "latitude": "29.96973962790549",
      "longitude": "-90.01879327042298"
    }
  },
  {
    "service_request": "2026-1293496",
    "request_type": "Alley Ways",
    "request_reason": "Alley Way Issues",
    "date_created": "2026-06-23T16:18:49.000",
    "date_modified": "2026-06-23T16:18:50.000",
    "request_status": "Pending",
    "responsible_agency": "Department of Public Works",
    "final_address": "300 Baronne St",
    "address_councildis": "B",
    "status": "Pending",
    "rowid": "1293496",
    "final_x": "3680167.87528",
    "final_y": "530338.80941",
    "longitude": "-90.07231773726018",
    "latitude": "29.95228818643098",
    "geocoded_column": {
      "latitude": "29.95228818643098",
      "longitude": "-90.07231773726018"
    }
  },
  {
    "service_request": "2026-1293495",
    "request_type": "Trash/Recycling",
    "request_reason": "Request a Large Item Pick Up",
    "date_created": "2026-06-23T16:17:38.000",
    "date_modified": "2026-06-23T16:17:39.000",
    "request_status": "Pending",
    "responsible_agency": "Department of Sanitation",
    "final_address": "2317 Urquhart St",
    "address_councildis": "C",
    "status": "Assigned to Contractor",
    "contractor": "IV Waste",
    "rowid": "1293495",
    "final_x": "3685866.44482",
    "final_y": "537147.104776",
    "longitude": "-90.05408431837888",
    "latitude": "29.97083497760368",
    "geocoded_column": {
      "latitude": "29.97083497760368",
      "longitude": "-90.05408431837888"
    }
  },
  {
    "service_request": "2026-1293494",
    "request_type": "Trash/Recycling",
    "request_reason": "Repair Trash Cart",
    "date_created": "2026-06-23T16:17:35.000",
    "date_modified": "2026-06-23T16:17:36.000",
    "request_status": "Pending",
    "responsible_agency": "Department of Sanitation",
    "final_address": "3213 Bienville Ave",
    "address_councildis": "B",
    "status": "Assigned to Contractor",
    "contractor": "IV Waste",
    "rowid": "1293494",
    "final_x": "3674281.50126",
    "final_y": "536991.072904",
    "longitude": "-90.09067642092441",
    "latitude": "29.97075649130557",
    "geocoded_column": {
      "latitude": "29.97075649130557",
      "longitude": "-90.09067642092441"
    }
  },
  {
    "service_request": "2026-1293493",
    "request_type": "Tree Service",
    "request_reason": "Street or Sidewalk Blocked",
    "date_created": "2026-06-23T16:13:28.000",
    "date_modified": "2026-06-23T16:13:31.000",
    "request_status": "Pending",
    "responsible_agency": "Department of Parks & Parkways",
    "final_address": "1000 State St",
    "address_councildis": "A",
    "status": "Pending",
    "rowid": "1293493",
    "final_x": "3664805.20288",
    "final_y": "519939.939896",
    "longitude": "-90.1211735291149",
    "latitude": "29.924150553554952",
    "geocoded_column": {
      "latitude": "29.924150553554952",
      "longitude": "-90.1211735291149"
    }
  },
  {
    "service_request": "2026-1293492",
    "request_type": "Trash/Recycling",
    "request_reason": "Request a Large Item Pick Up",
    "date_created": "2026-06-23T16:11:45.000",
    "date_modified": "2026-06-23T16:11:47.000",
    "request_status": "Pending",
    "responsible_agency": "Department of Sanitation",
    "final_address": "4228 S Miro St",
    "address_councildis": "B",
    "status": "Assigned to Contractor",
    "contractor": "IV Waste",
    "rowid": "1293492",
    "final_x": "3670686.03559",
    "final_y": "527831.576447",
    "longitude": "-90.10234213728467",
    "latitude": "29.945677636567638",
    "geocoded_column": {
      "latitude": "29.945677636567638",
      "longitude": "-90.10234213728467"
    }
  },
  {
    "service_request": "2026-1293491",
    "request_type": "Trash/Recycling",
    "request_reason": "Request a Large Item Pick Up",
    "date_created": "2026-06-23T16:10:40.000",
    "date_modified": "2026-06-23T16:10:41.000",
    "request_status": "Pending",
    "responsible_agency": "Department of Sanitation",
    "final_address": "5517 Constance St",
    "address_councildis": "A",
    "status": "Assigned to Contractor",
    "contractor": "IV Waste",
    "rowid": "1293491",
    "final_x": "3666219.75962",
    "final_y": "518592.199415",
    "longitude": "-90.11675342348964",
    "latitude": "29.92040346802632",
    "geocoded_column": {
      "latitude": "29.92040346802632",
      "longitude": "-90.11675342348964"
    }
  },
  {
    "service_request": "2026-1293490",
    "request_type": "Trash/Recycling",
    "request_reason": "Request a Large Item Pick Up",
    "date_created": "2026-06-23T16:07:27.000",
    "date_modified": "2026-06-23T16:07:30.000",
    "request_status": "Pending",
    "responsible_agency": "Department of Sanitation",
    "final_address": "10 S Oak Ridge Ct",
    "address_councildis": "E",
    "status": "Assigned to Contractor",
    "contractor": "Waste Pro",
    "rowid": "1293490",
    "final_x": "3713407.32498",
    "final_y": "567597.882276",
    "longitude": "-89.965960111648",
    "latitude": "30.053688550446058",
    "geocoded_column": {
      "latitude": "30.053688550446058",
      "longitude": "-89.965960111648"
    }
  },
  {
    "service_request": "2026-1293489",
    "request_type": "Trash/Recycling",
    "request_reason": "Request a Large Item Pick Up",
    "date_created": "2026-06-23T16:06:15.000",
    "date_modified": "2026-06-23T16:23:21.000",
    "request_status": "Pending",
    "responsible_agency": "Department of Sanitation",
    "final_address": "2120 Pauline St",
    "address_councildis": "D",
    "status": "Pending",
    "contractor": "IV Waste",
    "rowid": "1293489",
    "final_x": "3692138.00867",
    "final_y": "539389.780426",
    "longitude": "-90.0341977107159",
    "latitude": "29.976807524578017",
    "geocoded_column": {
      "latitude": "29.976807524578017",
      "longitude": "-90.0341977107159"
    }
  },
  {
    "service_request": "2026-1293488",
    "request_type": "Trash/Recycling",
    "request_reason": "Request a Large Item Pick Up",
    "date_created": "2026-06-23T16:02:49.000",
    "date_modified": "2026-06-23T16:02:51.000",
    "request_status": "Pending",
    "responsible_agency": "Department of Sanitation",
    "final_address": "5600 Rickert Dr",
    "address_councildis": "E",
    "status": "Assigned to Contractor",
    "contractor": "Waste Pro",
    "rowid": "1293488",
    "final_x": "3703103.04958",
    "final_y": "556420.424346",
    "longitude": "-89.998940533946",
    "latitude": "30.02328900684396",
    "geocoded_column": {
      "latitude": "30.02328900684396",
      "longitude": "-89.998940533946"
    }
  },
  {
    "service_request": "2026-1293487",
    "request_type": "Trash/Recycling",
    "request_reason": "Damaged Caused By Contractor",
    "date_created": "2026-06-23T15:58:13.000",
    "date_modified": "2026-06-23T15:58:14.000",
    "request_status": "Pending",
    "responsible_agency": "Department of Sanitation",
    "final_address": "4911 Magnolia St",
    "address_councildis": "B",
    "status": "Assigned to Contractor",
    "contractor": "IV Waste",
    "rowid": "1293487",
    "final_x": "3669089.46644",
    "final_y": "524648.525436",
    "longitude": "-90.10749056344149",
    "latitude": "29.936972342251075",
    "geocoded_column": {
      "latitude": "29.936972342251075",
      "longitude": "-90.10749056344149"
    }
  },
  {
    "service_request": "2026-1293486",
    "request_type": "Trash/Recycling",
    "request_reason": "Request a Large Item Pick Up",
    "date_created": "2026-06-23T15:57:23.000",
    "date_modified": "2026-06-23T17:05:44.000",
    "request_status": "Pending",
    "responsible_agency": "Department of Sanitation",
    "final_address": "2443 Gladiolus St",
    "address_councildis": "D",
    "status": "Assigned to Contractor",
    "contractor": "IV Waste",
    "rowid": "1293486",
    "final_x": "3685940.68137",
    "final_y": "547465.653265",
    "longitude": "-90.05348588701949",
    "latitude": "29.999205048601297",
    "geocoded_column": {
      "latitude": "29.999205048601297",
      "longitude": "-90.05348588701949"
    }
  },
  {
    "service_request": "2026-1293485",
    "request_type": "Trash/Recycling",
    "request_reason": "Request a Large Item Pick Up",
    "date_created": "2026-06-23T15:55:50.000",
    "date_modified": "2026-06-23T15:55:54.000",
    "request_status": "Pending",
    "responsible_agency": "Department of Sanitation",
    "final_address": "3737 Clara St",
    "address_councildis": "B",
    "status": "Assigned to Contractor",
    "contractor": "IV Waste",
    "rowid": "1293485",
    "final_x": "3671820.8939",
    "final_y": "525308.608253",
    "longitude": "-90.09884482921171",
    "latitude": "29.938706724100378",
    "geocoded_column": {
      "latitude": "29.938706724100378",
      "longitude": "-90.09884482921171"
    }
  },
  {
    "service_request": "2026-1293484",
    "request_type": "Drainage",
    "request_reason": "Catch Basin Not Draining",
    "date_created": "2026-06-23T15:53:05.000",
    "date_modified": "2026-06-23T15:53:07.000",
    "request_status": "Pending",
    "responsible_agency": "Sewerage & Water Board",
    "final_address": "7700 St Charles Ave",
    "address_councildis": "A",
    "status": "Pending",
    "rowid": "1293484",
    "final_x": "3661580.99885",
    "final_y": "525823.957821",
    "longitude": "-90.13115639045508",
    "latitude": "29.940423146864543",
    "geocoded_column": {
      "latitude": "29.940423146864543",
      "longitude": "-90.13115639045508"
    }
  },
  {
    "service_request": "2026-1293483",
    "request_type": "Trash/Recycling",
    "request_reason": "Request a Large Item Pick Up",
    "date_created": "2026-06-23T15:46:54.000",
    "date_modified": "2026-06-23T15:46:56.000",
    "request_status": "Pending",
    "responsible_agency": "Department of Sanitation",
    "final_address": "11130 N Idlewood Ct",
    "address_councildis": "E",
    "status": "Assigned to Contractor",
    "contractor": "Waste Pro",
    "rowid": "1293483",
    "final_x": "3716039.81464",
    "final_y": "560093.223261",
    "longitude": "-89.95792429316029",
    "latitude": "30.032967146083504",
    "geocoded_column": {
      "latitude": "30.032967146083504",
      "longitude": "-89.95792429316029"
    }
  },
  {
    "service_request": "2026-1293482",
    "request_type": "Trash/Recycling",
    "request_reason": "Request a Large Item Pick Up",
    "date_created": "2026-06-23T15:46:29.000",
    "date_modified": "2026-06-23T15:46:31.000",
    "request_status": "Pending",
    "responsible_agency": "Department of Sanitation",
    "final_address": "7800 BLK S Coronet Ct",
    "address_councildis": "E",
    "status": "Assigned to Contractor",
    "contractor": "Waste Pro",
    "rowid": "1293482",
    "final_x": "3703243.02786",
    "final_y": "557352.130162",
    "longitude": "-89.99846393927412",
    "latitude": "30.02584635497195",
    "geocoded_column": {
      "latitude": "30.02584635497195",
      "longitude": "-89.99846393927412"
    }
  },
  {
    "service_request": "2026-1293481",
    "request_type": "Trash/Recycling",
    "request_reason": "Illegal Dumping",
    "date_created": "2026-06-23T15:45:44.000",
    "date_modified": "2026-06-23T15:45:46.000",
    "request_status": "Pending",
    "responsible_agency": "Department of Sanitation",
    "final_address": "N TONTI ST & GALLIER ST",
    "address_councildis": "D",
    "status": "Pending",
    "rowid": "1293481",
    "final_x": "3691583.7",
    "final_y": "540155.48",
    "longitude": "-90.03592100297021",
    "latitude": "29.97893019448424",
    "geocoded_column": {
      "latitude": "29.97893019448424",
      "longitude": "-90.03592100297021"
    }
  },
  {
    "service_request": "2026-1293480",
    "request_type": "Trash/Recycling",
    "request_reason": "Request a Large Item Pick Up",
    "date_created": "2026-06-23T15:43:39.000",
    "date_modified": "2026-06-23T15:43:41.000",
    "request_status": "Pending",
    "responsible_agency": "Department of Sanitation",
    "final_address": "6037 Beechcraft St",
    "address_councildis": "D",
    "status": "Assigned to Contractor",
    "contractor": "Waste Pro",
    "rowid": "1293480",
    "final_x": "3696632.6369",
    "final_y": "553216.851671",
    "longitude": "-90.01950161269691",
    "latitude": "30.0146859944498",
    "geocoded_column": {
      "latitude": "30.0146859944498",
      "longitude": "-90.01950161269691"
    }
  },
  {
    "service_request": "2026-1293479",
    "request_type": "Trash/Recycling",
    "request_reason": "Illegal Dumping",
    "date_created": "2026-06-23T15:42:25.000",
    "date_modified": "2026-06-23T15:42:27.000",
    "request_status": "Pending",
    "responsible_agency": "Department of Sanitation",
    "final_address": "7800 BLK S Coronet Ct",
    "address_councildis": "E",
    "status": "Pending",
    "rowid": "1293479",
    "final_x": "3703243.02786",
    "final_y": "557352.130162",
    "longitude": "-89.99846393927412",
    "latitude": "30.02584635497195",
    "geocoded_column": {
      "latitude": "30.02584635497195",
      "longitude": "-89.99846393927412"
    }
  },
  {
    "service_request": "2026-1293478",
    "request_type": "Trash/Recycling",
    "request_reason": "Return Trash Cart",
    "date_created": "2026-06-23T15:41:41.000",
    "date_modified": "2026-06-23T15:41:44.000",
    "request_status": "Pending",
    "responsible_agency": "Department of Sanitation",
    "final_address": "6027 Spain St",
    "address_councildis": "D",
    "status": "Assigned to Contractor",
    "contractor": "IV Waste",
    "rowid": "1293478",
    "final_x": "3684695.23042",
    "final_y": "555283.766041",
    "longitude": "-90.0571452179932",
    "latitude": "30.020740205274414",
    "geocoded_column": {
      "latitude": "30.020740205274414",
      "longitude": "-90.0571452179932"
    }
  },
  {
    "service_request": "2026-1293477",
    "request_type": "Trash/Recycling",
    "request_reason": "Request a Large Item Pick Up",
    "date_created": "2026-06-23T15:40:41.000",
    "date_modified": "2026-06-23T15:40:43.000",
    "request_status": "Pending",
    "responsible_agency": "Department of Sanitation",
    "final_address": "6901 Deanne St",
    "address_councildis": "D",
    "status": "Assigned to Contractor",
    "contractor": "Waste Pro",
    "rowid": "1293477",
    "final_x": "3695853.65667",
    "final_y": "556074.767961",
    "longitude": "-90.02185945025462",
    "latitude": "30.022568722583824",
    "geocoded_column": {
      "latitude": "30.022568722583824",
      "longitude": "-90.02185945025462"
    }
  },
  {
    "service_request": "2026-1293476",
    "request_type": "Trash/Recycling",
    "request_reason": "Order Recycling Cart",
    "date_created": "2026-06-23T15:39:43.000",
    "date_modified": "2026-06-23T15:39:46.000",
    "request_status": "Pending",
    "responsible_agency": "Department of Sanitation",
    "final_address": "6027 Spain St",
    "address_councildis": "D",
    "status": "Pending",
    "rowid": "1293476",
    "final_x": "3684695.23042",
    "final_y": "555283.766041",
    "longitude": "-90.0571452179932",
    "latitude": "30.020740205274414",
    "geocoded_column": {
      "latitude": "30.020740205274414",
      "longitude": "-90.0571452179932"
    }
  },
  {
    "service_request": "2026-1293475",
    "request_type": "Healthy Homes",
    "request_reason": "Healthy Homes",
    "date_created": "2026-06-23T15:32:21.000",
    "date_modified": "2026-06-23T15:32:23.000",
    "request_status": "Pending",
    "responsible_agency": "Department of Code Enforcement",
    "final_address": "3323 Second St",
    "address_councildis": "B",
    "status": "Pending",
    "rowid": "1293475",
    "final_x": "3673276.82216",
    "final_y": "528296.002432",
    "longitude": "-90.09414629840323",
    "latitude": "29.946877869114008",
    "geocoded_column": {
      "latitude": "29.946877869114008",
      "longitude": "-90.09414629840323"
    }
  },
  {
    "service_request": "2026-1293474",
    "request_type": "Tree Service",
    "request_reason": "Tree Trim",
    "date_created": "2026-06-23T15:30:05.000",
    "date_modified": "2026-06-23T15:35:31.000",
    "request_status": "Pending",
    "responsible_agency": "Department of Parks & Parkways",
    "final_address": "7620 Devine Ave",
    "address_councildis": "E",
    "status": "Pending",
    "rowid": "1293474",
    "final_x": "3705634.8211",
    "final_y": "562953.634656",
    "longitude": "-89.99069885364383",
    "latitude": "30.04117146291378",
    "geocoded_column": {
      "latitude": "30.04117146291378",
      "longitude": "-89.99069885364383"
    }
  },
  {
    "service_request": "2026-1293473",
    "request_type": "Trash/Recycling",
    "request_reason": "Request a Large Item Pick Up",
    "date_created": "2026-06-23T15:29:37.000",
    "date_modified": "2026-06-23T15:29:38.000",
    "request_status": "Pending",
    "responsible_agency": "Department of Sanitation",
    "final_address": "5336 Dryades St",
    "address_councildis": "B",
    "status": "Assigned to Contractor",
    "contractor": "IV Waste",
    "rowid": "1293473",
    "final_x": "3667609.66049",
    "final_y": "521793.283898",
    "longitude": "-90.11225846699281",
    "latitude": "29.929164787498774",
    "geocoded_column": {
      "latitude": "29.929164787498774",
      "longitude": "-90.11225846699281"
    }
  },
  {
    "service_request": "2026-1293472",
    "request_type": "Trash/Recycling",
    "request_reason": "Repair Trash Cart",
    "date_created": "2026-06-23T15:29:15.000",
    "date_modified": "2026-06-23T15:29:17.000",
    "request_status": "Pending",
    "responsible_agency": "Department of Sanitation",
    "final_address": "2339 Constance St",
    "address_councildis": "B",
    "status": "Assigned to Contractor",
    "contractor": "IV Waste",
    "rowid": "1293472",
    "final_x": "3678458.15912",
    "final_y": "521431.768057",
    "longitude": "-90.07802434510667",
    "latitude": "29.927848394946484",
    "geocoded_column": {
      "latitude": "29.927848394946484",
      "longitude": "-90.07802434510667"
    }
  },
  {
    "service_request": "2026-1293471",
    "request_type": "Tree Service",
    "request_reason": "Tree Trim",
    "date_created": "2026-06-23T15:28:23.000",
    "date_modified": "2026-06-23T15:28:26.000",
    "request_status": "Pending",
    "responsible_agency": "Department of Parks & Parkways",
    "final_address": "721 Marigny St",
    "address_councildis": "C",
    "status": "Pending",
    "rowid": "1293471",
    "final_x": "3685565.57839",
    "final_y": "535070.145862",
    "longitude": "-90.0551076616675",
    "latitude": "29.965133294582323",
    "geocoded_column": {
      "latitude": "29.965133294582323",
      "longitude": "-90.0551076616675"
    }
  },
  {
    "service_request": "2026-1293470",
    "request_type": "Trash/Recycling",
    "request_reason": "Request a Large Item Pick Up",
    "date_created": "2026-06-23T15:25:30.000",
    "date_modified": "2026-06-23T17:05:12.000",
    "request_status": "Pending",
    "responsible_agency": "Department of Sanitation",
    "final_address": "5020 Wilton Dr, New Orleans, Louisiana, 70122",
    "address_councildis": "D",
    "status": "Assigned to Contractor",
    "contractor": "IV Waste",
    "rowid": "1293470",
    "final_x": "3681892.45685",
    "final_y": "551246.167765",
    "longitude": "-90.06614223762601",
    "latitude": "30.009723814059104",
    "geocoded_column": {
      "latitude": "30.009723814059104",
      "longitude": "-90.06614223762601"
    }
  },
  {
    "service_request": "2026-1293469",
    "request_type": "Trash/Recycling",
    "request_reason": "Request a Large Item Pick Up",
    "date_created": "2026-06-23T15:23:33.000",
    "date_modified": "2026-06-23T15:23:35.000",
    "request_status": "Pending",
    "responsible_agency": "Department of Sanitation",
    "final_address": "7240 E Renaissance Ct",
    "address_councildis": "E",
    "status": "Assigned to Contractor",
    "contractor": "Waste Pro",
    "rowid": "1293469",
    "final_x": "3716885.07909",
    "final_y": "568359.093797",
    "longitude": "-89.95493898919112",
    "latitude": "30.05566699724875",
    "geocoded_column": {
      "latitude": "30.05566699724875",
      "longitude": "-89.95493898919112"
    }
  },
  {
    "service_request": "2026-1293468",
    "request_type": "Trash/Recycling",
    "request_reason": "Request a Large Item Pick Up",
    "date_created": "2026-06-23T15:20:59.000",
    "date_modified": "2026-06-23T15:21:02.000",
    "request_status": "Pending",
    "responsible_agency": "Department of Sanitation",
    "final_address": "4324 Genoa St",
    "address_councildis": "E",
    "status": "Assigned to Contractor",
    "contractor": "Waste Pro",
    "rowid": "1293468",
    "final_x": "3760991.04905",
    "final_y": "573424.151658",
    "longitude": "-89.81531996690835",
    "latitude": "30.068060945363076",
    "geocoded_column": {
      "latitude": "30.068060945363076",
      "longitude": "-89.81531996690835"
    }
  },
  {
    "service_request": "2026-1293467",
    "request_type": "Property Maintenance",
    "request_reason": "Property Maintenance",
    "date_created": "2026-06-23T15:19:18.000",
    "date_modified": "2026-06-23T15:20:15.000",
    "request_status": "Pending",
    "responsible_agency": "Department of Code Enforcement",
    "final_address": "5445 Debore Dr",
    "address_councildis": "D",
    "status": "Pending",
    "rowid": "1293467",
    "final_x": "3691954.50928",
    "final_y": "554153.208088",
    "longitude": "-90.03424862291685",
    "latitude": "30.017407285971142",
    "geocoded_column": {
      "latitude": "30.017407285971142",
      "longitude": "-90.03424862291685"
    }
  },
  {
    "service_request": "2026-1293466",
    "request_type": "Trash/Recycling",
    "request_reason": "Illegal Dumping",
    "date_created": "2026-06-23T15:18:54.000",
    "date_modified": "2026-06-23T15:18:57.000",
    "request_status": "Pending",
    "responsible_agency": "Department of Sanitation",
    "final_address": "CONSTANCE ST & DUFOSSAT ST",
    "address_councildis": "B",
    "status": "Pending",
    "rowid": "1293466",
    "final_x": "3668035.4",
    "final_y": "518239.48",
    "longitude": "-90.11103415780784",
    "latitude": "29.919380469449962",
    "geocoded_column": {
      "latitude": "29.919380469449962",
      "longitude": "-90.11103415780784"
    }
  },
  {
    "service_request": "2026-1293465",
    "request_type": "Trash/Recycling",
    "request_reason": "Illegal Dumping",
    "date_created": "2026-06-23T15:14:26.000",
    "date_modified": "2026-06-23T15:14:29.000",
    "request_status": "Pending",
    "responsible_agency": "Department of Sanitation",
    "final_address": "5207 Constance St",
    "address_councildis": "B",
    "status": "Pending",
    "rowid": "1293465",
    "final_x": "3667954.62266",
    "final_y": "518278.92767",
    "longitude": "-90.11128780416517",
    "latitude": "29.919491307208716",
    "geocoded_column": {
      "latitude": "29.919491307208716",
      "longitude": "-90.11128780416517"
    }
  },
  {
    "service_request": "2026-1293464",
    "request_type": "Trash/Recycling",
    "request_reason": "Replace Trash Cart",
    "date_created": "2026-06-23T15:12:52.000",
    "date_modified": "2026-06-23T15:12:53.000",
    "request_status": "Pending",
    "responsible_agency": "Department of Sanitation",
    "final_address": "4742 Gabriel Dr",
    "address_councildis": "E",
    "status": "Assigned to Contractor",
    "contractor": "Waste Pro",
    "rowid": "1293464",
    "final_x": "3708810.74481",
    "final_y": "555766.518937",
    "longitude": "-89.9809299904185",
    "latitude": "30.02130702155726",
    "geocoded_column": {
      "latitude": "30.02130702155726",
      "longitude": "-89.9809299904185"
    }
  },
  {
    "service_request": "2026-1293463",
    "request_type": "Roads and Streets",
    "request_reason": "Pothole",
    "date_created": "2026-06-23T15:08:30.000",
    "date_modified": "2026-06-23T15:09:50.000",
    "request_status": "Pending",
    "responsible_agency": "Department of Public Works",
    "final_address": "1521 Forstall St",
    "address_councildis": "E",
    "status": "Pending",
    "rowid": "1293463",
    "final_x": "3696790.81853",
    "final_y": "535820.882567",
    "longitude": "-90.01963198352074",
    "latitude": "29.96684846265562",
    "geocoded_column": {
      "latitude": "29.96684846265562",
      "longitude": "-90.01963198352074"
    }
  },
  {
    "service_request": "2026-1293462",
    "request_type": "Trash/Recycling",
    "request_reason": "Illegal Dumping",
    "date_created": "2026-06-23T15:07:28.000",
    "date_modified": "2026-06-23T15:07:30.000",
    "request_status": "Pending",
    "responsible_agency": "Department of Sanitation",
    "final_address": "COVE DR & I 10 W SERVICE RD",
    "address_councildis": "E",
    "status": "Pending",
    "rowid": "1293462",
    "final_x": "3700531.9",
    "final_y": "557789.28",
    "longitude": "-90.00701469809736",
    "latitude": "30.027134913893985",
    "geocoded_column": {
      "latitude": "30.027134913893985",
      "longitude": "-90.00701469809736"
    }
  },
  {
    "service_request": "2026-1293461",
    "request_type": "Roads and Streets",
    "request_reason": "Pothole",
    "date_created": "2026-06-23T15:06:35.000",
    "date_modified": "2026-06-23T15:06:38.000",
    "request_status": "Pending",
    "responsible_agency": "Department of Public Works",
    "final_address": "CANAL BLVD & I 610 W",
    "address_councildis": "A",
    "status": "Pending",
    "rowid": "1293461",
    "final_x": "3668412.5",
    "final_y": "545867.28",
    "longitude": "-90.10891196106962",
    "latitude": "29.99533675738892",
    "geocoded_column": {
      "latitude": "29.99533675738892",
      "longitude": "-90.10891196106962"
    }
  },
  {
    "service_request": "2026-1293460",
    "request_type": "Tree Service",
    "request_reason": "Street or Sidewalk Blocked",
    "date_created": "2026-06-23T15:05:06.000",
    "date_modified": "2026-06-23T15:05:08.000",
    "request_status": "Pending",
    "responsible_agency": "Department of Parks & Parkways",
    "final_address": "3221 Laurel St",
    "address_councildis": "B",
    "status": "Pending",
    "rowid": "1293460",
    "final_x": "3675953.58081",
    "final_y": "519287.504759",
    "longitude": "-90.0860044036573",
    "latitude": "29.92202757329186",
    "geocoded_column": {
      "latitude": "29.92202757329186",
      "longitude": "-90.0860044036573"
    }
  },
  {
    "service_request": "2026-1293459",
    "request_type": "Tree Service",
    "request_reason": "Tree Trim",
    "date_created": "2026-06-23T15:02:50.000",
    "date_modified": "2026-06-23T15:13:45.000",
    "request_status": "Pending",
    "responsible_agency": "Department of Parks & Parkways",
    "final_address": "5525 Hawthorne Pl",
    "address_councildis": "A",
    "status": "Pending",
    "rowid": "1293459",
    "final_x": "3667906.68666",
    "final_y": "544439.584975",
    "longitude": "-90.11055790837796",
    "latitude": "29.991425938002156",
    "geocoded_column": {
      "latitude": "29.991425938002156",
      "longitude": "-90.11055790837796"
    }
  },
  {
    "service_request": "2026-1293458",
    "request_type": "Roads and Streets",
    "request_reason": "Debris in Driving Lanes",
    "date_created": "2026-06-23T15:02:21.000",
    "date_modified": "2026-06-23T15:05:03.000",
    "request_status": "Pending",
    "responsible_agency": "Department of Public Works",
    "final_address": "WRIGHT RD & I 10 W SERVICE RD",
    "address_councildis": "E",
    "status": "Pending",
    "rowid": "1293458",
    "final_x": "3712657.3",
    "final_y": "563329.08",
    "longitude": "-89.96849144171634",
    "latitude": "30.041975662492263",
    "geocoded_column": {
      "latitude": "30.041975662492263",
      "longitude": "-89.96849144171634"
    }
  },
  {
    "service_request": "2026-1293457",
    "request_type": "Trash/Recycling",
    "request_reason": "Illegal Dumping",
    "date_created": "2026-06-23T15:00:41.000",
    "date_modified": "2026-06-23T15:01:02.000",
    "request_status": "Pending",
    "responsible_agency": "Department of Sanitation",
    "final_address": "10000 BLK Interstate 10 Service Rd N",
    "address_councildis": "E",
    "status": "Pending",
    "rowid": "1293457",
    "final_x": "3711502.19704",
    "final_y": "562463.022171",
    "longitude": "-89.97217448114814",
    "latitude": "30.03963213139048",
    "geocoded_column": {
      "latitude": "30.03963213139048",
      "longitude": "-89.97217448114814"
    }
  },
  {
    "service_request": "2026-1293456",
    "request_type": "Tree Service",
    "request_reason": "Tree Trim",
    "date_created": "2026-06-23T14:59:56.000",
    "date_modified": "2026-06-23T14:59:57.000",
    "request_status": "Pending",
    "responsible_agency": "Department of Parks & Parkways",
    "final_address": "1442 Madrid St",
    "address_councildis": "D",
    "status": "Pending",
    "rowid": "1293456",
    "final_x": "3677802.7979",
    "final_y": "554489.572248",
    "longitude": "-90.07895075682487",
    "latitude": "30.018765734850827",
    "geocoded_column": {
      "latitude": "30.018765734850827",
      "longitude": "-90.07895075682487"
    }
  },
  {
    "service_request": "2026-1293455",
    "request_type": "Trash/Recycling",
    "request_reason": "Illegal Dumping",
    "date_created": "2026-06-23T14:58:07.000",
    "date_modified": "2026-06-23T14:59:26.000",
    "request_status": "Pending",
    "responsible_agency": "Department of Sanitation",
    "final_address": "I 10 W SERVICE RD & WRIGHT RD",
    "address_councildis": "E",
    "status": "Pending",
    "rowid": "1293455",
    "final_x": "3712734.1",
    "final_y": "563386.88",
    "longitude": "-89.96824655099546",
    "latitude": "30.042132073687252",
    "geocoded_column": {
      "latitude": "30.042132073687252",
      "longitude": "-89.96824655099546"
    }
  },
  {
    "service_request": "2026-1293454",
    "request_type": "Parks & Grass Service",
    "request_reason": "Request Grass Cutting Service (City Owned Property)",
    "date_created": "2026-06-23T14:55:52.000",
    "date_modified": "2026-06-23T15:02:26.000",
    "request_status": "Pending",
    "responsible_agency": "Department of Parks & Parkways",
    "final_address": "HAYNE BLVD & FLOUNDER ST",
    "address_councildis": "E",
    "status": "Pending",
    "rowid": "1293454",
    "final_x": "3699571.6",
    "final_y": "561847.08",
    "longitude": "-90.0099010432989",
    "latitude": "30.03832282342516",
    "geocoded_column": {
      "latitude": "30.03832282342516",
      "longitude": "-90.0099010432989"
    }
  },
  {
    "service_request": "2026-1293453",
    "request_type": "Abandoned Vehicles",
    "request_reason": "Abandoned/Junk Vehicles",
    "date_created": "2026-06-23T14:55:06.000",
    "date_modified": "2026-06-23T14:55:08.000",
    "request_status": "Pending",
    "responsible_agency": "Department of Public Works",
    "final_address": "N CARROLLTON AVE & ORLEANS AVE",
    "address_councildis": "A",
    "status": "Pending",
    "rowid": "1293453",
    "final_x": "3672801.3",
    "final_y": "540117.48",
    "longitude": "-90.09524440248875",
    "latitude": "29.979397105626184",
    "geocoded_column": {
      "latitude": "29.979397105626184",
      "longitude": "-90.09524440248875"
    }
  },
  {
    "service_request": "2026-1293452",
    "request_type": "Trash/Recycling",
    "request_reason": "Request a Large Item Pick Up",
    "date_created": "2026-06-23T14:54:29.000",
    "date_modified": "2026-06-23T14:54:31.000",
    "request_status": "Pending",
    "responsible_agency": "Department of Sanitation",
    "final_address": "4811 Friar Tuck Dr",
    "address_councildis": "E",
    "status": "Assigned to Contractor",
    "contractor": "Waste Pro",
    "rowid": "1293452",
    "final_x": "3717798.67141",
    "final_y": "557278.881755",
    "longitude": "-89.95247338680763",
    "latitude": "30.025170668007856",
    "geocoded_column": {
      "latitude": "30.025170668007856",
      "longitude": "-89.95247338680763"
    }
  },
  {
    "service_request": "2026-1293451",
    "request_type": "Streetlights",
    "request_reason": "Streetlight Outage/Malfunction",
    "date_created": "2026-06-23T14:53:33.000",
    "date_modified": "2026-06-23T14:53:35.000",
    "request_status": "Pending",
    "responsible_agency": "Department of Public Works",
    "final_address": "1841 Laurel St",
    "address_councildis": "B",
    "status": "Pending",
    "rowid": "1293451",
    "final_x": "3680314.81883",
    "final_y": "522379.485114",
    "longitude": "-90.07213037880054",
    "latitude": "29.93039824582229",
    "geocoded_column": {
      "latitude": "29.93039824582229",
      "longitude": "-90.07213037880054"
    }
  },
  {
    "service_request": "2026-1293450",
    "request_type": "Streetlights",
    "request_reason": "Streetlight Outage/Malfunction",
    "date_created": "2026-06-23T14:51:37.000",
    "date_modified": "2026-06-23T14:51:39.000",
    "request_status": "Pending",
    "responsible_agency": "Department of Public Works",
    "final_address": "1836 Laurel St",
    "address_councildis": "B",
    "status": "Pending",
    "rowid": "1293450",
    "final_x": "3680400.33371",
    "final_y": "522319.401594",
    "longitude": "-90.07186250974236",
    "latitude": "29.93023044750565",
    "geocoded_column": {
      "latitude": "29.93023044750565",
      "longitude": "-90.07186250974236"
    }
  },
  {
    "service_request": "2026-1293449",
    "request_type": "Trash/Recycling",
    "request_reason": "Request a Large Item Pick Up",
    "date_created": "2026-06-23T14:50:51.000",
    "date_modified": "2026-06-23T14:50:53.000",
    "request_status": "Pending",
    "responsible_agency": "Department of Sanitation",
    "final_address": "10930 N Hardy St",
    "address_councildis": "E",
    "status": "Assigned to Contractor",
    "contractor": "Waste Pro",
    "rowid": "1293449",
    "final_x": "3712689.01221",
    "final_y": "562037.253599",
    "longitude": "-89.96843985154072",
    "latitude": "30.038422620187077",
    "geocoded_column": {
      "latitude": "30.038422620187077",
      "longitude": "-89.96843985154072"
    }
  },
  {
    "service_request": "2026-1293448",
    "request_type": "Tree Service",
    "request_reason": "Dead or Dying Tree",
    "date_created": "2026-06-23T14:49:38.000",
    "date_modified": "2026-06-23T14:51:22.000",
    "request_status": "Pending",
    "responsible_agency": "Department of Parks & Parkways",
    "final_address": "7451 W Laverne St",
    "address_councildis": "E",
    "status": "Pending",
    "rowid": "1293448",
    "final_x": "3695337.49181",
    "final_y": "558224.011804",
    "longitude": "-90.0234127655414",
    "latitude": "30.028494560996734",
    "geocoded_column": {
      "latitude": "30.028494560996734",
      "longitude": "-90.0234127655414"
    }
  },
  {
    "service_request": "2026-1293447",
    "request_type": "Tree Service",
    "request_reason": "Tree Trim",
    "date_created": "2026-06-23T14:49:25.000",
    "date_modified": "2026-06-23T14:58:53.000",
    "request_status": "Pending",
    "responsible_agency": "Department of Parks & Parkways",
    "final_address": "4745 Read Blvd",
    "address_councildis": "E",
    "status": "Pending",
    "rowid": "1293447",
    "final_x": "3712859.5733",
    "final_y": "556277.631706",
    "longitude": "-89.96811770570922",
    "latitude": "30.022580362053645",
    "geocoded_column": {
      "latitude": "30.022580362053645",
      "longitude": "-89.96811770570922"
    }
  },
  {
    "service_request": "2026-1293446",
    "request_type": "Streetlights",
    "request_reason": "Streetlight Outage/Malfunction",
    "date_created": "2026-06-23T14:45:17.000",
    "date_modified": "2026-06-23T14:45:19.000",
    "request_status": "Pending",
    "responsible_agency": "Department of Public Works",
    "final_address": "2431 Mendez St",
    "address_councildis": "D",
    "status": "Pending",
    "rowid": "1293446",
    "final_x": "3685379.96815",
    "final_y": "553597.647767",
    "longitude": "-90.055041087117",
    "latitude": "30.016083013360554",
    "geocoded_column": {
      "latitude": "30.016083013360554",
      "longitude": "-90.055041087117"
    }
  },
  {
    "service_request": "2026-1293445",
    "request_type": "Streetlights",
    "request_reason": "Streetlight Outage/Malfunction",
    "date_created": "2026-06-23T14:45:13.000",
    "date_modified": "2026-06-23T14:45:15.000",
    "request_status": "Pending",
    "responsible_agency": "Department of Public Works",
    "final_address": "1825 Laurel St",
    "address_councildis": "B",
    "status": "Pending",
    "rowid": "1293445",
    "final_x": "3680385.06434",
    "final_y": "522442.641978",
    "longitude": "-90.0719064297379",
    "latitude": "29.930569780258402",
    "geocoded_column": {
      "latitude": "29.930569780258402",
      "longitude": "-90.0719064297379"
    }
  },
  {
    "service_request": "2026-1293444",
    "request_type": "Safety & Permits",
    "request_reason": "Zoning Enforcement",
    "date_created": "2026-06-23T14:43:16.000",
    "date_modified": "2026-06-23T14:43:18.000",
    "request_status": "Pending",
    "responsible_agency": "Safety and Permits",
    "final_address": "3100 BLK Cambronne St",
    "address_councildis": "A",
    "status": "Pending",
    "rowid": "1293444",
    "final_x": "3665859.50584",
    "final_y": "534253.56842",
    "longitude": "-90.11736596811225",
    "latitude": "29.9634777147786",
    "geocoded_column": {
      "latitude": "29.9634777147786",
      "longitude": "-90.11736596811225"
    }
  },
  {
    "service_request": "2026-1293443",
    "request_type": "Street and Traffic Signs",
    "request_reason": "Street Name Sign Damaged or Missing",
    "date_created": "2026-06-23T14:38:00.000",
    "date_modified": "2026-06-23T14:38:02.000",
    "request_status": "Pending",
    "responsible_agency": "Department of Public Works",
    "final_address": "CLOUET ST & CHARTRES ST",
    "address_councildis": "C",
    "status": "Pending",
    "rowid": "1293443",
    "final_x": "3688536.3",
    "final_y": "534152.28",
    "longitude": "-90.04575888437692",
    "latitude": "29.962518026571015",
    "geocoded_column": {
      "latitude": "29.962518026571015",
      "longitude": "-90.04575888437692"
    }
  },
  {
    "service_request": "2026-1293442",
    "request_type": "Trash/Recycling",
    "request_reason": "Replace Trash Cart",
    "date_created": "2026-06-23T14:37:57.000",
    "date_modified": "2026-06-23T16:06:07.000",
    "request_status": "Pending",
    "responsible_agency": "Department of Sanitation",
    "final_address": "11417 S St Andrews Cir",
    "address_councildis": "E",
    "status": "Assigned to Contractor",
    "contractor": "Waste Pro",
    "rowid": "1293442",
    "final_x": "3719549.47461",
    "final_y": "559519.532637",
    "longitude": "-89.94685551967636",
    "latitude": "30.031273425293886",
    "geocoded_column": {
      "latitude": "30.031273425293886",
      "longitude": "-89.94685551967636"
    }
  },
  {
    "service_request": "2026-1293441",
    "request_type": "Trash/Recycling",
    "request_reason": "Illegal Dumping",
    "date_created": "2026-06-23T14:37:09.000",
    "date_modified": "2026-06-23T14:37:11.000",
    "request_status": "Pending",
    "responsible_agency": "Department of Sanitation",
    "final_address": "1630 Erie St",
    "address_councildis": "C",
    "status": "Pending",
    "rowid": "1293441",
    "final_x": "3690196.19043",
    "final_y": "522315.800314",
    "longitude": "-90.04093878275353",
    "latitude": "29.92992037542515",
    "geocoded_column": {
      "latitude": "29.92992037542515",
      "longitude": "-90.04093878275353"
    }
  },
  {
    "service_request": "2026-1293440",
    "request_type": "Trash/Recycling",
    "request_reason": "Return Recycling Cart",
    "date_created": "2026-06-23T14:36:49.000",
    "date_modified": "2026-06-23T14:36:51.000",
    "request_status": "Pending",
    "responsible_agency": "Department of Sanitation",
    "final_address": "11101 S Idlewood Ct",
    "address_councildis": "E",
    "status": "Pending",
    "rowid": "1293440",
    "final_x": "3716047.30597",
    "final_y": "559300.338141",
    "longitude": "-89.957930695728",
    "latitude": "30.030786782704475",
    "geocoded_column": {
      "latitude": "30.030786782704475",
      "longitude": "-89.957930695728"
    }
  },
  {
    "service_request": "2026-1293438",
    "request_type": "Drainage",
    "request_reason": "Drainage Manhole Cover Missing or Damaged",
    "date_created": "2026-06-23T14:36:26.000",
    "date_modified": "2026-06-23T14:39:07.000",
    "request_status": "Pending",
    "responsible_agency": "Sewerage & Water Board",
    "final_address": "3600 BLK Chartres St",
    "address_councildis": "C",
    "status": "Pending",
    "rowid": "1293438",
    "final_x": "3690378.24125",
    "final_y": "533696.022291",
    "longitude": "-90.03995857091348",
    "latitude": "29.961206436747197",
    "geocoded_column": {
      "latitude": "29.961206436747197",
      "longitude": "-90.03995857091348"
    }
  },
  {
    "service_request": "2026-1293437",
    "request_type": "Streetlights",
    "request_reason": "Streetlight Outage/Malfunction",
    "date_created": "2026-06-23T14:35:19.000",
    "date_modified": "2026-06-23T14:35:22.000",
    "request_status": "Pending",
    "responsible_agency": "Department of Public Works",
    "final_address": "2431 Mendez St",
    "address_councildis": "D",
    "status": "Pending",
    "rowid": "1293437",
    "final_x": "3685379.96815",
    "final_y": "553597.647767",
    "longitude": "-90.055041087117",
    "latitude": "30.016083013360554",
    "geocoded_column": {
      "latitude": "30.016083013360554",
      "longitude": "-90.055041087117"
    }
  },
  {
    "service_request": "2026-1293436",
    "request_type": "Property Maintenance",
    "request_reason": "Property Maintenance",
    "date_created": "2026-06-23T14:34:54.000",
    "date_modified": "2026-06-23T14:35:03.000",
    "request_status": "Pending",
    "responsible_agency": "Department of Code Enforcement",
    "final_address": "603 Congress St",
    "address_councildis": "C",
    "status": "Pending",
    "rowid": "1293436",
    "final_x": "3690303.66364",
    "final_y": "533754.903621",
    "longitude": "-90.04019197443408",
    "latitude": "29.961370654318674",
    "geocoded_column": {
      "latitude": "29.961370654318674",
      "longitude": "-90.04019197443408"
    }
  },
  {
    "service_request": "2026-1293435",
    "request_type": "Trash/Recycling",
    "request_reason": "Request a Large Item Pick Up",
    "date_created": "2026-06-23T14:33:28.000",
    "date_modified": "2026-06-23T14:33:30.000",
    "request_status": "Pending",
    "responsible_agency": "Department of Sanitation",
    "final_address": "4571 Marque Dr",
    "address_councildis": "E",
    "status": "Assigned to Contractor",
    "contractor": "Waste Pro",
    "rowid": "1293435",
    "final_x": "3710241.44913",
    "final_y": "554688.886744",
    "longitude": "-89.97644972581821",
    "latitude": "30.018297445376277",
    "geocoded_column": {
      "latitude": "30.018297445376277",
      "longitude": "-89.97644972581821"
    }
  },
  {
    "service_request": "2026-1293434",
    "request_type": "Streetlights",
    "request_reason": "Streetlight Outage/Malfunction",
    "date_created": "2026-06-23T14:32:32.000",
    "date_modified": "2026-06-23T14:32:35.000",
    "request_status": "Pending",
    "responsible_agency": "Department of Public Works",
    "final_address": "1800 BLK Laurel St",
    "address_councildis": "B",
    "status": "Pending",
    "rowid": "1293434",
    "final_x": "3680389.77534",
    "final_y": "522387.751928",
    "longitude": "-90.07189346542846",
    "latitude": "29.930418708065815",
    "geocoded_column": {
      "latitude": "29.930418708065815",
      "longitude": "-90.07189346542846"
    }
  },
  {
    "service_request": "2026-1293433",
    "request_type": "Tree Service",
    "request_reason": "Tree Trim",
    "date_created": "2026-06-23T14:30:18.000",
    "date_modified": "2026-06-23T14:30:20.000",
    "request_status": "Pending",
    "responsible_agency": "Department of Parks & Parkways",
    "final_address": "13501 Dwyer Blvd",
    "address_councildis": "E",
    "status": "Pending",
    "rowid": "1293433",
    "final_x": "3725893.49651",
    "final_y": "562085.326815",
    "longitude": "-89.9267089279096",
    "latitude": "30.03811570833668",
    "geocoded_column": {
      "latitude": "30.03811570833668",
      "longitude": "-89.9267089279096"
    }
  },
  {
    "service_request": "2026-1293432",
    "request_type": "Property Maintenance",
    "request_reason": "Property Maintenance",
    "date_created": "2026-06-23T14:30:14.000",
    "date_modified": "2026-06-23T14:30:19.000",
    "request_status": "Pending",
    "responsible_agency": "Department of Code Enforcement",
    "final_address": "7117 Sycamore St",
    "address_councildis": "A",
    "status": "Pending",
    "rowid": "1293432",
    "final_x": "3666307.13441",
    "final_y": "529374.667585",
    "longitude": "-90.11611606779012",
    "latitude": "29.950049264214655",
    "geocoded_column": {
      "latitude": "29.950049264214655",
      "longitude": "-90.11611606779012"
    }
  },
  {
    "service_request": "2026-1293431",
    "request_type": "Trash/Recycling",
    "request_reason": "Request a Large Item Pick Up",
    "date_created": "2026-06-23T14:29:09.000",
    "date_modified": "2026-06-23T14:29:11.000",
    "request_status": "Pending",
    "responsible_agency": "Department of Sanitation",
    "final_address": "10935 S Hardy St",
    "address_councildis": "E",
    "status": "Assigned to Contractor",
    "contractor": "Waste Pro",
    "rowid": "1293431",
    "final_x": "3712980.42072",
    "final_y": "561737.806175",
    "longitude": "-89.96753021289645",
    "latitude": "30.037589712211506",
    "geocoded_column": {
      "latitude": "30.037589712211506",
      "longitude": "-89.96753021289645"
    }
  },
  {
    "service_request": "2026-1293430",
    "request_type": "Trash/Recycling",
    "request_reason": "Illegal Dumping",
    "date_created": "2026-06-23T14:27:02.000",
    "date_modified": "2026-06-23T14:27:04.000",
    "request_status": "Pending",
    "responsible_agency": "Department of Sanitation",
    "final_address": "13242 Dwyer Blvd",
    "address_councildis": "E",
    "status": "Pending",
    "rowid": "1293430",
    "final_x": "3724675.1726",
    "final_y": "561411.736862",
    "longitude": "-89.93058514742992",
    "latitude": "30.036304680133494",
    "geocoded_column": {
      "latitude": "30.036304680133494",
      "longitude": "-89.93058514742992"
    }
  },
  {
    "service_request": "2026-1293429",
    "request_type": "Trash/Recycling",
    "request_reason": "Request a Large Item Pick Up",
    "date_created": "2026-06-23T14:25:42.000",
    "date_modified": "2026-06-23T14:25:45.000",
    "request_status": "Pending",
    "responsible_agency": "Department of Sanitation",
    "final_address": "13259 Dwyer Blvd",
    "address_councildis": "E",
    "status": "Assigned to Contractor",
    "contractor": "Waste Pro",
    "rowid": "1293429",
    "final_x": "3724708.66496",
    "final_y": "561653.506399",
    "longitude": "-89.93046995228734",
    "latitude": "30.036968319534576",
    "geocoded_column": {
      "latitude": "30.036968319534576",
      "longitude": "-89.93046995228734"
    }
  },