[
  {
    "service_request": "2022-854032",
    "request_type": "Traffic Signals/Signs/Striping/Streetlights",
    "request_reason": "Street Light Outage/Malfunction",
    "date_created": "2022-01-14T01:28:57.000",
    "date_modified": "2022-01-14T01:28:58.000",
    "request_status": "Pending",
    "responsible_agency": "Department of Public Works",
    "final_address": "119 Fremont St",
    "address_councildis": "A",
    "status": "Pending",
    "contractor": "Royal Engineering",
    "rowid": "854032",
    "final_x": "3666785.477",
    "final_y": "549994.261332",
    "longitude": "-90.11391284570519",
    "latitude": "30.006732236076335",
    "geocoded_column": {
      "latitude": "30.006732236076335",
      "longitude": "-90.11391284570519"
    }
  },
  {
    "service_request": "2022-854031",
    "request_type": "Property Maintenance",
    "request_reason": "Property Maintenance",
    "date_created": "2022-01-14T00:47:09.000",
    "date_modified": "2022-01-14T00:47:09.000",
    "request_status": "Pending",
    "responsible_agency": "Department of Code Enforcement",
    "final_address": "3341 N Rampart St",
    "address_councildis": "C",
    "status": "Pending",
    "rowid": "854031",
    "final_x": "3690052.81564",
    "final_y": "535304.097158",
    "longitude": "-90.04092892786733",
    "latitude": "29.965638176999292",
    "geocoded_column": {
      "latitude": "29.965638176999292",
      "longitude": "-90.04092892786733"
    }
  },
  {
    "service_request": "2022-854030",
    "request_type": "Traffic Signals/Signs/Striping/Streetlights",
    "request_reason": "Street Light Outage/Malfunction",
    "date_created": "2022-01-13T22:11:59.000",
    "date_modified": "2022-01-13T22:12:00.000",
    "request_status": "Pending",
    "responsible_agency": "Department of Public Works",
    "final_address": "1532 St Roch Ave",
    "address_councildis": "C",
    "status": "Pending",
    "contractor": "Royal Engineering",
    "rowid": "854030",
    "final_x": "3686272.01692",
    "final_y": "538146.696841",
    "longitude": "-90.05276819356094",
    "latitude": "29.973571049849244",
    "geocoded_column": {
      "latitude": "29.973571049849244",
      "longitude": "-90.05276819356094"
    }
  },
  {
    "service_request": "2022-854029",
    "request_type": "Traffic Signals/Signs/Striping/Streetlights",
    "request_reason": "Street Light Outage/Malfunction",
    "date_created": "2022-01-13T22:06:38.000",
    "date_modified": "2022-01-13T22:06:39.000",
    "request_status": "Pending",
    "responsible_agency": "Department of Public Works",
    "final_address": "1530 St Roch Ave",
    "address_councildis": "C",
    "status": "Pending",
    "contractor": "Royal Engineering",
    "rowid": "854029",
    "final_x": "3686278.22518",
    "final_y": "538126.881033",
    "longitude": "-90.05274928602029",
    "latitude": "29.973516372537723",
    "geocoded_column": {
      "latitude": "29.973516372537723",
      "longitude": "-90.05274928602029"
    }
  },
  {
    "service_request": "2022-854028",
    "request_type": "Property Maintenance",
    "request_reason": "Property Maintenance",
    "date_created": "2022-01-13T21:22:05.000",
    "date_modified": "2022-01-13T21:22:05.000",
    "request_status": "Pending",
    "responsible_agency": "Department of Code Enforcement",
    "final_address": "3400 St Claude Ave",
    "address_councildis": "C",
    "status": "Pending",
    "rowid": "854028",
    "final_x": "3690228.23446",
    "final_y": "535658.603206",
    "longitude": "-90.040362331323",
    "latitude": "29.966607502806205",
    "geocoded_column": {
      "latitude": "29.966607502806205",
      "longitude": "-90.040362331323"
    }
  },
  {
    "service_request": "2022-854027",
    "request_type": "Property Maintenance",
    "request_reason": "Property Maintenance",
    "date_created": "2022-01-13T21:19:10.000",
    "date_modified": "2022-01-13T21:19:10.000",
    "request_status": "Pending",
    "responsible_agency": "Department of Code Enforcement",
    "final_address": "1020 Desire St",
    "address_councildis": "C",
    "status": "Pending",
    "rowid": "854027",
    "final_x": "3690091.43433",
    "final_y": "535461.391814",
    "longitude": "-90.04080136874742",
    "latitude": "29.966069484430676",
    "geocoded_column": {
      "latitude": "29.966069484430676",
      "longitude": "-90.04080136874742"
    }
  },
  {
    "service_request": "2022-854025",
    "request_type": "Trash/Recycling",
    "request_reason": "Change Size of Trash Cart",
    "date_created": "2022-01-13T20:41:09.000",
    "date_modified": "2022-01-13T20:41:10.000",
    "request_status": "Pending",
    "responsible_agency": "Department of Sanitation",
    "final_address": "2425 First St",
    "address_councildis": "B",
    "status": "Assigned to Contractor",
    "contractor": "Richards Disposal",
    "rowid": "854025",
    "final_x": "3675264.24449",
    "final_y": "525835.483389",
    "longitude": "-90.08795570497628",
    "latitude": "29.940053003077736",
    "geocoded_column": {
      "latitude": "29.940053003077736",
      "longitude": "-90.08795570497628"
    }
  },
  {
    "service_request": "2022-854024",
    "request_type": "Trash/Recycling",
    "request_reason": "Missed Trash Pick-Up",
    "date_created": "2022-01-13T20:38:16.000",
    "date_modified": "2022-01-13T20:38:17.000",
    "request_status": "Pending",
    "responsible_agency": "Department of Sanitation",
    "final_address": "2425 First St",
    "address_councildis": "B",
    "status": "Assigned to Contractor",
    "contractor": "Richards Disposal",
    "rowid": "854024",
    "final_x": "3675264.24449",
    "final_y": "525835.483389",
    "longitude": "-90.08795570497628",
    "latitude": "29.940053003077736",
    "geocoded_column": {
      "latitude": "29.940053003077736",
      "longitude": "-90.08795570497628"
    }
  },
  {
    "service_request": "2022-854023",
    "request_type": "Trash/Recycling",
    "request_reason": "Illegal Dumping",
    "date_created": "2022-01-13T20:17:26.000",
    "date_modified": "2022-01-13T20:17:26.000",
    "request_status": "Pending",
    "responsible_agency": "Department of Sanitation",
    "final_address": "1719 Eagle St",
    "address_councildis": "A",
    "status": "Pending",
    "rowid": "854023",
    "final_x": "3661448.39942",
    "final_y": "531438.679619",
    "longitude": "-90.13138908495414",
    "latitude": "29.955865660085376",
    "geocoded_column": {
      "latitude": "29.955865660085376",
      "longitude": "-90.13138908495414"
    }
  },
  {
    "service_request": "2022-854022",
    "request_type": "Health Related Questions",
    "request_reason": "Noise Ordinance Complaint",
    "date_created": "2022-01-13T20:10:55.000",
    "date_modified": "2022-01-13T20:10:55.000",
    "request_status": "Pending",
    "responsible_agency": "Health Department",
    "final_address": "405 3rd St, New Orleans, Louisiana, 70130",
    "status": "Pending",
    "rowid": "854022",
    "longitude": "0.0",
    "latitude": "0.0",
    "geocoded_column": {
      "latitude": "0.0",
      "longitude": "0.0"
    }
  },
  {
    "service_request": "2022-854021",
    "request_type": "COVID-19",
    "request_reason": "COVID-19 Business Non-Compliance",
    "date_created": "2022-01-13T20:09:26.000",
    "date_modified": "2022-01-13T20:09:27.000",
    "request_status": "Pending",
    "responsible_agency": "Safety and Permits",
    "final_address": "2633 St Claude Ave",
    "address_councildis": "C",
    "status": "Pending",
    "rowid": "854021",
    "final_x": "3687415.58908",
    "final_y": "536511.318279",
    "longitude": "-90.04921444093738",
    "latitude": "29.969039140599943",
    "geocoded_column": {
      "latitude": "29.969039140599943",
      "longitude": "-90.04921444093738"
    }
  },
  {
    "service_request": "2022-854020",
    "request_type": "Abandoned Vehicles",
    "request_reason": "Abandoned/Junk Vehicles",
    "date_created": "2022-01-13T19:56:45.000",
    "date_modified": "2022-01-13T19:56:45.000",
    "request_status": "Pending",
    "responsible_agency": "Department of Public Works",
    "final_address": "4039 N Villere St",
    "address_councildis": "D",
    "status": "Pending",
    "rowid": "854020",
    "final_x": "3692364.54384",
    "final_y": "536372.872007",
    "longitude": "-90.03359032554134",
    "latitude": "29.96850503322804",
    "geocoded_column": {
      "latitude": "29.96850503322804",
      "longitude": "-90.03359032554134"
    }
  },
  {
    "service_request": "2022-854019",
    "request_type": "Traffic Signals/Signs/Striping/Streetlights",
    "request_reason": "Additional signage",
    "date_created": "2022-01-13T19:43:53.000",
    "date_modified": "2022-01-13T19:43:53.000",
    "request_status": "Pending",
    "responsible_agency": "Department of Public Works",
    "final_address": "JEFFERSON AVE & CAMP ST",
    "address_councildis": "B",
    "status": "Pending",
    "rowid": "854019",
    "final_x": "3666870.0",
    "final_y": "519152.18",
    "longitude": "-90.11468211356055",
    "latitude": "29.921924239228343",
    "geocoded_column": {
      "latitude": "29.921924239228343",
      "longitude": "-90.11468211356055"
    }
  },
  {
    "service_request": "2022-854018",
    "request_type": "Roads/Drainage",
    "request_reason": "Man hole cover issue",
    "date_created": "2022-01-13T19:00:05.000",
    "date_modified": "2022-01-13T19:00:05.000",
    "request_status": "Pending",
    "responsible_agency": "Department of Public Works",
    "final_address": "600 Decatur St",
    "address_councildis": "C",
    "status": "Pending",
    "rowid": "854018",
    "final_x": "3683031.20853",
    "final_y": "531719.273731",
    "longitude": "-90.0632283472796",
    "latitude": "29.955997037734843",
    "geocoded_column": {
      "latitude": "29.955997037734843",
      "longitude": "-90.0632283472796"
    }
  },
  {
    "service_request": "2022-854017",
    "request_type": "Trash/Recycling",
    "request_reason": "MIssed Recycling Pick-Up",
    "date_created": "2022-01-13T18:45:04.000",
    "date_modified": "2022-01-13T18:45:05.000",
    "request_status": "Pending",
    "responsible_agency": "Department of Sanitation",
    "final_address": "1719 Second St",
    "address_councildis": "B",
    "status": "Assigned to Contractor",
    "contractor": "Richards Disposal",
    "rowid": "854017",
    "final_x": "3676424.19054",
    "final_y": "523519.963515",
    "longitude": "-90.08437326014105",
    "latitude": "29.933651366301078",
    "geocoded_column": {
      "latitude": "29.933651366301078",
      "longitude": "-90.08437326014105"
    }
  },
  {
    "service_request": "2022-854016",
    "request_type": "Abandoned Vehicles",
    "request_reason": "Abandoned/Junk Vehicles",
    "date_created": "2022-01-13T18:42:28.000",
    "date_modified": "2022-01-13T18:42:28.000",
    "request_status": "Pending",
    "responsible_agency": "Department of Public Works",
    "final_address": "1031 Sixth St",
    "address_councildis": "B",
    "status": "Pending",
    "rowid": "854016",
    "final_x": "3676713.55835",
    "final_y": "520468.180728",
    "longitude": "-90.0835648216669",
    "latitude": "29.9252512808144",
    "geocoded_column": {
      "latitude": "29.9252512808144",
      "longitude": "-90.0835648216669"
    }
  },
  {
    "service_request": "2022-854015",
    "request_type": "Trash/Recycling",
    "request_reason": "Missed Trash Pick-Up",
    "date_created": "2022-01-13T18:39:43.000",
    "date_modified": "2022-01-13T18:39:44.000",
    "request_status": "Pending",
    "responsible_agency": "Department of Sanitation",
    "final_address": "2609 Hyman Pl",
    "address_councildis": "C",
    "status": "Assigned to Contractor",
    "contractor": "Richards Disposal",
    "rowid": "854015",
    "final_x": "3700995.98231",
    "final_y": "521519.314617",
    "longitude": "-90.00687500348562",
    "latitude": "29.92739095768829",
    "geocoded_column": {
      "latitude": "29.92739095768829",
      "longitude": "-90.00687500348562"
    }
  },
  {
    "service_request": "2022-854014",
    "request_type": "Trash/Recycling",
    "request_reason": "Request a Large Item Pick Up",
    "date_created": "2022-01-13T18:37:36.000",
    "date_modified": "2022-01-13T18:37:37.000",
    "request_status": "Pending",
    "responsible_agency": "Department of Sanitation",
    "final_address": "4719 Chestnut St",
    "address_councildis": "B",
    "status": "Assigned to Contractor",
    "contractor": "Richards Disposal",
    "rowid": "854014",
    "final_x": "3669697.47559",
    "final_y": "519442.163575",
    "longitude": "-90.10574713430512",
    "latitude": "29.922638612556913",
    "geocoded_column": {
      "latitude": "29.922638612556913",
      "longitude": "-90.10574713430512"
    }
  },
  {
    "service_request": "2022-854013",
    "request_type": "Traffic Signals/Signs/Striping/Streetlights",
    "request_reason": "Request for Traffic Calming due to Speeding",
    "date_created": "2022-01-13T17:55:20.000",
    "date_modified": "2022-01-13T17:55:20.000",
    "request_status": "Pending",
    "responsible_agency": "Department of Public Works",
    "final_address": "2731 Ridgeway Blvd",
    "address_councildis": "E",
    "status": "Pending",
    "rowid": "854013",
    "final_x": "3744401.64846",
    "final_y": "594449.698621",
    "longitude": "-89.8669107357605",
    "latitude": "30.12646540632029",
    "geocoded_column": {
      "latitude": "30.12646540632029",
      "longitude": "-89.8669107357605"
    }
  },
  {
    "service_request": "2022-854012",
    "request_type": "Trash/Recycling",
    "request_reason": "Request a Large Item Pick Up",
    "date_created": "2022-01-13T17:46:31.000",
    "date_modified": "2022-01-13T17:46:32.000",
    "request_status": "Pending",
    "responsible_agency": "Department of Sanitation",
    "final_address": "3535 St Anthony Ave",
    "address_councildis": "D",
    "status": "Assigned to Contractor",
    "contractor": "Metro Disposal",
    "rowid": "854012",
    "final_x": "3682839.83221",
    "final_y": "545727.6676",
    "longitude": "-90.06334238377242",
    "latitude": "29.994521077493637",
    "geocoded_column": {
      "latitude": "29.994521077493637",
      "longitude": "-90.06334238377242"
    }
  },
  {
    "service_request": "2022-854011",
    "request_type": "Roads/Drainage",
    "request_reason": "Damaged Sidewalk",
    "date_created": "2022-01-13T17:21:28.000",
    "date_modified": "2022-01-13T17:21:28.000",
    "request_status": "Pending",
    "responsible_agency": "Department of Public Works",
    "final_address": "602 Lang St",
    "address_councildis": "C",
    "status": "Pending",
    "rowid": "854011",
    "final_x": "3702116.29873",
    "final_y": "520752.265593",
    "longitude": "-90.00336657353259",
    "latitude": "29.925246129953624",
    "geocoded_column": {
      "latitude": "29.925246129953624",
      "longitude": "-90.00336657353259"
    }
  },
  {
    "service_request": "2022-854010",
    "request_type": "Trash/Recycling",
    "request_reason": "Replace Trash Cart",
    "date_created": "2022-01-13T17:21:11.000",
    "date_modified": "2022-01-13T17:21:12.000",
    "request_status": "Pending",
    "responsible_agency": "Department of Sanitation",
    "final_address": "2438 Tennessee St",
    "address_councildis": "E",
    "status": "Assigned to Contractor",
    "contractor": "Metro Disposal",
    "rowid": "854010",
    "final_x": "3697083.87312",
    "final_y": "539506.58945",
    "longitude": "-90.01857296925819",
    "latitude": "29.976973592503786",
    "geocoded_column": {
      "latitude": "29.976973592503786",
      "longitude": "-90.01857296925819"
    }
  },
  {
    "service_request": "2022-854009",
    "request_type": "Property Maintenance",
    "request_reason": "Property Maintenance",
    "date_created": "2022-01-13T17:20:12.000",
    "date_modified": "2022-01-13T17:20:12.000",
    "request_status": "Pending",
    "responsible_agency": "Department of Code Enforcement",
    "final_address": "320 S Lopez St",
    "address_councildis": "B",
    "status": "Pending",
    "rowid": "854009",
    "final_x": "3673288.29416",
    "final_y": "535399.247046",
    "longitude": "-90.09386747605328",
    "latitude": "29.96640908716724",
    "geocoded_column": {
      "latitude": "29.96640908716724",
      "longitude": "-90.09386747605328"
    }
  },
  {
    "service_request": "2022-854008",
    "request_type": "Abandoned Vehicles",
    "request_reason": "Vehicle Blocking Your Driveway",
    "date_created": "2022-01-13T17:18:44.000",
    "date_modified": "2022-01-13T18:52:04.000",
    "request_status": "Pending",
    "responsible_agency": "Department of Public Works",
    "final_address": "New Orleans,LA",
    "address_councildis": "A",
    "rowid": "854008",
    "final_x": "3667223.19265",
    "final_y": "534724.903366",
    "longitude": "-90.1130437250619",
    "latitude": "29.964733867916205",
    "geocoded_column": {
      "latitude": "29.964733867916205",
      "longitude": "-90.1130437250619"
    }
  },
  {
    "service_request": "2022-854007",
    "request_type": "Abandoned Vehicles",
    "request_reason": "Abandoned/Junk Vehicles",
    "date_created": "2022-01-13T17:12:18.000",
    "date_modified": "2022-01-13T17:12:18.000",
    "request_status": "Pending",
    "responsible_agency": "Department of Public Works",
    "final_address": "13800 Old Gentilly Rd",
    "address_councildis": "E",
    "status": "Pending",
    "rowid": "854007",
    "final_x": "3727435.23309",
    "final_y": "556225.911066",
    "longitude": "-89.92206478628862",
    "latitude": "30.02195259142992",
    "geocoded_column": {
      "latitude": "30.02195259142992",
      "longitude": "-89.92206478628862"
    }
  },
  {
    "service_request": "2022-854006",
    "request_type": "Trash/Recycling",
    "request_reason": "Request a Large Item Pick Up",
    "date_created": "2022-01-13T17:03:57.000",
    "date_modified": "2022-01-13T17:03:57.000",
    "request_status": "Pending",
    "responsible_agency": "Department of Sanitation",
    "final_address": "5822 Franklin Ave",
    "address_councildis": "D",
    "status": "Assigned to Contractor",
    "contractor": "Metro Disposal",
    "rowid": "854006",
    "final_x": "3686372.12476",
    "final_y": "554632.945944",
    "longitude": "-90.05186973499667",
    "latitude": "30.01889923029072",
    "geocoded_column": {
      "latitude": "30.01889923029072",
      "longitude": "-90.05186973499667"
    }
  },
  {
    "service_request": "2022-854005",
    "request_type": "Roads/Drainage",
    "request_reason": "Pothole",
    "date_created": "2022-01-13T17:03:41.000",
    "date_modified": "2022-01-13T17:03:41.000",
    "request_status": "Pending",
    "responsible_agency": "Department of Public Works",
    "final_address": "8736 Birch St",
    "address_councildis": "A",
    "status": "Pending",
    "rowid": "854005",
    "final_x": "3661117.12058",
    "final_y": "531000.965186",
    "longitude": "-90.13244963918423",
    "latitude": "29.95467163741844",
    "geocoded_column": {
      "latitude": "29.95467163741844",
      "longitude": "-90.13244963918423"
    }
  },
  {
    "service_request": "2022-854004",
    "request_type": "Trash/Recycling",
    "request_reason": "Order Recycling Cart",
    "date_created": "2022-01-13T17:01:50.000",
    "date_modified": "2022-01-13T17:01:51.000",
    "request_status": "Pending",
    "responsible_agency": "Department of Sanitation",
    "final_address": "312 S Broad St",
    "address_councildis": "B",
    "status": "Pending",
    "rowid": "854004",
    "final_x": "3674898.30734",
    "final_y": "534294.436677",
    "longitude": "-90.0888209657946",
    "latitude": "29.963323245864768",
    "geocoded_column": {
      "latitude": "29.963323245864768",
      "longitude": "-90.0888209657946"
    }
  },
  {
    "service_request": "2022-854002",
    "request_type": "Abandoned Vehicles",
    "request_reason": "Abandoned/Junk Vehicles",
    "date_created": "2022-01-13T16:56:11.000",
    "date_modified": "2022-01-13T16:56:12.000",
    "request_status": "Pending",
    "responsible_agency": "Department of Public Works",
    "final_address": "2017 Piety St",
    "address_councildis": "D",
    "status": "Pending",
    "rowid": "854002",
    "final_x": "3690760.65577",
    "final_y": "539289.255178",
    "longitude": "-90.03855139633458",
    "latitude": "29.97657398308778",
    "geocoded_column": {
      "latitude": "29.97657398308778",
      "longitude": "-90.03855139633458"
    }
  },
  {
    "service_request": "2022-854001",
    "request_type": "Abandoned Vehicles",
    "request_reason": "Abandoned/Junk Vehicles",
    "date_created": "2022-01-13T16:53:25.000",
    "date_modified": "2022-01-13T16:53:25.000",
    "request_status": "Pending",
    "responsible_agency": "Department of Public Works",
    "final_address": "4000 BLK Ulloa St",
    "address_councildis": "A",
    "status": "Pending",
    "rowid": "854001",
    "final_x": "3669805.09178",
    "final_y": "536363.681325",
    "longitude": "-90.10483475490987",
    "latitude": "29.969164101392085",
    "geocoded_column": {
      "latitude": "29.969164101392085",
      "longitude": "-90.10483475490987"
    }
  },
  {
    "service_request": "2022-854000",
    "request_type": "Trash/Recycling",
    "request_reason": "MIssed Recycling Pick-Up",
    "date_created": "2022-01-13T16:53:20.000",
    "date_modified": "2022-01-13T16:53:20.000",
    "request_status": "Pending",
    "responsible_agency": "Department of Sanitation",
    "final_address": "1115 Valmont St",
    "address_councildis": "B",
    "status": "Assigned to Contractor",
    "contractor": "Richards Disposal",
    "rowid": "854000",
    "final_x": "3667645.39969",
    "final_y": "519473.565495",
    "longitude": "-90.11222368431382",
    "latitude": "29.922785249376343",
    "geocoded_column": {
      "latitude": "29.922785249376343",
      "longitude": "-90.11222368431382"
    }
  },
  {
    "service_request": "2022-853998",
    "request_type": "Trash/Recycling",
    "request_reason": "Repair Recycling Cart",
    "date_created": "2022-01-13T16:49:37.000",
    "date_modified": "2022-01-13T16:49:38.000",
    "request_status": "Pending",
    "responsible_agency": "Department of Sanitation",
    "final_address": "5947 Providence Pl",
    "address_councildis": "D",
    "status": "Pending",
    "rowid": "853998",
    "final_x": "3688241.99907",
    "final_y": "555330.412889",
    "longitude": "-90.04593684800294",
    "latitude": "30.020759372741175",
    "geocoded_column": {
      "latitude": "30.020759372741175",
      "longitude": "-90.04593684800294"
    }
  },
  {
    "service_request": "2022-853997",
    "request_type": "Property Maintenance",
    "request_reason": "Property Maintenance",
    "date_created": "2022-01-13T16:48:45.000",
    "date_modified": "2022-01-13T16:48:45.000",
    "request_status": "Pending",
    "responsible_agency": "Department of Code Enforcement",
    "final_address": "5224 Tchoupitoulas St",
    "address_councildis": "B",
    "status": "Pending",
    "rowid": "853997",
    "final_x": "3667772.06253",
    "final_y": "517149.884021",
    "longitude": "-90.11190204674669",
    "latitude": "29.91639214409823",
    "geocoded_column": {
      "latitude": "29.91639214409823",
      "longitude": "-90.11190204674669"
    }
  },
  {
    "service_request": "2022-853996",
    "request_type": "Trash/Recycling",
    "request_reason": "Missed Trash Pick-Up",
    "date_created": "2022-01-13T16:45:15.000",
    "date_modified": "2022-01-13T16:45:16.000",
    "request_status": "Pending",
    "responsible_agency": "Department of Sanitation",
    "final_address": "6969 Argonne Blvd",
    "address_councildis": "A",
    "status": "Assigned to Contractor",
    "contractor": "Metro Disposal",
    "rowid": "853996",
    "final_x": "3670825.92135",
    "final_y": "553724.585687",
    "longitude": "-90.10102124727939",
    "latitude": "30.016870459848366",
    "geocoded_column": {
      "latitude": "30.016870459848366",
      "longitude": "-90.10102124727939"
    }
  },
  {
    "service_request": "2022-853995",
    "request_type": "Property Maintenance",
    "request_reason": "Property Maintenance",
    "date_created": "2022-01-13T16:40:32.000",
    "date_modified": "2022-01-13T16:40:32.000",
    "request_status": "Pending",
    "responsible_agency": "Department of Code Enforcement",
    "final_address": "2044 Hope St",
    "address_councildis": "D",
    "status": "Pending",
    "rowid": "853995",
    "final_x": "3682797.22485",
    "final_y": "542032.579404",
    "longitude": "-90.06360631808069",
    "latitude": "29.984362190206674",
    "geocoded_column": {
      "latitude": "29.984362190206674",
      "longitude": "-90.06360631808069"
    }
  },
  {
    "service_request": "2022-853994",
    "request_type": "Trash/Recycling",
    "request_reason": "Illegal Dumping",
    "date_created": "2022-01-13T16:37:20.000",
    "date_modified": "2022-01-13T18:48:23.000",
    "request_status": "Pending",
    "responsible_agency": "Department of Sanitation",
    "final_address": "New Orleans,LA",
    "address_councildis": "E",
    "rowid": "853994",
    "final_x": "3716325.8",
    "final_y": "558449.78",
    "longitude": "-89.95708294067948",
    "latitude": "30.028438893641248",
    "geocoded_column": {
      "latitude": "30.028438893641248",
      "longitude": "-89.95708294067948"
    }
  },
  {
    "service_request": "2022-853993",
    "request_type": "Property Maintenance",
    "request_reason": "Property Maintenance",
    "date_created": "2022-01-13T16:36:39.000",
    "date_modified": "2022-01-13T16:36:39.000",
    "request_status": "Pending",
    "responsible_agency": "Department of Code Enforcement",
    "final_address": "2639 Annette St",
    "address_councildis": "D",
    "status": "Pending",
    "rowid": "853993",
    "final_x": "3682708.21461",
    "final_y": "542007.537228",
    "longitude": "-90.06388833768364",
    "latitude": "29.984296044811938",
    "geocoded_column": {
      "latitude": "29.984296044811938",
      "longitude": "-90.06388833768364"
    }
  },
  {
    "service_request": "2022-853992",
    "request_type": "Property Maintenance",
    "request_reason": "Property Maintenance",
    "date_created": "2022-01-13T16:34:44.000",
    "date_modified": "2022-01-13T16:34:44.000",
    "request_status": "Pending",
    "responsible_agency": "Department of Code Enforcement",
    "final_address": "2625 Annette St",
    "address_councildis": "D",
    "status": "Pending",
    "rowid": "853992",
    "final_x": "3682715.66453",
    "final_y": "541908.639372",
    "longitude": "-90.06386826751161",
    "latitude": "29.984023883517605",
    "geocoded_column": {
      "latitude": "29.984023883517605",
      "longitude": "-90.06386826751161"
    }
  },
  {
    "service_request": "2022-853991",
    "request_type": "Trash/Recycling",
    "request_reason": "Order Trash Cart",
    "date_created": "2022-01-13T16:31:40.000",
    "date_modified": "2022-01-13T16:31:41.000",
    "request_status": "Pending",
    "responsible_agency": "Department of Sanitation",
    "final_address": "3628 Third St",
    "address_councildis": "B",
    "status": "Assigned to Contractor",
    "contractor": "Richards Disposal",
    "rowid": "853991",
    "final_x": "3672391.98727",
    "final_y": "528935.078976",
    "longitude": "-90.09691827980195",
    "latitude": "29.94866140201792",
    "geocoded_column": {
      "latitude": "29.94866140201792",
      "longitude": "-90.09691827980195"
    }
  },
  {
    "service_request": "2022-853990",
    "request_type": "Trash/Recycling",
    "request_reason": "Order Trash Cart",
    "date_created": "2022-01-13T16:28:39.000",
    "date_modified": "2022-01-13T16:28:40.000",
    "request_status": "Pending",
    "responsible_agency": "Department of Sanitation",
    "final_address": "1200 St Maurice Ave",
    "address_councildis": "E",
    "status": "Assigned to Contractor",
    "contractor": "Metro Disposal",
    "rowid": "853990",
    "final_x": "3699932.52599",
    "final_y": "533551.562373",
    "longitude": "-90.0097933166959",
    "latitude": "29.96050922931169",
    "geocoded_column": {
      "latitude": "29.96050922931169",
      "longitude": "-90.0097933166959"
    }
  },
  {
    "service_request": "2022-853989",
    "request_type": "Trash/Recycling",
    "request_reason": "Repair Trash Cart",
    "date_created": "2022-01-13T16:28:01.000",
    "date_modified": "2022-01-13T16:28:01.000",
    "request_status": "Pending",
    "responsible_agency": "Department of Sanitation",
    "final_address": "25386 Chef Menteur Hwy",
    "address_councildis": "E",
    "status": "Assigned to Contractor",
    "contractor": "Metro Disposal",
    "rowid": "853989",
    "final_x": "3779898.20152",
    "final_y": "598988.065537",
    "longitude": "-89.75443909532356",
    "latitude": "30.137646710900967",
    "geocoded_column": {
      "latitude": "30.137646710900967",
      "longitude": "-89.75443909532356"
    }
  },
  {
    "service_request": "2022-853988",
    "request_type": "Trash/Recycling",
    "request_reason": "Request a Large Item Pick Up",
    "date_created": "2022-01-13T16:22:35.000",
    "date_modified": "2022-01-13T16:22:36.000",
    "request_status": "Pending",
    "responsible_agency": "Department of Sanitation",
    "final_address": "215 N Scott St, New Orleans, Louisiana, 70119",
    "address_councildis": "A",
    "status": "Assigned to Contractor",
    "contractor": "Richards Disposal",
    "rowid": "853988",
    "final_x": "3672094.47515",
    "final_y": "538298.905801",
    "longitude": "-90.09753878726475",
    "latitude": "29.974417625348313",
    "geocoded_column": {
      "latitude": "29.974417625348313",
      "longitude": "-90.09753878726475"
    }
  },
  {
    "service_request": "2022-853987",
    "request_type": "Trash/Recycling",
    "request_reason": "Request a Large Item Pick Up",
    "date_created": "2022-01-13T16:21:04.000",
    "date_modified": "2022-01-13T16:21:05.000",
    "request_status": "Pending",
    "responsible_agency": "Department of Sanitation",
    "final_address": "215 N Scott St, New Orleans, Louisiana, 70119",
    "address_councildis": "A",
    "status": "Assigned to Contractor",
    "contractor": "Richards Disposal",
    "rowid": "853987",
    "final_x": "3672094.47515",
    "final_y": "538298.905801",
    "longitude": "-90.09753878726475",
    "latitude": "29.974417625348313",
    "geocoded_column": {
      "latitude": "29.974417625348313",
      "longitude": "-90.09753878726475"
    }
  },
  {
    "service_request": "2022-853984",
    "request_type": "Parks & Parkways",
    "request_reason": "Request Tree Service (Right of Way/Public Property)",
    "date_created": "2022-01-13T16:17:45.000",
    "date_modified": "2022-01-13T16:17:46.000",
    "request_status": "Pending",
    "responsible_agency": "Department of Parks & Parkway",
    "final_address": "1632 S Norman C Francis Prkwy",
    "address_councildis": "B",
    "status": "Pending",
    "contractor": "Richards Disposal",
    "rowid": "853984",
    "final_x": "3669459.2866",
    "final_y": "531050.835714",
    "longitude": "-90.1061065368754",
    "latitude": "29.954565727680126",
    "geocoded_column": {
      "latitude": "29.954565727680126",
      "longitude": "-90.1061065368754"
    }
  },
  {
    "service_request": "2022-853983",
    "request_type": "Trash/Recycling",
    "request_reason": "Replace Trash Cart",
    "date_created": "2022-01-13T16:13:24.000",
    "date_modified": "2022-01-13T16:13:25.000",
    "request_status": "Pending",
    "responsible_agency": "Department of Sanitation",
    "final_address": "1632 S Norman C Francis Prkwy",
    "address_councildis": "B",
    "status": "Assigned to Contractor",
    "contractor": "Richards Disposal",
    "rowid": "853983",
    "final_x": "3669459.2866",
    "final_y": "531050.835714",
    "longitude": "-90.1061065368754",
    "latitude": "29.954565727680126",
    "geocoded_column": {
      "latitude": "29.954565727680126",
      "longitude": "-90.1061065368754"
    }
  },
  {
    "service_request": "2022-853982",
    "request_type": "Traffic Signals/Signs/Striping/Streetlights",
    "request_reason": "Street Light Outage/Malfunction",
    "date_created": "2022-01-13T16:09:31.000",
    "date_modified": "2022-01-13T16:09:31.000",
    "request_status": "Pending",
    "responsible_agency": "Department of Public Works",
    "final_address": "2439 Spain St",
    "address_councildis": "D",
    "status": "Pending",
    "contractor": "Royal Engineering",
    "rowid": "853982",
    "final_x": "3685769.51426",
    "final_y": "541517.936652",
    "longitude": "-90.0542363473136",
    "latitude": "29.98285620607596",
    "geocoded_column": {
      "latitude": "29.98285620607596",
      "longitude": "-90.0542363473136"
    }
  },
  {
    "service_request": "2022-853981",
    "request_type": "Traffic Signals/Signs/Striping/Streetlights",
    "request_reason": "Traffic Signal Malfunctioning/Damaged",
    "date_created": "2022-01-13T16:05:37.000",
    "date_modified": "2022-01-13T16:05:37.000",
    "request_status": "Pending",
    "responsible_agency": "Department of Public Works",
    "final_address": "CALLIOPE ST & BARONNE ST & PONTCH W ONRAMP",
    "address_councildis": "B",
    "status": "Pending",
    "rowid": "853981",
    "final_x": "3679191.1",
    "final_y": "527228.18",
    "longitude": "-90.07550976107818",
    "latitude": "29.94376451706161",
    "geocoded_column": {
      "latitude": "29.94376451706161",
      "longitude": "-90.07550976107818"
    }
  },
  {
    "service_request": "2022-853980",
    "request_type": "Trash/Recycling",
    "request_reason": "Repair Trash Cart",
    "date_created": "2022-01-13T16:02:11.000",
    "date_modified": "2022-01-13T16:02:11.000",
    "request_status": "Pending",
    "responsible_agency": "Department of Sanitation",
    "final_address": "6329 Dwyer Rd",
    "address_councildis": "D",
    "status": "Assigned to Contractor",
    "contractor": "Metro Disposal",
    "rowid": "853980",
    "final_x": "3697681.95555",
    "final_y": "555239.427225",
    "longitude": "-90.01611283359381",
    "latitude": "30.020214187951225",
    "geocoded_column": {
      "latitude": "30.020214187951225",
      "longitude": "-90.01611283359381"
    }
  },
  {
    "service_request": "2022-853979",
    "request_type": "Traffic Signals/Signs/Striping/Streetlights",
    "request_reason": "Street Light Outage/Malfunction",
    "date_created": "2022-01-13T16:02:01.000",
    "date_modified": "2022-01-13T16:02:01.000",
    "request_status": "Pending",
    "responsible_agency": "Department of Public Works",
    "final_address": "3124 Bennett St",
    "address_councildis": "C",
    "status": "Pending",
    "contractor": "Royal Engineering",
    "rowid": "853979",
    "final_x": "3710578.78673",
    "final_y": "519114.250487",
    "longitude": "-89.97671466225577",
    "latitude": "29.92046937150541",
    "geocoded_column": {
      "latitude": "29.92046937150541",
      "longitude": "-89.97671466225577"
    }
  },
  {
    "service_request": "2022-853978",
    "request_type": "Trash/Recycling",
    "request_reason": "Replace Trash Cart",
    "date_created": "2022-01-13T15:56:28.000",
    "date_modified": "2022-01-13T15:56:28.000",
    "request_status": "Pending",
    "responsible_agency": "Department of Sanitation",
    "final_address": "7337 Hickman St",
    "address_councildis": "E",
    "status": "Assigned to Contractor",
    "contractor": "Metro Disposal",
    "rowid": "853978",
    "final_x": "3706564.01579",
    "final_y": "562710.296864",
    "longitude": "-89.9877713262298",
    "latitude": "30.04047241041024",
    "geocoded_column": {
      "latitude": "30.04047241041024",
      "longitude": "-89.9877713262298"
    }
  },
  {
    "service_request": "2022-853977",
    "request_type": "Trash/Recycling",
    "request_reason": "Repair Trash Cart",
    "date_created": "2022-01-13T15:53:44.000",
    "date_modified": "2022-01-13T15:53:45.000",
    "request_status": "Pending",
    "responsible_agency": "Department of Sanitation",
    "final_address": "616 Vallette St",
    "address_councildis": "C",
    "status": "Assigned to Contractor",
    "contractor": "Richards Disposal",
    "rowid": "853977",
    "final_x": "3687542.26786",
    "final_y": "529373.924033",
    "longitude": "-90.04906701568801",
    "latitude": "29.949409869085446",
    "geocoded_column": {
      "latitude": "29.949409869085446",
      "longitude": "-90.04906701568801"
    }
  },
  {
    "service_request": "2022-853976",
    "request_type": "Trash/Recycling",
    "request_reason": "MIssed Recycling Pick-Up",
    "date_created": "2022-01-13T15:52:08.000",
    "date_modified": "2022-01-13T15:52:12.000",
    "request_status": "Pending",
    "responsible_agency": "Department of Sanitation",
    "final_address": "6016 St Charles Ave",
    "address_councildis": "A",
    "status": "Assigned to Contractor",
    "contractor": "Richards Disposal",
    "rowid": "853976",
    "final_x": "3665536.5257",
    "final_y": "522450.08089",
    "longitude": "-90.11878100278054",
    "latitude": "29.931031355859783",
    "geocoded_column": {
      "latitude": "29.931031355859783",
      "longitude": "-90.11878100278054"
    }
  },
  {
    "service_request": "2022-853975",
    "request_type": "Abandoned Vehicles",
    "request_reason": "Abandoned/Junk Vehicles",
    "date_created": "2022-01-13T15:50:30.000",
    "date_modified": "2022-01-13T15:50:30.000",
    "request_status": "Pending",
    "responsible_agency": "Department of Public Works",
    "final_address": "3708 Constance St",
    "address_councildis": "B",
    "status": "Pending",
    "rowid": "853975",
    "final_x": "3673690.3012",
    "final_y": "518700.091255",
    "longitude": "-90.09316871014238",
    "latitude": "29.920479925019833",
    "geocoded_column": {
      "latitude": "29.920479925019833",
      "longitude": "-90.09316871014238"
    }
  },
  {
    "service_request": "2022-853974",
    "request_type": "Trash/Recycling",
    "request_reason": "Request a Large Item Pick Up",
    "date_created": "2022-01-13T15:48:40.000",
    "date_modified": "2022-01-13T15:48:41.000",
    "request_status": "Pending",
    "responsible_agency": "Department of Sanitation",
    "final_address": "1537 Cambronne St",
    "address_councildis": "A",
    "status": "Assigned to Contractor",
    "contractor": "Richards Disposal",
    "rowid": "853974",
    "final_x": "3662101.08845",
    "final_y": "530063.571201",
    "longitude": "-90.12937373355278",
    "latitude": "29.952065713974175",
    "geocoded_column": {
      "latitude": "29.952065713974175",
      "longitude": "-90.12937373355278"
    }
  },
  {
    "service_request": "2022-853973",
    "request_type": "Traffic Signals/Signs/Striping/Streetlights",
    "request_reason": "Request for Stop Sign",
    "date_created": "2022-01-13T15:47:50.000",
    "date_modified": "2022-01-13T15:47:50.000",
    "request_status": "Pending",
    "responsible_agency": "Department of Public Works",
    "final_address": "2900 Perdido St",
    "address_councildis": "B",
    "status": "Pending",
    "rowid": "853973",
    "final_x": "3672670.67566",
    "final_y": "533394.539396",
    "longitude": "-90.09588627974152",
    "latitude": "29.960915168149832",
    "geocoded_column": {
      "latitude": "29.960915168149832",
      "longitude": "-90.09588627974152"
    }
  },
  {
    "service_request": "2022-853972",
    "request_type": "Traffic Signals/Signs/Striping/Streetlights",
    "request_reason": "Traffic Sign Missing/Damaged",
    "date_created": "2022-01-13T15:44:20.000",
    "date_modified": "2022-01-13T15:44:20.000",
    "request_status": "Pending",
    "responsible_agency": "Department of Public Works",
    "final_address": "2500 Dumaine St",
    "address_councildis": "D",
    "status": "Pending",
    "rowid": "853972",
    "final_x": "3677912.21173",
    "final_y": "536903.357896",
    "longitude": "-90.07921321866425",
    "latitude": "29.9704065382151",
    "geocoded_column": {
      "latitude": "29.9704065382151",
      "longitude": "-90.07921321866425"
    }
  },
  {
    "service_request": "2022-853971",
    "request_type": "Abandoned Vehicles",
    "request_reason": "Abandoned/Junk Vehicles",
    "date_created": "2022-01-13T15:37:30.000",
    "date_modified": "2022-01-13T15:37:30.000",
    "request_status": "Pending",
    "responsible_agency": "Department of Public Works",
    "final_address": "2100 BLK Constance St",
    "address_councildis": "B",
    "status": "Pending",
    "rowid": "853971",
    "final_x": "3679240.13525",
    "final_y": "521906.509124",
    "longitude": "-90.07553937927933",
    "latitude": "29.92913019843546",
    "geocoded_column": {
      "latitude": "29.92913019843546",
      "longitude": "-90.07553937927933"
    }
  },
  {
    "service_request": "2022-853970",
    "request_type": "Trash/Recycling",
    "request_reason": "MIssed Recycling Pick-Up",
    "date_created": "2022-01-13T15:34:20.000",
    "date_modified": "2022-01-13T15:34:21.000",
    "request_status": "Pending",
    "responsible_agency": "Department of Sanitation",
    "final_address": "5826 Clara St",
    "address_councildis": "A",
    "status": "Assigned to Contractor",
    "contractor": "Richards Disposal",
    "rowid": "853970",
    "final_x": "3666914.57978",
    "final_y": "525225.735933",
    "longitude": "-90.11433743670578",
    "latitude": "29.938623284611396",
    "geocoded_column": {
      "latitude": "29.938623284611396",
      "longitude": "-90.11433743670578"
    }
  },
  {
    "service_request": "2022-853968",
    "request_type": "Abandoned Vehicles",
    "request_reason": "Abandoned/Junk Vehicles",
    "date_created": "2022-01-13T15:30:38.000",
    "date_modified": "2022-01-13T15:30:38.000",
    "request_status": "Pending",
    "responsible_agency": "Department of Public Works",
    "final_address": "3470 Caesar Dr",
    "address_councildis": "C",
    "status": "Pending",
    "rowid": "853968",
    "final_x": "3696949.86019",
    "final_y": "524166.929084",
    "longitude": "-90.01955170472985",
    "latitude": "29.934799160726012",
    "geocoded_column": {
      "latitude": "29.934799160726012",
      "longitude": "-90.01955170472985"
    }
  },
  {
    "service_request": "2022-853967",
    "request_type": "Trash/Recycling",
    "request_reason": "Replace Trash Cart",
    "date_created": "2022-01-13T15:27:27.000",
    "date_modified": "2022-01-13T15:27:27.000",
    "request_status": "Pending",
    "responsible_agency": "Department of Sanitation",
    "final_address": "2933 Joliet St",
    "address_councildis": "A",
    "status": "Assigned to Contractor",
    "contractor": "Richards Disposal",
    "rowid": "853967",
    "final_x": "3665220.01383",
    "final_y": "534020.035589",
    "longitude": "-90.11939323654221",
    "latitude": "29.9628542207948",
    "geocoded_column": {
      "latitude": "29.9628542207948",
      "longitude": "-90.11939323654221"
    }
  },
  {
    "service_request": "2022-853966",
    "request_type": "Trash/Recycling",
    "request_reason": "Return Recycling Cart",
    "date_created": "2022-01-13T15:26:44.000",
    "date_modified": "2022-01-13T15:26:44.000",
    "request_status": "Pending",
    "responsible_agency": "Department of Sanitation",
    "final_address": "3464 Esplanade Ave",
    "address_councildis": "A",
    "status": "Pending",
    "rowid": "853966",
    "final_x": "3674973.62664",
    "final_y": "541368.031884",
    "longitude": "-90.0883404100238",
    "latitude": "29.982770974318072",
    "geocoded_column": {
      "latitude": "29.982770974318072",
      "longitude": "-90.0883404100238"
    }
  },
  {
    "service_request": "2022-853965",
    "request_type": "Trash/Recycling",
    "request_reason": "Illegal Dumping",
    "date_created": "2022-01-13T15:23:08.000",
    "date_modified": "2022-01-13T15:23:09.000",
    "request_status": "Pending",
    "responsible_agency": "Department of Sanitation",
    "final_address": "GENERAL DE GAULLE DR & KABEL DR",
    "address_councildis": "C",
    "status": "Pending",
    "rowid": "853965",
    "final_x": "3700602.7",
    "final_y": "517489.68",
    "longitude": "-90.00826359187937",
    "latitude": "29.916323357455582",
    "geocoded_column": {
      "latitude": "29.916323357455582",
      "longitude": "-90.00826359187937"
    }
  },
  {
    "service_request": "2022-853964",
    "request_type": "Trash/Recycling",
    "request_reason": "Request a Large Item Pick Up",
    "date_created": "2022-01-13T15:22:51.000",
    "date_modified": "2022-01-13T15:22:51.000",
    "request_status": "Pending",
    "responsible_agency": "Department of Sanitation",
    "final_address": "4524 St Anthony Ave",
    "address_councildis": "D",
    "status": "Assigned to Contractor",
    "contractor": "Metro Disposal",
    "rowid": "853964",
    "final_x": "3682380.51893",
    "final_y": "549284.103251",
    "longitude": "-90.0646689101404",
    "latitude": "30.004313994099167",
    "geocoded_column": {
      "latitude": "30.004313994099167",
      "longitude": "-90.0646689101404"
    }
  },
  {
    "service_request": "2022-853962",
    "request_type": "Trash/Recycling",
    "request_reason": "Illegal Dumping",
    "date_created": "2022-01-13T15:20:40.000",
    "date_modified": "2022-01-13T15:20:40.000",
    "request_status": "Pending",
    "responsible_agency": "Department of Sanitation",
    "final_address": "1934 Sixth St",
    "address_councildis": "B",
    "status": "Pending",
    "rowid": "853962",
    "final_x": "3674716.63649",
    "final_y": "523380.590395",
    "longitude": "-90.08976870345252",
    "latitude": "29.933319202684846",
    "geocoded_column": {
      "latitude": "29.933319202684846",
      "longitude": "-90.08976870345252"
    }
  },
  {
    "service_request": "2022-853960",
    "request_type": "Traffic Signals/Signs/Striping/Streetlights",
    "request_reason": "Traffic Sign Missing/Damaged",
    "date_created": "2022-01-13T15:17:22.000",
    "date_modified": "2022-01-13T15:17:22.000",
    "request_status": "Pending",
    "responsible_agency": "Department of Public Works",
    "final_address": "501 N Broad St",
    "address_councildis": "A",
    "status": "Pending",
    "rowid": "853960",
    "final_x": "3676145.21921",
    "final_y": "536330.022343",
    "longitude": "-90.08481331282387",
    "latitude": "29.968883119700866",
    "geocoded_column": {
      "latitude": "29.968883119700866",
      "longitude": "-90.08481331282387"
    }
  },
  {
    "service_request": "2022-853958",
    "request_type": "Trash/Recycling",
    "request_reason": "Missed Trash Pick-Up",
    "date_created": "2022-01-13T15:10:48.000",
    "date_modified": "2022-01-13T15:10:49.000",
    "request_status": "Pending",
    "responsible_agency": "Department of Sanitation",
    "final_address": "831 Third St",
    "address_councildis": "B",
    "status": "Assigned to Contractor",
    "contractor": "Richards Disposal",
    "rowid": "853958",
    "final_x": "3678067.34875",
    "final_y": "520473.358264",
    "longitude": "-90.07929115387763",
    "latitude": "29.9252248468082",
    "geocoded_column": {
      "latitude": "29.9252248468082",
      "longitude": "-90.07929115387763"
    }
  },
  {
    "service_request": "2022-853957",
    "request_type": "Abandoned Vehicles",
    "request_reason": "Abandoned/Junk Vehicles",
    "date_created": "2022-01-13T15:10:47.000",
    "date_modified": "2022-01-13T15:10:47.000",
    "request_status": "Pending",
    "responsible_agency": "Department of Public Works",
    "final_address": "LAFRENIERE ST & MARIGNY ST",
    "address_councildis": "D",
    "status": "Pending",
    "rowid": "853957",
    "final_x": "3684675.9",
    "final_y": "545547.28",
    "longitude": "-90.05754882886455",
    "latitude": "29.99396899286492",
    "geocoded_column": {
      "latitude": "29.99396899286492",
      "longitude": "-90.05754882886455"
    }
  },
  {
    "service_request": "2022-853956",
    "request_type": "Abandoned Vehicles",
    "request_reason": "Abandoned/Junk Vehicles",
    "date_created": "2022-01-13T15:04:29.000",
    "date_modified": "2022-01-13T15:04:29.000",
    "request_status": "Pending",
    "responsible_agency": "Department of Public Works",
    "final_address": "938 Jourdan Ave",
    "address_councildis": "E",
    "status": "Pending",
    "rowid": "853956",
    "final_x": "3694814.05283",
    "final_y": "534034.842821",
    "longitude": "-90.02593893329619",
    "latitude": "29.9619996542102",
    "geocoded_column": {
      "latitude": "29.9619996542102",
      "longitude": "-90.02593893329619"
    }
  },
  {
    "service_request": "2022-853954",
    "request_type": "Trash/Recycling",
    "request_reason": "Replace Trash Cart",
    "date_created": "2022-01-13T14:58:58.000",
    "date_modified": "2022-01-13T14:58:58.000",
    "request_status": "Pending",
    "responsible_agency": "Department of Sanitation",
    "final_address": "1421 Prentiss Ave, New Orleans, Louisiana, 70122",
    "address_councildis": "D",
    "status": "Assigned to Contractor",
    "contractor": "Metro Disposal",
    "rowid": "853954",
    "final_x": "3677700.8948",
    "final_y": "553459.694871",
    "longitude": "-90.07930834716389",
    "latitude": "30.015937011081096",
    "geocoded_column": {
      "latitude": "30.015937011081096",
      "longitude": "-90.07930834716389"
    }
  },
  {
    "service_request": "2022-853953",
    "request_type": "Traffic Signals/Signs/Striping/Streetlights",
    "request_reason": "Street Light Knocked Down/Leaning",
    "date_created": "2022-01-13T14:58:08.000",
    "date_modified": "2022-01-13T14:58:09.000",
    "request_status": "Pending",
    "responsible_agency": "Department of Public Works",
    "final_address": "FLORIDA BLVD & MILNE BLVD",
    "address_councildis": "A",
    "status": "Pending",
    "contractor": "Royal Engineering",
    "rowid": "853953",
    "final_x": "3666864.1",
    "final_y": "545559.68",
    "longitude": "-90.11381356301412",
    "latitude": "29.99453636735655",
    "geocoded_column": {
      "latitude": "29.99453636735655",
      "longitude": "-90.11381356301412"
    }
  },
  {
    "service_request": "2022-853952",
    "request_type": "Parks & Parkways",
    "request_reason": "Request Tree Service (Right of Way/Public Property)",
    "date_created": "2022-01-13T14:55:40.000",
    "date_modified": "2022-01-13T14:55:41.000",
    "request_status": "Pending",
    "responsible_agency": "Department of Parks & Parkway",
    "final_address": "3000 Royal St",
    "address_councildis": "C",
    "status": "Pending",
    "rowid": "853952",
    "final_x": "3688135.98633",
    "final_y": "534573.426053",
    "longitude": "-90.04700808655522",
    "latitude": "29.96368839453506",
    "geocoded_column": {
      "latitude": "29.96368839453506",
      "longitude": "-90.04700808655522"
    }
  },
  {
    "service_request": "2022-853951",
    "request_type": "Traffic Signals/Signs/Striping/Streetlights",
    "request_reason": "Street Light Outage/Malfunction",
    "date_created": "2022-01-13T14:54:14.000",
    "date_modified": "2022-01-13T14:54:15.000",
    "request_status": "Pending",
    "responsible_agency": "Department of Public Works",
    "final_address": "306 Florida Blvd",
    "address_councildis": "A",
    "status": "Pending",
    "contractor": "Royal Engineering",
    "rowid": "853951",
    "final_x": "3666901.89044",
    "final_y": "545424.277584",
    "longitude": "-90.11369873993283",
    "latitude": "29.99416295112677",
    "geocoded_column": {
      "latitude": "29.99416295112677",
      "longitude": "-90.11369873993283"
    }
  },
  {
    "service_request": "2022-853950",
    "request_type": "Traffic Signals/Signs/Striping/Streetlights",
    "request_reason": "Street Light Outage/Malfunction",
    "date_created": "2022-01-13T14:52:45.000",
    "date_modified": "2022-01-13T14:52:46.000",
    "request_status": "Pending",
    "responsible_agency": "Department of Public Works",
    "final_address": "993 Crystal St",
    "address_councildis": "D",
    "status": "Pending",
    "contractor": "Royal Engineering",
    "rowid": "853950",
    "final_x": "3671518.51707",
    "final_y": "557163.762267",
    "longitude": "-90.09871584580539",
    "latitude": "30.026306465022707",
    "geocoded_column": {
      "latitude": "30.026306465022707",
      "longitude": "-90.09871584580539"
    }
  },
  {
    "service_request": "2022-853949",
    "request_type": "Trash/Recycling",
    "request_reason": "Request a Large Item Pick Up",
    "date_created": "2022-01-13T14:51:56.000",
    "date_modified": "2022-01-13T14:51:58.000",
    "request_status": "Pending",
    "responsible_agency": "Department of Sanitation",
    "final_address": "3000 Royal St",
    "address_councildis": "C",
    "status": "Assigned to Contractor",
    "contractor": "Metro Disposal",
    "rowid": "853949",
    "final_x": "3688135.98633",
    "final_y": "534573.426053",
    "longitude": "-90.04700808655522",
    "latitude": "29.96368839453506",
    "geocoded_column": {
      "latitude": "29.96368839453506",
      "longitude": "-90.04700808655522"
    }
  },
  {
    "service_request": "2022-853948",
    "request_type": "Trash/Recycling",
    "request_reason": "Order Recycling Cart",
    "date_created": "2022-01-13T14:49:12.000",
    "date_modified": "2022-01-13T14:49:12.000",
    "request_status": "Pending",
    "responsible_agency": "Department of Sanitation",
    "final_address": "551 Joseph St, New Orleans, Louisiana, 70115",
    "address_councildis": "A",
    "status": "Pending",
    "rowid": "853948",
    "final_x": "3666027.17191",
    "final_y": "518285.101942",
    "longitude": "-90.11737162159568",
    "latitude": "29.91956466725834",
    "geocoded_column": {
      "latitude": "29.91956466725834",
      "longitude": "-90.11737162159568"
    }
  },
  {
    "service_request": "2022-853947",
    "request_type": "Trash/Recycling",
    "request_reason": "Replace Trash Cart",
    "date_created": "2022-01-13T14:41:42.000",
    "date_modified": "2022-01-13T14:41:42.000",
    "request_status": "Pending",
    "responsible_agency": "Department of Sanitation",
    "final_address": "1422 St Bernard Ave",
    "address_councildis": "C",
    "status": "Assigned to Contractor",
    "contractor": "Metro Disposal",
    "rowid": "853947",
    "final_x": "3682441.8326",
    "final_y": "537273.132168",
    "longitude": "-90.06489525639716",
    "latitude": "29.971286193466362",
    "geocoded_column": {
      "latitude": "29.971286193466362",
      "longitude": "-90.06489525639716"
    }
  },
  {
    "service_request": "2022-853946",
    "request_type": "Trash/Recycling",
    "request_reason": "Start Trash Service",
    "date_created": "2022-01-13T14:40:20.000",
    "date_modified": "2022-01-13T14:40:21.000",
    "request_status": "Pending",
    "responsible_agency": "Department of Sanitation",
    "final_address": "1422 St Bernard Ave",
    "address_councildis": "C",
    "status": "Assigned to Contractor",
    "contractor": "Metro Disposal",
    "rowid": "853946",
    "final_x": "3682441.8326",
    "final_y": "537273.132168",
    "longitude": "-90.06489525639716",
    "latitude": "29.971286193466362",
    "geocoded_column": {
      "latitude": "29.971286193466362",
      "longitude": "-90.06489525639716"
    }
  },
  {
    "service_request": "2022-853945",
    "request_type": "Trash/Recycling",
    "request_reason": "Request a Large Item Pick Up",
    "date_created": "2022-01-13T14:39:36.000",
    "date_modified": "2022-01-13T14:39:37.000",
    "request_status": "Pending",
    "responsible_agency": "Department of Sanitation",
    "final_address": "6301 Perrier St",
    "address_councildis": "A",
    "status": "Assigned to Contractor",
    "contractor": "Richards Disposal",
    "rowid": "853945",
    "final_x": "3663946.12531",
    "final_y": "521031.380857",
    "longitude": "-90.12384898059076",
    "latitude": "29.927176634958403",
    "geocoded_column": {
      "latitude": "29.927176634958403",
      "longitude": "-90.12384898059076"
    }
  },
  {
    "service_request": "2022-853944",
    "request_type": "Trash/Recycling",
    "request_reason": "Request a Large Item Pick Up",
    "date_created": "2022-01-13T14:35:20.000",
    "date_modified": "2022-01-13T14:35:22.000",
    "request_status": "Pending",
    "responsible_agency": "Department of Sanitation",
    "final_address": "3300 St Anthony Ave",
    "address_councildis": "D",
    "status": "Assigned to Contractor",
    "contractor": "Metro Disposal",
    "rowid": "853944",
    "final_x": "3682746.31125",
    "final_y": "544718.791695",
    "longitude": "-90.06367311739966",
    "latitude": "29.991749876838632",
    "geocoded_column": {
      "latitude": "29.991749876838632",
      "longitude": "-90.06367311739966"
    }
  },
  {
    "service_request": "2022-853943",
    "request_type": "Traffic Signals/Signs/Striping/Streetlights",
    "request_reason": "Traffic Signal Malfunctioning/Damaged",
    "date_created": "2022-01-13T14:33:37.000",
    "date_modified": "2022-01-13T14:33:37.000",
    "request_status": "Pending",
    "responsible_agency": "Department of Public Works",
    "final_address": "2331 S Carrollton Ave",
    "address_councildis": "A",
    "status": "Pending",
    "rowid": "853943",
    "final_x": "3664907.98612",
    "final_y": "531355.822146",
    "longitude": "-90.12046763841364",
    "latitude": "29.955537590722443",
    "geocoded_column": {
      "latitude": "29.955537590722443",
      "longitude": "-90.12046763841364"
    }
  },
  {
    "service_request": "2022-853942",
    "request_type": "Trash/Recycling",
    "request_reason": "Repair Trash Cart",
    "date_created": "2022-01-13T14:33:34.000",
    "date_modified": "2022-01-13T14:33:34.000",
    "request_status": "Pending",
    "responsible_agency": "Department of Sanitation",
    "final_address": "4801 Ken Ct",
    "address_councildis": "C",
    "status": "Assigned to Contractor",
    "contractor": "Richards Disposal",
    "rowid": "853942",
    "final_x": "3701776.42698",
    "final_y": "518461.28799",
    "longitude": "-90.0045233001056",
    "latitude": "29.918957572644487",
    "geocoded_column": {
      "latitude": "29.918957572644487",
      "longitude": "-90.0045233001056"
    }
  },
  {
    "service_request": "2022-853941",
    "request_type": "Traffic Signals/Signs/Striping/Streetlights",
    "request_reason": "Street Light Outage/Malfunction",
    "date_created": "2022-01-13T14:32:07.000",
    "date_modified": "2022-01-13T14:32:08.000",
    "request_status": "Pending",
    "responsible_agency": "Department of Public Works",
    "final_address": "334 West Robert E Lee Blvd",
    "address_councildis": "A",
    "status": "Pending",
    "contractor": "Royal Engineering",
    "rowid": "853941",
    "final_x": "3665304.5728",
    "final_y": "554858.157464",
    "longitude": "-90.11842850389722",
    "latitude": "30.020149502174018",
    "geocoded_column": {
      "latitude": "30.020149502174018",
      "longitude": "-90.11842850389722"
    }
  },
  {
    "service_request": "2022-853940",
    "request_type": "Traffic Signals/Signs/Striping/Streetlights",
    "request_reason": "Traffic Sign Missing/Damaged",
    "date_created": "2022-01-13T14:30:47.000",
    "date_modified": "2022-01-13T14:30:47.000",
    "request_status": "Pending",
    "responsible_agency": "Department of Public Works",
    "final_address": "GALLIER ST & N DERBIGNY ST",
    "address_councildis": "D",
    "status": "Pending",
    "rowid": "853940",
    "final_x": "3691016.5",
    "final_y": "537889.78",
    "longitude": "-90.03779333882555",
    "latitude": "29.972717970927953",
    "geocoded_column": {
      "latitude": "29.972717970927953",
      "longitude": "-90.03779333882555"
    }
  },
  {
    "service_request": "2022-853939",
    "request_type": "Trash/Recycling",
    "request_reason": "Request a Large Item Pick Up",
    "date_created": "2022-01-13T14:28:50.000",
    "date_modified": "2022-01-13T14:28:51.000",
    "request_status": "Pending",
    "responsible_agency": "Department of Sanitation",
    "final_address": "8639 S Claiborne Ave",
    "address_councildis": "A",
    "status": "Assigned to Contractor",
    "contractor": "Richards Disposal",
    "rowid": "853939",
    "final_x": "3663358.26727",
    "final_y": "533018.943812",
    "longitude": "-90.12530575189716",
    "latitude": "29.960155648213618",
    "geocoded_column": {
      "latitude": "29.960155648213618",
      "longitude": "-90.12530575189716"
    }
  },
  {
    "service_request": "2022-853938",
    "request_type": "Property Maintenance",
    "request_reason": "Property Maintenance",
    "date_created": "2022-01-13T14:21:28.000",
    "date_modified": "2022-01-13T14:53:56.000",
    "case_close_date": "2022-01-13T08:53:56.000",
    "request_status": "Closed",
    "responsible_agency": "Department of Code Enforcement",
    "final_address": "3442 S Liberty St",
    "address_councildis": "B",
    "status": "Referred to Code Enforcement",
    "rowid": "853938",
    "final_x": "3672926.46088",
    "final_y": "523592.880507",
    "longitude": "-90.095412947734",
    "latitude": "29.933956232441236",
    "geocoded_column": {
      "latitude": "29.933956232441236",
      "longitude": "-90.095412947734"
    }
  },
  {
    "service_request": "2022-853937",
    "request_type": "Trash/Recycling",
    "request_reason": "Order Recycling Cart",
    "date_created": "2022-01-13T14:19:49.000",
    "date_modified": "2022-01-13T14:19:49.000",
    "request_status": "Pending",
    "responsible_agency": "Department of Sanitation",
    "final_address": "7100 Coliseum St",
    "address_councildis": "A",
    "status": "Pending",
    "rowid": "853937",
    "final_x": "3661486.88096",
    "final_y": "522017.366906",
    "longitude": "-90.13157958244888",
    "latitude": "29.929958936355394",
    "geocoded_column": {
      "latitude": "29.929958936355394",
      "longitude": "-90.13157958244888"
    }
  },
  {
    "service_request": "2022-853936",
    "request_type": "Property Maintenance",
    "request_reason": "Property Maintenance",
    "date_created": "2022-01-13T14:12:22.000",
    "date_modified": "2022-01-13T14:57:42.000",
    "case_close_date": "2022-01-13T08:57:42.000",
    "request_status": "Closed",
    "responsible_agency": "Department of Code Enforcement",
    "final_address": "7141 E Hermes St",
    "address_councildis": "D",
    "status": "Referred to Code Enforcement",
    "rowid": "853936",
    "final_x": "3697329.13066",
    "final_y": "557442.349275",
    "longitude": "-90.01714769108331",
    "latitude": "30.026282533031125",
    "geocoded_column": {
      "latitude": "30.026282533031125",
      "longitude": "-90.01714769108331"
    }
  },
  {
    "service_request": "2022-853935",
    "request_type": "Property Maintenance",
    "request_reason": "Property Maintenance",
    "date_created": "2022-01-13T14:07:56.000",
    "date_modified": "2022-01-13T14:10:55.000",
    "request_status": "Pending",
    "responsible_agency": "Department of Code Enforcement",
    "final_address": "7157 E Hermes St",
    "address_councildis": "D",
    "status": "Pending",
    "rowid": "853935",
    "final_x": "3697336.87466",
    "final_y": "557573.856987",
    "longitude": "-90.01711844774405",
    "latitude": "30.02664388442348",
    "geocoded_column": {
      "latitude": "30.02664388442348",
      "longitude": "-90.01711844774405"
    }
  },
  {
    "service_request": "2022-853934",
    "request_type": "Abandoned Vehicles",
    "request_reason": "Abandoned/Junk Vehicles",
    "date_created": "2022-01-13T14:05:22.000",
    "date_modified": "2022-01-13T14:05:22.000",
    "request_status": "Pending",
    "responsible_agency": "Department of Public Works",
    "final_address": "2609 Annette St",
    "address_councildis": "D",
    "status": "Pending",
    "rowid": "853934",
    "final_x": "3682725.78677",
    "final_y": "541788.597388",
    "longitude": "-90.0638404967581",
    "latitude": "29.983693501875756",
    "geocoded_column": {
      "latitude": "29.983693501875756",
      "longitude": "-90.0638404967581"
    }
  },
  {
    "service_request": "2022-853932",
    "request_type": "Traffic Signals/Signs/Striping/Streetlights",
    "request_reason": "Traffic Signal Malfunctioning/Damaged",
    "date_created": "2022-01-13T13:56:31.000",
    "date_modified": "2022-01-13T13:56:38.000",
    "request_status": "Pending",
    "responsible_agency": "Department of Public Works",
    "final_address": "HIGGINS BLVD & LOUISA ST",
    "address_councildis": "D",
    "status": "Pending",
    "rowid": "853932",
    "final_x": "3691902.0",
    "final_y": "545685.18",
    "longitude": "-90.03471775930684",
    "latitude": "29.99412496393352",
    "geocoded_column": {
      "latitude": "29.99412496393352",
      "longitude": "-90.03471775930684"
    }
  },
  {
    "service_request": "2022-853931",
    "request_type": "Trash/Recycling",
    "request_reason": "Order Trash Cart",
    "date_created": "2022-01-13T13:56:11.000",
    "date_modified": "2022-01-13T13:56:12.000",
    "request_status": "Pending",
    "responsible_agency": "Department of Sanitation",
    "final_address": "2007 Saint Claude Ave, New Orleans, Louisiana, 70116",
    "status": "Assigned to Contractor",
    "rowid": "853931",
    "longitude": "0.0",
    "latitude": "0.0",
    "geocoded_column": {
      "latitude": "0.0",
      "longitude": "0.0"
    }
  },
  {
    "service_request": "2022-853930",
    "request_type": "Trash/Recycling",
    "request_reason": "Order Recycling Cart",
    "date_created": "2022-01-13T13:49:56.000",
    "date_modified": "2022-01-13T13:49:56.000",
    "request_status": "Pending",
    "responsible_agency": "Department of Sanitation",
    "final_address": "2615 Erato St",
    "address_councildis": "B",
    "status": "Pending",
    "rowid": "853930",
    "final_x": "3676370.97006",
    "final_y": "528083.490687",
    "longitude": "-90.0843842423561",
    "latitude": "29.946201159788192",
    "geocoded_column": {
      "latitude": "29.946201159788192",
      "longitude": "-90.0843842423561"
    }
  },
  {
    "service_request": "2022-853929",
    "request_type": "Trash/Recycling",
    "request_reason": "Request a Large Item Pick Up",
    "date_created": "2022-01-13T13:49:47.000",
    "date_modified": "2022-01-13T13:49:47.000",
    "request_status": "Pending",
    "responsible_agency": "Department of Sanitation",
    "final_address": "3511 Hyman Ct",
    "address_councildis": "C",
    "status": "Assigned to Contractor",
    "contractor": "Richards Disposal",
    "rowid": "853929",
    "final_x": "3700882.02666",
    "final_y": "518111.835382",
    "longitude": "-90.00735920604109",
    "latitude": "29.918025187329835",
    "geocoded_column": {
      "latitude": "29.918025187329835",
      "longitude": "-90.00735920604109"
    }
  },
  {
    "service_request": "2022-853928",
    "request_type": "Trash/Recycling",
    "request_reason": "Request a Large Item Pick Up",
    "date_created": "2022-01-13T13:45:20.000",
    "date_modified": "2022-01-13T13:45:20.000",
    "request_status": "Pending",
    "responsible_agency": "Department of Sanitation",
    "final_address": "821 Barracks St",
    "address_councildis": "C",
    "status": "Assigned to Contractor",
    "contractor": "Empire Services",
    "rowid": "853928",
    "final_x": "3683463.97916",
    "final_y": "534549.167685",
    "longitude": "-90.06176264505741",
    "latitude": "29.963765079774706",
    "geocoded_column": {
      "latitude": "29.963765079774706",
      "longitude": "-90.06176264505741"
    }
  },
  {
    "service_request": "2022-853927",
    "request_type": "Trash/Recycling",
    "request_reason": "Request a Large Item Pick Up",
    "date_created": "2022-01-13T13:43:11.000",
    "date_modified": "2022-01-13T13:43:11.000",
    "request_status": "Pending",
    "responsible_agency": "Department of Sanitation",
    "final_address": "3018 N Rocheblave St",
    "address_councildis": "D",
    "status": "Assigned to Contractor",
    "contractor": "Metro Disposal",
    "rowid": "853927",
    "final_x": "3689803.42928",
    "final_y": "540950.736587",
    "longitude": "-90.04151544182487",
    "latitude": "29.981172173549915",
    "geocoded_column": {
      "latitude": "29.981172173549915",
      "longitude": "-90.04151544182487"
    }
  },
  {
    "service_request": "2022-853926",
    "request_type": "Trash/Recycling",
    "request_reason": "Return Trash Cart",
    "date_created": "2022-01-13T13:41:46.000",
    "date_modified": "2022-01-13T13:41:47.000",
    "request_status": "Pending",
    "responsible_agency": "Department of Sanitation",
    "final_address": "6312 Argonne Blvd",
    "address_councildis": "A",
    "status": "Assigned to Contractor",
    "contractor": "Metro Disposal",
    "rowid": "853926",
    "final_x": "3670284.91841",
    "final_y": "549422.592979",
    "longitude": "-90.10287655835991",
    "latitude": "30.005057482970994",
    "geocoded_column": {
      "latitude": "30.005057482970994",
      "longitude": "-90.10287655835991"
    }
  },
  {
    "service_request": "2022-853925",
    "request_type": "Abandoned Vehicles",
    "request_reason": "Abandoned/Junk Vehicles",
    "date_created": "2022-01-13T13:31:23.000",
    "date_modified": "2022-01-13T13:31:23.000",
    "request_status": "Pending",
    "responsible_agency": "Department of Public Works",
    "final_address": "4200 Erato St",
    "address_councildis": "B",
    "status": "Pending",
    "rowid": "853925",
    "final_x": "3671078.23419",
    "final_y": "531331.231554",
    "longitude": "-90.10098499630955",
    "latitude": "29.955288946853482",
    "geocoded_column": {
      "latitude": "29.955288946853482",
      "longitude": "-90.10098499630955"
    }
  },
  {
    "service_request": "2022-853924",
    "request_type": "Parks & Parkways",
    "request_reason": "Request Tree Service (Right of Way/Public Property)",
    "date_created": "2022-01-13T13:24:48.000",
    "date_modified": "2022-01-13T13:24:48.000",
    "request_status": "Pending",
    "responsible_agency": "Department of Parks & Parkway",
    "final_address": "LAMARQUE ST & TECHE ST",
    "address_councildis": "C",
    "status": "Pending",
    "rowid": "853924",
    "final_x": "3686645.5",
    "final_y": "526771.68",
    "longitude": "-90.05199038744097",
    "latitude": "29.942282188641407",
    "geocoded_column": {
      "latitude": "29.942282188641407",
      "longitude": "-90.05199038744097"
    }
  },
  {
    "service_request": "2022-853923",
    "request_type": "Trash/Recycling",
    "request_reason": "Request a Large Item Pick Up",
    "date_created": "2022-01-13T13:20:16.000",
    "date_modified": "2022-01-13T13:20:19.000",
    "request_status": "Pending",
    "responsible_agency": "Department of Sanitation",
    "final_address": "1731 General Pershing St",
    "address_councildis": "B",
    "status": "Assigned to Contractor",
    "contractor": "Richards Disposal",
    "rowid": "853923",
    "final_x": "3671225.68263",
    "final_y": "521549.637497",
    "longitude": "-90.10085162878063",
    "latitude": "29.928388385515984",
    "geocoded_column": {
      "latitude": "29.928388385515984",
      "longitude": "-90.10085162878063"
    }
  },
  {
    "service_request": "2022-853922",
    "request_type": "Roads/Drainage",
    "request_reason": "Damaged Sidewalk",
    "date_created": "2022-01-13T13:20:13.000",
    "date_modified": "2022-01-13T13:24:24.000",
    "request_status": "Pending",
    "responsible_agency": "Department of Public Works",
    "final_address": "738 Canal St",
    "address_councildis": "B",
    "status": "Inspected",
    "rowid": "853922",
    "final_x": "3680890.00399",
    "final_y": "530786.066242",
    "longitude": "-90.07002201917162",
    "latitude": "29.953496120016577",
    "geocoded_column": {
      "latitude": "29.953496120016577",
      "longitude": "-90.07002201917162"
    }
  },
  {
    "service_request": "2022-853921",
    "request_type": "COVID-19",
    "request_reason": "COVID-19 Business Non-Compliance",
    "date_created": "2022-01-13T13:18:46.000",
    "date_modified": "2022-01-13T13:18:49.000",
    "request_status": "Pending",
    "responsible_agency": "Safety and Permits",
    "final_address": "405 Third St",
    "address_councildis": "B",
    "status": "Pending",
    "rowid": "853921",
    "final_x": "3678946.86754",
    "final_y": "519166.924727",
    "longitude": "-90.07656002471438",
    "latitude": "29.921606082401034",
    "geocoded_column": {
      "latitude": "29.921606082401034",
      "longitude": "-90.07656002471438"
    }
  },
  {
    "service_request": "2022-853920",
    "request_type": "Trash/Recycling",
    "request_reason": "Repair Trash Cart",
    "date_created": "2022-01-13T13:18:20.000",
    "date_modified": "2022-01-13T13:18:23.000",
    "request_status": "Pending",
    "responsible_agency": "Department of Sanitation",
    "final_address": "3316 Annunciation St",
    "address_councildis": "B",
    "status": "Assigned to Contractor",
    "contractor": "Richards Disposal",
    "rowid": "853920",
    "final_x": "3675715.02472",
    "final_y": "518682.034295",
    "longitude": "-90.08677821819508",
    "latitude": "29.920369862602744",
    "geocoded_column": {
      "latitude": "29.920369862602744",
      "longitude": "-90.08677821819508"
    }
  },
  {
    "service_request": "2022-853919",
    "request_type": "Trash/Recycling",
    "request_reason": "Replace Trash Cart",
    "date_created": "2022-01-13T13:18:01.000",
    "date_modified": "2022-01-13T13:18:02.000",
    "request_status": "Pending",
    "responsible_agency": "Department of Sanitation",
    "final_address": "15000 BLK Hayne Blvd",
    "address_councildis": "E",
    "status": "Assigned to Contractor",
    "contractor": "Metro Disposal",
    "rowid": "853919",
    "final_x": "3720140.80935",
    "final_y": "575506.749693",
    "longitude": "-89.94437451219397",
    "latitude": "30.075211956772137",
    "geocoded_column": {
      "latitude": "30.075211956772137",
      "longitude": "-89.94437451219397"
    }
  },
  {
    "service_request": "2022-853918",
    "request_type": "Trash/Recycling",
    "request_reason": "Order Recycling Cart",
    "date_created": "2022-01-13T13:16:44.000",
    "date_modified": "2022-01-13T13:16:44.000",
    "request_status": "Pending",
    "responsible_agency": "Department of Sanitation",
    "final_address": "3316 Annunciation St",
    "address_councildis": "B",
    "status": "Pending",
    "rowid": "853918",
    "final_x": "3675715.02472",
    "final_y": "518682.034295",
    "longitude": "-90.08677821819508",
    "latitude": "29.920369862602744",
    "geocoded_column": {
      "latitude": "29.920369862602744",
      "longitude": "-90.08677821819508"
    }
  },
  {
    "service_request": "2022-853917",
    "request_type": "Roads/Drainage",
    "request_reason": "Pothole",
    "date_created": "2022-01-13T13:12:57.000",
    "date_modified": "2022-01-13T13:12:57.000",
    "request_status": "Pending",
    "responsible_agency": "Department of Public Works",
    "final_address": "605 S Solomon St",
    "address_councildis": "A",
    "status": "Pending",
    "rowid": "853917",
    "final_x": "3669316.62638",
    "final_y": "537112.862408",
    "longitude": "-90.10635203345743",
    "latitude": "29.971238489555088",
    "geocoded_column": {
      "latitude": "29.971238489555088",
      "longitude": "-90.10635203345743"
    }
  },
  {
    "service_request": "2022-853916",
    "request_type": "Traffic Signals/Signs/Striping/Streetlights",
    "request_reason": "Street Light Outage/Malfunction",
    "date_created": "2022-01-13T13:12:37.000",
    "date_modified": "2022-01-13T13:12:38.000",
    "request_status": "Pending",
    "responsible_agency": "Department of Public Works",
    "final_address": "1122 Gaiennie St",
    "address_councildis": "B",
    "status": "Pending",
    "contractor": "Royal Engineering",
    "rowid": "853916",
    "final_x": "3680491.17211",
    "final_y": "525878.857981",
    "longitude": "-90.07145200165375",
    "latitude": "29.94001502565708",
    "geocoded_column": {
      "latitude": "29.94001502565708",
      "longitude": "-90.07145200165375"
    }
  },
  {
    "service_request": "2022-853915",
    "request_type": "Trash/Recycling",
    "request_reason": "Missed Trash Pick-Up",
    "date_created": "2022-01-13T13:12:22.000",
    "date_modified": "2022-01-13T13:12:22.000",
    "request_status": "Pending",
    "responsible_agency": "Department of Sanitation",
    "final_address": "2730 St Charles Ave",
    "address_councildis": "B",
    "status": "Assigned to Contractor",
    "contractor": "Richards Disposal",
    "rowid": "853915",
    "final_x": "3676081.96635",
    "final_y": "522509.256442",
    "longitude": "-90.08548839340357",
    "latitude": "29.930882503707025",
    "geocoded_column": {
      "latitude": "29.930882503707025",
      "longitude": "-90.08548839340357"
    }
  },
  {
    "service_request": "2022-853914",
    "request_type": "Trash/Recycling",
    "request_reason": "Repair Trash Cart",
    "date_created": "2022-01-13T13:12:03.000",
    "date_modified": "2022-01-13T13:12:03.000",
    "request_status": "Pending",
    "responsible_agency": "Department of Sanitation",
    "final_address": "1436 Behrman Ave",
    "address_councildis": "C",
    "status": "Assigned to Contractor",
    "contractor": "Richards Disposal",
    "rowid": "853914",
    "final_x": "3691406.43785",
    "final_y": "525955.752189",
    "longitude": "-90.03698825083245",
    "latitude": "29.939891416854127",
    "geocoded_column": {
      "latitude": "29.939891416854127",
      "longitude": "-90.03698825083245"
    }
  },
  {
    "service_request": "2022-853913",
    "request_type": "Traffic Signals/Signs/Striping/Streetlights",
    "request_reason": "Street Light Outage/Malfunction",
    "date_created": "2022-01-13T13:11:18.000",
    "date_modified": "2022-01-13T13:11:19.000",
    "request_status": "Pending",
    "responsible_agency": "Department of Public Works",
    "final_address": "1122 Gaiennie St",
    "address_councildis": "B",
    "status": "Pending",
    "contractor": "Royal Engineering",
    "rowid": "853913",
    "final_x": "3680491.17211",
    "final_y": "525878.857981",
    "longitude": "-90.07145200165375",
    "latitude": "29.94001502565708",
    "geocoded_column": {
      "latitude": "29.94001502565708",
      "longitude": "-90.07145200165375"
    }
  },
  {
    "service_request": "2022-853912",
    "request_type": "Roads/Drainage",
    "request_reason": "Leaking Hydrant",
    "date_created": "2022-01-13T13:10:26.000",
    "date_modified": "2022-01-13T13:10:26.000",
    "request_status": "Pending",
    "responsible_agency": "Department of Public Works",
    "final_address": "GENERAL TAYLOR & WILLOW ST",
    "address_councildis": "B",
    "status": "Pending",
    "rowid": "853912",
    "final_x": "3671575.6",
    "final_y": "525553.58",
    "longitude": "-90.0996109233008",
    "latitude": "29.939387581170305",
    "geocoded_column": {
      "latitude": "29.939387581170305",
      "longitude": "-90.0996109233008"
    }
  },
  {
    "service_request": "2022-853910",
    "request_type": "Roads/Drainage",
    "request_reason": "Pothole",
    "date_created": "2022-01-13T13:08:52.000",
    "date_modified": "2022-01-13T13:09:32.000",
    "request_status": "Pending",
    "responsible_agency": "Department of Public Works",
    "final_address": "PACE BLVD & PTOLEMY ST",
    "address_councildis": "C",
    "status": "Pending",
    "rowid": "853910",
    "final_x": "3694377.8",
    "final_y": "525762.08",
    "longitude": "-90.02761423749944",
    "latitude": "29.93926611649796",
    "geocoded_column": {
      "latitude": "29.93926611649796",
      "longitude": "-90.02761423749944"
    }
  },
  {
    "service_request": "2022-853909",
    "request_type": "Traffic Signals/Signs/Striping/Streetlights",
    "request_reason": "Street Light Outage/Malfunction",
    "date_created": "2022-01-13T13:07:58.000",
    "date_modified": "2022-01-13T15:42:02.000",
    "request_status": "Pending",
    "responsible_agency": "Department of Public Works",
    "final_address": "New Orleans,LA",
    "address_councildis": "D",
    "status": "Pending",
    "contractor": "Royal Engineering",
    "rowid": "853909",
    "final_x": "3684129.48514",
    "final_y": "557625.443163",
    "longitude": "-90.05885050700283",
    "latitude": "30.027196265476647",
    "geocoded_column": {
      "latitude": "30.027196265476647",
      "longitude": "-90.05885050700283"
    }
  },
  {
    "service_request": "2022-853908",
    "request_type": "Trash/Recycling",
    "request_reason": "Order Trash Cart",
    "date_created": "2022-01-13T13:03:32.000",
    "date_modified": "2022-01-13T13:03:33.000",
    "request_status": "Pending",
    "responsible_agency": "Department of Sanitation",
    "final_address": "14457 Sai Gon Dr",
    "address_councildis": "E",
    "status": "Assigned to Contractor",
    "contractor": "Metro Disposal",
    "rowid": "853908",
    "final_x": "3730463.79578",
    "final_y": "563350.74544",
    "longitude": "-89.91221625231907",
    "latitude": "30.041440022706535",
    "geocoded_column": {
      "latitude": "30.041440022706535",
      "longitude": "-89.91221625231907"
    }
  },
  {
    "service_request": "2022-853906",
    "request_type": "Abandoned Vehicles",
    "request_reason": "Abandoned/Junk Vehicles",
    "date_created": "2022-01-13T12:58:46.000",
    "date_modified": "2022-01-13T12:58:46.000",
    "request_status": "Pending",
    "responsible_agency": "Department of Public Works",
    "final_address": "1407 Leda St",
    "address_councildis": "A",
    "status": "Pending",
    "rowid": "853906",
    "final_x": "3675520.96277",
    "final_y": "541249.675404",
    "longitude": "-90.08661571261322",
    "latitude": "29.982429171308585",
    "geocoded_column": {
      "latitude": "29.982429171308585",
      "longitude": "-90.08661571261322"
    }
  },
  {
    "service_request": "2022-853905",
    "request_type": "Roads/Drainage",
    "request_reason": "Street Subsidence (Sinking)",
    "date_created": "2022-01-13T12:55:17.000",
    "date_modified": "2022-01-13T12:55:17.000",
    "request_status": "Pending",
    "responsible_agency": "Department of Public Works",
    "final_address": "1451 Tchoupitoulas St Lot H",
    "address_councildis": "B",
    "status": "Pending",
    "rowid": "853905",
    "final_x": "3682036.77256",
    "final_y": "524052.784316",
    "longitude": "-90.06663604578576",
    "latitude": "29.934947037418183",
    "geocoded_column": {
      "latitude": "29.934947037418183",
      "longitude": "-90.06663604578576"
    }
  },
  {
    "service_request": "2022-853904",
    "request_type": "Trash/Recycling",
    "request_reason": "Replace Trash Cart",
    "date_created": "2022-01-13T12:54:35.000",
    "date_modified": "2022-01-13T12:54:35.000",
    "request_status": "Pending",
    "responsible_agency": "Department of Sanitation",
    "final_address": "2839 General Collins Ave",
    "address_councildis": "C",
    "status": "Assigned to Contractor",
    "contractor": "Richards Disposal",
    "rowid": "853904",
    "final_x": "3698298.93431",
    "final_y": "520738.795321",
    "longitude": "-90.01541720099156",
    "latitude": "29.925330371145634",
    "geocoded_column": {
      "latitude": "29.925330371145634",
      "longitude": "-90.01541720099156"
    }
  },
  {
    "service_request": "2022-853903",
    "request_type": "Trash/Recycling",
    "request_reason": "Missed Trash Pick-Up",
    "date_created": "2022-01-13T12:53:37.000",
    "date_modified": "2022-01-13T12:53:38.000",
    "request_status": "Pending",
    "responsible_agency": "Department of Sanitation",
    "final_address": "6731 Avenue A",
    "address_councildis": "A",
    "status": "Assigned to Contractor",
    "contractor": "Metro Disposal",
    "rowid": "853903",
    "final_x": "3666136.16436",
    "final_y": "552936.320023",
    "longitude": "-90.11586544468672",
    "latitude": "30.014840855168273",
    "geocoded_column": {
      "latitude": "30.014840855168273",
      "longitude": "-90.11586544468672"
    }
  },
  {
    "service_request": "2022-853902",
    "request_type": "Trash/Recycling",
    "request_reason": "Missed Trash Pick-Up",
    "date_created": "2022-01-13T12:48:15.000",
    "date_modified": "2022-01-13T12:48:15.000",
    "request_status": "Pending",
    "responsible_agency": "Department of Sanitation",
    "final_address": "4001 Camp St",
    "address_councildis": "B",
    "status": "Assigned to Contractor",
    "contractor": "Richards Disposal",
    "rowid": "853902",
    "final_x": "3672445.33531",
    "final_y": "519343.153783",
    "longitude": "-90.09707659300315",
    "latitude": "29.922285133646398",
    "geocoded_column": {
      "latitude": "29.922285133646398",
      "longitude": "-90.09707659300315"
    }
  },
  {
    "service_request": "2022-853901",
    "request_type": "Roads/Drainage",
    "request_reason": "Debris in Roadway",
    "date_created": "2022-01-13T12:45:43.000",
    "date_modified": "2022-01-13T12:45:44.000",
    "request_status": "Pending",
    "responsible_agency": "Department of Public Works",
    "final_address": "6100 BLK N Miro St",
    "address_councildis": "E",
    "status": "Pending",
    "rowid": "853901",
    "final_x": "3701246.55023",
    "final_y": "537160.842133",
    "longitude": "-90.00551184669852",
    "latitude": "29.97039164994043",
    "geocoded_column": {
      "latitude": "29.97039164994043",
      "longitude": "-90.00551184669852"
    }
  },
  {
    "service_request": "2022-853900",
    "request_type": "Abandoned Vehicles",
    "request_reason": "Abandoned/Junk Vehicles",
    "date_created": "2022-01-13T12:44:48.000",
    "date_modified": "2022-01-13T12:44:48.000",
    "request_status": "Pending",
    "responsible_agency": "Department of Public Works",
    "final_address": "MORRISON EXIT & I 10 W SERVICE RD",
    "address_councildis": "E",
    "status": "Pending",
    "rowid": "853900",
    "final_x": "3697830.95",
    "final_y": "557835.25",
    "longitude": "-90.01554773250923",
    "latitude": "30.027347000729335",
    "geocoded_column": {
      "latitude": "30.027347000729335",
      "longitude": "-90.01554773250923"
    }
  },
  {
    "service_request": "2022-853899",
    "request_type": "Trash/Recycling",
    "request_reason": "Request a Large Item Pick Up",
    "date_created": "2022-01-13T12:44:13.000",
    "date_modified": "2022-01-13T15:28:40.000",
    "request_status": "Pending",
    "responsible_agency": "Department of Sanitation",
    "final_address": "New Orleans,LA",
    "address_councildis": "C",
    "status": "Assigned to Contractor",
    "contractor": "Metro Disposal",
    "rowid": "853899",
    "final_x": "3684944.38524",
    "final_y": "535982.823367",
    "longitude": "-90.05703724871049",
    "latitude": "29.967661881231344",
    "geocoded_column": {
      "latitude": "29.967661881231344",
      "longitude": "-90.05703724871049"
    }
  },
  {
    "service_request": "2022-853898",
    "request_type": "Traffic Signals/Signs/Striping/Streetlights",
    "request_reason": "Street Light Outage/Malfunction",
    "date_created": "2022-01-13T12:43:34.000",
    "date_modified": "2022-01-13T12:43:35.000",
    "request_status": "Pending",
    "responsible_agency": "Department of Public Works",
    "final_address": "416 Common St",
    "address_councildis": "B",
    "status": "Pending",
    "contractor": "Royal Engineering",
    "rowid": "853898",
    "final_x": "3681956.72828",
    "final_y": "529787.316865",
    "longitude": "-90.0666886193699",
    "latitude": "29.950717515508583",
    "geocoded_column": {
      "latitude": "29.950717515508583",
      "longitude": "-90.0666886193699"
    }
  },
  {
    "service_request": "2022-853897",
    "request_type": "COVID-19",
    "request_reason": "COVID-19 Business Non-Compliance",
    "date_created": "2022-01-13T12:43:27.000",
    "date_modified": "2022-01-13T12:43:29.000",
    "request_status": "Pending",
    "responsible_agency": "Safety and Permits",
    "final_address": "4001 General De Gaulle Dr",
    "address_councildis": "C",
    "status": "Pending",
    "rowid": "853897",
    "final_x": "3698622.86826",
    "final_y": "518977.851127",
    "longitude": "-90.01445863110955",
    "latitude": "29.920478127557015",
    "geocoded_column": {
      "latitude": "29.920478127557015",
      "longitude": "-90.01445863110955"
    }
  },
  {
    "service_request": "2022-853896",
    "request_type": "Trash/Recycling",
    "request_reason": "Missed Trash Pick-Up",
    "date_created": "2022-01-13T12:42:02.000",
    "date_modified": "2022-01-13T12:42:03.000",
    "request_status": "Pending",
    "responsible_agency": "Department of Sanitation",
    "final_address": "339 Decatur St",
    "address_councildis": "C",
    "status": "Assigned to Contractor",
    "contractor": "Empire Services",
    "rowid": "853896",
    "final_x": "3682449.66319",
    "final_y": "531118.111874",
    "longitude": "-90.06508567594842",
    "latitude": "29.954361758741012",
    "geocoded_column": {
      "latitude": "29.954361758741012",
      "longitude": "-90.06508567594842"
    }
  },
  {
    "service_request": "2022-853895",
    "request_type": "Abandoned Vehicles",
    "request_reason": "Abandoned/Junk Vehicles",
    "date_created": "2022-01-13T12:37:50.000",
    "date_modified": "2022-01-13T12:39:01.000",
    "request_status": "Pending",
    "responsible_agency": "Department of Public Works",
    "final_address": "300 S Broad St",
    "address_councildis": "B",
    "status": "Pending",
    "rowid": "853895",
    "final_x": "3674943.74728",
    "final_y": "534361.960773",
    "longitude": "-90.08867515515836",
    "latitude": "29.963507557277268",
    "geocoded_column": {
      "latitude": "29.963507557277268",
      "longitude": "-90.08867515515836"
    }
  },
  {
    "service_request": "2022-853893",
    "request_type": "Trash/Recycling",
    "request_reason": "Missed Trash Pick-Up",
    "date_created": "2022-01-13T12:37:19.000",
    "date_modified": "2022-01-13T12:37:20.000",
    "request_status": "Pending",
    "responsible_agency": "Department of Sanitation",
    "final_address": "15 Wren St",
    "address_councildis": "D",
    "status": "Assigned to Contractor",
    "contractor": "Metro Disposal",
    "rowid": "853893",
    "final_x": "3672246.88462",
    "final_y": "555846.709849",
    "longitude": "-90.09645920915733",
    "latitude": "30.022663445573624",
    "geocoded_column": {
      "latitude": "30.022663445573624",
      "longitude": "-90.09645920915733"
    }
  },
  {
    "service_request": "2022-853892",
    "request_type": "Abandoned Vehicles",
    "request_reason": "Abandoned/Junk Vehicles",
    "date_created": "2022-01-13T12:36:37.000",
    "date_modified": "2022-01-13T12:36:37.000",
    "request_status": "Pending",
    "responsible_agency": "Department of Public Works",
    "final_address": "BELLECHASSE ST & N WHITE ST",
    "address_councildis": "A",
    "status": "Pending",
    "rowid": "853892",
    "final_x": "3677109.5",
    "final_y": "538396.48",
    "longitude": "-90.08169676534223",
    "latitude": "29.97453624641662",
    "geocoded_column": {
      "latitude": "29.97453624641662",
      "longitude": "-90.08169676534223"
    }
  },
  {
    "service_request": "2022-853891",
    "request_type": "Trash/Recycling",
    "request_reason": "Missed Trash Pick-Up",
    "date_created": "2022-01-13T12:34:28.000",
    "date_modified": "2022-01-13T12:34:28.000",
    "request_status": "Pending",
    "responsible_agency": "Department of Sanitation",
    "final_address": "2643 St Philip St",
    "address_councildis": "D",
    "status": "Assigned to Contractor",
    "contractor": "Richards Disposal",
    "rowid": "853891",
    "final_x": "3677575.53346",
    "final_y": "537756.319176",
    "longitude": "-90.08024702808197",
    "latitude": "29.972762017965337",
    "geocoded_column": {
      "latitude": "29.972762017965337",
      "longitude": "-90.08024702808197"
    }
  },
  {
    "service_request": "2022-853890",
    "request_type": "Trash/Recycling",
    "request_reason": "Replace Trash Cart",
    "date_created": "2022-01-13T12:34:08.000",
    "date_modified": "2022-01-13T12:34:09.000",
    "request_status": "Pending",
    "responsible_agency": "Department of Sanitation",
    "final_address": "8428 Pritchard Pl",
    "address_councildis": "A",
    "status": "Assigned to Contractor",
    "contractor": "Richards Disposal",
    "rowid": "853890",
    "final_x": "3665057.75904",
    "final_y": "533746.387013",
    "longitude": "-90.11991476981123",
    "latitude": "29.962106502667545",
    "geocoded_column": {
      "latitude": "29.962106502667545",
      "longitude": "-90.11991476981123"
    }
  },
  {
    "service_request": "2022-853889",
    "request_type": "COVID-19",
    "request_reason": "COVID-19 Business Non-Compliance",
    "date_created": "2022-01-13T12:26:20.000",
    "date_modified": "2022-01-13T12:26:21.000",
    "request_status": "Pending",
    "responsible_agency": "Safety and Permits",
    "final_address": "2116 Magazine St",
    "address_councildis": "B",
    "status": "Pending",
    "rowid": "853889",
    "final_x": "3679071.82997",
    "final_y": "522198.238394",
    "longitude": "-90.07606058147137",
    "latitude": "29.92993743734954",
    "geocoded_column": {
      "latitude": "29.92993743734954",
      "longitude": "-90.07606058147137"
    }
  },
  {
    "service_request": "2022-853888",
    "request_type": "COVID-19",
    "request_reason": "COVID-19 Business Non-Compliance",
    "date_created": "2022-01-13T12:21:55.000",
    "date_modified": "2022-01-13T12:21:56.000",
    "request_status": "Pending",
    "responsible_agency": "Safety and Permits",
    "final_address": "828 Gravier St",
    "address_councildis": "B",
    "status": "Pending",
    "rowid": "853888",
    "final_x": "3680251.58978",
    "final_y": "530308.002306",
    "longitude": "-90.07205447634014",
    "latitude": "29.952200943763756",
    "geocoded_column": {
      "latitude": "29.952200943763756",
      "longitude": "-90.07205447634014"
    }
  },
  {
    "service_request": "2022-853887",
    "request_type": "Trash/Recycling",
    "request_reason": "Request a Large Item Pick Up",
    "date_created": "2022-01-13T12:19:33.000",
    "date_modified": "2022-01-13T12:19:33.000",
    "request_status": "Pending",
    "responsible_agency": "Department of Sanitation",
    "final_address": "1912 Delachaise St",
    "address_councildis": "B",
    "status": "Assigned to Contractor",
    "contractor": "Richards Disposal",
    "rowid": "853887",
    "final_x": "3673308.70811",
    "final_y": "522498.835258",
    "longitude": "-90.09424355629324",
    "latitude": "29.930936601425646",
    "geocoded_column": {
      "latitude": "29.930936601425646",
      "longitude": "-90.09424355629324"
    }
  },
  {
    "service_request": "2022-853886",
    "request_type": "Traffic Signals/Signs/Striping/Streetlights",
    "request_reason": "Street Light Outage/Malfunction",
    "date_created": "2022-01-13T12:17:02.000",
    "date_modified": "2022-01-13T12:17:03.000",
    "request_status": "Pending",
    "responsible_agency": "Department of Public Works",
    "final_address": "700 St Maurice Ave",
    "address_councildis": "E",
    "status": "Pending",
    "contractor": "Royal Engineering",
    "rowid": "853886",
    "final_x": "3699201.64247",
    "final_y": "531814.921091",
    "longitude": "-90.01216451598212",
    "latitude": "29.955757275902098",
    "geocoded_column": {
      "latitude": "29.955757275902098",
      "longitude": "-90.01216451598212"
    }
  },
  {
    "service_request": "2022-853885",
    "request_type": "COVID-19",
    "request_reason": "COVID-19 Business Non-Compliance",
    "date_created": "2022-01-13T12:14:34.000",
    "date_modified": "2022-01-13T12:14:35.000",
    "request_status": "Pending",
    "responsible_agency": "Safety and Permits",
    "final_address": "4041 Magazine St",
    "address_councildis": "B",
    "status": "Pending",
    "rowid": "853885",
    "final_x": "3672207.55239",
    "final_y": "518963.459703",
    "longitude": "-90.09784010078256",
    "latitude": "29.92124814807494",
    "geocoded_column": {
      "latitude": "29.92124814807494",
      "longitude": "-90.09784010078256"
    }
  },
  {
    "service_request": "2022-853884",
    "request_type": "Trash/Recycling",
    "request_reason": "Missed Trash Pick-Up",
    "date_created": "2022-01-13T12:12:53.000",
    "date_modified": "2022-01-13T12:12:53.000",
    "request_status": "Pending",
    "responsible_agency": "Department of Sanitation",
    "final_address": "3433 Live Oak Pl",
    "address_councildis": "D",
    "status": "Assigned to Contractor",
    "contractor": "Metro Disposal",
    "rowid": "853884",
    "final_x": "3681592.13416",
    "final_y": "544919.960079",
    "longitude": "-90.06731189388798",
    "latitude": "29.99233813342656",
    "geocoded_column": {
      "latitude": "29.99233813342656",
      "longitude": "-90.06731189388798"
    }
  },
  {
    "service_request": "2022-853883",
    "request_type": "Abandoned Vehicles",
    "request_reason": "Abandoned/Junk Vehicles",
    "date_created": "2022-01-13T12:12:51.000",
    "date_modified": "2022-01-13T12:13:31.000",
    "request_status": "Pending",
    "responsible_agency": "Department of Public Works",
    "final_address": "1334 Mandolin St",
    "address_councildis": "D",
    "status": "Pending",
    "rowid": "853883",
    "final_x": "3677521.01902",
    "final_y": "547946.283154",
    "longitude": "-90.08006720549697",
    "latitude": "30.000782509981924",
    "geocoded_column": {
      "latitude": "30.000782509981924",
      "longitude": "-90.08006720549697"
    }
  },
  {
    "service_request": "2022-853882",
    "request_type": "COVID-19",
    "request_reason": "COVID-19 Business Non-Compliance",
    "date_created": "2022-01-13T12:10:47.000",
    "date_modified": "2022-01-13T12:10:48.000",
    "request_status": "Pending",
    "responsible_agency": "Safety and Permits",
    "final_address": "1111 Robert E Lee Blvd",
    "address_councildis": "D",
    "status": "Pending",
    "rowid": "853882",
    "final_x": "3674541.96494",
    "final_y": "554697.199768",
    "longitude": "-90.08924671693258",
    "latitude": "30.019434387235552",
    "geocoded_column": {
      "latitude": "30.019434387235552",
      "longitude": "-90.08924671693258"
    }
  },
  {
    "service_request": "2022-853881",
    "request_type": "COVID-19",
    "request_reason": "COVID-19 Business Non-Compliance",
    "date_created": "2022-01-13T12:07:32.000",
    "date_modified": "2022-01-13T12:07:33.000",
    "request_status": "Pending",
    "responsible_agency": "Safety and Permits",
    "final_address": "1100 S Claiborne Ave",
    "address_councildis": "B",
    "status": "Pending",
    "rowid": "853881",
    "final_x": "3675695.8084",
    "final_y": "528824.223488",
    "longitude": "-90.08649051442099",
    "latitude": "29.948258147692556",
    "geocoded_column": {
      "latitude": "29.948258147692556",
      "longitude": "-90.08649051442099"
    }
  },