[
  {
    "service_request": "2022-859454",
    "request_type": "Abandoned Vehicles",
    "request_reason": "Abandoned/Junk Vehicles",
    "date_created": "2022-02-08T01:41:26.000",
    "date_modified": "2022-02-08T01:41:26.000",
    "request_status": "Pending",
    "responsible_agency": "Department of Public Works",
    "final_address": "5012 Cucullu St",
    "address_councildis": "B",
    "status": "Pending",
    "rowid": "859454",
    "final_x": "3668709.03905",
    "final_y": "525589.642365",
    "longitude": "-90.10865984124374",
    "latitude": "29.939571296067406",
    "geocoded_column": {
      "latitude": "29.939571296067406",
      "longitude": "-90.10865984124374"
    }
  },
  {
    "service_request": "2022-859453",
    "request_type": "Property Maintenance",
    "request_reason": "Property Maintenance",
    "date_created": "2022-02-08T01:03:21.000",
    "date_modified": "2022-02-08T01:03:21.000",
    "request_status": "Pending",
    "responsible_agency": "Department of Code Enforcement",
    "final_address": "10563 N Interstate 10 Service Rd",
    "address_councildis": "E",
    "status": "Pending",
    "rowid": "859453",
    "final_x": "3712103.36517",
    "final_y": "563047.6808",
    "longitude": "-89.97025264665544",
    "latitude": "30.041220058297192",
    "geocoded_column": {
      "latitude": "30.041220058297192",
      "longitude": "-89.97025264665544"
    }
  },
  {
    "service_request": "2022-859452",
    "request_type": "Trash/Recycling",
    "request_reason": "Illegal Dumping",
    "date_created": "2022-02-08T00:59:18.000",
    "date_modified": "2022-02-08T00:59:18.000",
    "request_status": "Pending",
    "responsible_agency": "Department of Sanitation",
    "final_address": "6021 Wright Rd",
    "address_councildis": "E",
    "status": "Pending",
    "rowid": "859452",
    "final_x": "3713360.08734",
    "final_y": "562738.083872",
    "longitude": "-89.96629267490925",
    "latitude": "30.040327625143835",
    "geocoded_column": {
      "latitude": "30.040327625143835",
      "longitude": "-89.96629267490925"
    }
  },
  {
    "service_request": "2022-859451",
    "request_type": "Abandoned Vehicles",
    "request_reason": "Abandoned/Junk Vehicles",
    "date_created": "2022-02-08T00:42:58.000",
    "date_modified": "2022-02-08T00:43:34.000",
    "request_status": "Pending",
    "responsible_agency": "Department of Public Works",
    "final_address": "807 Eleonore St",
    "address_councildis": "A",
    "status": "Pending",
    "rowid": "859451",
    "final_x": "3665273.36576",
    "final_y": "519140.744375",
    "longitude": "-90.1197224172993",
    "latitude": "29.921939390312406",
    "geocoded_column": {
      "latitude": "29.921939390312406",
      "longitude": "-90.1197224172993"
    }
  },
  {
    "service_request": "2022-859449",
    "request_type": "Trash/Recycling",
    "request_reason": "Illegal Dumping",
    "date_created": "2022-02-07T23:57:54.000",
    "date_modified": "2022-02-07T23:57:54.000",
    "request_status": "Pending",
    "responsible_agency": "Department of Sanitation",
    "final_address": "9701 N Interstate 10 Service Rd",
    "address_councildis": "E",
    "status": "Pending",
    "rowid": "859449",
    "final_x": "3708981.0492",
    "final_y": "561571.543391",
    "longitude": "-89.98017527181527",
    "latitude": "30.037263026649914",
    "geocoded_column": {
      "latitude": "30.037263026649914",
      "longitude": "-89.98017527181527"
    }
  },
  {
    "service_request": "2022-859448",
    "request_type": "Traffic Signals/Signs/Striping/Streetlights",
    "request_reason": "Street Light Outage/Malfunction",
    "date_created": "2022-02-07T23:45:41.000",
    "date_modified": "2022-02-07T23:45:41.000",
    "request_status": "Pending",
    "responsible_agency": "Department of Public Works",
    "final_address": "4859 Bergerac St",
    "address_councildis": "E",
    "status": "Pending",
    "contractor": "Royal Engineering",
    "rowid": "859448",
    "final_x": "3726131.18304",
    "final_y": "561511.330271",
    "longitude": "-89.92598006852437",
    "latitude": "30.036529429732457",
    "geocoded_column": {
      "latitude": "30.036529429732457",
      "longitude": "-89.92598006852437"
    }
  },
  {
    "service_request": "2022-859447",
    "request_type": "Property Maintenance",
    "request_reason": "Property Maintenance",
    "date_created": "2022-02-07T23:05:40.000",
    "date_modified": "2022-02-07T23:05:40.000",
    "request_status": "Pending",
    "responsible_agency": "Department of Code Enforcement",
    "final_address": "2941 Mansfield Ave",
    "address_councildis": "C",
    "status": "Pending",
    "rowid": "859447",
    "final_x": "3709091.79621",
    "final_y": "519007.652151",
    "longitude": "-89.981412321406",
    "latitude": "29.92022458817998",
    "geocoded_column": {
      "latitude": "29.92022458817998",
      "longitude": "-89.981412321406"
    }
  },
  {
    "service_request": "2022-859446",
    "request_type": "Traffic Signals/Signs/Striping/Streetlights",
    "request_reason": "Street Light Outage/Malfunction",
    "date_created": "2022-02-07T23:04:28.000",
    "date_modified": "2022-02-07T23:04:28.000",
    "request_status": "Pending",
    "responsible_agency": "Department of Public Works",
    "final_address": "54 Finch St",
    "address_councildis": "D",
    "status": "Pending",
    "contractor": "Royal Engineering",
    "rowid": "859446",
    "final_x": "3672647.81192",
    "final_y": "555143.050265",
    "longitude": "-90.0952163945235",
    "latitude": "30.020716728332236",
    "geocoded_column": {
      "latitude": "30.020716728332236",
      "longitude": "-90.0952163945235"
    }
  },
  {
    "service_request": "2022-859445",
    "request_type": "Trash/Recycling",
    "request_reason": "Request a Large Item Pick Up",
    "date_created": "2022-02-07T23:00:19.000",
    "date_modified": "2022-02-07T23:00:20.000",
    "request_status": "Pending",
    "responsible_agency": "Department of Sanitation",
    "final_address": "3161 Mansfield Ave",
    "address_councildis": "C",
    "status": "Assigned to Contractor",
    "contractor": "Richards Disposal",
    "rowid": "859445",
    "final_x": "3709047.13707",
    "final_y": "518555.554103",
    "longitude": "-89.98157012289155",
    "latitude": "29.918982925399398",
    "geocoded_column": {
      "latitude": "29.918982925399398",
      "longitude": "-89.98157012289155"
    }
  },
  {
    "service_request": "2022-859444",
    "request_type": "Traffic Signals/Signs/Striping/Streetlights",
    "request_reason": "Street Light Outage/Malfunction",
    "date_created": "2022-02-07T23:00:10.000",
    "date_modified": "2022-02-07T23:00:11.000",
    "request_status": "Pending",
    "responsible_agency": "Department of Public Works",
    "final_address": "54 Finch St",
    "address_councildis": "D",
    "status": "Pending",
    "contractor": "Royal Engineering",
    "rowid": "859444",
    "final_x": "3672647.81192",
    "final_y": "555143.050265",
    "longitude": "-90.0952163945235",
    "latitude": "30.020716728332236",
    "geocoded_column": {
      "latitude": "30.020716728332236",
      "longitude": "-90.0952163945235"
    }
  },
  {
    "service_request": "2022-859442",
    "request_type": "Roads/Drainage",
    "request_reason": "Street Flooding / Drainage",
    "date_created": "2022-02-07T22:04:24.000",
    "date_modified": "2022-02-07T22:04:24.000",
    "request_status": "Pending",
    "responsible_agency": "Department of Public Works",
    "final_address": "2525 Pressburg St",
    "address_councildis": "D",
    "status": "Pending",
    "rowid": "859442",
    "final_x": "3685938.09468",
    "final_y": "554824.423448",
    "longitude": "-90.05323435527293",
    "latitude": "30.01943906243818",
    "geocoded_column": {
      "latitude": "30.01943906243818",
      "longitude": "-90.05323435527293"
    }
  },
  {
    "service_request": "2022-859441",
    "request_type": "Traffic Signals/Signs/Striping/Streetlights",
    "request_reason": "Street Light Outage/Malfunction",
    "date_created": "2022-02-07T22:04:20.000",
    "date_modified": "2022-02-07T22:04:21.000",
    "request_status": "Pending",
    "responsible_agency": "Department of Public Works",
    "final_address": "3804 Banks St",
    "address_councildis": "B",
    "status": "Pending",
    "contractor": "Royal Engineering",
    "rowid": "859441",
    "final_x": "3671261.47943",
    "final_y": "536622.649287",
    "longitude": "-90.10022656499471",
    "latitude": "29.969833161380564",
    "geocoded_column": {
      "latitude": "29.969833161380564",
      "longitude": "-90.10022656499471"
    }
  },
  {
    "service_request": "2022-859440",
    "request_type": "Abandoned Vehicles",
    "request_reason": "Abandoned/Junk Vehicles",
    "date_created": "2022-02-07T21:43:05.000",
    "date_modified": "2022-02-07T21:43:05.000",
    "request_status": "Pending",
    "responsible_agency": "Department of Public Works",
    "final_address": "1716 Spain St",
    "address_councildis": "D",
    "status": "Pending",
    "rowid": "859440",
    "final_x": "3685908.48508",
    "final_y": "538754.772233",
    "longitude": "-90.05389485840311",
    "latitude": "29.97525421037777",
    "geocoded_column": {
      "latitude": "29.97525421037777",
      "longitude": "-90.05389485840311"
    }
  },
  {
    "service_request": "2022-859439",
    "request_type": "Abandoned Vehicles",
    "request_reason": "Abandoned/Junk Vehicles",
    "date_created": "2022-02-07T21:40:11.000",
    "date_modified": "2022-02-07T21:40:11.000",
    "request_status": "Pending",
    "responsible_agency": "Department of Public Works",
    "final_address": "1716 Spain St",
    "address_councildis": "D",
    "status": "Pending",
    "rowid": "859439",
    "final_x": "3685908.48508",
    "final_y": "538754.772233",
    "longitude": "-90.05389485840311",
    "latitude": "29.97525421037777",
    "geocoded_column": {
      "latitude": "29.97525421037777",
      "longitude": "-90.05389485840311"
    }
  },
  {
    "service_request": "2022-859438",
    "request_type": "Trash/Recycling",
    "request_reason": "Order Recycling Cart",
    "date_created": "2022-02-07T21:35:29.000",
    "date_modified": "2022-02-07T21:35:29.000",
    "request_status": "Pending",
    "responsible_agency": "Department of Sanitation",
    "final_address": "1124 Lizardi St",
    "address_councildis": "E",
    "status": "Pending",
    "rowid": "859438",
    "final_x": "3696566.88727",
    "final_y": "534396.049861",
    "longitude": "-90.0203907125339",
    "latitude": "29.962937736797976",
    "geocoded_column": {
      "latitude": "29.962937736797976",
      "longitude": "-90.0203907125339"
    }
  },
  {
    "service_request": "2022-859437",
    "request_type": "Trash/Recycling",
    "request_reason": "Order Trash Cart",
    "date_created": "2022-02-07T21:31:10.000",
    "date_modified": "2022-02-07T21:31:11.000",
    "request_status": "Pending",
    "responsible_agency": "Department of Sanitation",
    "final_address": "1124 Lizardi St",
    "address_councildis": "E",
    "status": "Assigned to Contractor",
    "contractor": "Metro Disposal",
    "rowid": "859437",
    "final_x": "3696566.88727",
    "final_y": "534396.049861",
    "longitude": "-90.0203907125339",
    "latitude": "29.962937736797976",
    "geocoded_column": {
      "latitude": "29.962937736797976",
      "longitude": "-90.0203907125339"
    }
  },
  {
    "service_request": "2022-859436",
    "request_type": "Trash/Recycling",
    "request_reason": "Return Recycling Cart",
    "date_created": "2022-02-07T21:26:24.000",
    "date_modified": "2022-02-07T21:26:24.000",
    "request_status": "Pending",
    "responsible_agency": "Department of Sanitation",
    "final_address": "2115 Constance St",
    "address_councildis": "B",
    "status": "Pending",
    "rowid": "859436",
    "final_x": "3679259.75983",
    "final_y": "521956.557818",
    "longitude": "-90.0754756938959",
    "latitude": "29.929267223608083",
    "geocoded_column": {
      "latitude": "29.929267223608083",
      "longitude": "-90.0754756938959"
    }
  },
  {
    "service_request": "2022-859435",
    "request_type": "Trash/Recycling",
    "request_reason": "Request a Large Item Pick Up",
    "date_created": "2022-02-07T21:14:33.000",
    "date_modified": "2022-02-07T21:14:34.000",
    "request_status": "Pending",
    "responsible_agency": "Department of Sanitation",
    "final_address": "1227 Royal St",
    "address_councildis": "C",
    "status": "Assigned to Contractor",
    "contractor": "Empire Services",
    "rowid": "859435",
    "final_x": "3683776.78901",
    "final_y": "534109.080709",
    "longitude": "-90.06079025795182",
    "latitude": "29.962545443260463",
    "geocoded_column": {
      "latitude": "29.962545443260463",
      "longitude": "-90.06079025795182"
    }
  },
  {
    "service_request": "2022-859434",
    "request_type": "Mayor's Request",
    "request_reason": "Requests to the Mayor",
    "date_created": "2022-02-07T21:06:30.000",
    "date_modified": "2022-02-07T21:06:30.000",
    "request_status": "Pending",
    "responsible_agency": "Executive Office of the Mayor",
    "final_address": "1412 Euterpe St",
    "address_councildis": "B",
    "status": "Pending",
    "rowid": "859434",
    "final_x": "3679609.87515",
    "final_y": "524518.854204",
    "longitude": "-90.07428156781218",
    "latitude": "29.936302122826206",
    "geocoded_column": {
      "latitude": "29.936302122826206",
      "longitude": "-90.07428156781218"
    }
  },
  {
    "service_request": "2022-859433",
    "request_type": "Traffic Signals/Signs/Striping/Streetlights",
    "request_reason": "Street Light Outage/Malfunction",
    "date_created": "2022-02-07T20:44:37.000",
    "date_modified": "2022-02-07T20:44:38.000",
    "request_status": "Pending",
    "responsible_agency": "Department of Public Works",
    "final_address": "1301 Cambronne St",
    "address_councildis": "A",
    "status": "Pending",
    "contractor": "Royal Engineering",
    "rowid": "859433",
    "final_x": "3661457.5111",
    "final_y": "529356.515969",
    "longitude": "-90.1314292777735",
    "latitude": "29.950140117232994",
    "geocoded_column": {
      "latitude": "29.950140117232994",
      "longitude": "-90.1314292777735"
    }
  },
  {
    "service_request": "2022-859432",
    "request_type": "Traffic Signals/Signs/Striping/Streetlights",
    "request_reason": "Traffic Signal Malfunctioning/Damaged",
    "date_created": "2022-02-07T20:40:55.000",
    "date_modified": "2022-02-07T20:40:55.000",
    "request_status": "Pending",
    "responsible_agency": "Department of Public Works",
    "final_address": "2418 S Carrollton Ave",
    "address_councildis": "A",
    "status": "Pending",
    "rowid": "859432",
    "final_x": "3664932.39469",
    "final_y": "531668.372803",
    "longitude": "-90.12038011728853",
    "latitude": "29.956396292800484",
    "geocoded_column": {
      "latitude": "29.956396292800484",
      "longitude": "-90.12038011728853"
    }
  },
  {
    "service_request": "2022-859431",
    "request_type": "Traffic Signals/Signs/Striping/Streetlights",
    "request_reason": "Street Light Outage/Malfunction",
    "date_created": "2022-02-07T20:40:29.000",
    "date_modified": "2022-02-07T20:40:30.000",
    "request_status": "Pending",
    "responsible_agency": "Department of Public Works",
    "final_address": "1317 Cambronne St",
    "address_councildis": "A",
    "status": "Pending",
    "contractor": "Royal Engineering",
    "rowid": "859431",
    "final_x": "3661539.60781",
    "final_y": "529448.948929",
    "longitude": "-90.13116699646764",
    "latitude": "29.950391910127173",
    "geocoded_column": {
      "latitude": "29.950391910127173",
      "longitude": "-90.13116699646764"
    }
  },
  {
    "service_request": "2022-859430",
    "request_type": "Trash/Recycling",
    "request_reason": "Request a Large Item Pick Up",
    "date_created": "2022-02-07T20:31:00.000",
    "date_modified": "2022-02-07T20:31:00.000",
    "request_status": "Pending",
    "responsible_agency": "Department of Sanitation",
    "final_address": "13118 Dwyer Blvd",
    "address_councildis": "E",
    "status": "Assigned to Contractor",
    "contractor": "Metro Disposal",
    "rowid": "859430",
    "final_x": "3724198.54828",
    "final_y": "561238.55683",
    "longitude": "-89.93209804600616",
    "latitude": "30.035844541176957",
    "geocoded_column": {
      "latitude": "30.035844541176957",
      "longitude": "-89.93209804600616"
    }
  },
  {
    "service_request": "2022-859428",
    "request_type": "Health Related Questions",
    "request_reason": "Noise Ordinance Complaint",
    "date_created": "2022-02-07T20:23:25.000",
    "date_modified": "2022-02-07T20:23:25.000",
    "request_status": "Pending",
    "responsible_agency": "Health Department",
    "final_address": "711 Bourbon St, New Orleans, Louisiana, 70116",
    "address_councildis": "C",
    "status": "Pending",
    "rowid": "859428",
    "final_x": "3682299.38447",
    "final_y": "532765.705988",
    "longitude": "-90.06550263299877",
    "latitude": "29.95889665479323",
    "geocoded_column": {
      "latitude": "29.95889665479323",
      "longitude": "-90.06550263299877"
    }
  },
  {
    "service_request": "2022-859426",
    "request_type": "Trash/Recycling",
    "request_reason": "Request a Large Item Pick Up",
    "date_created": "2022-02-07T19:58:50.000",
    "date_modified": "2022-02-07T19:58:50.000",
    "request_status": "Pending",
    "responsible_agency": "Department of Sanitation",
    "final_address": "813 Wagner St",
    "address_councildis": "C",
    "status": "Assigned to Contractor",
    "contractor": "Richards Disposal",
    "rowid": "859426",
    "final_x": "3690480.27868",
    "final_y": "528501.262976",
    "longitude": "-90.03982153806136",
    "latitude": "29.94691947941171",
    "geocoded_column": {
      "latitude": "29.94691947941171",
      "longitude": "-90.03982153806136"
    }
  },
  {
    "service_request": "2022-859425",
    "request_type": "Abandoned Vehicles",
    "request_reason": "Abandoned/Junk Vehicles",
    "date_created": "2022-02-07T19:41:02.000",
    "date_modified": "2022-02-07T19:41:02.000",
    "request_status": "Pending",
    "responsible_agency": "Department of Public Works",
    "final_address": "1468 Robert E Lee Blvd",
    "address_councildis": "D",
    "status": "Pending",
    "rowid": "859425",
    "final_x": "3678210.83598",
    "final_y": "555196.459737",
    "longitude": "-90.07763702525575",
    "latitude": "30.020697130389383",
    "geocoded_column": {
      "latitude": "30.020697130389383",
      "longitude": "-90.07763702525575"
    }
  },
  {
    "service_request": "2022-859424",
    "request_type": "Roads/Drainage",
    "request_reason": "Road Shoulder Repair",
    "date_created": "2022-02-07T19:32:15.000",
    "date_modified": "2022-02-07T19:32:15.000",
    "request_status": "Pending",
    "responsible_agency": "Department of Public Works",
    "final_address": "7100 Downman Rd",
    "address_councildis": "D",
    "status": "Pending",
    "rowid": "859424",
    "final_x": "3695187.33584",
    "final_y": "556416.545882",
    "longitude": "-90.02395251546227",
    "latitude": "30.023529435401052",
    "geocoded_column": {
      "latitude": "30.023529435401052",
      "longitude": "-90.02395251546227"
    }
  },
  {
    "service_request": "2022-859423",
    "request_type": "Traffic Signals/Signs/Striping/Streetlights",
    "request_reason": "Street Light Outage/Malfunction",
    "date_created": "2022-02-07T19:27:31.000",
    "date_modified": "2022-02-07T19:27:32.000",
    "request_status": "Pending",
    "responsible_agency": "Department of Public Works",
    "final_address": "7001 Camp St",
    "address_councildis": "A",
    "status": "Pending",
    "contractor": "Royal Engineering",
    "rowid": "859423",
    "final_x": "3661476.14874",
    "final_y": "521282.136185",
    "longitude": "-90.13163780387758",
    "latitude": "29.927937591405588",
    "geocoded_column": {
      "latitude": "29.927937591405588",
      "longitude": "-90.13163780387758"
    }
  },
  {
    "service_request": "2022-859422",
    "request_type": "Safety & Permits",
    "request_reason": "Licenses & Permits",
    "date_created": "2022-02-07T18:57:28.000",
    "date_modified": "2022-02-07T18:57:28.000",
    "request_status": "Pending",
    "responsible_agency": "Safety and Permits",
    "final_address": "239 Decatur St",
    "address_councildis": "C",
    "status": "Pending",
    "rowid": "859422",
    "final_x": "3682195.63317",
    "final_y": "530830.069826",
    "longitude": "-90.06589786183099",
    "latitude": "29.95357746948798",
    "geocoded_column": {
      "latitude": "29.95357746948798",
      "longitude": "-90.06589786183099"
    }
  },
  {
    "service_request": "2022-859421",
    "request_type": "Trash/Recycling",
    "request_reason": "Request a Large Item Pick Up",
    "date_created": "2022-02-07T18:51:02.000",
    "date_modified": "2022-02-07T18:51:03.000",
    "request_status": "Pending",
    "responsible_agency": "Department of Sanitation",
    "final_address": "1524 St Mary St",
    "address_councildis": "B",
    "status": "Assigned to Contractor",
    "contractor": "Richards Disposal",
    "rowid": "859421",
    "final_x": "3678520.29608",
    "final_y": "524047.648188",
    "longitude": "-90.07773770634712",
    "latitude": "29.935039336339152",
    "geocoded_column": {
      "latitude": "29.935039336339152",
      "longitude": "-90.07773770634712"
    }
  },
  {
    "service_request": "2022-859420",
    "request_type": "COVID-19",
    "request_reason": "COVID-19 Business Non-Compliance",
    "date_created": "2022-02-07T18:46:28.000",
    "date_modified": "2022-02-07T18:46:29.000",
    "request_status": "Pending",
    "responsible_agency": "Safety and Permits",
    "final_address": "329 S Dorgenois St",
    "address_councildis": "B",
    "status": "Pending",
    "rowid": "859420",
    "final_x": "3675136.63733",
    "final_y": "533961.708037",
    "longitude": "-90.08807976435857",
    "latitude": "29.962401234374283",
    "geocoded_column": {
      "latitude": "29.962401234374283",
      "longitude": "-90.08807976435857"
    }
  },
  {
    "service_request": "2022-859419",
    "request_type": "Trash/Recycling",
    "request_reason": "Order Recycling Cart",
    "date_created": "2022-02-07T18:43:20.000",
    "date_modified": "2022-02-07T18:43:20.000",
    "request_status": "Pending",
    "responsible_agency": "Department of Sanitation",
    "final_address": "1431 St Andrew St",
    "address_councildis": "B",
    "status": "Pending",
    "rowid": "859419",
    "final_x": "3678693.99733",
    "final_y": "523606.590203",
    "longitude": "-90.07720459705475",
    "latitude": "29.933821337076548",
    "geocoded_column": {
      "latitude": "29.933821337076548",
      "longitude": "-90.07720459705475"
    }
  },
  {
    "service_request": "2022-859418",
    "request_type": "Roads/Drainage",
    "request_reason": "Street Subsidence (Sinking)",
    "date_created": "2022-02-07T17:39:57.000",
    "date_modified": "2022-02-07T17:39:57.000",
    "request_status": "Pending",
    "responsible_agency": "Department of Public Works",
    "final_address": "336 N Norman C Francis Prkwy",
    "address_councildis": "B",
    "status": "Pending",
    "rowid": "859418",
    "final_x": "3673998.46228",
    "final_y": "537533.114312",
    "longitude": "-90.09155174253101",
    "latitude": "29.972255358519124",
    "geocoded_column": {
      "latitude": "29.972255358519124",
      "longitude": "-90.09155174253101"
    }
  },
  {
    "service_request": "2022-859417",
    "request_type": "Abandoned Vehicles",
    "request_reason": "Abandoned/Junk Vehicles",
    "date_created": "2022-02-07T17:36:58.000",
    "date_modified": "2022-02-07T17:36:58.000",
    "request_status": "Pending",
    "responsible_agency": "Department of Public Works",
    "final_address": "922 Harding Dr",
    "address_councildis": "A",
    "status": "Pending",
    "rowid": "859417",
    "final_x": "3674434.70177",
    "final_y": "539883.471626",
    "longitude": "-90.09009348404881",
    "latitude": "29.978705032903335",
    "geocoded_column": {
      "latitude": "29.978705032903335",
      "longitude": "-90.09009348404881"
    }
  },
  {
    "service_request": "2022-859416",
    "request_type": "Traffic Signals/Signs/Striping/Streetlights",
    "request_reason": "Traffic Sign Missing/Damaged",
    "date_created": "2022-02-07T17:00:48.000",
    "date_modified": "2022-02-07T17:00:48.000",
    "request_status": "Pending",
    "responsible_agency": "Department of Public Works",
    "final_address": "CARONDELET ST & ERATO ST",
    "address_councildis": "B",
    "status": "Pending",
    "rowid": "859416",
    "final_x": "3679131.5",
    "final_y": "526302.58",
    "longitude": "-90.07573000839639",
    "latitude": "29.94122122336798",
    "geocoded_column": {
      "latitude": "29.94122122336798",
      "longitude": "-90.07573000839639"
    }
  },
  {
    "service_request": "2022-859415",
    "request_type": "Trash/Recycling",
    "request_reason": "Request a Large Item Pick Up",
    "date_created": "2022-02-07T17:00:10.000",
    "date_modified": "2022-02-07T17:00:11.000",
    "request_status": "Pending",
    "responsible_agency": "Department of Sanitation",
    "final_address": "7523 Zimple St",
    "address_councildis": "A",
    "status": "Assigned to Contractor",
    "contractor": "Richards Disposal",
    "rowid": "859415",
    "final_x": "3663182.41831",
    "final_y": "526841.03091",
    "longitude": "-90.12606659199297",
    "latitude": "29.94317347756813",
    "geocoded_column": {
      "latitude": "29.94317347756813",
      "longitude": "-90.12606659199297"
    }
  },
  {
    "service_request": "2022-859414",
    "request_type": "Traffic Signals/Signs/Striping/Streetlights",
    "request_reason": "Traffic Sign Missing/Damaged",
    "date_created": "2022-02-07T16:55:35.000",
    "date_modified": "2022-02-07T16:55:35.000",
    "request_status": "Pending",
    "responsible_agency": "Department of Public Works",
    "final_address": "ST MARY ST & ST CHARLES AVE",
    "address_councildis": "B",
    "status": "Pending",
    "rowid": "859414",
    "final_x": "3678403.9",
    "final_y": "524297.08",
    "longitude": "-90.07809654167146",
    "latitude": "29.935728698326553",
    "geocoded_column": {
      "latitude": "29.935728698326553",
      "longitude": "-90.07809654167146"
    }
  },
  {
    "service_request": "2022-859413",
    "request_type": "Trash/Recycling",
    "request_reason": "Missed Trash Pick-Up",
    "date_created": "2022-02-07T16:53:21.000",
    "date_modified": "2022-02-07T16:53:22.000",
    "request_status": "Pending",
    "responsible_agency": "Department of Sanitation",
    "final_address": "1500 BLK Clouet St",
    "address_councildis": "D",
    "status": "Assigned to Contractor",
    "contractor": "Metro Disposal",
    "rowid": "859413",
    "final_x": "3689464.72044",
    "final_y": "537850.452302",
    "longitude": "-90.04269552922534",
    "latitude": "29.972657985407125",
    "geocoded_column": {
      "latitude": "29.972657985407125",
      "longitude": "-90.04269552922534"
    }
  },
  {
    "service_request": "2022-859412",
    "request_type": "Abandoned Vehicles",
    "request_reason": "Abandoned/Junk Vehicles",
    "date_created": "2022-02-07T16:52:20.000",
    "date_modified": "2022-02-07T16:52:20.000",
    "request_status": "Pending",
    "responsible_agency": "Department of Public Works",
    "final_address": "6010 Chatham Dr",
    "address_councildis": "D",
    "status": "Pending",
    "rowid": "859412",
    "final_x": "3679512.57301",
    "final_y": "554551.358104",
    "longitude": "-90.07354633182382",
    "latitude": "30.018884046699544",
    "geocoded_column": {
      "latitude": "30.018884046699544",
      "longitude": "-90.07354633182382"
    }
  },
  {
    "service_request": "2022-859411",
    "request_type": "Trash/Recycling",
    "request_reason": "Missed Trash Pick-Up",
    "date_created": "2022-02-07T16:46:31.000",
    "date_modified": "2022-02-07T16:46:31.000",
    "request_status": "Pending",
    "responsible_agency": "Department of Sanitation",
    "final_address": "4004 Magazine St, New Orleans, Louisiana, 70115",
    "address_councildis": "B",
    "status": "Assigned to Contractor",
    "contractor": "Richards Disposal",
    "rowid": "859411",
    "final_x": "3672410.30497",
    "final_y": "518867.974135",
    "longitude": "-90.09720335103354",
    "latitude": "29.920979580411448",
    "geocoded_column": {
      "latitude": "29.920979580411448",
      "longitude": "-90.09720335103354"
    }
  },
  {
    "service_request": "2022-859410",
    "request_type": "Health Related Questions",
    "request_reason": "Request Information on the Health Marketplace",
    "date_created": "2022-02-07T16:37:59.000",
    "date_modified": "2022-02-07T16:37:59.000",
    "request_status": "Pending",
    "responsible_agency": "Health Department",
    "final_address": "901 Bourbon St",
    "address_councildis": "C",
    "status": "Pending",
    "rowid": "859410",
    "final_x": "3682707.32303",
    "final_y": "533304.72122",
    "longitude": "-90.06419561516127",
    "latitude": "29.960366345084232",
    "geocoded_column": {
      "latitude": "29.960366345084232",
      "longitude": "-90.06419561516127"
    }
  },
  {
    "service_request": "2022-859409",
    "request_type": "Traffic Signals/Signs/Striping/Streetlights",
    "request_reason": "Traffic Signal Malfunctioning/Damaged",
    "date_created": "2022-02-07T16:35:58.000",
    "date_modified": "2022-02-07T16:35:58.000",
    "request_status": "Pending",
    "responsible_agency": "Department of Public Works",
    "final_address": "ESPLANADE AVE & N CLAIBORNE AVE",
    "address_councildis": "D",
    "status": "Pending",
    "rowid": "859409",
    "final_x": "3681231.3",
    "final_y": "536639.18",
    "longitude": "-90.06874038104324",
    "latitude": "29.969579834804723",
    "geocoded_column": {
      "latitude": "29.969579834804723",
      "longitude": "-90.06874038104324"
    }
  },
  {
    "service_request": "2022-859408",
    "request_type": "Trash/Recycling",
    "request_reason": "Replace Trash Cart",
    "date_created": "2022-02-07T16:27:55.000",
    "date_modified": "2022-02-07T16:27:55.000",
    "request_status": "Pending",
    "responsible_agency": "Department of Sanitation",
    "final_address": "8627 Nelson St",
    "address_councildis": "A",
    "status": "Assigned to Contractor",
    "contractor": "Richards Disposal",
    "rowid": "859408",
    "final_x": "3663663.6841",
    "final_y": "533217.839428",
    "longitude": "-90.12433467914674",
    "latitude": "29.960693688992823",
    "geocoded_column": {
      "latitude": "29.960693688992823",
      "longitude": "-90.12433467914674"
    }
  },
  {
    "service_request": "2022-859407",
    "request_type": "Trash/Recycling",
    "request_reason": "Request a Large Item Pick Up",
    "date_created": "2022-02-07T16:25:10.000",
    "date_modified": "2022-02-07T16:25:11.000",
    "request_status": "Pending",
    "responsible_agency": "Department of Sanitation",
    "final_address": "6010 Brighton Pl",
    "address_councildis": "C",
    "status": "Assigned to Contractor",
    "contractor": "Richards Disposal",
    "rowid": "859407",
    "final_x": "3706164.49687",
    "final_y": "520150.501304",
    "longitude": "-89.99061006233049",
    "latitude": "29.92346166855914",
    "geocoded_column": {
      "latitude": "29.92346166855914",
      "longitude": "-89.99061006233049"
    }
  },
  {
    "service_request": "2022-859406",
    "request_type": "Roads/Drainage",
    "request_reason": "Street Subsidence (Sinking)",
    "date_created": "2022-02-07T16:25:09.000",
    "date_modified": "2022-02-07T16:25:09.000",
    "request_status": "Pending",
    "responsible_agency": "Department of Public Works",
    "final_address": "6448 Avenue A",
    "address_councildis": "A",
    "status": "Pending",
    "rowid": "859406",
    "final_x": "3665922.8306",
    "final_y": "551078.783509",
    "longitude": "-90.1166017996724",
    "latitude": "30.00973950967234",
    "geocoded_column": {
      "latitude": "30.00973950967234",
      "longitude": "-90.1166017996724"
    }
  },
  {
    "service_request": "2022-859405",
    "request_type": "Abandoned Vehicles",
    "request_reason": "Abandoned/Junk Vehicles",
    "date_created": "2022-02-07T16:23:09.000",
    "date_modified": "2022-02-07T16:24:56.000",
    "request_status": "Pending",
    "responsible_agency": "Department of Public Works",
    "final_address": "ST BERNARD AVE & N ROCHEBLAVE ST",
    "address_councildis": "D",
    "status": "Pending",
    "rowid": "859405",
    "final_x": "3680640.7",
    "final_y": "540769.08",
    "longitude": "-90.07046179869488",
    "latitude": "29.980953539676335",
    "geocoded_column": {
      "latitude": "29.980953539676335",
      "longitude": "-90.07046179869488"
    }
  },
  {
    "service_request": "2022-859404",
    "request_type": "Trash/Recycling",
    "request_reason": "Order Recycling Cart",
    "date_created": "2022-02-07T16:15:35.000",
    "date_modified": "2022-02-07T16:15:35.000",
    "request_status": "Pending",
    "responsible_agency": "Department of Sanitation",
    "final_address": "7903 Belfast St",
    "address_councildis": "A",
    "status": "Pending",
    "rowid": "859404",
    "final_x": "3666167.17421",
    "final_y": "531914.489859",
    "longitude": "-90.11647282463352",
    "latitude": "29.95703703554025",
    "geocoded_column": {
      "latitude": "29.95703703554025",
      "longitude": "-90.11647282463352"
    }
  },
  {
    "service_request": "2022-859403",
    "request_type": "Trash/Recycling",
    "request_reason": "Request a Large Item Pick Up",
    "date_created": "2022-02-07T16:13:20.000",
    "date_modified": "2022-02-07T16:13:21.000",
    "request_status": "Pending",
    "responsible_agency": "Department of Sanitation",
    "final_address": "2536 Eton St",
    "address_councildis": "C",
    "status": "Assigned to Contractor",
    "contractor": "Richards Disposal",
    "rowid": "859403",
    "final_x": "3704132.47543",
    "final_y": "521816.021306",
    "longitude": "-89.99696302932628",
    "latitude": "29.92810658762805",
    "geocoded_column": {
      "latitude": "29.92810658762805",
      "longitude": "-89.99696302932628"
    }
  },
  {
    "service_request": "2022-859402",
    "request_type": "Trash/Recycling",
    "request_reason": "Request a Large Item Pick Up",
    "date_created": "2022-02-07T16:11:56.000",
    "date_modified": "2022-02-07T16:11:57.000",
    "request_status": "Pending",
    "responsible_agency": "Department of Sanitation",
    "final_address": "2322 St Thomas St",
    "address_councildis": "B",
    "status": "Assigned to Contractor",
    "contractor": "Richards Disposal",
    "rowid": "859402",
    "final_x": "3679498.76802",
    "final_y": "520241.783608",
    "longitude": "-90.07478064741272",
    "latitude": "29.92454493833812",
    "geocoded_column": {
      "latitude": "29.92454493833812",
      "longitude": "-90.07478064741272"
    }
  },
  {
    "service_request": "2022-859401",
    "request_type": "Property Maintenance",
    "request_reason": "Property Maintenance",
    "date_created": "2022-02-07T16:06:17.000",
    "date_modified": "2022-02-07T16:06:17.000",
    "request_status": "Pending",
    "responsible_agency": "Department of Code Enforcement",
    "final_address": "1008 Third St",
    "address_councildis": "B",
    "status": "Pending",
    "rowid": "859401",
    "final_x": "3677680.21531",
    "final_y": "520903.394745",
    "longitude": "-90.08049836928909",
    "latitude": "29.9264189518421",
    "geocoded_column": {
      "latitude": "29.9264189518421",
      "longitude": "-90.08049836928909"
    }
  },
  {
    "service_request": "2022-859400",
    "request_type": "Property Maintenance",
    "request_reason": "Property Maintenance",
    "date_created": "2022-02-07T16:03:29.000",
    "date_modified": "2022-02-07T16:03:29.000",
    "request_status": "Pending",
    "responsible_agency": "Department of Code Enforcement",
    "final_address": "3800 Howard Ave",
    "address_councildis": "B",
    "status": "Pending",
    "rowid": "859400",
    "final_x": "3673268.733",
    "final_y": "531920.916611",
    "longitude": "-90.09404805327173",
    "latitude": "29.956845424232803",
    "geocoded_column": {
      "latitude": "29.956845424232803",
      "longitude": "-90.09404805327173"
    }
  },
  {
    "service_request": "2022-859399",
    "request_type": "Trash/Recycling",
    "request_reason": "Request a Large Item Pick Up",
    "date_created": "2022-02-07T16:02:38.000",
    "date_modified": "2022-02-07T16:02:40.000",
    "request_status": "Pending",
    "responsible_agency": "Department of Sanitation",
    "final_address": "6665 Argonne Blvd, New Orleans, Louisiana, 70124",
    "address_councildis": "A",
    "status": "Assigned to Contractor",
    "contractor": "Metro Disposal",
    "rowid": "859399",
    "final_x": "3670634.58625",
    "final_y": "551735.952085",
    "longitude": "-90.10169332541606",
    "latitude": "30.011408078137574",
    "geocoded_column": {
      "latitude": "30.011408078137574",
      "longitude": "-90.10169332541606"
    }
  },
  {
    "service_request": "2022-859398",
    "request_type": "Trash/Recycling",
    "request_reason": "Order Recycling Cart",
    "date_created": "2022-02-07T15:55:07.000",
    "date_modified": "2022-02-07T15:55:07.000",
    "request_status": "Pending",
    "responsible_agency": "Department of Sanitation",
    "final_address": "1241 Leboeuf St",
    "address_councildis": "C",
    "status": "Pending",
    "rowid": "859398",
    "final_x": "3689667.35011",
    "final_y": "526809.248638",
    "longitude": "-90.04244843050577",
    "latitude": "29.942292226923378",
    "geocoded_column": {
      "latitude": "29.942292226923378",
      "longitude": "-90.04244843050577"
    }
  },
  {
    "service_request": "2022-859397",
    "request_type": "Trash/Recycling",
    "request_reason": "Request a Large Item Pick Up",
    "date_created": "2022-02-07T15:53:52.000",
    "date_modified": "2022-02-07T15:53:52.000",
    "request_status": "Pending",
    "responsible_agency": "Department of Sanitation",
    "final_address": "442 S Rendon St",
    "address_councildis": "B",
    "status": "Assigned to Contractor",
    "contractor": "Richards Disposal",
    "rowid": "859397",
    "final_x": "3672710.80532",
    "final_y": "535228.605062",
    "longitude": "-90.09569700141458",
    "latitude": "29.965957042838507",
    "geocoded_column": {
      "latitude": "29.965957042838507",
      "longitude": "-90.09569700141458"
    }
  },
  {
    "service_request": "2022-859395",
    "request_type": "Property Maintenance",
    "request_reason": "Property Maintenance",
    "date_created": "2022-02-07T15:32:02.000",
    "date_modified": "2022-02-07T15:32:02.000",
    "request_status": "Pending",
    "responsible_agency": "Department of Code Enforcement",
    "final_address": "2714 N Robertson St",
    "address_councildis": "C",
    "status": "Pending",
    "rowid": "859395",
    "final_x": "3687919.71951",
    "final_y": "537787.695368",
    "longitude": "-90.04757713592586",
    "latitude": "29.972533185976545",
    "geocoded_column": {
      "latitude": "29.972533185976545",
      "longitude": "-90.04757713592586"
    }
  },
  {
    "service_request": "2022-859394",
    "request_type": "Property Maintenance",
    "request_reason": "Property Maintenance",
    "date_created": "2022-02-07T15:31:25.000",
    "date_modified": "2022-02-07T15:31:25.000",
    "request_status": "Pending",
    "responsible_agency": "Department of Code Enforcement",
    "final_address": "2718 N Robertson St",
    "address_councildis": "C",
    "status": "Pending",
    "rowid": "859394",
    "final_x": "3687944.59894",
    "final_y": "537779.54164",
    "longitude": "-90.04749885141113",
    "latitude": "29.97250999843268",
    "geocoded_column": {
      "latitude": "29.97250999843268",
      "longitude": "-90.04749885141113"
    }
  },
  {
    "service_request": "2022-859393",
    "request_type": "Abandoned Vehicles",
    "request_reason": "Abandoned/Junk Vehicles",
    "date_created": "2022-02-07T15:30:01.000",
    "date_modified": "2022-02-07T15:30:01.000",
    "request_status": "Pending",
    "responsible_agency": "Department of Public Works",
    "final_address": "3320 Law St",
    "address_councildis": "D",
    "status": "Pending",
    "rowid": "859393",
    "final_x": "3691386.2902",
    "final_y": "541353.490636",
    "longitude": "-90.03650167240794",
    "latitude": "29.982230440264917",
    "geocoded_column": {
      "latitude": "29.982230440264917",
      "longitude": "-90.03650167240794"
    }
  },
  {
    "service_request": "2022-859392",
    "request_type": "Abandoned Vehicles",
    "request_reason": "Abandoned/Junk Vehicles",
    "date_created": "2022-02-07T15:24:38.000",
    "date_modified": "2022-02-07T15:24:38.000",
    "request_status": "Pending",
    "responsible_agency": "Department of Public Works",
    "final_address": "1701 Patterson St",
    "address_councildis": "C",
    "status": "Pending",
    "rowid": "859392",
    "final_x": "3690703.06659",
    "final_y": "530866.346818",
    "longitude": "-90.03903376761411",
    "latitude": "29.95341572712131",
    "geocoded_column": {
      "latitude": "29.95341572712131",
      "longitude": "-90.03903376761411"
    }
  },
  {
    "service_request": "2022-859391",
    "request_type": "Trash/Recycling",
    "request_reason": "Repair Trash Cart",
    "date_created": "2022-02-07T15:21:56.000",
    "date_modified": "2022-02-07T15:21:57.000",
    "request_status": "Pending",
    "responsible_agency": "Department of Sanitation",
    "final_address": "1320 Spain St",
    "address_councildis": "C",
    "status": "Assigned to Contractor",
    "contractor": "Metro Disposal",
    "rowid": "859391",
    "final_x": "3686029.03644",
    "final_y": "537305.913608",
    "longitude": "-90.05356523315157",
    "latitude": "29.971266654245923",
    "geocoded_column": {
      "latitude": "29.971266654245923",
      "longitude": "-90.05356523315157"
    }
  },
  {
    "service_request": "2022-859390",
    "request_type": "Parks & Parkways",
    "request_reason": "Request Grass Cutting Service (City Owned Property)",
    "date_created": "2022-02-07T15:19:13.000",
    "date_modified": "2022-02-07T15:19:13.000",
    "request_status": "Pending",
    "responsible_agency": "Department of Parks & Parkway",
    "final_address": "MORRISON RD & PARIS RD",
    "address_councildis": "E",
    "status": "Pending",
    "rowid": "859390",
    "final_x": "3721463.0",
    "final_y": "572973.78",
    "longitude": "-89.94029190571797",
    "latitude": "30.068203230469766",
    "geocoded_column": {
      "latitude": "30.068203230469766",
      "longitude": "-89.94029190571797"
    }
  },
  {
    "service_request": "2022-859389",
    "request_type": "Roads/Drainage",
    "request_reason": "Pothole",
    "date_created": "2022-02-07T15:18:01.000",
    "date_modified": "2022-02-07T15:18:01.000",
    "request_status": "Pending",
    "responsible_agency": "Department of Public Works",
    "final_address": "MORRISON RD & VINCENT RD",
    "address_councildis": "E",
    "status": "Pending",
    "rowid": "859389",
    "final_x": "3718921.3",
    "final_y": "571057.28",
    "longitude": "-89.94839987801315",
    "latitude": "30.063018377775673",
    "geocoded_column": {
      "latitude": "30.063018377775673",
      "longitude": "-89.94839987801315"
    }
  },
  {
    "service_request": "2022-859388",
    "request_type": "Roads/Drainage",
    "request_reason": "Pothole",
    "date_created": "2022-02-07T15:17:34.000",
    "date_modified": "2022-02-07T15:17:34.000",
    "request_status": "Pending",
    "responsible_agency": "Department of Public Works",
    "final_address": "MORRISON RD & PARIS RD",
    "address_councildis": "E",
    "status": "Pending",
    "rowid": "859388",
    "final_x": "3721463.0",
    "final_y": "572973.78",
    "longitude": "-89.94029190571797",
    "latitude": "30.068203230469766",
    "geocoded_column": {
      "latitude": "30.068203230469766",
      "longitude": "-89.94029190571797"
    }
  },
  {
    "service_request": "2022-859387",
    "request_type": "Trash/Recycling",
    "request_reason": "Illegal Dumping",
    "date_created": "2022-02-07T15:16:05.000",
    "date_modified": "2022-02-07T15:16:05.000",
    "request_status": "Pending",
    "responsible_agency": "Department of Sanitation",
    "final_address": "9301 Lake Forest Blvd",
    "address_councildis": "E",
    "status": "Pending",
    "rowid": "859387",
    "final_x": "3708380.86315",
    "final_y": "558701.173596",
    "longitude": "-89.98217894354795",
    "latitude": "30.0293901178376",
    "geocoded_column": {
      "latitude": "30.0293901178376",
      "longitude": "-89.98217894354795"
    }
  },
  {
    "service_request": "2022-859386",
    "request_type": "Trash/Recycling",
    "request_reason": "Repair Recycling Cart",
    "date_created": "2022-02-07T15:09:25.000",
    "date_modified": "2022-02-07T15:09:25.000",
    "request_status": "Pending",
    "responsible_agency": "Department of Sanitation",
    "final_address": "3957 Constance St",
    "address_councildis": "B",
    "status": "Pending",
    "rowid": "859386",
    "final_x": "3672699.03355",
    "final_y": "518620.273399",
    "longitude": "-90.09630040465045",
    "latitude": "29.920289914548036",
    "geocoded_column": {
      "latitude": "29.920289914548036",
      "longitude": "-90.09630040465045"
    }
  },
  {
    "service_request": "2022-859385",
    "request_type": "Roads/Drainage",
    "request_reason": "Street Subsidence (Sinking)",
    "date_created": "2022-02-07T15:07:01.000",
    "date_modified": "2022-02-07T15:07:01.000",
    "request_status": "Pending",
    "responsible_agency": "Department of Public Works",
    "final_address": "709 Webster St",
    "address_councildis": "A",
    "status": "Pending",
    "rowid": "859385",
    "final_x": "3664078.5952",
    "final_y": "519174.451767",
    "longitude": "-90.12349269785534",
    "latitude": "29.922066816443472",
    "geocoded_column": {
      "latitude": "29.922066816443472",
      "longitude": "-90.12349269785534"
    }
  },
  {
    "service_request": "2022-859384",
    "request_type": "Trash/Recycling",
    "request_reason": "Request a Large Item Pick Up",
    "date_created": "2022-02-07T15:05:07.000",
    "date_modified": "2022-02-07T15:05:08.000",
    "request_status": "Pending",
    "responsible_agency": "Department of Sanitation",
    "final_address": "3568 Roger Williams St",
    "address_councildis": "D",
    "status": "Assigned to Contractor",
    "contractor": "Metro Disposal",
    "rowid": "859384",
    "final_x": "3675764.99278",
    "final_y": "543910.606734",
    "longitude": "-90.08575343715651",
    "latitude": "29.989738507671117",
    "geocoded_column": {
      "latitude": "29.989738507671117",
      "longitude": "-90.08575343715651"
    }
  },
  {
    "service_request": "2022-859383",
    "request_type": "Roads/Drainage",
    "request_reason": "Catch Basin - Clogged",
    "date_created": "2022-02-07T15:04:06.000",
    "date_modified": "2022-02-07T15:04:06.000",
    "request_status": "Pending",
    "responsible_agency": "Department of Public Works",
    "final_address": "4618 Camelot Dr",
    "address_councildis": "E",
    "status": "Pending",
    "rowid": "859383",
    "final_x": "3708376.4035",
    "final_y": "554846.097496",
    "longitude": "-89.98233666612575",
    "latitude": "30.018790309063572",
    "geocoded_column": {
      "latitude": "30.018790309063572",
      "longitude": "-89.98233666612575"
    }
  },
  {
    "service_request": "2022-859382",
    "request_type": "Property Maintenance",
    "request_reason": "Property Maintenance",
    "date_created": "2022-02-07T14:58:06.000",
    "date_modified": "2022-02-07T14:58:06.000",
    "request_status": "Pending",
    "responsible_agency": "Department of Code Enforcement",
    "final_address": "3001 Laurel St",
    "address_councildis": "B",
    "status": "Pending",
    "rowid": "859382",
    "final_x": "3676663.13467",
    "final_y": "519738.95244",
    "longitude": "-90.08374909697325",
    "latitude": "29.923247651071335",
    "geocoded_column": {
      "latitude": "29.923247651071335",
      "longitude": "-90.08374909697325"
    }
  },
  {
    "service_request": "2022-859381",
    "request_type": "Traffic Signals/Signs/Striping/Streetlights",
    "request_reason": "Street Light Outage/Malfunction",
    "date_created": "2022-02-07T14:49:37.000",
    "date_modified": "2022-02-07T14:50:08.000",
    "request_status": "Pending",
    "responsible_agency": "Department of Public Works",
    "final_address": "8900 BLK Heaton St",
    "address_councildis": "A",
    "status": "Pending",
    "contractor": "Royal Engineering",
    "rowid": "859381",
    "final_x": "3667147.26672",
    "final_y": "538524.466046",
    "longitude": "-90.11315572282051",
    "latitude": "29.975183623476656",
    "geocoded_column": {
      "latitude": "29.975183623476656",
      "longitude": "-90.11315572282051"
    }
  },
  {
    "service_request": "2022-859380",
    "request_type": "Trash/Recycling",
    "request_reason": "Repair Trash Cart",
    "date_created": "2022-02-07T14:48:03.000",
    "date_modified": "2022-02-07T14:48:21.000",
    "request_status": "Pending",
    "responsible_agency": "Department of Sanitation",
    "final_address": "1225 Milan St",
    "address_councildis": "B",
    "status": "Assigned to Contractor",
    "contractor": "Richards Disposal",
    "rowid": "859380",
    "final_x": "3671717.71073",
    "final_y": "520109.166904",
    "longitude": "-90.09934737022807",
    "latitude": "29.924412991295743",
    "geocoded_column": {
      "latitude": "29.924412991295743",
      "longitude": "-90.09934737022807"
    }
  },
  {
    "service_request": "2022-859379",
    "request_type": "Trash/Recycling",
    "request_reason": "Request a Large Item Pick Up",
    "date_created": "2022-02-07T14:47:12.000",
    "date_modified": "2022-02-07T14:47:13.000",
    "request_status": "Pending",
    "responsible_agency": "Department of Sanitation",
    "final_address": "7501 Onyx St",
    "address_councildis": "D",
    "status": "Assigned to Contractor",
    "contractor": "Metro Disposal",
    "rowid": "859379",
    "final_x": "3669042.85934",
    "final_y": "556396.283098",
    "longitude": "-90.10656462028987",
    "latitude": "30.02426928501205",
    "geocoded_column": {
      "latitude": "30.02426928501205",
      "longitude": "-90.10656462028987"
    }
  },
  {
    "service_request": "2022-859378",
    "request_type": "Safety & Permits",
    "request_reason": "Licenses & Permits",
    "date_created": "2022-02-07T14:44:21.000",
    "date_modified": "2022-02-07T14:44:21.000",
    "request_status": "Pending",
    "responsible_agency": "Safety and Permits",
    "status": "Pending",
    "rowid": "859378",
    "longitude": "0.0",
    "latitude": "0.0",
    "geocoded_column": {
      "latitude": "0.0",
      "longitude": "0.0"
    }
  },
  {
    "service_request": "2022-859377",
    "request_type": "Roads/Drainage",
    "request_reason": "WaterMain Break",
    "date_created": "2022-02-07T14:43:37.000",
    "date_modified": "2022-02-07T14:48:04.000",
    "case_close_date": "2022-02-07T08:48:04.000",
    "request_status": "Closed",
    "responsible_agency": "Department of Public Works",
    "final_address": "336 S Norman C Francis Prkwy",
    "address_councildis": "B",
    "status": "Referred to External Agency",
    "rowid": "859377",
    "final_x": "3672654.14766",
    "final_y": "535759.376775",
    "longitude": "-90.0958578229234",
    "latitude": "29.967418169234044",
    "geocoded_column": {
      "latitude": "29.967418169234044",
      "longitude": "-90.0958578229234"
    }
  },
  {
    "service_request": "2022-859376",
    "request_type": "Roads/Drainage",
    "request_reason": "Catch Basin - Clogged",
    "date_created": "2022-02-07T14:42:27.000",
    "date_modified": "2022-02-07T14:42:27.000",
    "request_status": "Pending",
    "responsible_agency": "Department of Public Works",
    "final_address": "3533 Pin Oak Ave",
    "address_councildis": "C",
    "status": "Pending",
    "rowid": "859376",
    "final_x": "3703403.03338",
    "final_y": "514938.531315",
    "longitude": "-89.99951841775287",
    "latitude": "29.90921923071236",
    "geocoded_column": {
      "latitude": "29.90921923071236",
      "longitude": "-89.99951841775287"
    }
  },
  {
    "service_request": "2022-859375",
    "request_type": "Trash/Recycling",
    "request_reason": "Missed Trash Pick-Up",
    "date_created": "2022-02-07T14:41:57.000",
    "date_modified": "2022-02-07T14:41:58.000",
    "request_status": "Pending",
    "responsible_agency": "Department of Sanitation",
    "final_address": "1107 Napoleon Ave",
    "address_councildis": "B",
    "status": "Assigned to Contractor",
    "contractor": "Richards Disposal",
    "rowid": "859375",
    "final_x": "3671051.84206",
    "final_y": "519633.057976",
    "longitude": "-90.10146545166515",
    "latitude": "29.9231235443977",
    "geocoded_column": {
      "latitude": "29.9231235443977",
      "longitude": "-90.10146545166515"
    }
  },
  {
    "service_request": "2022-859374",
    "request_type": "Abandoned Vehicles",
    "request_reason": "Abandoned/Junk Vehicles",
    "date_created": "2022-02-07T14:38:09.000",
    "date_modified": "2022-02-07T14:38:09.000",
    "request_status": "Pending",
    "responsible_agency": "Department of Public Works",
    "final_address": "1024 N Rocheblave St",
    "address_councildis": "D",
    "status": "Pending",
    "rowid": "859374",
    "final_x": "3678359.89448",
    "final_y": "537378.129672",
    "longitude": "-90.0777829567168",
    "latitude": "29.971698517395986",
    "geocoded_column": {
      "latitude": "29.971698517395986",
      "longitude": "-90.0777829567168"
    }
  },
  {
    "service_request": "2022-859373",
    "request_type": "Traffic Signals/Signs/Striping/Streetlights",
    "request_reason": "Street Light Outage/Malfunction",
    "date_created": "2022-02-07T14:37:10.000",
    "date_modified": "2022-02-07T14:37:38.000",
    "request_status": "Pending",
    "responsible_agency": "Department of Public Works",
    "final_address": "1212 Austerlitz St",
    "address_councildis": "B",
    "status": "Pending",
    "contractor": "Royal Engineering",
    "rowid": "859373",
    "final_x": "3672716.81652",
    "final_y": "520114.793976",
    "longitude": "-90.096193338305",
    "latitude": "29.924398840621677",
    "geocoded_column": {
      "latitude": "29.924398840621677",
      "longitude": "-90.096193338305"
    }
  },
  {
    "service_request": "2022-859372",
    "request_type": "Trash/Recycling",
    "request_reason": "Order Trash Cart",
    "date_created": "2022-02-07T14:37:04.000",
    "date_modified": "2022-02-07T14:37:15.000",
    "request_status": "Pending",
    "responsible_agency": "Department of Sanitation",
    "final_address": "902 Robert E Lee Blvd, New Orleans, Louisiana, 70124",
    "address_councildis": "A",
    "status": "Assigned to Contractor",
    "contractor": "Metro Disposal",
    "rowid": "859372",
    "final_x": "3670543.68103",
    "final_y": "554432.94876",
    "longitude": "-90.10188895791484",
    "latitude": "30.018826549664087",
    "geocoded_column": {
      "latitude": "30.018826549664087",
      "longitude": "-90.10188895791484"
    }
  },
  {
    "service_request": "2022-859371",
    "request_type": "Roads/Drainage",
    "request_reason": "Street Subsidence (Sinking)",
    "date_created": "2022-02-07T14:35:39.000",
    "date_modified": "2022-02-07T14:35:39.000",
    "request_status": "Pending",
    "responsible_agency": "Department of Public Works",
    "final_address": "1814 Governor Nicholls St",
    "address_councildis": "D",
    "status": "Pending",
    "rowid": "859371",
    "final_x": "3680450.28111",
    "final_y": "536345.605447",
    "longitude": "-90.0712171167831",
    "latitude": "29.968796283522053",
    "geocoded_column": {
      "latitude": "29.968796283522053",
      "longitude": "-90.0712171167831"
    }
  },
  {
    "service_request": "2022-859370",
    "request_type": "Roads/Drainage",
    "request_reason": "Debris in Roadway",
    "date_created": "2022-02-07T14:35:09.000",
    "date_modified": "2022-02-07T14:35:09.000",
    "request_status": "Pending",
    "responsible_agency": "Department of Public Works",
    "final_address": "1024 N Rocheblave St",
    "address_councildis": "D",
    "status": "Pending",
    "rowid": "859370",
    "final_x": "3678359.89448",
    "final_y": "537378.129672",
    "longitude": "-90.0777829567168",
    "latitude": "29.971698517395986",
    "geocoded_column": {
      "latitude": "29.971698517395986",
      "longitude": "-90.0777829567168"
    }
  },
  {
    "service_request": "2022-859369",
    "request_type": "Roads/Drainage",
    "request_reason": "Street Subsidence (Sinking)",
    "date_created": "2022-02-07T14:34:51.000",
    "date_modified": "2022-02-07T14:35:40.000",
    "request_status": "Pending",
    "responsible_agency": "Department of Public Works",
    "final_address": "3519 Tulane Ave",
    "address_councildis": "B",
    "status": "Pending",
    "rowid": "859369",
    "final_x": "3671379.38843",
    "final_y": "535316.082054",
    "longitude": "-90.09989861344862",
    "latitude": "29.966237050421256",
    "geocoded_column": {
      "latitude": "29.966237050421256",
      "longitude": "-90.09989861344862"
    }
  },
  {
    "service_request": "2022-859368",
    "request_type": "Safety & Permits",
    "request_reason": "Construction permit",
    "date_created": "2022-02-07T14:32:14.000",
    "date_modified": "2022-02-07T14:32:14.000",
    "request_status": "Pending",
    "responsible_agency": "Department of Code Enforcement",
    "final_address": "1419 Port St",
    "address_councildis": "C",
    "status": "Pending",
    "rowid": "859368",
    "final_x": "3687781.535",
    "final_y": "537667.524872",
    "longitude": "-90.04801780336817",
    "latitude": "29.972207022119782",
    "geocoded_column": {
      "latitude": "29.972207022119782",
      "longitude": "-90.04801780336817"
    }
  },
  {
    "service_request": "2022-859367",
    "request_type": "Safety & Permits",
    "request_reason": "Construction permit",
    "date_created": "2022-02-07T14:30:12.000",
    "date_modified": "2022-02-07T14:30:12.000",
    "request_status": "Pending",
    "responsible_agency": "Department of Code Enforcement",
    "final_address": "1427 Port St",
    "address_councildis": "C",
    "status": "Pending",
    "rowid": "859367",
    "final_x": "3687783.45782",
    "final_y": "537718.797896",
    "longitude": "-90.0480099143913",
    "latitude": "29.972347945635786",
    "geocoded_column": {
      "latitude": "29.972347945635786",
      "longitude": "-90.0480099143913"
    }
  },
  {
    "service_request": "2022-859366",
    "request_type": "Traffic Signals/Signs/Striping/Streetlights",
    "request_reason": "Street Name Sign Damaged or Missing",
    "date_created": "2022-02-07T14:29:19.000",
    "date_modified": "2022-02-07T14:29:19.000",
    "request_status": "Pending",
    "responsible_agency": "Department of Public Works",
    "final_address": "4824 Canal St",
    "address_councildis": "A",
    "status": "Pending",
    "rowid": "859366",
    "final_x": "3668621.70695",
    "final_y": "540092.323723",
    "longitude": "-90.1084461050359",
    "latitude": "29.97945144903297",
    "geocoded_column": {
      "latitude": "29.97945144903297",
      "longitude": "-90.1084461050359"
    }
  },
  {
    "service_request": "2022-859365",
    "request_type": "Abandoned Vehicles",
    "request_reason": "Abandoned/Junk Vehicles",
    "date_created": "2022-02-07T14:27:59.000",
    "date_modified": "2022-02-07T14:27:59.000",
    "request_status": "Pending",
    "responsible_agency": "Department of Public Works",
    "final_address": "1839 Canal St",
    "address_councildis": "B",
    "status": "Pending",
    "rowid": "859365",
    "final_x": "3677909.88181",
    "final_y": "533289.38906",
    "longitude": "-90.07934548219197",
    "latitude": "29.96046942258687",
    "geocoded_column": {
      "latitude": "29.96046942258687",
      "longitude": "-90.07934548219197"
    }
  },
  {
    "service_request": "2022-859364",
    "request_type": "Trash/Recycling",
    "request_reason": "Request a Large Item Pick Up",
    "date_created": "2022-02-07T14:26:47.000",
    "date_modified": "2022-02-07T14:26:59.000",
    "request_status": "Pending",
    "responsible_agency": "Department of Sanitation",
    "final_address": "1933 S Rendon St",
    "address_councildis": "B",
    "status": "Assigned to Contractor",
    "contractor": "Richards Disposal",
    "rowid": "859364",
    "final_x": "3669115.79386",
    "final_y": "530038.356353",
    "longitude": "-90.10722536615887",
    "latitude": "29.95179185280783",
    "geocoded_column": {
      "latitude": "29.95179185280783",
      "longitude": "-90.10722536615887"
    }
  },
  {
    "service_request": "2022-859363",
    "request_type": "Property Maintenance",
    "request_reason": "Property Maintenance",
    "date_created": "2022-02-07T14:25:29.000",
    "date_modified": "2022-02-07T14:25:29.000",
    "request_status": "Pending",
    "responsible_agency": "Department of Code Enforcement",
    "final_address": "1725 N Roman St",
    "address_councildis": "D",
    "status": "Pending",
    "rowid": "859363",
    "final_x": "3682398.71516",
    "final_y": "538753.313929",
    "longitude": "-90.06497968286817",
    "latitude": "29.97535749234136",
    "geocoded_column": {
      "latitude": "29.97535749234136",
      "longitude": "-90.06497968286817"
    }
  },
  {
    "service_request": "2022-859362",
    "request_type": "Traffic Signals/Signs/Striping/Streetlights",
    "request_reason": "Street Light Outage/Malfunction",
    "date_created": "2022-02-07T14:21:23.000",
    "date_modified": "2022-02-07T14:21:23.000",
    "request_status": "Pending",
    "responsible_agency": "Department of Public Works",
    "final_address": "PALMETTO ST OVERPASS & AIRLINE HWY",
    "address_councildis": "A",
    "status": "Pending",
    "contractor": "Royal Engineering",
    "rowid": "859362",
    "final_x": "3666071.1",
    "final_y": "537154.98",
    "longitude": "-90.11660048163193",
    "latitude": "29.97144946016966",
    "geocoded_column": {
      "latitude": "29.97144946016966",
      "longitude": "-90.11660048163193"
    }
  },
  {
    "service_request": "2022-859361",
    "request_type": "Traffic Signals/Signs/Striping/Streetlights",
    "request_reason": "Street Light Outage/Malfunction",
    "date_created": "2022-02-07T14:20:56.000",
    "date_modified": "2022-02-07T14:20:56.000",
    "request_status": "Pending",
    "responsible_agency": "Department of Public Works",
    "final_address": "PALMETTO ST OVERPASS & AIRLINE HWY",
    "address_councildis": "A",
    "status": "Pending",
    "contractor": "Royal Engineering",
    "rowid": "859361",
    "final_x": "3666071.1",
    "final_y": "537154.98",
    "longitude": "-90.11660048163193",
    "latitude": "29.97144946016966",
    "geocoded_column": {
      "latitude": "29.97144946016966",
      "longitude": "-90.11660048163193"
    }
  },
  {
    "service_request": "2022-859360",
    "request_type": "Traffic Signals/Signs/Striping/Streetlights",
    "request_reason": "Street Light Outage/Malfunction",
    "date_created": "2022-02-07T14:20:43.000",
    "date_modified": "2022-02-07T14:20:43.000",
    "request_status": "Pending",
    "responsible_agency": "Department of Public Works",
    "final_address": "PALMETTO ST OVERPASS & AIRLINE HWY",
    "address_councildis": "A",
    "status": "Pending",
    "contractor": "Royal Engineering",
    "rowid": "859360",
    "final_x": "3666071.1",
    "final_y": "537154.98",
    "longitude": "-90.11660048163193",
    "latitude": "29.97144946016966",
    "geocoded_column": {
      "latitude": "29.97144946016966",
      "longitude": "-90.11660048163193"
    }
  },
  {
    "service_request": "2022-859359",
    "request_type": "Trash/Recycling",
    "request_reason": "Replace Trash Cart",
    "date_created": "2022-02-07T14:20:42.000",
    "date_modified": "2022-02-07T14:20:43.000",
    "request_status": "Pending",
    "responsible_agency": "Department of Sanitation",
    "final_address": "752 Robert E Lee Blvd",
    "address_councildis": "A",
    "status": "Assigned to Contractor",
    "contractor": "Metro Disposal",
    "rowid": "859359",
    "final_x": "3669706.4194",
    "final_y": "554547.048152",
    "longitude": "-90.10453054883214",
    "latitude": "30.019164997456457",
    "geocoded_column": {
      "latitude": "30.019164997456457",
      "longitude": "-90.10453054883214"
    }
  },
  {
    "service_request": "2022-859358",
    "request_type": "Trash/Recycling",
    "request_reason": "Request a Large Item Pick Up",
    "date_created": "2022-02-07T14:20:25.000",
    "date_modified": "2022-02-07T14:20:26.000",
    "request_status": "Pending",
    "responsible_agency": "Department of Sanitation",
    "final_address": "2821 Carondelet St",
    "address_councildis": "B",
    "status": "Assigned to Contractor",
    "contractor": "Richards Disposal",
    "rowid": "859358",
    "final_x": "3675471.11489",
    "final_y": "522888.696571",
    "longitude": "-90.08740374419074",
    "latitude": "29.931944118233847",
    "geocoded_column": {
      "latitude": "29.931944118233847",
      "longitude": "-90.08740374419074"
    }
  },
  {
    "service_request": "2022-859357",
    "request_type": "Traffic Signals/Signs/Striping/Streetlights",
    "request_reason": "Street Light Outage/Malfunction",
    "date_created": "2022-02-07T14:20:14.000",
    "date_modified": "2022-02-07T14:20:14.000",
    "request_status": "Pending",
    "responsible_agency": "Department of Public Works",
    "final_address": "PALMETTO ST OVERPASS & AIRLINE HWY",
    "address_councildis": "A",
    "status": "Pending",
    "contractor": "Royal Engineering",
    "rowid": "859357",
    "final_x": "3666071.1",
    "final_y": "537154.98",
    "longitude": "-90.11660048163193",
    "latitude": "29.97144946016966",
    "geocoded_column": {
      "latitude": "29.97144946016966",
      "longitude": "-90.11660048163193"
    }
  },
  {
    "service_request": "2022-859356",
    "request_type": "Abandoned Vehicles",
    "request_reason": "Abandoned/Junk Vehicles",
    "date_created": "2022-02-07T14:20:00.000",
    "date_modified": "2022-02-07T14:20:00.000",
    "request_status": "Pending",
    "responsible_agency": "Department of Public Works",
    "final_address": "1939 Canal St",
    "address_councildis": "B",
    "status": "Pending",
    "rowid": "859356",
    "final_x": "3677660.00949",
    "final_y": "533484.557316",
    "longitude": "-90.08012778820033",
    "latitude": "29.961013586088104",
    "geocoded_column": {
      "latitude": "29.961013586088104",
      "longitude": "-90.08012778820033"
    }
  },
  {
    "service_request": "2022-859355",
    "request_type": "Traffic Signals/Signs/Striping/Streetlights",
    "request_reason": "Street Light Outage/Malfunction",
    "date_created": "2022-02-07T14:15:57.000",
    "date_modified": "2022-02-07T14:15:58.000",
    "request_status": "Pending",
    "responsible_agency": "Department of Public Works",
    "final_address": "2817 St Roch Ave",
    "address_councildis": "D",
    "status": "Pending",
    "contractor": "Royal Engineering",
    "rowid": "859355",
    "final_x": "3686040.10095",
    "final_y": "543216.441486",
    "longitude": "-90.05332177033465",
    "latitude": "29.987518183763964",
    "geocoded_column": {
      "latitude": "29.987518183763964",
      "longitude": "-90.05332177033465"
    }
  },
  {
    "service_request": "2022-859354",
    "request_type": "Trash/Recycling",
    "request_reason": "Return Recycling Cart",
    "date_created": "2022-02-07T14:13:06.000",
    "date_modified": "2022-02-07T14:13:06.000",
    "request_status": "Pending",
    "responsible_agency": "Department of Sanitation",
    "final_address": "2725 Pine St",
    "address_councildis": "B",
    "status": "Pending",
    "rowid": "859354",
    "final_x": "3667073.34305",
    "final_y": "531373.706371",
    "longitude": "-90.11362959225532",
    "latitude": "29.955523565992237",
    "geocoded_column": {
      "latitude": "29.955523565992237",
      "longitude": "-90.11362959225532"
    }
  },
  {
    "service_request": "2022-859352",
    "request_type": "Abandoned Vehicles",
    "request_reason": "Abandoned/Junk Vehicles",
    "date_created": "2022-02-07T14:02:34.000",
    "date_modified": "2022-02-07T14:02:34.000",
    "request_status": "Pending",
    "responsible_agency": "Department of Public Works",
    "final_address": "618 Constantinople St",
    "address_councildis": "B",
    "status": "Pending",
    "rowid": "859352",
    "final_x": "3672566.27374",
    "final_y": "518059.791926",
    "longitude": "-90.09673855832494",
    "latitude": "29.91875270930808",
    "geocoded_column": {
      "latitude": "29.91875270930808",
      "longitude": "-90.09673855832494"
    }
  },
  {
    "service_request": "2022-859351",
    "request_type": "Trash/Recycling",
    "request_reason": "Repair Trash Cart",
    "date_created": "2022-02-07T14:02:33.000",
    "date_modified": "2022-02-07T14:02:35.000",
    "request_status": "Pending",
    "responsible_agency": "Department of Sanitation",
    "final_address": "1021 Henry Clay Ave",
    "address_councildis": "A",
    "status": "Assigned to Contractor",
    "contractor": "Richards Disposal",
    "rowid": "859351",
    "final_x": "3664156.70228",
    "final_y": "520320.188152",
    "longitude": "-90.12320795011891",
    "latitude": "29.92521496487658",
    "geocoded_column": {
      "latitude": "29.92521496487658",
      "longitude": "-90.12320795011891"
    }
  },
  {
    "service_request": "2022-859350",
    "request_type": "Trash/Recycling",
    "request_reason": "Repair Trash Cart",
    "date_created": "2022-02-07T14:00:09.000",
    "date_modified": "2022-02-07T14:00:10.000",
    "request_status": "Pending",
    "responsible_agency": "Department of Sanitation",
    "final_address": "1131 Marigny St",
    "address_councildis": "C",
    "status": "Assigned to Contractor",
    "contractor": "Metro Disposal",
    "rowid": "859350",
    "final_x": "3685423.25884",
    "final_y": "536668.622407",
    "longitude": "-90.0555008043378",
    "latitude": "29.969532915102068",
    "geocoded_column": {
      "latitude": "29.969532915102068",
      "longitude": "-90.0555008043378"
    }
  },
  {
    "service_request": "2022-859349",
    "request_type": "Trash/Recycling",
    "request_reason": "Illegal Dumping",
    "date_created": "2022-02-07T13:59:34.000",
    "date_modified": "2022-02-07T13:59:34.000",
    "request_status": "Pending",
    "responsible_agency": "Department of Sanitation",
    "final_address": "2929 N Rocheblave St",
    "address_councildis": "D",
    "status": "Pending",
    "rowid": "859349",
    "final_x": "3688948.34403",
    "final_y": "541259.936204",
    "longitude": "-90.04420519279859",
    "latitude": "29.98204884201932",
    "geocoded_column": {
      "latitude": "29.98204884201932",
      "longitude": "-90.04420519279859"
    }
  },
  {
    "service_request": "2022-859348",
    "request_type": "Trash/Recycling",
    "request_reason": "Request a Large Item Pick Up",
    "date_created": "2022-02-07T13:58:10.000",
    "date_modified": "2022-02-07T13:58:11.000",
    "request_status": "Pending",
    "responsible_agency": "Department of Sanitation",
    "final_address": "8439 Palm St, New Orleans, Louisiana, 70118",
    "address_councildis": "A",
    "status": "Assigned to Contractor",
    "contractor": "Richards Disposal",
    "rowid": "859348",
    "final_x": "3666723.07393",
    "final_y": "535650.082758",
    "longitude": "-90.11459199656032",
    "latitude": "29.96729244057626",
    "geocoded_column": {
      "latitude": "29.96729244057626",
      "longitude": "-90.11459199656032"
    }
  },
  {
    "service_request": "2022-859347",
    "request_type": "Abandoned Vehicles",
    "request_reason": "Abandoned/Junk Vehicles",
    "date_created": "2022-02-07T13:54:49.000",
    "date_modified": "2022-02-07T13:54:49.000",
    "request_status": "Pending",
    "responsible_agency": "Department of Public Works",
    "final_address": "7200 BLK Hampson St",
    "address_councildis": "A",
    "status": "Pending",
    "rowid": "859347",
    "final_x": "3663071.48812",
    "final_y": "525142.133559",
    "longitude": "-90.12647332295816",
    "latitude": "29.938505264208768",
    "geocoded_column": {
      "latitude": "29.938505264208768",
      "longitude": "-90.12647332295816"
    }
  },
  {
    "service_request": "2022-859346",
    "request_type": "Trash/Recycling",
    "request_reason": "Order Recycling Cart",
    "date_created": "2022-02-07T13:50:33.000",
    "date_modified": "2022-02-07T13:50:33.000",
    "request_status": "Pending",
    "responsible_agency": "Department of Sanitation",
    "final_address": "616 S Cortez St",
    "address_councildis": "B",
    "status": "Pending",
    "rowid": "859346",
    "final_x": "3670818.14087",
    "final_y": "535882.873927",
    "longitude": "-90.10165178624564",
    "latitude": "29.967812138551125",
    "geocoded_column": {
      "latitude": "29.967812138551125",
      "longitude": "-90.10165178624564"
    }
  },
  {
    "service_request": "2022-859345",
    "request_type": "Abandoned Vehicles",
    "request_reason": "Abandoned/Junk Vehicles",
    "date_created": "2022-02-07T13:49:20.000",
    "date_modified": "2022-02-07T13:49:20.000",
    "request_status": "Pending",
    "responsible_agency": "Department of Public Works",
    "final_address": "3724 LaSalle St",
    "address_councildis": "B",
    "status": "Pending",
    "rowid": "859345",
    "final_x": "3672286.87726",
    "final_y": "523871.24998",
    "longitude": "-90.09742261206921",
    "latitude": "29.934740642636466",
    "geocoded_column": {
      "latitude": "29.934740642636466",
      "longitude": "-90.09742261206921"
    }
  },
  {
    "service_request": "2022-859344",
    "request_type": "Trash/Recycling",
    "request_reason": "Order Recycling Cart",
    "date_created": "2022-02-07T13:45:55.000",
    "date_modified": "2022-02-07T13:45:55.000",
    "request_status": "Pending",
    "responsible_agency": "Department of Sanitation",
    "final_address": "2424 Leonidas St",
    "address_councildis": "A",
    "status": "Pending",
    "rowid": "859344",
    "final_x": "3663656.88954",
    "final_y": "532947.119812",
    "longitude": "-90.12436515492509",
    "latitude": "29.959949495519474",
    "geocoded_column": {
      "latitude": "29.959949495519474",
      "longitude": "-90.12436515492509"
    }
  },
  {
    "service_request": "2022-859343",
    "request_type": "Trash/Recycling",
    "request_reason": "Start Trash Service",
    "date_created": "2022-02-07T13:45:28.000",
    "date_modified": "2022-02-07T13:45:29.000",
    "request_status": "Pending",
    "responsible_agency": "Department of Sanitation",
    "final_address": "2424 Leonidas St",
    "address_councildis": "A",
    "status": "Assigned to Contractor",
    "contractor": "Richards Disposal",
    "rowid": "859343",
    "final_x": "3663656.88954",
    "final_y": "532947.119812",
    "longitude": "-90.12436515492509",
    "latitude": "29.959949495519474",
    "geocoded_column": {
      "latitude": "29.959949495519474",
      "longitude": "-90.12436515492509"
    }
  },
  {
    "service_request": "2022-859342",
    "request_type": "Trash/Recycling",
    "request_reason": "Order Trash Cart",
    "date_created": "2022-02-07T13:44:58.000",
    "date_modified": "2022-02-07T13:44:59.000",
    "request_status": "Pending",
    "responsible_agency": "Department of Sanitation",
    "final_address": "2424 Leonidas St",
    "address_councildis": "A",
    "status": "Assigned to Contractor",
    "contractor": "Richards Disposal",
    "rowid": "859342",
    "final_x": "3663656.88954",
    "final_y": "532947.119812",
    "longitude": "-90.12436515492509",
    "latitude": "29.959949495519474",
    "geocoded_column": {
      "latitude": "29.959949495519474",
      "longitude": "-90.12436515492509"
    }
  },
  {
    "service_request": "2022-859341",
    "request_type": "Trash/Recycling",
    "request_reason": "Request a Large Item Pick Up",
    "date_created": "2022-02-07T13:44:11.000",
    "date_modified": "2022-02-07T13:44:12.000",
    "request_status": "Pending",
    "responsible_agency": "Department of Sanitation",
    "final_address": "3909 Piedmont Dr, New Orleans, Louisiana, 70122",
    "address_councildis": "D",
    "status": "Assigned to Contractor",
    "contractor": "Metro Disposal",
    "rowid": "859341",
    "final_x": "3685512.1407",
    "final_y": "547033.726737",
    "longitude": "-90.05485487857679",
    "latitude": "29.998030560494815",
    "geocoded_column": {
      "latitude": "29.998030560494815",
      "longitude": "-90.05485487857679"
    }
  },
  {
    "service_request": "2022-859340",
    "request_type": "Traffic Signals/Signs/Striping/Streetlights",
    "request_reason": "Street Light Outage/Malfunction",
    "date_created": "2022-02-07T13:42:46.000",
    "date_modified": "2022-02-07T13:42:46.000",
    "request_status": "Pending",
    "responsible_agency": "Department of Public Works",
    "final_address": "7240 W Renaissance Ct",
    "address_councildis": "E",
    "status": "Pending",
    "contractor": "Royal Engineering",
    "rowid": "859340",
    "final_x": "3716326.79404",
    "final_y": "567905.665381",
    "longitude": "-89.95672082127508",
    "latitude": "30.054438710192954",
    "geocoded_column": {
      "latitude": "30.054438710192954",
      "longitude": "-89.95672082127508"
    }
  },
  {
    "service_request": "2022-859339",
    "request_type": "Trash/Recycling",
    "request_reason": "Missed Trash Pick-Up",
    "date_created": "2022-02-07T13:42:15.000",
    "date_modified": "2022-02-07T13:42:16.000",
    "request_status": "Pending",
    "responsible_agency": "Department of Sanitation",
    "final_address": "3909 Piedmont Dr, New Orleans, Louisiana, 70122",
    "address_councildis": "D",
    "status": "Assigned to Contractor",
    "contractor": "Metro Disposal",
    "rowid": "859339",
    "final_x": "3685512.1407",
    "final_y": "547033.726737",
    "longitude": "-90.05485487857679",
    "latitude": "29.998030560494815",
    "geocoded_column": {
      "latitude": "29.998030560494815",
      "longitude": "-90.05485487857679"
    }
  },
  {
    "service_request": "2022-859338",
    "request_type": "Traffic Signals/Signs/Striping/Streetlights",
    "request_reason": "Traffic Signal Malfunctioning/Damaged",
    "date_created": "2022-02-07T13:41:59.000",
    "date_modified": "2022-02-07T13:41:59.000",
    "request_status": "Pending",
    "responsible_agency": "Department of Public Works",
    "final_address": "ESPLANADE AVE & N CLAIBORNE AVE",
    "address_councildis": "D",
    "status": "Pending",
    "rowid": "859338",
    "final_x": "3681231.3",
    "final_y": "536639.18",
    "longitude": "-90.06874038104324",
    "latitude": "29.969579834804723",
    "geocoded_column": {
      "latitude": "29.969579834804723",
      "longitude": "-90.06874038104324"
    }
  },
  {
    "service_request": "2022-859337",
    "request_type": "Abandoned Vehicles",
    "request_reason": "Abandoned/Junk Vehicles",
    "date_created": "2022-02-07T13:36:57.000",
    "date_modified": "2022-02-07T13:36:57.000",
    "request_status": "Pending",
    "responsible_agency": "Department of Public Works",
    "final_address": "4005 Delgado Dr",
    "address_councildis": "A",
    "status": "Pending",
    "rowid": "859337",
    "final_x": "3673984.10804",
    "final_y": "540917.156811",
    "longitude": "-90.09148124673852",
    "latitude": "29.981560748316813",
    "geocoded_column": {
      "latitude": "29.981560748316813",
      "longitude": "-90.09148124673852"
    }
  },
  {
    "service_request": "2022-859336",
    "request_type": "Mosquito, Termite & Rodent Control",
    "request_reason": "Rodent Complaint (Rats)",
    "date_created": "2022-02-07T13:36:43.000",
    "date_modified": "2022-02-07T13:36:43.000",
    "request_status": "Pending",
    "responsible_agency": "Mosquito, Termite & Rodent Control Board",
    "final_address": "1029 Oretha Castle Haley Blvd",
    "address_councildis": "B",
    "status": "Pending",
    "rowid": "859336",
    "final_x": "3678809.62363",
    "final_y": "527644.820031",
    "longitude": "-90.07669975827568",
    "latitude": "29.944921647506202",
    "geocoded_column": {
      "latitude": "29.944921647506202",
      "longitude": "-90.07669975827568"
    }
  },
  {
    "service_request": "2022-859335",
    "request_type": "Trash/Recycling",
    "request_reason": "Repair Trash Cart",
    "date_created": "2022-02-07T13:35:43.000",
    "date_modified": "2022-02-07T13:35:44.000",
    "request_status": "Pending",
    "responsible_agency": "Department of Sanitation",
    "final_address": "2626 St Bernard Ave",
    "address_councildis": "D",
    "status": "Assigned to Contractor",
    "contractor": "Metro Disposal",
    "rowid": "859335",
    "final_x": "3679981.88271",
    "final_y": "541886.369932",
    "longitude": "-90.0725038064182",
    "latitude": "29.98404564658671",
    "geocoded_column": {
      "latitude": "29.98404564658671",
      "longitude": "-90.0725038064182"
    }
  },
  {
    "service_request": "2022-859334",
    "request_type": "Traffic Signals/Signs/Striping/Streetlights",
    "request_reason": "Street Light Outage/Malfunction",
    "date_created": "2022-02-07T13:32:39.000",
    "date_modified": "2022-02-07T13:32:40.000",
    "request_status": "Pending",
    "responsible_agency": "Department of Public Works",
    "final_address": "RAY AVE & CHEF MENTEUR HWY",
    "address_councildis": "E",
    "status": "Pending",
    "contractor": "Royal Engineering",
    "rowid": "859334",
    "final_x": "3699023.3",
    "final_y": "551837.78",
    "longitude": "-90.0119985711506",
    "latitude": "30.01081847936158",
    "geocoded_column": {
      "latitude": "30.01081847936158",
      "longitude": "-90.0119985711506"
    }
  },
  {
    "service_request": "2022-859333",
    "request_type": "Trash/Recycling",
    "request_reason": "Dead Animal Pick Up",
    "date_created": "2022-02-07T13:31:33.000",
    "date_modified": "2022-02-07T13:31:34.000",
    "request_status": "Pending",
    "responsible_agency": "Department of Sanitation",
    "final_address": "4536 S Carrollton Ave",
    "address_councildis": "A",
    "status": "Assigned to Contractor",
    "contractor": "Richards Disposal",
    "rowid": "859333",
    "final_x": "3670609.68238",
    "final_y": "537566.395784",
    "longitude": "-90.10225298479577",
    "latitude": "29.97244741800917",
    "geocoded_column": {
      "latitude": "29.97244741800917",
      "longitude": "-90.10225298479577"
    }
  },
  {
    "service_request": "2022-859332",
    "request_type": "Property Maintenance",
    "request_reason": "Property Maintenance",
    "date_created": "2022-02-07T13:30:33.000",
    "date_modified": "2022-02-07T13:30:34.000",
    "request_status": "Pending",
    "responsible_agency": "Department of Code Enforcement",
    "final_address": "5723 Berkley Dr",
    "address_councildis": "C",
    "status": "Pending",
    "rowid": "859332",
    "final_x": "3705055.35703",
    "final_y": "518051.201846",
    "longitude": "-89.99418862060783",
    "latitude": "29.91772501374559",
    "geocoded_column": {
      "latitude": "29.91772501374559",
      "longitude": "-89.99418862060783"
    }
  },
  {
    "service_request": "2022-859331",
    "request_type": "Trash/Recycling",
    "request_reason": "Request a Large Item Pick Up",
    "date_created": "2022-02-07T13:28:37.000",
    "date_modified": "2022-02-07T13:28:38.000",
    "request_status": "Pending",
    "responsible_agency": "Department of Sanitation",
    "final_address": "4533 St Peter St",
    "address_councildis": "A",
    "status": "Assigned to Contractor",
    "contractor": "Richards Disposal",
    "rowid": "859331",
    "final_x": "3670845.72436",
    "final_y": "541267.958284",
    "longitude": "-90.10138183346794",
    "latitude": "29.982618485021344",
    "geocoded_column": {
      "latitude": "29.982618485021344",
      "longitude": "-90.10138183346794"
    }
  },
  {
    "service_request": "2022-859330",
    "request_type": "Roads/Drainage",
    "request_reason": "Catch Basin - Clogged",
    "date_created": "2022-02-07T13:28:07.000",
    "date_modified": "2022-02-07T13:28:07.000",
    "request_status": "Pending",
    "responsible_agency": "Department of Public Works",
    "final_address": "3400 Canal St",
    "address_councildis": "B",
    "status": "Pending",
    "rowid": "859330",
    "final_x": "3673048.87745",
    "final_y": "536746.168647",
    "longitude": "-90.09457756709588",
    "latitude": "29.970119786470928",
    "geocoded_column": {
      "latitude": "29.970119786470928",
      "longitude": "-90.09457756709588"
    }
  },
  {
    "service_request": "2022-859329",
    "request_type": "Trash/Recycling",
    "request_reason": "Missed Trash Pick-Up",
    "date_created": "2022-02-07T13:21:19.000",
    "date_modified": "2022-02-07T13:21:20.000",
    "request_status": "Pending",
    "responsible_agency": "Department of Sanitation",
    "final_address": "1323 St Andrew St",
    "address_councildis": "B",
    "status": "Assigned to Contractor",
    "contractor": "Richards Disposal",
    "rowid": "859329",
    "final_x": "3678947.4708",
    "final_y": "523300.927675",
    "longitude": "-90.07641497790495",
    "latitude": "29.93297322263293",
    "geocoded_column": {
      "latitude": "29.93297322263293",
      "longitude": "-90.07641497790495"
    }
  },
  {
    "service_request": "2022-859328",
    "request_type": "Roads/Drainage",
    "request_reason": "Pothole",
    "date_created": "2022-02-07T13:20:36.000",
    "date_modified": "2022-02-07T13:20:37.000",
    "request_status": "Pending",
    "responsible_agency": "Department of Public Works",
    "final_address": "5600 BLK N Prieur St",
    "address_councildis": "E",
    "status": "Pending",
    "rowid": "859328",
    "final_x": "3699006.11147",
    "final_y": "536705.46181",
    "longitude": "-90.01260393462506",
    "latitude": "29.969210715784328",
    "geocoded_column": {
      "latitude": "29.969210715784328",
      "longitude": "-90.01260393462506"
    }
  },
  {
    "service_request": "2022-859327",
    "request_type": "Trash/Recycling",
    "request_reason": "Request a Large Item Pick Up",
    "date_created": "2022-02-07T13:19:14.000",
    "date_modified": "2022-02-07T13:19:15.000",
    "request_status": "Pending",
    "responsible_agency": "Department of Sanitation",
    "final_address": "8008 Devine Ave",
    "address_councildis": "E",
    "status": "Assigned to Contractor",
    "contractor": "Metro Disposal",
    "rowid": "859327",
    "final_x": "3705019.90142",
    "final_y": "564099.028513",
    "longitude": "-89.99259984598325",
    "latitude": "30.044340639908697",
    "geocoded_column": {
      "latitude": "30.044340639908697",
      "longitude": "-89.99259984598325"
    }
  },
  {
    "service_request": "2022-859326",
    "request_type": "Trash/Recycling",
    "request_reason": "Replace Trash Cart",
    "date_created": "2022-02-07T13:18:53.000",
    "date_modified": "2022-02-07T13:18:54.000",
    "request_status": "Pending",
    "responsible_agency": "Department of Sanitation",
    "final_address": "306 Audubon Blvd",
    "address_councildis": "A",
    "status": "Assigned to Contractor",
    "contractor": "Richards Disposal",
    "rowid": "859326",
    "final_x": "3666995.23917",
    "final_y": "529801.187777",
    "longitude": "-90.11392905955792",
    "latitude": "29.95120193885334",
    "geocoded_column": {
      "latitude": "29.95120193885334",
      "longitude": "-90.11392905955792"
    }
  },
  {
    "service_request": "2022-859325",
    "request_type": "Trash/Recycling",
    "request_reason": "Order Trash Cart",
    "date_created": "2022-02-07T13:15:05.000",
    "date_modified": "2022-02-07T13:15:06.000",
    "request_status": "Pending",
    "responsible_agency": "Department of Sanitation",
    "final_address": "1401 France St",
    "address_councildis": "D",
    "status": "Assigned to Contractor",
    "contractor": "Metro Disposal",
    "rowid": "859325",
    "final_x": "3692700.89769",
    "final_y": "536289.740935",
    "longitude": "-90.03253108750658",
    "latitude": "29.968265957107683",
    "geocoded_column": {
      "latitude": "29.968265957107683",
      "longitude": "-90.03253108750658"
    }
  },
  {
    "service_request": "2022-859324",
    "request_type": "Trash/Recycling",
    "request_reason": "Order Trash Cart",
    "date_created": "2022-02-07T13:10:42.000",
    "date_modified": "2022-02-07T13:11:29.000",
    "request_status": "Pending",
    "responsible_agency": "Department of Sanitation",
    "final_address": "2604 Franklin Ave",
    "address_councildis": "D",
    "status": "Assigned to Contractor",
    "contractor": "Metro Disposal",
    "rowid": "859324",
    "final_x": "3687383.14652",
    "final_y": "542128.609549",
    "longitude": "-90.04911807571521",
    "latitude": "29.984485711777175",
    "geocoded_column": {
      "latitude": "29.984485711777175",
      "longitude": "-90.04911807571521"
    }
  },
  {
    "service_request": "2022-859323",
    "request_type": "Trash/Recycling",
    "request_reason": "Replace Trash Cart",
    "date_created": "2022-02-07T13:06:28.000",
    "date_modified": "2022-02-07T13:06:43.000",
    "request_status": "Pending",
    "responsible_agency": "Department of Sanitation",
    "final_address": "2422 Lark St",
    "address_councildis": "D",
    "status": "Assigned to Contractor",
    "contractor": "Metro Disposal",
    "rowid": "859323",
    "final_x": "3684835.087",
    "final_y": "557846.080027",
    "longitude": "-90.05661310403092",
    "latitude": "30.027781336340333",
    "geocoded_column": {
      "latitude": "30.027781336340333",
      "longitude": "-90.05661310403092"
    }
  },
  {
    "service_request": "2022-859322",
    "request_type": "Roads/Drainage",
    "request_reason": "Street Subsidence (Sinking)",
    "date_created": "2022-02-07T13:06:08.000",
    "date_modified": "2022-02-07T13:06:08.000",
    "request_status": "Pending",
    "responsible_agency": "Department of Public Works",
    "final_address": "12303 Willow Dr",
    "address_councildis": "C",
    "status": "Pending",
    "rowid": "859322",
    "final_x": "3728636.45318",
    "final_y": "510442.237871",
    "longitude": "-89.92005358304432",
    "latitude": "29.89602427863289",
    "geocoded_column": {
      "latitude": "29.89602427863289",
      "longitude": "-89.92005358304432"
    }
  },
  {
    "service_request": "2022-859321",
    "request_type": "Roads/Drainage",
    "request_reason": "Man hole cover issue",
    "date_created": "2022-02-07T13:05:16.000",
    "date_modified": "2022-02-07T13:05:17.000",
    "case_close_date": "2019-02-19T18:00:00.000",
    "request_status": "Pending",
    "responsible_agency": "Department of Public Works",
    "final_address": "838 Roosevelt Pl",
    "address_councildis": "A",
    "status": "Pending",
    "rowid": "859321",
    "final_x": "3673608.46241",
    "final_y": "539927.276106",
    "longitude": "-90.09270156375406",
    "latitude": "29.978850104269345",
    "geocoded_column": {
      "latitude": "29.978850104269345",
      "longitude": "-90.09270156375406"
    }
  },
  {
    "service_request": "2022-859320",
    "request_type": "Property Maintenance",
    "request_reason": "Property Maintenance",
    "date_created": "2022-02-07T13:04:45.000",
    "date_modified": "2022-02-07T13:04:45.000",
    "request_status": "Pending",
    "responsible_agency": "Department of Code Enforcement",
    "final_address": "2104 Franklin Ave",
    "address_councildis": "D",
    "status": "Pending",
    "rowid": "859320",
    "final_x": "3687546.391",
    "final_y": "540290.758603",
    "longitude": "-90.04866754253212",
    "latitude": "29.97942724168705",
    "geocoded_column": {
      "latitude": "29.97942724168705",
      "longitude": "-90.04866754253212"
    }
  },
  {
    "service_request": "2022-859319",
    "request_type": "Trash/Recycling",
    "request_reason": "Order Recycling Cart",
    "date_created": "2022-02-07T13:02:16.000",
    "date_modified": "2022-02-07T13:02:17.000",
    "request_status": "Pending",
    "responsible_agency": "Department of Sanitation",
    "final_address": "249 Vallette St",
    "address_councildis": "C",
    "status": "Pending",
    "rowid": "859319",
    "final_x": "3687536.44354",
    "final_y": "530823.25965",
    "longitude": "-90.04903411396276",
    "latitude": "29.953395224971686",
    "geocoded_column": {
      "latitude": "29.953395224971686",
      "longitude": "-90.04903411396276"
    }
  },
  {
    "service_request": "2022-859318",
    "request_type": "Trash/Recycling",
    "request_reason": "MIssed Recycling Pick-Up",
    "date_created": "2022-02-07T13:01:51.000",
    "date_modified": "2022-02-07T13:01:51.000",
    "request_status": "Pending",
    "responsible_agency": "Department of Sanitation",
    "final_address": "2231 Calhoun St, New Orleans, Louisiana, 70118",
    "address_councildis": "A",
    "status": "Assigned to Contractor",
    "contractor": "Richards Disposal",
    "rowid": "859318",
    "final_x": "3665942.54541",
    "final_y": "525328.612157",
    "longitude": "-90.11740281789183",
    "latitude": "29.93893455969094",
    "geocoded_column": {
      "latitude": "29.93893455969094",
      "longitude": "-90.11740281789183"
    }
  },
  {
    "service_request": "2022-859317",
    "request_type": "Trash/Recycling",
    "request_reason": "Request a Large Item Pick Up",
    "date_created": "2022-02-07T12:55:38.000",
    "date_modified": "2022-02-07T12:55:38.000",
    "request_status": "Pending",
    "responsible_agency": "Department of Sanitation",
    "final_address": "4241 Tulane Ave",
    "address_councildis": "A",
    "status": "Assigned to Contractor",
    "contractor": "Richards Disposal",
    "rowid": "859317",
    "final_x": "3668649.66324",
    "final_y": "536714.345415",
    "longitude": "-90.10847185548916",
    "latitude": "29.970162322119744",
    "geocoded_column": {
      "latitude": "29.970162322119744",
      "longitude": "-90.10847185548916"
    }
  },
  {
    "service_request": "2022-859316",
    "request_type": "Roads/Drainage",
    "request_reason": "Pothole",
    "date_created": "2022-02-07T12:46:14.000",
    "date_modified": "2022-02-07T12:46:14.000",
    "request_status": "Pending",
    "responsible_agency": "Department of Public Works",
    "final_address": "4001 Piedmont Dr",
    "address_councildis": "D",
    "status": "Pending",
    "rowid": "859316",
    "final_x": "3685362.96405",
    "final_y": "547288.824657",
    "longitude": "-90.05531713661561",
    "latitude": "29.998736563850876",
    "geocoded_column": {
      "latitude": "29.998736563850876",
      "longitude": "-90.05531713661561"
    }
  },
  {
    "service_request": "2022-859314",
    "request_type": "Roads/Drainage",
    "request_reason": "Catch Basin - Clogged",
    "date_created": "2022-02-07T12:40:26.000",
    "date_modified": "2022-02-07T12:40:26.000",
    "request_status": "Pending",
    "responsible_agency": "Department of Public Works",
    "final_address": "7828 Birch St",
    "address_councildis": "A",
    "status": "Pending",
    "rowid": "859314",
    "final_x": "3663534.35328",
    "final_y": "528792.1376",
    "longitude": "-90.1248904731577",
    "latitude": "29.948528194670658",
    "geocoded_column": {
      "latitude": "29.948528194670658",
      "longitude": "-90.1248904731577"
    }
  },
  {
    "service_request": "2022-859313",
    "request_type": "Property Maintenance",
    "request_reason": "Property Maintenance",
    "date_created": "2022-02-07T12:39:56.000",
    "date_modified": "2022-02-07T12:39:56.000",
    "request_status": "Pending",
    "responsible_agency": "Department of Code Enforcement",
    "final_address": "4527 Urquhart St",
    "address_councildis": "D",
    "status": "Pending",
    "rowid": "859313",
    "final_x": "3693735.17347",
    "final_y": "535696.892295",
    "longitude": "-90.02928612108667",
    "latitude": "29.96660350769254",
    "geocoded_column": {
      "latitude": "29.96660350769254",
      "longitude": "-90.02928612108667"
    }
  },
  {
    "service_request": "2022-859312",
    "request_type": "Trash/Recycling",
    "request_reason": "Illegal Dumping",
    "date_created": "2022-02-07T12:38:43.000",
    "date_modified": "2022-02-07T12:38:44.000",
    "request_status": "Pending",
    "responsible_agency": "Department of Sanitation",
    "final_address": "4626 Dale St",
    "address_councildis": "E",
    "status": "Pending",
    "rowid": "859312",
    "final_x": "3699405.6328",
    "final_y": "554386.011928",
    "longitude": "-90.01069770945351",
    "latitude": "30.017813024469376",
    "geocoded_column": {
      "latitude": "30.017813024469376",
      "longitude": "-90.01069770945351"
    }
  },
  {
    "service_request": "2022-859310",
    "request_type": "Safety & Permits",
    "request_reason": "Licenses & Permits",
    "date_created": "2022-02-07T12:31:04.000",
    "date_modified": "2022-02-07T12:31:04.000",
    "request_status": "Pending",
    "responsible_agency": "Safety and Permits",
    "status": "Pending",
    "rowid": "859310",
    "longitude": "0.0",
    "latitude": "0.0",
    "geocoded_column": {
      "latitude": "0.0",
      "longitude": "0.0"
    }
  },
  {
    "service_request": "2022-859309",
    "request_type": "Traffic Signals/Signs/Striping/Streetlights",
    "request_reason": "Street Light Outage/Malfunction",
    "date_created": "2022-02-07T12:28:16.000",
    "date_modified": "2022-02-07T12:28:17.000",
    "request_status": "Pending",
    "responsible_agency": "Department of Public Works",
    "final_address": "827 Teche St",
    "address_councildis": "C",
    "status": "Pending",
    "contractor": "Royal Engineering",
    "rowid": "859309",
    "final_x": "3686497.12642",
    "final_y": "528447.064448",
    "longitude": "-90.05239970282165",
    "latitude": "29.946893489052787",
    "geocoded_column": {
      "latitude": "29.946893489052787",
      "longitude": "-90.05239970282165"
    }
  },
  {
    "service_request": "2022-859308",
    "request_type": "Parks & Parkways",
    "request_reason": "Request Tree Service (Right of Way/Public Property)",
    "date_created": "2022-02-07T12:25:37.000",
    "date_modified": "2022-02-07T12:25:37.000",
    "request_status": "Pending",
    "responsible_agency": "Department of Parks & Parkway",
    "final_address": "3500 BLK Kabel Dr",
    "address_councildis": "C",
    "status": "Pending",
    "rowid": "859308",
    "final_x": "3700550.53062",
    "final_y": "518160.357496",
    "longitude": "-90.00840378040154",
    "latitude": "29.918169150398136",
    "geocoded_column": {
      "latitude": "29.918169150398136",
      "longitude": "-90.00840378040154"
    }
  },