[
  {
    "service_request": "2023-1005479",
    "request_type": "Safety & Permits",
    "request_reason": "Licenses & Permits",
    "date_created": "2023-06-03T23:30:38.000",
    "date_modified": "2023-06-03T23:30:38.000",
    "request_status": "Pending",
    "responsible_agency": "Safety and Permits",
    "final_address": "1775 Joseph Guillaume Pl",
    "address_councildis": "C",
    "status": "Pending",
    "rowid": "1005479",
    "final_x": "3683462.43785",
    "final_y": "536121.270855",
    "longitude": "-90.06171241725919",
    "latitude": "29.96808786850646",
    "geocoded_column": {
      "latitude": "29.96808786850646",
      "longitude": "-90.06171241725919"
    }
  },
  {
    "service_request": "2023-1005478",
    "request_type": "Health Related Request",
    "request_reason": "Noise Ordinance Complaint",
    "date_created": "2023-06-03T23:29:28.000",
    "date_modified": "2023-06-03T23:29:28.000",
    "request_status": "Pending",
    "responsible_agency": "Health Department",
    "final_address": "1775 Joseph Guillaume Pl",
    "address_councildis": "C",
    "status": "Pending",
    "rowid": "1005478",
    "final_x": "3683462.43785",
    "final_y": "536121.270855",
    "longitude": "-90.06171241725919",
    "latitude": "29.96808786850646",
    "geocoded_column": {
      "latitude": "29.96808786850646",
      "longitude": "-90.06171241725919"
    }
  },
  {
    "service_request": "2023-1005477",
    "request_type": "Abandoned Vehicles",
    "request_reason": "Abandoned/Junk Vehicles",
    "date_created": "2023-06-03T23:14:39.000",
    "date_modified": "2023-06-03T23:14:40.000",
    "request_status": "Pending",
    "responsible_agency": "Department of Public Works",
    "final_address": "CHICKASAW ST & ALVAR ST",
    "address_councildis": "D",
    "status": "Pending",
    "rowid": "1005477",
    "final_x": "3693339.4",
    "final_y": "547382.38",
    "longitude": "-90.03011625438197",
    "latitude": "29.998746772211305",
    "geocoded_column": {
      "latitude": "29.998746772211305",
      "longitude": "-90.03011625438197"
    }
  },
  {
    "service_request": "2023-1005476",
    "request_type": "Traffic Signals/Signs/Striping/Streetlights",
    "request_reason": "Street Light Knocked Down/Leaning",
    "date_created": "2023-06-03T23:07:02.000",
    "date_modified": "2023-06-03T23:07:03.000",
    "request_status": "Pending",
    "responsible_agency": "Department of Public Works",
    "final_address": "4807 Downman Rd",
    "address_councildis": "D",
    "status": "Pending",
    "contractor": "Legacy Professional Services",
    "rowid": "1005476",
    "final_x": "3696041.7743",
    "final_y": "554320.181976",
    "longitude": "-90.02132852652588",
    "latitude": "30.01773835282003",
    "geocoded_column": {
      "latitude": "30.01773835282003",
      "longitude": "-90.02132852652588"
    }
  },
  {
    "service_request": "2023-1005475",
    "request_type": "Roads/Drainage",
    "request_reason": "Pothole",
    "date_created": "2023-06-03T22:59:58.000",
    "date_modified": "2023-06-03T22:59:58.000",
    "request_status": "Pending",
    "responsible_agency": "Department of Public Works",
    "final_address": "TULANE AVE & MANASSES PL",
    "address_councildis": "B",
    "status": "Pending",
    "rowid": "1005475",
    "final_x": "3674588.0",
    "final_y": "533636.18",
    "longitude": "-90.08982344172146",
    "latitude": "29.961522524695962",
    "geocoded_column": {
      "latitude": "29.961522524695962",
      "longitude": "-90.08982344172146"
    }
  },
  {
    "service_request": "2023-1005474",
    "request_type": "Roads/Drainage",
    "request_reason": "Drainage Issue (Catch Basins, Culverts, Ditches, and Manhole Covers)",
    "date_created": "2023-06-03T22:55:15.000",
    "date_modified": "2023-06-03T22:55:15.000",
    "request_status": "Pending",
    "responsible_agency": "Department of Public Works",
    "final_address": "8121 Zimple St",
    "address_councildis": "A",
    "status": "Pending",
    "rowid": "1005474",
    "final_x": "3661617.28358",
    "final_y": "528270.96448",
    "longitude": "-90.1309607653579",
    "latitude": "29.947150589155818",
    "geocoded_column": {
      "latitude": "29.947150589155818",
      "longitude": "-90.1309607653579"
    }
  },
  {
    "service_request": "2023-1005473",
    "request_type": "Traffic Signals/Signs/Striping/Streetlights",
    "request_reason": "Street Light Knocked Down/Leaning",
    "date_created": "2023-06-03T22:50:35.000",
    "date_modified": "2023-06-03T22:50:36.000",
    "request_status": "Pending",
    "responsible_agency": "Department of Public Works",
    "final_address": "4625 Downman Rd",
    "address_councildis": "D",
    "status": "Pending",
    "contractor": "Legacy Professional Services",
    "rowid": "1005473",
    "final_x": "3696073.41629",
    "final_y": "553989.097496",
    "longitude": "-90.02124052944649",
    "latitude": "30.01682699900698",
    "geocoded_column": {
      "latitude": "30.01682699900698",
      "longitude": "-90.02124052944649"
    }
  },
  {
    "service_request": "2023-1005472",
    "request_type": "Health Related Request",
    "request_reason": "Noise Ordinance Complaint",
    "date_created": "2023-06-03T22:43:19.000",
    "date_modified": "2023-06-03T22:43:19.000",
    "request_status": "Pending",
    "responsible_agency": "Health Department",
    "final_address": "309 Decatur St, New Orleans, Louisiana, 70130",
    "address_councildis": "C",
    "status": "Pending",
    "rowid": "1005472",
    "final_x": "3682303.87119",
    "final_y": "530935.66509",
    "longitude": "-90.06555240294671",
    "latitude": "29.953864528206758",
    "geocoded_column": {
      "latitude": "29.953864528206758",
      "longitude": "-90.06555240294671"
    }
  },
  {
    "service_request": "2023-1005471",
    "request_type": "Traffic Signals/Signs/Striping/Streetlights",
    "request_reason": "Street Light Knocked Down/Leaning",
    "date_created": "2023-06-03T22:34:44.000",
    "date_modified": "2023-06-03T22:34:45.000",
    "request_status": "Pending",
    "responsible_agency": "Department of Public Works",
    "final_address": "4323 Downman Rd",
    "address_councildis": "D",
    "status": "Pending",
    "contractor": "Legacy Professional Services",
    "rowid": "1005471",
    "final_x": "3696207.92855",
    "final_y": "553046.302999",
    "longitude": "-90.02084964972676",
    "latitude": "30.014230432858835",
    "geocoded_column": {
      "latitude": "30.014230432858835",
      "longitude": "-90.02084964972676"
    }
  },
  {
    "service_request": "2023-1005470",
    "request_type": "Traffic Signals/Signs/Striping/Streetlights",
    "request_reason": "Street Light Knocked Down/Leaning",
    "date_created": "2023-06-03T22:23:46.000",
    "date_modified": "2023-06-03T22:23:47.000",
    "request_status": "Pending",
    "responsible_agency": "Department of Public Works",
    "final_address": "4213 Downman Rd",
    "address_councildis": "D",
    "status": "Pending",
    "contractor": "Legacy Professional Services",
    "rowid": "1005470",
    "final_x": "3696162.28669",
    "final_y": "552717.377238",
    "longitude": "-90.02100575677362",
    "latitude": "30.013327447901858",
    "geocoded_column": {
      "latitude": "30.013327447901858",
      "longitude": "-90.02100575677362"
    }
  },
  {
    "service_request": "2023-1005469",
    "request_type": "Traffic Signals/Signs/Striping/Streetlights",
    "request_reason": "Street Light Knocked Down/Leaning",
    "date_created": "2023-06-03T22:13:23.000",
    "date_modified": "2023-06-03T22:13:24.000",
    "request_status": "Pending",
    "responsible_agency": "Department of Public Works",
    "final_address": "4101 Downman Rd",
    "address_councildis": "D",
    "status": "Pending",
    "contractor": "Legacy Professional Services",
    "rowid": "1005469",
    "final_x": "3696221.29533",
    "final_y": "552421.80815",
    "longitude": "-90.02083001835481",
    "latitude": "30.01251288535723",
    "geocoded_column": {
      "latitude": "30.01251288535723",
      "longitude": "-90.02083001835481"
    }
  },
  {
    "service_request": "2023-1005468",
    "request_type": "Traffic Signals/Signs/Striping/Streetlights",
    "request_reason": "Street Light Knocked Down/Leaning",
    "date_created": "2023-06-03T21:59:48.000",
    "date_modified": "2023-06-03T21:59:49.000",
    "request_status": "Pending",
    "responsible_agency": "Department of Public Works",
    "final_address": "3927 Downman Rd",
    "address_councildis": "D",
    "status": "Pending",
    "contractor": "Legacy Professional Services",
    "rowid": "1005468",
    "final_x": "3696251.90589",
    "final_y": "551799.07791",
    "longitude": "-90.02075584424622",
    "latitude": "30.010799646283694",
    "geocoded_column": {
      "latitude": "30.010799646283694",
      "longitude": "-90.02075584424622"
    }
  },
  {
    "service_request": "2023-1005467",
    "request_type": "Traffic Signals/Signs/Striping/Streetlights",
    "request_reason": "Street Light Knocked Down/Leaning",
    "date_created": "2023-06-03T21:49:19.000",
    "date_modified": "2023-06-03T21:49:19.000",
    "request_status": "Pending",
    "responsible_agency": "Department of Public Works",
    "final_address": "3913 Downman Rd",
    "address_councildis": "D",
    "status": "Pending",
    "contractor": "Legacy Professional Services",
    "rowid": "1005467",
    "final_x": "3696260.94455",
    "final_y": "551739.321301",
    "longitude": "-90.02072945044696",
    "latitude": "30.01063505326693",
    "geocoded_column": {
      "latitude": "30.01063505326693",
      "longitude": "-90.02072945044696"
    }
  },
  {
    "service_request": "2023-1005466",
    "request_type": "Traffic Signals/Signs/Striping/Streetlights",
    "request_reason": "Street Light Outage/Malfunction",
    "date_created": "2023-06-03T21:38:17.000",
    "date_modified": "2023-06-03T21:38:18.000",
    "request_status": "Pending",
    "responsible_agency": "Department of Public Works",
    "final_address": "7000 Warfield St",
    "address_councildis": "E",
    "status": "Assigned to Contractor",
    "contractor": "Legacy Professional Services",
    "rowid": "1005466",
    "final_x": "3700979.76842",
    "final_y": "552731.125142",
    "longitude": "-90.00578466361962",
    "latitude": "30.01321266005098",
    "geocoded_column": {
      "latitude": "30.01321266005098",
      "longitude": "-90.00578466361962"
    }
  },
  {
    "service_request": "2023-1005465",
    "request_type": "Trash/Recycling",
    "request_reason": "Replace Trash Cart",
    "date_created": "2023-06-03T21:31:42.000",
    "date_modified": "2023-06-03T21:31:43.000",
    "request_status": "Pending",
    "responsible_agency": "Department of Sanitation",
    "final_address": "1014 Royal St",
    "address_councildis": "C",
    "status": "Assigned to Contractor",
    "contractor": "Empire Services",
    "rowid": "1005465",
    "final_x": "3683326.92757",
    "final_y": "533427.8937",
    "longitude": "-90.06223471938472",
    "latitude": "29.960686142393584",
    "geocoded_column": {
      "latitude": "29.960686142393584",
      "longitude": "-90.06223471938472"
    }
  },
  {
    "service_request": "2023-1005464",
    "request_type": "Traffic Signals/Signs/Striping/Streetlights",
    "request_reason": "Street Light Outage/Malfunction",
    "date_created": "2023-06-03T21:28:26.000",
    "date_modified": "2023-06-03T21:28:27.000",
    "request_status": "Pending",
    "responsible_agency": "Department of Public Works",
    "final_address": "5032 Alcee Fortier Blvd",
    "address_councildis": "E",
    "status": "Assigned to Contractor",
    "contractor": "Legacy Professional Services",
    "rowid": "1005464",
    "final_x": "3729771.83155",
    "final_y": "563734.014881",
    "longitude": "-89.91438807426204",
    "latitude": "30.042517432415178",
    "geocoded_column": {
      "latitude": "30.042517432415178",
      "longitude": "-89.91438807426204"
    }
  },
  {
    "service_request": "2023-1005463",
    "request_type": "Trash/Recycling",
    "request_reason": "Illegal Dumping",
    "date_created": "2023-06-03T20:54:00.000",
    "date_modified": "2023-06-03T20:54:01.000",
    "request_status": "Pending",
    "responsible_agency": "Department of Code Enforcement",
    "final_address": "MICHOUD BLVD & SIX FLAGS PKWY",
    "address_councildis": "E",
    "status": "Pending",
    "rowid": "1005463",
    "final_x": "3724642.8",
    "final_y": "566009.98",
    "longitude": "-89.93050954681091",
    "latitude": "30.04894903573261",
    "geocoded_column": {
      "latitude": "30.04894903573261",
      "longitude": "-89.93050954681091"
    }
  },
  {
    "service_request": "2023-1005462",
    "request_type": "Health Related Request",
    "request_reason": "Noise Ordinance Complaint",
    "date_created": "2023-06-03T20:02:18.000",
    "date_modified": "2023-06-03T20:02:18.000",
    "request_status": "Pending",
    "responsible_agency": "Health Department",
    "final_address": "309 Decatur St, New Orleans, Louisiana, 70130",
    "address_councildis": "C",
    "status": "Pending",
    "rowid": "1005462",
    "final_x": "3682303.87119",
    "final_y": "530935.66509",
    "longitude": "-90.06555240294671",
    "latitude": "29.953864528206758",
    "geocoded_column": {
      "latitude": "29.953864528206758",
      "longitude": "-90.06555240294671"
    }
  },
  {
    "service_request": "2023-1005461",
    "request_type": "Property Maintenance",
    "request_reason": "Property Maintenance",
    "date_created": "2023-06-03T19:59:54.000",
    "date_modified": "2023-06-03T19:59:54.000",
    "request_status": "Pending",
    "responsible_agency": "Department of Code Enforcement",
    "final_address": "4671 Perelli Dr",
    "address_councildis": "E",
    "status": "Pending",
    "rowid": "1005461",
    "final_x": "3711825.44555",
    "final_y": "555733.081497",
    "longitude": "-89.9714057230101",
    "latitude": "30.0211169008583",
    "geocoded_column": {
      "latitude": "30.0211169008583",
      "longitude": "-89.9714057230101"
    }
  },
  {
    "service_request": "2023-1005460",
    "request_type": "Trash/Recycling",
    "request_reason": "Report a Missed Trash/Recycling Pick Up",
    "date_created": "2023-06-03T19:53:57.000",
    "date_modified": "2023-06-03T19:53:57.000",
    "request_status": "Pending",
    "responsible_agency": "Department of Sanitation",
    "final_address": "1016 N Broad St",
    "address_councildis": "D",
    "contractor": "Richards Disposal",
    "rowid": "1005460",
    "final_x": "3677536.25538",
    "final_y": "537935.960777",
    "longitude": "-90.0803648717975",
    "latitude": "29.97325715185754",
    "geocoded_column": {
      "latitude": "29.97325715185754",
      "longitude": "-90.0803648717975"
    }
  },
  {
    "service_request": "2023-1005459",
    "request_type": "Traffic Signals/Signs/Striping/Streetlights",
    "request_reason": "Traffic Sign Missing/Damaged",
    "date_created": "2023-06-03T19:53:34.000",
    "date_modified": "2023-06-03T19:53:35.000",
    "request_status": "Pending",
    "responsible_agency": "Department of Public Works",
    "final_address": "N GALVEZ ST & BENTON ST",
    "address_councildis": "E",
    "status": "Pending",
    "rowid": "1005459",
    "final_x": "3700258.3",
    "final_y": "537141.48",
    "longitude": "-90.00863353742642",
    "latitude": "29.970369863140203",
    "geocoded_column": {
      "latitude": "29.970369863140203",
      "longitude": "-90.00863353742642"
    }
  },
  {
    "service_request": "2023-1005458",
    "request_type": "Trash/Recycling",
    "request_reason": "Return Recycling Cart",
    "date_created": "2023-06-03T19:50:54.000",
    "date_modified": "2023-06-03T19:50:54.000",
    "request_status": "Pending",
    "responsible_agency": "Department of Sanitation",
    "final_address": "1016 N Broad St",
    "address_councildis": "D",
    "status": "Pending",
    "rowid": "1005458",
    "final_x": "3677536.25538",
    "final_y": "537935.960777",
    "longitude": "-90.0803648717975",
    "latitude": "29.97325715185754",
    "geocoded_column": {
      "latitude": "29.97325715185754",
      "longitude": "-90.0803648717975"
    }
  },
  {
    "service_request": "2023-1005457",
    "request_type": "Trash/Recycling",
    "request_reason": "Missed Trash Pick-Up",
    "date_created": "2023-06-03T19:49:48.000",
    "date_modified": "2023-06-03T19:49:49.000",
    "request_status": "Pending",
    "responsible_agency": "Department of Sanitation",
    "final_address": "2643 Verbena St",
    "address_councildis": "D",
    "status": "Assigned to Contractor",
    "contractor": "IV Waste",
    "rowid": "1005457",
    "final_x": "3687357.54338",
    "final_y": "547857.882386",
    "longitude": "-90.04899610952522",
    "latitude": "30.000239945793247",
    "geocoded_column": {
      "latitude": "30.000239945793247",
      "longitude": "-90.04899610952522"
    }
  },
  {
    "service_request": "2023-1005456",
    "request_type": "Property Maintenance",
    "request_reason": "Property Maintenance",
    "date_created": "2023-06-03T19:20:00.000",
    "date_modified": "2023-06-03T19:20:00.000",
    "request_status": "Pending",
    "responsible_agency": "Department of Code Enforcement",
    "final_address": "1910 Allen St",
    "address_councildis": "D",
    "status": "Pending",
    "rowid": "1005456",
    "final_x": "3682466.58658",
    "final_y": "539083.073802",
    "longitude": "-90.0647537966238",
    "latitude": "29.97626215134412",
    "geocoded_column": {
      "latitude": "29.97626215134412",
      "longitude": "-90.0647537966238"
    }
  },
  {
    "service_request": "2023-1005455",
    "request_type": "Trash/Recycling",
    "request_reason": "Order Trash Cart",
    "date_created": "2023-06-03T19:14:16.000",
    "date_modified": "2023-06-03T19:14:16.000",
    "request_status": "Pending",
    "responsible_agency": "Department of Sanitation",
    "final_address": "7401 W Laverne St",
    "address_councildis": "E",
    "status": "Assigned to Contractor",
    "contractor": "Waste Pro",
    "rowid": "1005455",
    "final_x": "3695420.72746",
    "final_y": "557968.009883",
    "longitude": "-90.02315899595798",
    "latitude": "30.0277880365907",
    "geocoded_column": {
      "latitude": "30.0277880365907",
      "longitude": "-90.02315899595798"
    }
  },
  {
    "service_request": "2023-1005454",
    "request_type": "Trash/Recycling",
    "request_reason": "Request a Large Item Pick Up",
    "date_created": "2023-06-03T18:39:56.000",
    "date_modified": "2023-06-03T18:39:56.000",
    "request_status": "Pending",
    "responsible_agency": "Department of Sanitation",
    "final_address": "2519 Bristol Pl",
    "address_councildis": "C",
    "status": "Assigned to Contractor",
    "contractor": "Richards Disposal",
    "rowid": "1005454",
    "final_x": "3702572.8218",
    "final_y": "521759.55609",
    "longitude": "-90.00188853799541",
    "latitude": "29.928001251950622",
    "geocoded_column": {
      "latitude": "29.928001251950622",
      "longitude": "-90.00188853799541"
    }
  },
  {
    "service_request": "2023-1005453",
    "request_type": "Trash/Recycling",
    "request_reason": "Request a Large Item Pick Up",
    "date_created": "2023-06-03T18:27:22.000",
    "date_modified": "2023-06-03T18:27:23.000",
    "request_status": "Pending",
    "responsible_agency": "Department of Sanitation",
    "final_address": "5022 Loyola Ave",
    "address_councildis": "B",
    "status": "Assigned to Contractor",
    "contractor": "Richards Disposal",
    "rowid": "1005453",
    "final_x": "3668606.42682",
    "final_y": "522830.080571",
    "longitude": "-90.10907688856781",
    "latitude": "29.93198640239145",
    "geocoded_column": {
      "latitude": "29.93198640239145",
      "longitude": "-90.10907688856781"
    }
  },
  {
    "service_request": "2023-1005451",
    "request_type": "Trash/Recycling",
    "request_reason": "Request a Large Item Pick Up",
    "date_created": "2023-06-03T18:18:21.000",
    "date_modified": "2023-06-03T18:18:22.000",
    "request_status": "Pending",
    "responsible_agency": "Department of Sanitation",
    "final_address": "4319 Elba St",
    "address_councildis": "B",
    "status": "Assigned to Contractor",
    "contractor": "Richards Disposal",
    "rowid": "1005451",
    "final_x": "3669932.12794",
    "final_y": "530385.473026",
    "longitude": "-90.1046360127676",
    "latitude": "29.952722265583066",
    "geocoded_column": {
      "latitude": "29.952722265583066",
      "longitude": "-90.1046360127676"
    }
  },
  {
    "service_request": "2023-1005450",
    "request_type": "Property Maintenance",
    "request_reason": "Property Maintenance",
    "date_created": "2023-06-03T18:07:34.000",
    "date_modified": "2023-06-03T18:07:34.000",
    "request_status": "Pending",
    "responsible_agency": "Department of Code Enforcement",
    "final_address": "1517 Tropic Dr",
    "address_councildis": "C",
    "status": "Pending",
    "rowid": "1005450",
    "final_x": "3699465.82135",
    "final_y": "525391.917181",
    "longitude": "-90.01156429230458",
    "latitude": "29.93808789278876",
    "geocoded_column": {
      "latitude": "29.93808789278876",
      "longitude": "-90.01156429230458"
    }
  },
  {
    "service_request": "2023-1005449",
    "request_type": "Trash/Recycling",
    "request_reason": "MIssed Recycling Pick-Up",
    "date_created": "2023-06-03T18:04:42.000",
    "date_modified": "2023-06-03T18:04:43.000",
    "request_status": "Pending",
    "responsible_agency": "Department of Sanitation",
    "final_address": "3526 Timber Wolf Ln",
    "address_councildis": "C",
    "status": "Assigned to Contractor",
    "contractor": "Richards Disposal",
    "rowid": "1005449",
    "final_x": "3704536.70154",
    "final_y": "511204.991408",
    "longitude": "-89.99607791100352",
    "latitude": "29.898916931859482",
    "geocoded_column": {
      "latitude": "29.898916931859482",
      "longitude": "-89.99607791100352"
    }
  },
  {
    "service_request": "2023-1005447",
    "request_type": "Trash/Recycling",
    "request_reason": "Dead Animal Pick Up",
    "date_created": "2023-06-03T17:57:10.000",
    "date_modified": "2023-06-03T17:57:11.000",
    "request_status": "Pending",
    "responsible_agency": "Department of Sanitation",
    "final_address": "5940 Laurel ",
    "address_councildis": "A",
    "status": "Assigned to Contractor",
    "contractor": "Richards Disposal",
    "rowid": "1005447",
    "final_x": "3664639.461",
    "final_y": "518040.578614",
    "longitude": "-90.12176011594075",
    "latitude": "29.91893272416188",
    "geocoded_column": {
      "latitude": "29.91893272416188",
      "longitude": "-90.12176011594075"
    }
  },
  {
    "service_request": "2023-1005446",
    "request_type": "Roads/Drainage",
    "request_reason": "Man hole cover issue",
    "date_created": "2023-06-03T17:55:12.000",
    "date_modified": "2023-06-03T17:55:12.000",
    "request_status": "Pending",
    "responsible_agency": "Department of Public Works",
    "final_address": "1641 Tropic Dr",
    "address_councildis": "C",
    "status": "Pending",
    "rowid": "1005446",
    "final_x": "3699436.74781",
    "final_y": "524632.536316",
    "longitude": "-90.01168373220175",
    "latitude": "29.936000781423054",
    "geocoded_column": {
      "latitude": "29.936000781423054",
      "longitude": "-90.01168373220175"
    }
  },
  {
    "service_request": "2023-1005445",
    "request_type": "Trash/Recycling",
    "request_reason": "Order Trash Cart",
    "date_created": "2023-06-03T17:50:19.000",
    "date_modified": "2023-06-03T17:50:19.000",
    "request_status": "Pending",
    "responsible_agency": "Department of Sanitation",
    "final_address": "2700 LaSalle St",
    "address_councildis": "B",
    "status": "Assigned to Contractor",
    "contractor": "Richards Disposal",
    "rowid": "1005445",
    "final_x": "3674603.86075",
    "final_y": "525027.262013",
    "longitude": "-90.09006832562157",
    "latitude": "29.937850377934108",
    "geocoded_column": {
      "latitude": "29.937850377934108",
      "longitude": "-90.09006832562157"
    }
  },
  {
    "service_request": "2023-1005444",
    "request_type": "Trash/Recycling",
    "request_reason": "Request a Large Item Pick Up",
    "date_created": "2023-06-03T17:48:10.000",
    "date_modified": "2023-06-03T17:48:10.000",
    "request_status": "Pending",
    "responsible_agency": "Department of Sanitation",
    "final_address": "7929 Freret St",
    "address_councildis": "A",
    "status": "Assigned to Contractor",
    "contractor": "Richards Disposal",
    "rowid": "1005444",
    "final_x": "3661926.85114",
    "final_y": "527522.518655",
    "longitude": "-90.13000815603785",
    "latitude": "29.9450836666227",
    "geocoded_column": {
      "latitude": "29.9450836666227",
      "longitude": "-90.13000815603785"
    }
  },
  {
    "service_request": "2023-1005443",
    "request_type": "Utility Poles",
    "request_reason": "Utility Pole Leaning",
    "date_created": "2023-06-03T17:41:42.000",
    "date_modified": "2023-06-03T17:41:50.000",
    "request_status": "Pending",
    "responsible_agency": "Utility Company Collective",
    "final_address": "2610 Peniston St",
    "address_councildis": "B",
    "status": "Pending",
    "rowid": "1005443",
    "final_x": "3671976.29057",
    "final_y": "524672.462524",
    "longitude": "-90.09837586979138",
    "latitude": "29.936952925434245",
    "geocoded_column": {
      "latitude": "29.936952925434245",
      "longitude": "-90.09837586979138"
    }
  },
  {
    "service_request": "2023-1005442",
    "request_type": "Parks & Parkways",
    "request_reason": "Request Tree Service (Right of Way/Public Property)",
    "date_created": "2023-06-03T17:41:01.000",
    "date_modified": "2023-06-03T18:01:18.000",
    "request_status": "Pending",
    "responsible_agency": "Department of Parks & Parkway",
    "final_address": "1566 Tropic Dr",
    "address_councildis": "C",
    "status": "Pending",
    "rowid": "1005442",
    "final_x": "3699551.69514",
    "final_y": "525013.998013",
    "longitude": "-90.01130694858044",
    "latitude": "29.93704602245471",
    "geocoded_column": {
      "latitude": "29.93704602245471",
      "longitude": "-90.01130694858044"
    }
  },
  {
    "service_request": "2023-1005441",
    "request_type": "Trash/Recycling",
    "request_reason": "Request a Large Item Pick Up",
    "date_created": "2023-06-03T17:15:16.000",
    "date_modified": "2023-06-03T17:15:17.000",
    "request_status": "Pending",
    "responsible_agency": "Department of Sanitation",
    "final_address": "248 Audubon Blvd",
    "address_councildis": "A",
    "status": "Assigned to Contractor",
    "contractor": "Richards Disposal",
    "rowid": "1005441",
    "final_x": "3666493.25402",
    "final_y": "529020.83136",
    "longitude": "-90.11554027276766",
    "latitude": "29.94907089164075",
    "geocoded_column": {
      "latitude": "29.94907089164075",
      "longitude": "-90.11554027276766"
    }
  },
  {
    "service_request": "2023-1005440",
    "request_type": "Trash/Recycling",
    "request_reason": "Request a Large Item Pick Up",
    "date_created": "2023-06-03T17:07:46.000",
    "date_modified": "2023-06-03T17:07:46.000",
    "request_status": "Pending",
    "responsible_agency": "Department of Sanitation",
    "final_address": "2110 Urquhart St",
    "address_councildis": "C",
    "status": "Assigned to Contractor",
    "contractor": "IV Waste",
    "rowid": "1005440",
    "final_x": "3684652.6406",
    "final_y": "536988.356872",
    "longitude": "-90.05792323823715",
    "latitude": "29.970435681510246",
    "geocoded_column": {
      "latitude": "29.970435681510246",
      "longitude": "-90.05792323823715"
    }
  },
  {
    "service_request": "2023-1005439",
    "request_type": "Trash/Recycling",
    "request_reason": "Return Trash Cart",
    "date_created": "2023-06-03T17:02:04.000",
    "date_modified": "2023-06-03T17:02:04.000",
    "request_status": "Pending",
    "responsible_agency": "Department of Sanitation",
    "final_address": "3523 Nashville Ave",
    "address_councildis": "A",
    "status": "Assigned to Contractor",
    "contractor": "Richards Disposal",
    "rowid": "1005439",
    "final_x": "3668309.34087",
    "final_y": "528600.55616",
    "longitude": "-90.10982024443706",
    "latitude": "29.94786207460687",
    "geocoded_column": {
      "latitude": "29.94786207460687",
      "longitude": "-90.10982024443706"
    }
  },
  {
    "service_request": "2023-1005438",
    "request_type": "Trash/Recycling",
    "request_reason": "Request a Large Item Pick Up",
    "date_created": "2023-06-03T16:40:01.000",
    "date_modified": "2023-06-03T16:40:02.000",
    "request_status": "Pending",
    "responsible_agency": "Department of Sanitation",
    "final_address": "744 Toledano St, New Orleans, Louisiana, 70115",
    "address_councildis": "B",
    "status": "Assigned to Contractor",
    "contractor": "Richards Disposal",
    "rowid": "1005438",
    "final_x": "3675852.53358",
    "final_y": "518652.652855",
    "longitude": "-90.08634517637178",
    "latitude": "29.92028495898319",
    "geocoded_column": {
      "latitude": "29.92028495898319",
      "longitude": "-90.08634517637178"
    }
  },
  {
    "service_request": "2023-1005437",
    "request_type": "Roads/Drainage",
    "request_reason": "Street Subsidence (Sinking)",
    "date_created": "2023-06-03T16:38:23.000",
    "date_modified": "2023-06-03T16:38:23.000",
    "request_status": "Pending",
    "responsible_agency": "Department of Public Works",
    "final_address": "1115 Bellecastle St, New Orleans, Louisiana, 70115",
    "address_councildis": "B",
    "status": "Pending",
    "rowid": "1005437",
    "final_x": "3667753.8009",
    "final_y": "519509.186167",
    "longitude": "-90.11188030471433",
    "latitude": "29.922880018050805",
    "geocoded_column": {
      "latitude": "29.922880018050805",
      "longitude": "-90.11188030471433"
    }
  },
  {
    "service_request": "2023-1005436",
    "request_type": "Roads/Drainage",
    "request_reason": "Pothole",
    "date_created": "2023-06-03T16:34:56.000",
    "date_modified": "2023-06-03T16:34:56.000",
    "request_status": "Pending",
    "responsible_agency": "Department of Public Works",
    "final_address": "1115 Bellecastle St, New Orleans, Louisiana, 70115",
    "address_councildis": "B",
    "status": "Pending",
    "rowid": "1005436",
    "final_x": "3667753.8009",
    "final_y": "519509.186167",
    "longitude": "-90.11188030471433",
    "latitude": "29.922880018050805",
    "geocoded_column": {
      "latitude": "29.922880018050805",
      "longitude": "-90.11188030471433"
    }
  },
  {
    "service_request": "2023-1005434",
    "request_type": "Trash/Recycling",
    "request_reason": "Illegal Dumping",
    "date_created": "2023-06-03T15:51:48.000",
    "date_modified": "2023-06-03T15:51:48.000",
    "request_status": "Pending",
    "responsible_agency": "Department of Sanitation",
    "final_address": "4808 St Claude Ave",
    "address_councildis": "E",
    "status": "Pending",
    "rowid": "1005434",
    "final_x": "3695140.33008",
    "final_y": "534421.409861",
    "longitude": "-90.0248946657472",
    "latitude": "29.963052336513883",
    "geocoded_column": {
      "latitude": "29.963052336513883",
      "longitude": "-90.0248946657472"
    }
  },
  {
    "service_request": "2023-1005433",
    "request_type": "Roads/Drainage",
    "request_reason": "Pothole",
    "date_created": "2023-06-03T15:44:16.000",
    "date_modified": "2023-06-03T15:44:17.000",
    "request_status": "Pending",
    "responsible_agency": "Department of Public Works",
    "final_address": "1009 St Ann St",
    "address_councildis": "C",
    "status": "Pending",
    "rowid": "1005433",
    "final_x": "3681872.57116",
    "final_y": "533492.763012",
    "longitude": "-90.06682502419459",
    "latitude": "29.960908792078413",
    "geocoded_column": {
      "latitude": "29.960908792078413",
      "longitude": "-90.06682502419459"
    }
  },
  {
    "service_request": "2023-1005431",
    "request_type": "Trash/Recycling",
    "request_reason": "Illegal Dumping",
    "date_created": "2023-06-03T15:40:28.000",
    "date_modified": "2023-06-03T15:40:28.000",
    "request_status": "Pending",
    "responsible_agency": "Department of Sanitation",
    "final_address": "6300 St Claude Ave",
    "address_councildis": "E",
    "status": "Pending",
    "rowid": "1005431",
    "final_x": "3700146.28816",
    "final_y": "532977.506564",
    "longitude": "-90.00913925230147",
    "latitude": "29.95892398960287",
    "geocoded_column": {
      "latitude": "29.95892398960287",
      "longitude": "-90.00913925230147"
    }
  },
  {
    "service_request": "2023-1005430",
    "request_type": "Property Maintenance",
    "request_reason": "Property Maintenance",
    "date_created": "2023-06-03T15:36:23.000",
    "date_modified": "2023-06-03T15:36:23.000",
    "request_status": "Pending",
    "responsible_agency": "Department of Code Enforcement",
    "final_address": "6300 St Claude Ave",
    "address_councildis": "E",
    "status": "Pending",
    "rowid": "1005430",
    "final_x": "3700146.28816",
    "final_y": "532977.506564",
    "longitude": "-90.00913925230147",
    "latitude": "29.95892398960287",
    "geocoded_column": {
      "latitude": "29.95892398960287",
      "longitude": "-90.00913925230147"
    }
  },
  {
    "service_request": "2023-1005429",
    "request_type": "Property Maintenance",
    "request_reason": "Property Maintenance",
    "date_created": "2023-06-03T15:33:36.000",
    "date_modified": "2023-06-03T15:33:37.000",
    "request_status": "Pending",
    "responsible_agency": "Department of Code Enforcement",
    "final_address": "6571 Coveview Ct",
    "address_councildis": "E",
    "status": "Pending",
    "rowid": "1005429",
    "final_x": "3698890.06423",
    "final_y": "555807.193881",
    "longitude": "-90.01227492632552",
    "latitude": "30.021737087754722",
    "geocoded_column": {
      "latitude": "30.021737087754722",
      "longitude": "-90.01227492632552"
    }
  },
  {
    "service_request": "2023-1005428",
    "request_type": "Property Maintenance",
    "request_reason": "Property Maintenance",
    "date_created": "2023-06-03T15:30:40.000",
    "date_modified": "2023-06-03T15:30:40.000",
    "request_status": "Pending",
    "responsible_agency": "Department of Code Enforcement",
    "final_address": "5626 Music St",
    "address_councildis": "D",
    "status": "Pending",
    "rowid": "1005428",
    "final_x": "3685410.1133",
    "final_y": "553759.481239",
    "longitude": "-90.05494013721852",
    "latitude": "30.01652707124792",
    "geocoded_column": {
      "latitude": "30.01652707124792",
      "longitude": "-90.05494013721852"
    }
  },
  {
    "service_request": "2023-1005427",
    "request_type": "Property Maintenance",
    "request_reason": "Property Maintenance",
    "date_created": "2023-06-03T15:30:11.000",
    "date_modified": "2023-06-03T15:30:11.000",
    "request_status": "Pending",
    "responsible_agency": "Department of Code Enforcement",
    "final_address": "5620 Music St",
    "address_councildis": "D",
    "status": "Pending",
    "rowid": "1005427",
    "final_x": "3685417.36834",
    "final_y": "553704.584919",
    "longitude": "-90.05491914960741",
    "latitude": "30.016375903965326",
    "geocoded_column": {
      "latitude": "30.016375903965326",
      "longitude": "-90.05491914960741"
    }
  },
  {
    "service_request": "2023-1005426",
    "request_type": "Property Maintenance",
    "request_reason": "Property Maintenance",
    "date_created": "2023-06-03T15:29:09.000",
    "date_modified": "2023-06-03T15:29:09.000",
    "request_status": "Pending",
    "responsible_agency": "Department of Code Enforcement",
    "final_address": "5611 Music St",
    "address_councildis": "D",
    "status": "Pending",
    "rowid": "1005426",
    "final_x": "3685512.05474",
    "final_y": "553662.676119",
    "longitude": "-90.05462145980297",
    "latitude": "30.016257765059386",
    "geocoded_column": {
      "latitude": "30.016257765059386",
      "longitude": "-90.05462145980297"
    }
  },
  {
    "service_request": "2023-1005425",
    "request_type": "Property Maintenance",
    "request_reason": "Property Maintenance",
    "date_created": "2023-06-03T15:28:11.000",
    "date_modified": "2023-06-03T15:28:11.000",
    "request_status": "Pending",
    "responsible_agency": "Department of Code Enforcement",
    "final_address": "5614 Music St",
    "address_councildis": "D",
    "status": "Pending",
    "rowid": "1005425",
    "final_x": "3685420.81244",
    "final_y": "553654.734295",
    "longitude": "-90.05491002507242",
    "latitude": "30.016238727399166",
    "geocoded_column": {
      "latitude": "30.016238727399166",
      "longitude": "-90.05491002507242"
    }
  },
  {
    "service_request": "2023-1005424",
    "request_type": "Traffic Signals/Signs/Striping/Streetlights",
    "request_reason": "Street Light Knocked Down/Leaning",
    "date_created": "2023-06-03T15:14:22.000",
    "date_modified": "2023-06-03T15:14:23.000",
    "request_status": "Pending",
    "responsible_agency": "Department of Public Works",
    "final_address": "7200 Downman Rd",
    "address_councildis": "D",
    "status": "Pending",
    "contractor": "Legacy Professional Services",
    "rowid": "1005424",
    "final_x": "3694978.47222",
    "final_y": "557048.165786",
    "longitude": "-90.02458968301826",
    "latitude": "30.025272711762245",
    "geocoded_column": {
      "latitude": "30.025272711762245",
      "longitude": "-90.02458968301826"
    }
  },
  {
    "service_request": "2023-1005423",
    "request_type": "Trash/Recycling",
    "request_reason": "Request a Large Item Pick Up",
    "date_created": "2023-06-03T15:07:34.000",
    "date_modified": "2023-06-03T15:07:34.000",
    "request_status": "Pending",
    "responsible_agency": "Department of Sanitation",
    "final_address": "822 Governor Nicholls St",
    "address_councildis": "C",
    "status": "Assigned to Contractor",
    "contractor": "Empire Services",
    "rowid": "1005423",
    "final_x": "3683198.25013",
    "final_y": "534232.002437",
    "longitude": "-90.06261289749682",
    "latitude": "29.962901090005474",
    "geocoded_column": {
      "latitude": "29.962901090005474",
      "longitude": "-90.06261289749682"
    }
  },
  {
    "service_request": "2023-1005422",
    "request_type": "Traffic Signals/Signs/Striping/Streetlights",
    "request_reason": "Street Light Outage/Malfunction",
    "date_created": "2023-06-03T15:03:54.000",
    "date_modified": "2023-06-03T15:03:54.000",
    "request_status": "Pending",
    "responsible_agency": "Department of Public Works",
    "final_address": "6929 Downman Rd",
    "address_councildis": "D",
    "status": "Assigned to Contractor",
    "contractor": "Legacy Professional Services",
    "rowid": "1005422",
    "final_x": "3695515.17392",
    "final_y": "556168.731866",
    "longitude": "-90.02292557488589",
    "latitude": "30.022837735769684",
    "geocoded_column": {
      "latitude": "30.022837735769684",
      "longitude": "-90.02292557488589"
    }
  },
  {
    "service_request": "2023-1005421",
    "request_type": "Trash/Recycling",
    "request_reason": "Repair Recycling Cart",
    "date_created": "2023-06-03T15:02:10.000",
    "date_modified": "2023-06-03T15:02:10.000",
    "request_status": "Pending",
    "responsible_agency": "Department of Sanitation",
    "final_address": "3323 St Philip St",
    "address_councildis": "A",
    "status": "Pending",
    "rowid": "1005421",
    "final_x": "3675219.40328",
    "final_y": "539577.218122",
    "longitude": "-90.08762561554398",
    "latitude": "29.977839506769723",
    "geocoded_column": {
      "latitude": "29.977839506769723",
      "longitude": "-90.08762561554398"
    }
  },
  {
    "service_request": "2023-1005420",
    "request_type": "Traffic Signals/Signs/Striping/Streetlights",
    "request_reason": "Street Light Knocked Down/Leaning",
    "date_created": "2023-06-03T14:42:20.000",
    "date_modified": "2023-06-03T14:42:21.000",
    "request_status": "Pending",
    "responsible_agency": "Department of Public Works",
    "final_address": "7411 Downman Rd",
    "address_councildis": "D",
    "status": "Pending",
    "contractor": "Legacy Professional Services",
    "rowid": "1005420",
    "final_x": "3694926.7336",
    "final_y": "557864.646107",
    "longitude": "-90.02472370408087",
    "latitude": "30.02751934731021",
    "geocoded_column": {
      "latitude": "30.02751934731021",
      "longitude": "-90.02472370408087"
    }
  },
  {
    "service_request": "2023-1005419",
    "request_type": "Abandoned Vehicles",
    "request_reason": "Abandoned/Junk Vehicles",
    "date_created": "2023-06-03T14:41:19.000",
    "date_modified": "2023-06-03T14:41:19.000",
    "request_status": "Pending",
    "responsible_agency": "Department of Public Works",
    "final_address": "2513 Amelia St",
    "address_councildis": "B",
    "status": "Pending",
    "rowid": "1005419",
    "final_x": "3672363.03271",
    "final_y": "524411.833404",
    "longitude": "-90.09716377858985",
    "latitude": "29.936224813041658",
    "geocoded_column": {
      "latitude": "29.936224813041658",
      "longitude": "-90.09716377858985"
    }
  },
  {
    "service_request": "2023-1005418",
    "request_type": "Property Maintenance",
    "request_reason": "Property Maintenance",
    "date_created": "2023-06-03T14:39:02.000",
    "date_modified": "2023-06-03T14:39:02.000",
    "request_status": "Pending",
    "responsible_agency": "Department of Code Enforcement",
    "final_address": "3500 S Robertson St",
    "address_councildis": "B",
    "status": "Pending",
    "rowid": "1005418",
    "final_x": "3672357.16763",
    "final_y": "524611.36262",
    "longitude": "-90.09717549914569",
    "latitude": "29.9367736276423",
    "geocoded_column": {
      "latitude": "29.9367736276423",
      "longitude": "-90.09717549914569"
    }
  },
  {
    "service_request": "2023-1005417",
    "request_type": "Roads/Drainage",
    "request_reason": "Drainage Issue (Catch Basins, Culverts, Ditches, and Manhole Covers)",
    "date_created": "2023-06-03T14:00:16.000",
    "date_modified": "2023-06-03T14:00:16.000",
    "request_status": "Pending",
    "responsible_agency": "Department of Public Works",
    "final_address": "S PETERS ST & GRAVIER ST",
    "address_councildis": "B",
    "status": "Pending",
    "rowid": "1005417",
    "final_x": "3682199.1",
    "final_y": "529446.18",
    "longitude": "-90.06593524813688",
    "latitude": "29.949772135068102",
    "geocoded_column": {
      "latitude": "29.949772135068102",
      "longitude": "-90.06593524813688"
    }
  },
  {
    "service_request": "2023-1005416",
    "request_type": "Trash/Recycling",
    "request_reason": "Order Recycling Cart",
    "date_created": "2023-06-03T13:58:55.000",
    "date_modified": "2023-06-03T13:58:55.000",
    "request_status": "Pending",
    "responsible_agency": "Department of Sanitation",
    "final_address": "5528 Woodlawn Pl",
    "address_councildis": "A",
    "status": "Pending",
    "rowid": "1005416",
    "final_x": "3667369.76372",
    "final_y": "544144.866318",
    "longitude": "-90.11226385502529",
    "latitude": "29.990631306222856",
    "geocoded_column": {
      "latitude": "29.990631306222856",
      "longitude": "-90.11226385502529"
    }
  },
  {
    "service_request": "2023-1005415",
    "request_type": "Trash/Recycling",
    "request_reason": "Order Trash Cart",
    "date_created": "2023-06-03T13:57:12.000",
    "date_modified": "2023-06-03T13:57:12.000",
    "request_status": "Pending",
    "responsible_agency": "Department of Sanitation",
    "final_address": "5528 Woodlawn Pl",
    "address_councildis": "A",
    "status": "Assigned to Contractor",
    "contractor": "IV Waste",
    "rowid": "1005415",
    "final_x": "3667369.76372",
    "final_y": "544144.866318",
    "longitude": "-90.11226385502529",
    "latitude": "29.990631306222856",
    "geocoded_column": {
      "latitude": "29.990631306222856",
      "longitude": "-90.11226385502529"
    }
  },
  {
    "service_request": "2023-1005414",
    "request_type": "Trash/Recycling",
    "request_reason": "Request a Large Item Pick Up",
    "date_created": "2023-06-03T13:32:44.000",
    "date_modified": "2023-06-03T13:32:45.000",
    "request_status": "Pending",
    "responsible_agency": "Department of Sanitation",
    "final_address": "4820 Rosemont Pl",
    "address_councildis": "E",
    "status": "Assigned to Contractor",
    "contractor": "Waste Pro",
    "rowid": "1005414",
    "final_x": "3702595.85405",
    "final_y": "555322.558617",
    "longitude": "-90.0005835005921",
    "latitude": "30.02028652930276",
    "geocoded_column": {
      "latitude": "30.02028652930276",
      "longitude": "-90.0005835005921"
    }
  },
  {
    "service_request": "2023-1005413",
    "request_type": "Mosquito, Termite & Rodent Control",
    "request_reason": "Rodent Complaint (Rats)",
    "date_created": "2023-06-03T13:25:55.000",
    "date_modified": "2023-06-03T13:25:56.000",
    "request_status": "Pending",
    "responsible_agency": "Mosquito, Termite & Rodent Control Board",
    "final_address": "7500 Founders Ct",
    "address_councildis": "E",
    "status": "Pending",
    "rowid": "1005413",
    "final_x": "3726009.64582",
    "final_y": "570544.959655",
    "longitude": "-89.92601351936207",
    "latitude": "30.06137223857831",
    "geocoded_column": {
      "latitude": "30.06137223857831",
      "longitude": "-89.92601351936207"
    }
  },
  {
    "service_request": "2023-1005412",
    "request_type": "Property Maintenance",
    "request_reason": "Property Maintenance",
    "date_created": "2023-06-03T13:12:11.000",
    "date_modified": "2023-06-03T13:12:12.000",
    "request_status": "Pending",
    "responsible_agency": "Department of Code Enforcement",
    "final_address": "BABYLON ST & DWYER RD",
    "address_councildis": "D",
    "status": "Pending",
    "rowid": "1005412",
    "final_x": "3696542.1",
    "final_y": "554792.38",
    "longitude": "-90.01973059667645",
    "latitude": "30.019020957445235",
    "geocoded_column": {
      "latitude": "30.019020957445235",
      "longitude": "-90.01973059667645"
    }
  },
  {
    "service_request": "2023-1005411",
    "request_type": "Abandoned Vehicles",
    "request_reason": "Vehicle Blocking Your Driveway",
    "date_created": "2023-06-03T13:12:00.000",
    "date_modified": "2023-06-03T13:12:00.000",
    "request_status": "Pending",
    "responsible_agency": "Department of Public Works",
    "final_address": "HAYNE BLVD & BUFFALO RD",
    "address_councildis": "E",
    "status": "Pending",
    "rowid": "1005411",
    "final_x": "3719032.5",
    "final_y": "574454.58",
    "longitude": "-89.94791853118839",
    "latitude": "30.07235582876657",
    "geocoded_column": {
      "latitude": "30.07235582876657",
      "longitude": "-89.94791853118839"
    }
  },
  {
    "service_request": "2023-1005410",
    "request_type": "Trash/Recycling",
    "request_reason": "Request a Large Item Pick Up",
    "date_created": "2023-06-03T13:10:19.000",
    "date_modified": "2023-06-03T13:10:19.000",
    "request_status": "Pending",
    "responsible_agency": "Department of Sanitation",
    "final_address": "21 Egret St",
    "address_councildis": "D",
    "status": "Assigned to Contractor",
    "contractor": "IV Waste",
    "rowid": "1005410",
    "final_x": "3673809.05633",
    "final_y": "554805.904856",
    "longitude": "-90.09155874357647",
    "latitude": "30.019755147065784",
    "geocoded_column": {
      "latitude": "30.019755147065784",
      "longitude": "-90.09155874357647"
    }
  },
  {
    "service_request": "2023-1005409",
    "request_type": "Abandoned Vehicles",
    "request_reason": "Abandoned/Junk Vehicles",
    "date_created": "2023-06-03T13:07:32.000",
    "date_modified": "2023-06-03T13:08:56.000",
    "request_status": "Pending",
    "responsible_agency": "Department of Public Works",
    "final_address": "3029 Dumaine St",
    "address_councildis": "A",
    "status": "Pending",
    "rowid": "1005409",
    "final_x": "3676001.10862",
    "final_y": "538453.482313",
    "longitude": "-90.0851953764709",
    "latitude": "29.97472622763435",
    "geocoded_column": {
      "latitude": "29.97472622763435",
      "longitude": "-90.0851953764709"
    }
  },
  {
    "service_request": "2023-1005408",
    "request_type": "Trash/Recycling",
    "request_reason": "Replace Trash Cart",
    "date_created": "2023-06-03T13:01:50.000",
    "date_modified": "2023-06-03T13:01:50.000",
    "request_status": "Pending",
    "responsible_agency": "Department of Sanitation",
    "final_address": "221 S Scott St",
    "address_councildis": "A",
    "status": "Assigned to Contractor",
    "contractor": "Richards Disposal",
    "rowid": "1005408",
    "final_x": "3671385.79905",
    "final_y": "537391.478024",
    "longitude": "-90.09980781268072",
    "latitude": "29.97194350223506",
    "geocoded_column": {
      "latitude": "29.97194350223506",
      "longitude": "-90.09980781268072"
    }
  },
  {
    "service_request": "2023-1005407",
    "request_type": "Roads/Drainage",
    "request_reason": "Accessibility Ramps, Curbs and Sidewalk Repair",
    "date_created": "2023-06-03T13:01:25.000",
    "date_modified": "2023-06-03T13:01:26.000",
    "request_status": "Pending",
    "responsible_agency": "Department of Public Works",
    "final_address": "824 Royal St",
    "address_councildis": "C",
    "status": "Pending",
    "rowid": "1005407",
    "final_x": "3682927.25647",
    "final_y": "532910.354116",
    "longitude": "-90.06351491216536",
    "latitude": "29.959275270416487",
    "geocoded_column": {
      "latitude": "29.959275270416487",
      "longitude": "-90.06351491216536"
    }
  },
  {
    "service_request": "2023-1005406",
    "request_type": "Roads/Drainage",
    "request_reason": "Alley Way",
    "date_created": "2023-06-03T13:00:39.000",
    "date_modified": "2023-06-03T13:00:39.000",
    "request_status": "Pending",
    "responsible_agency": "Department of Public Works",
    "final_address": "6818 Louisville St",
    "address_councildis": "A",
    "status": "Pending",
    "rowid": "1005406",
    "final_x": "3668149.53389",
    "final_y": "552906.894551",
    "longitude": "-90.1095051378254",
    "latitude": "30.01470097073277",
    "geocoded_column": {
      "latitude": "30.01470097073277",
      "longitude": "-90.1095051378254"
    }
  },
  {
    "service_request": "2023-1005405",
    "request_type": "Abandoned Vehicles",
    "request_reason": "Abandoned/Junk Vehicles",
    "date_created": "2023-06-03T12:53:56.000",
    "date_modified": "2023-06-03T12:53:56.000",
    "request_status": "Pending",
    "responsible_agency": "Department of Public Works",
    "final_address": "100 BLK Baronne St",
    "address_councildis": "B",
    "status": "Pending",
    "rowid": "1005405",
    "final_x": "3680400.33733",
    "final_y": "530892.199486",
    "longitude": "-90.07156448832164",
    "latitude": "29.95380278606142",
    "geocoded_column": {
      "latitude": "29.95380278606142",
      "longitude": "-90.07156448832164"
    }
  },
  {
    "service_request": "2023-1005404",
    "request_type": "Trash/Recycling",
    "request_reason": "Missed Trash Pick-Up",
    "date_created": "2023-06-03T12:53:52.000",
    "date_modified": "2023-06-03T12:53:53.000",
    "request_status": "Pending",
    "responsible_agency": "Department of Sanitation",
    "final_address": "8015 Ebbtide Dr",
    "address_councildis": "E",
    "status": "Assigned to Contractor",
    "contractor": "Waste Pro",
    "rowid": "1005404",
    "final_x": "3701980.99306",
    "final_y": "562361.502047",
    "longitude": "-90.00226789702086",
    "latitude": "30.039660545430923",
    "geocoded_column": {
      "latitude": "30.039660545430923",
      "longitude": "-90.00226789702086"
    }
  },
  {
    "service_request": "2023-1005403",
    "request_type": "Abandoned Vehicles",
    "request_reason": "Abandoned/Junk Vehicles",
    "date_created": "2023-06-03T12:52:18.000",
    "date_modified": "2023-06-03T12:52:18.000",
    "request_status": "Pending",
    "responsible_agency": "Department of Public Works",
    "final_address": "100 BLK Baronne St",
    "address_councildis": "B",
    "status": "Pending",
    "rowid": "1005403",
    "final_x": "3680400.33733",
    "final_y": "530892.199486",
    "longitude": "-90.07156448832164",
    "latitude": "29.95380278606142",
    "geocoded_column": {
      "latitude": "29.95380278606142",
      "longitude": "-90.07156448832164"
    }
  },
  {
    "service_request": "2023-1005402",
    "request_type": "Abandoned Vehicles",
    "request_reason": "Abandoned/Junk Vehicles",
    "date_created": "2023-06-03T12:51:33.000",
    "date_modified": "2023-06-03T13:20:38.000",
    "request_status": "Pending",
    "responsible_agency": "Department of Public Works",
    "final_address": "10200 Almonaster Ave",
    "address_councildis": "E",
    "status": "Inspected",
    "rowid": "1005402",
    "final_x": "3713684.56383",
    "final_y": "551626.395989",
    "longitude": "-89.96568637555853",
    "latitude": "30.00976423388402",
    "geocoded_column": {
      "latitude": "30.00976423388402",
      "longitude": "-89.96568637555853"
    }
  },
  {
    "service_request": "2023-1005401",
    "request_type": "Abandoned Vehicles",
    "request_reason": "Abandoned/Junk Vehicles",
    "date_created": "2023-06-03T12:50:54.000",
    "date_modified": "2023-06-03T13:24:00.000",
    "request_status": "Pending",
    "responsible_agency": "Department of Public Works",
    "final_address": "10200 Almonaster Ave",
    "address_councildis": "E",
    "status": "Inspected",
    "rowid": "1005401",
    "final_x": "3713684.56383",
    "final_y": "551626.395989",
    "longitude": "-89.96568637555853",
    "latitude": "30.00976423388402",
    "geocoded_column": {
      "latitude": "30.00976423388402",
      "longitude": "-89.96568637555853"
    }
  },
  {
    "service_request": "2023-1005400",
    "request_type": "Roads/Drainage",
    "request_reason": "Pothole",
    "date_created": "2023-06-03T12:50:47.000",
    "date_modified": "2023-06-03T12:50:47.000",
    "request_status": "Pending",
    "responsible_agency": "Department of Public Works",
    "final_address": "6030 Chestnut St",
    "address_councildis": "A",
    "status": "Pending",
    "rowid": "1005400",
    "final_x": "3664661.37773",
    "final_y": "519852.51884",
    "longitude": "-90.1216304547064",
    "latitude": "29.923914355909606",
    "geocoded_column": {
      "latitude": "29.923914355909606",
      "longitude": "-90.1216304547064"
    }
  },
  {
    "service_request": "2023-1005399",
    "request_type": "Abandoned Vehicles",
    "request_reason": "Abandoned/Junk Vehicles",
    "date_created": "2023-06-03T12:50:20.000",
    "date_modified": "2023-06-03T13:29:08.000",
    "request_status": "Pending",
    "responsible_agency": "Department of Public Works",
    "final_address": "10200 Almonaster Ave",
    "address_councildis": "E",
    "status": "Inspected",
    "rowid": "1005399",
    "final_x": "3713684.56383",
    "final_y": "551626.395989",
    "longitude": "-89.96568637555853",
    "latitude": "30.00976423388402",
    "geocoded_column": {
      "latitude": "30.00976423388402",
      "longitude": "-89.96568637555853"
    }
  },
  {
    "service_request": "2023-1005398",
    "request_type": "Abandoned Vehicles",
    "request_reason": "Abandoned/Junk Vehicles",
    "date_created": "2023-06-03T12:49:45.000",
    "date_modified": "2023-06-03T13:34:00.000",
    "request_status": "Pending",
    "responsible_agency": "Department of Public Works",
    "final_address": "10200 Almonaster Ave",
    "address_councildis": "E",
    "status": "Inspected",
    "rowid": "1005398",
    "final_x": "3713684.56383",
    "final_y": "551626.395989",
    "longitude": "-89.96568637555853",
    "latitude": "30.00976423388402",
    "geocoded_column": {
      "latitude": "30.00976423388402",
      "longitude": "-89.96568637555853"
    }
  },
  {
    "service_request": "2023-1005397",
    "request_type": "Abandoned Vehicles",
    "request_reason": "Abandoned/Junk Vehicles",
    "date_created": "2023-06-03T12:49:09.000",
    "date_modified": "2023-06-03T13:31:39.000",
    "request_status": "Pending",
    "responsible_agency": "Department of Public Works",
    "final_address": "10200 Almonaster Ave",
    "address_councildis": "E",
    "status": "Inspected",
    "rowid": "1005397",
    "final_x": "3713684.56383",
    "final_y": "551626.395989",
    "longitude": "-89.96568637555853",
    "latitude": "30.00976423388402",
    "geocoded_column": {
      "latitude": "30.00976423388402",
      "longitude": "-89.96568637555853"
    }
  },
  {
    "service_request": "2023-1005396",
    "request_type": "Property Maintenance",
    "request_reason": "Property Maintenance",
    "date_created": "2023-06-03T12:43:38.000",
    "date_modified": "2023-06-03T12:43:38.000",
    "request_status": "Pending",
    "responsible_agency": "Department of Code Enforcement",
    "final_address": "0 BLK Canal St",
    "address_councildis": "C",
    "status": "Pending",
    "rowid": "1005396",
    "final_x": "3683101.85784",
    "final_y": "529482.228553",
    "longitude": "-90.06308356901691",
    "latitude": "29.949843769360704",
    "geocoded_column": {
      "latitude": "29.949843769360704",
      "longitude": "-90.06308356901691"
    }
  },
  {
    "service_request": "2023-1005395",
    "request_type": "Trash/Recycling",
    "request_reason": "Illegal Dumping",
    "date_created": "2023-06-03T12:35:53.000",
    "date_modified": "2023-06-03T12:35:53.000",
    "request_status": "Pending",
    "responsible_agency": "Department of Sanitation",
    "final_address": "1400 BLK Lafreniere St",
    "address_councildis": "D",
    "status": "Pending",
    "rowid": "1005395",
    "final_x": "3678864.41192",
    "final_y": "545075.307931",
    "longitude": "-90.07592285540798",
    "latitude": "29.992847872775286",
    "geocoded_column": {
      "latitude": "29.992847872775286",
      "longitude": "-90.07592285540798"
    }
  },
  {
    "service_request": "2023-1005394",
    "request_type": "Property Maintenance",
    "request_reason": "Property Maintenance",
    "date_created": "2023-06-03T12:32:13.000",
    "date_modified": "2023-06-03T12:32:13.000",
    "request_status": "Pending",
    "responsible_agency": "Department of Code Enforcement",
    "final_address": "1817 Fourth St",
    "address_councildis": "B",
    "status": "Pending",
    "rowid": "1005394",
    "final_x": "3675720.42305",
    "final_y": "523475.048443",
    "longitude": "-90.08659656326142",
    "latitude": "29.933548938549848",
    "geocoded_column": {
      "latitude": "29.933548938549848",
      "longitude": "-90.08659656326142"
    }
  },
  {
    "service_request": "2023-1005393",
    "request_type": "Abandoned Vehicles",
    "request_reason": "Abandoned/Junk Vehicles",
    "date_created": "2023-06-03T12:31:21.000",
    "date_modified": "2023-06-03T12:31:21.000",
    "request_status": "Pending",
    "responsible_agency": "Department of Public Works",
    "final_address": "1400 BLK Lafreniere St",
    "address_councildis": "D",
    "status": "Pending",
    "rowid": "1005393",
    "final_x": "3678864.41192",
    "final_y": "545075.307931",
    "longitude": "-90.07592285540798",
    "latitude": "29.992847872775286",
    "geocoded_column": {
      "latitude": "29.992847872775286",
      "longitude": "-90.07592285540798"
    }
  },
  {
    "service_request": "2023-1005392",
    "request_type": "Abandoned Vehicles",
    "request_reason": "Abandoned/Junk Vehicles",
    "date_created": "2023-06-03T12:26:04.000",
    "date_modified": "2023-06-03T12:26:05.000",
    "request_status": "Pending",
    "responsible_agency": "Department of Public Works",
    "final_address": "900 BLK Eighth St",
    "address_councildis": "B",
    "status": "Pending",
    "rowid": "1005392",
    "final_x": "3676420.30329",
    "final_y": "519747.080372",
    "longitude": "-90.08451534434955",
    "latitude": "29.92327727963951",
    "geocoded_column": {
      "latitude": "29.92327727963951",
      "longitude": "-90.08451534434955"
    }
  },
  {
    "service_request": "2023-1005391",
    "request_type": "Trash/Recycling",
    "request_reason": "Return Trash Cart",
    "date_created": "2023-06-03T12:24:47.000",
    "date_modified": "2023-06-03T12:24:48.000",
    "case_close_date": "2023-05-29T19:00:00.000",
    "request_status": "Pending",
    "responsible_agency": "Department of Sanitation",
    "final_address": "5601 Annunciation St",
    "address_councildis": "A",
    "status": "Assigned to Contractor",
    "contractor": "Richards Disposal",
    "rowid": "1005391",
    "final_x": "3665789.68768",
    "final_y": "517572.54591",
    "longitude": "-90.11814509749306",
    "latitude": "29.917612288473453",
    "geocoded_column": {
      "latitude": "29.917612288473453",
      "longitude": "-90.11814509749306"
    }
  },
  {
    "service_request": "2023-1005390",
    "request_type": "Trash/Recycling",
    "request_reason": "Illegal Dumping",
    "date_created": "2023-06-03T12:23:00.000",
    "date_modified": "2023-06-03T12:23:00.000",
    "request_status": "Pending",
    "responsible_agency": "Department of Sanitation",
    "final_address": "2801 Earhart Blvd",
    "address_councildis": "B",
    "status": "Pending",
    "rowid": "1005390",
    "final_x": "3676086.43566",
    "final_y": "529145.87168",
    "longitude": "-90.08524608050192",
    "latitude": "29.94913087992618",
    "geocoded_column": {
      "latitude": "29.94913087992618",
      "longitude": "-90.08524608050192"
    }
  },
  {
    "service_request": "2023-1005389",
    "request_type": "Abandoned Vehicles",
    "request_reason": "Vehicle Blocking Your Driveway",
    "date_created": "2023-06-03T12:22:30.000",
    "date_modified": "2023-06-03T12:22:30.000",
    "request_status": "Pending",
    "responsible_agency": "Department of Public Works",
    "final_address": "4951 Alsace St",
    "address_councildis": "E",
    "status": "Pending",
    "rowid": "1005389",
    "final_x": "3730456.64058",
    "final_y": "563165.643872",
    "longitude": "-89.91224612002615",
    "latitude": "30.040931314872847",
    "geocoded_column": {
      "latitude": "30.040931314872847",
      "longitude": "-89.91224612002615"
    }
  },
  {
    "service_request": "2023-1005388",
    "request_type": "Abandoned Vehicles",
    "request_reason": "Abandoned/Junk Vehicles",
    "date_created": "2023-06-03T12:20:35.000",
    "date_modified": "2023-06-03T12:20:35.000",
    "request_status": "Pending",
    "responsible_agency": "Department of Public Works",
    "final_address": "900 BLK Eighth St",
    "address_councildis": "B",
    "status": "Pending",
    "rowid": "1005388",
    "final_x": "3676420.30329",
    "final_y": "519747.080372",
    "longitude": "-90.08451534434955",
    "latitude": "29.92327727963951",
    "geocoded_column": {
      "latitude": "29.92327727963951",
      "longitude": "-90.08451534434955"
    }
  },
  {
    "service_request": "2023-1005387",
    "request_type": "Trash/Recycling",
    "request_reason": "Missed Trash Pick-Up",
    "date_created": "2023-06-03T12:14:06.000",
    "date_modified": "2023-06-03T12:14:06.000",
    "request_status": "Pending",
    "responsible_agency": "Department of Sanitation",
    "final_address": "2317 Charbonnet St",
    "address_councildis": "E",
    "status": "Assigned to Contractor",
    "contractor": "Waste Pro",
    "rowid": "1005387",
    "final_x": "3699955.39344",
    "final_y": "538244.923401",
    "longitude": "-90.00954988409659",
    "latitude": "29.973413559324065",
    "geocoded_column": {
      "latitude": "29.973413559324065",
      "longitude": "-90.00954988409659"
    }
  },
  {
    "service_request": "2023-1005386",
    "request_type": "Trash/Recycling",
    "request_reason": "Missed Trash Pick-Up",
    "date_created": "2023-06-03T12:02:57.000",
    "date_modified": "2023-06-03T12:02:58.000",
    "request_status": "Pending",
    "responsible_agency": "Department of Sanitation",
    "final_address": "103 Brunswick Ct",
    "address_councildis": "C",
    "status": "Assigned to Contractor",
    "contractor": "Richards Disposal",
    "rowid": "1005386",
    "final_x": "3705644.50187",
    "final_y": "516978.327925",
    "longitude": "-89.99236866388182",
    "latitude": "29.91475603556388",
    "geocoded_column": {
      "latitude": "29.91475603556388",
      "longitude": "-89.99236866388182"
    }
  },
  {
    "service_request": "2023-1005385",
    "request_type": "Trash/Recycling",
    "request_reason": "Return Trash Cart",
    "date_created": "2023-06-03T11:58:30.000",
    "date_modified": "2023-06-03T11:58:31.000",
    "request_status": "Pending",
    "responsible_agency": "Department of Sanitation",
    "final_address": "301 S Norman C Francis Prkwy",
    "address_councildis": "B",
    "status": "Assigned to Contractor",
    "contractor": "Richards Disposal",
    "rowid": "1005385",
    "final_x": "3672584.49774",
    "final_y": "536160.659015",
    "longitude": "-90.09606409526579",
    "latitude": "29.96852362845213",
    "geocoded_column": {
      "latitude": "29.96852362845213",
      "longitude": "-90.09606409526579"
    }
  },
  {
    "service_request": "2023-1005384",
    "request_type": "Abandoned Vehicles",
    "request_reason": "Abandoned/Junk Vehicles",
    "date_created": "2023-06-03T11:57:50.000",
    "date_modified": "2023-06-03T11:57:50.000",
    "request_status": "Pending",
    "responsible_agency": "Department of Public Works",
    "final_address": "229 S Rocheblave St",
    "address_councildis": "B",
    "status": "Pending",
    "rowid": "1005384",
    "final_x": "3675711.55073",
    "final_y": "534008.121477",
    "longitude": "-90.08626267217198",
    "latitude": "29.962511663484072",
    "geocoded_column": {
      "latitude": "29.962511663484072",
      "longitude": "-90.08626267217198"
    }
  },
  {
    "service_request": "2023-1005382",
    "request_type": "Trash/Recycling",
    "request_reason": "MIssed Recycling Pick-Up",
    "date_created": "2023-06-03T11:56:21.000",
    "date_modified": "2023-06-03T11:56:21.000",
    "request_status": "Pending",
    "responsible_agency": "Department of Sanitation",
    "final_address": "4516 Chantilly Dr",
    "address_councildis": "E",
    "status": "Assigned to Contractor",
    "contractor": "Waste Pro",
    "rowid": "1005382",
    "final_x": "3700914.16778",
    "final_y": "552986.853399",
    "longitude": "-90.00598256577835",
    "latitude": "30.013917905389018",
    "geocoded_column": {
      "latitude": "30.013917905389018",
      "longitude": "-90.00598256577835"
    }
  },
  {
    "service_request": "2023-1005381",
    "request_type": "Trash/Recycling",
    "request_reason": "Dead Animal Pick Up",
    "date_created": "2023-06-03T11:50:54.000",
    "date_modified": "2023-06-03T11:50:55.000",
    "request_status": "Pending",
    "responsible_agency": "Department of Sanitation",
    "final_address": "708 Thayer St",
    "address_councildis": "C",
    "status": "Assigned to Contractor",
    "contractor": "Richards Disposal",
    "rowid": "1005381",
    "final_x": "3689534.17615",
    "final_y": "528912.367808",
    "longitude": "-90.04279410376016",
    "latitude": "29.94807921014022",
    "geocoded_column": {
      "latitude": "29.94807921014022",
      "longitude": "-90.04279410376016"
    }
  },
  {
    "service_request": "2023-1005380",
    "request_type": "Trash/Recycling",
    "request_reason": "Order Recycling Cart",
    "date_created": "2023-06-03T11:50:37.000",
    "date_modified": "2023-06-03T11:50:47.000",
    "request_status": "Pending",
    "responsible_agency": "Department of Sanitation",
    "final_address": "4827 Camp St",
    "address_councildis": "B",
    "status": "Pending",
    "rowid": "1005380",
    "final_x": "3669329.1778",
    "final_y": "519024.320695",
    "longitude": "-90.10692382382933",
    "latitude": "29.921500521313675",
    "geocoded_column": {
      "latitude": "29.921500521313675",
      "longitude": "-90.10692382382933"
    }
  },
  {
    "service_request": "2023-1005379",
    "request_type": "Trash/Recycling",
    "request_reason": "Order Trash Cart",
    "date_created": "2023-06-03T11:50:24.000",
    "date_modified": "2023-06-03T11:50:24.000",
    "request_status": "Pending",
    "responsible_agency": "Department of Sanitation",
    "final_address": "4827 Camp St",
    "address_councildis": "B",
    "status": "Assigned to Contractor",
    "contractor": "Richards Disposal",
    "rowid": "1005379",
    "final_x": "3669329.1778",
    "final_y": "519024.320695",
    "longitude": "-90.10692382382933",
    "latitude": "29.921500521313675",
    "geocoded_column": {
      "latitude": "29.921500521313675",
      "longitude": "-90.10692382382933"
    }
  },
  {
    "service_request": "2023-1005377",
    "request_type": "Trash/Recycling",
    "request_reason": "Replace Recycling Cart",
    "date_created": "2023-06-03T11:39:10.000",
    "date_modified": "2023-06-03T11:39:10.000",
    "request_status": "Pending",
    "responsible_agency": "Department of Sanitation",
    "final_address": "5300 BLK Memphis St",
    "address_councildis": "A",
    "status": "Pending",
    "rowid": "1005377",
    "final_x": "3668671.64326",
    "final_y": "542431.311907",
    "longitude": "-90.10820939959505",
    "latitude": "29.985881405171614",
    "geocoded_column": {
      "latitude": "29.985881405171614",
      "longitude": "-90.10820939959505"
    }
  },
  {
    "service_request": "2023-1005376",
    "request_type": "Trash/Recycling",
    "request_reason": "Request a Large Item Pick Up",
    "date_created": "2023-06-03T11:32:35.000",
    "date_modified": "2023-06-03T11:32:36.000",
    "request_status": "Pending",
    "responsible_agency": "Department of Sanitation",
    "final_address": "2401 Nashville Ave",
    "address_councildis": "A",
    "status": "Assigned to Contractor",
    "contractor": "Richards Disposal",
    "rowid": "1005376",
    "final_x": "3667135.09684",
    "final_y": "524889.891708",
    "longitude": "-90.11365252468843",
    "latitude": "29.93769336825969",
    "geocoded_column": {
      "latitude": "29.93769336825969",
      "longitude": "-90.11365252468843"
    }
  },
  {
    "service_request": "2023-1005375",
    "request_type": "Trash/Recycling",
    "request_reason": "Order Recycling Cart",
    "date_created": "2023-06-03T11:28:38.000",
    "date_modified": "2023-06-03T11:28:38.000",
    "request_status": "Pending",
    "responsible_agency": "Department of Sanitation",
    "final_address": "3431 N Rampart St",
    "address_councildis": "C",
    "status": "Pending",
    "rowid": "1005375",
    "final_x": "3690329.51619",
    "final_y": "535235.074566",
    "longitude": "-90.04005758151126",
    "latitude": "29.96543980467004",
    "geocoded_column": {
      "latitude": "29.96543980467004",
      "longitude": "-90.04005758151126"
    }
  },
  {
    "service_request": "2023-1005374",
    "request_type": "Traffic Signals/Signs/Striping/Streetlights",
    "request_reason": "Street Light Outage/Malfunction",
    "date_created": "2023-06-03T11:20:15.000",
    "date_modified": "2023-06-03T11:20:16.000",
    "request_status": "Pending",
    "responsible_agency": "Department of Public Works",
    "final_address": "7525 Devine Ave",
    "address_councildis": "E",
    "status": "Assigned to Contractor",
    "contractor": "Legacy Professional Services",
    "rowid": "1005374",
    "final_x": "3705862.0602",
    "final_y": "562848.513824",
    "longitude": "-89.98998459866431",
    "latitude": "30.040875098974805",
    "geocoded_column": {
      "latitude": "30.040875098974805",
      "longitude": "-89.98998459866431"
    }
  },
  {
    "service_request": "2023-1005373",
    "request_type": "Trash/Recycling",
    "request_reason": "Missed Trash Pick-Up",
    "date_created": "2023-06-03T11:13:48.000",
    "date_modified": "2023-06-03T11:13:49.000",
    "case_close_date": "2023-03-20T19:00:00.000",
    "request_status": "Pending",
    "responsible_agency": "Department of Sanitation",
    "final_address": "7151 E Renaissance Ct",
    "address_councildis": "E",
    "status": "Assigned to Contractor",
    "contractor": "Waste Pro",
    "rowid": "1005373",
    "final_x": "3717234.4046",
    "final_y": "568046.991781",
    "longitude": "-89.95384672649836",
    "latitude": "30.054797286422193",
    "geocoded_column": {
      "latitude": "30.054797286422193",
      "longitude": "-89.95384672649836"
    }
  },
  {
    "service_request": "2023-1005372",
    "request_type": "Trash/Recycling",
    "request_reason": "Replace Trash Cart",
    "date_created": "2023-06-03T11:11:55.000",
    "date_modified": "2023-06-03T11:11:56.000",
    "request_status": "Pending",
    "responsible_agency": "Department of Sanitation",
    "final_address": "5526 Loyola Ave",
    "address_councildis": "A",
    "status": "Assigned to Contractor",
    "contractor": "Richards Disposal",
    "rowid": "1005372",
    "final_x": "3667140.39962",
    "final_y": "522993.566523",
    "longitude": "-90.11369950745312",
    "latitude": "29.93247892493606",
    "geocoded_column": {
      "latitude": "29.93247892493606",
      "longitude": "-90.11369950745312"
    }
  },
  {
    "service_request": "2023-1005371",
    "request_type": "Trash/Recycling",
    "request_reason": "Repair Trash Cart",
    "date_created": "2023-06-03T11:10:55.000",
    "date_modified": "2023-06-03T11:10:56.000",
    "request_status": "Pending",
    "responsible_agency": "Department of Sanitation",
    "final_address": "218 S Olympia St",
    "address_councildis": "A",
    "status": "Assigned to Contractor",
    "contractor": "Richards Disposal",
    "rowid": "1005371",
    "final_x": "3669104.24039",
    "final_y": "539110.538058",
    "longitude": "-90.10695525598337",
    "latitude": "29.976737677900847",
    "geocoded_column": {
      "latitude": "29.976737677900847",
      "longitude": "-90.10695525598337"
    }
  },
  {
    "service_request": "2023-1005370",
    "request_type": "Taxi Issues",
    "request_reason": "Taxi Lost & Found Item",
    "date_created": "2023-06-03T11:04:43.000",
    "date_modified": "2023-06-03T11:04:44.000",
    "request_status": "Pending",
    "responsible_agency": "Ground Transportation Bureau",
    "status": "Pending",
    "rowid": "1005370",
    "longitude": "0.0",
    "latitude": "0.0",
    "geocoded_column": {
      "latitude": "0.0",
      "longitude": "0.0"
    }
  },
  {
    "service_request": "2023-1005369",
    "request_type": "Trash/Recycling",
    "request_reason": "Repair Trash Cart",
    "date_created": "2023-06-03T11:00:31.000",
    "date_modified": "2023-06-03T11:00:32.000",
    "request_status": "Pending",
    "responsible_agency": "Department of Sanitation",
    "final_address": "9210 Colapissa St",
    "address_councildis": "A",
    "status": "Assigned to Contractor",
    "contractor": "Richards Disposal",
    "rowid": "1005369",
    "final_x": "3663548.28986",
    "final_y": "536070.842695",
    "longitude": "-90.12460403619883",
    "latitude": "29.96854185974146",
    "geocoded_column": {
      "latitude": "29.96854185974146",
      "longitude": "-90.12460403619883"
    }
  },
  {
    "service_request": "2023-1005368",
    "request_type": "Abandoned Vehicles",
    "request_reason": "Abandoned/Junk Vehicles",
    "date_created": "2023-06-03T10:58:39.000",
    "date_modified": "2023-06-03T11:44:04.000",
    "request_status": "Pending",
    "responsible_agency": "Department of Public Works",
    "final_address": "10200 Almonaster Ave",
    "address_councildis": "E",
    "status": "Inspected",
    "rowid": "1005368",
    "final_x": "3713684.56383",
    "final_y": "551626.395989",
    "longitude": "-89.96568637555853",
    "latitude": "30.00976423388402",
    "geocoded_column": {
      "latitude": "30.00976423388402",
      "longitude": "-89.96568637555853"
    }
  },
  {
    "service_request": "2023-1005367",
    "request_type": "Abandoned Vehicles",
    "request_reason": "Abandoned/Junk Vehicles",
    "date_created": "2023-06-03T10:58:02.000",
    "date_modified": "2023-06-03T11:46:54.000",
    "request_status": "Pending",
    "responsible_agency": "Department of Public Works",
    "final_address": "10200 Almonaster Ave",
    "address_councildis": "E",
    "status": "Inspected",
    "rowid": "1005367",
    "final_x": "3713684.56383",
    "final_y": "551626.395989",
    "longitude": "-89.96568637555853",
    "latitude": "30.00976423388402",
    "geocoded_column": {
      "latitude": "30.00976423388402",
      "longitude": "-89.96568637555853"
    }
  },
  {
    "service_request": "2023-1005366",
    "request_type": "Abandoned Vehicles",
    "request_reason": "Abandoned/Junk Vehicles",
    "date_created": "2023-06-03T10:57:29.000",
    "date_modified": "2023-06-03T11:49:18.000",
    "request_status": "Pending",
    "responsible_agency": "Department of Public Works",
    "final_address": "10200 Almonaster Ave",
    "address_councildis": "E",
    "status": "Inspected",
    "rowid": "1005366",
    "final_x": "3713684.56383",
    "final_y": "551626.395989",
    "longitude": "-89.96568637555853",
    "latitude": "30.00976423388402",
    "geocoded_column": {
      "latitude": "30.00976423388402",
      "longitude": "-89.96568637555853"
    }
  },
  {
    "service_request": "2023-1005365",
    "request_type": "Abandoned Vehicles",
    "request_reason": "Abandoned/Junk Vehicles",
    "date_created": "2023-06-03T10:56:56.000",
    "date_modified": "2023-06-03T11:51:41.000",
    "request_status": "Pending",
    "responsible_agency": "Department of Public Works",
    "final_address": "10200 Almonaster Ave",
    "address_councildis": "E",
    "status": "Inspected",
    "rowid": "1005365",
    "final_x": "3713684.56383",
    "final_y": "551626.395989",
    "longitude": "-89.96568637555853",
    "latitude": "30.00976423388402",
    "geocoded_column": {
      "latitude": "30.00976423388402",
      "longitude": "-89.96568637555853"
    }
  },
  {
    "service_request": "2023-1005364",
    "request_type": "Abandoned Vehicles",
    "request_reason": "Abandoned/Junk Vehicles",
    "date_created": "2023-06-03T10:56:24.000",
    "date_modified": "2023-06-03T11:54:49.000",
    "request_status": "Pending",
    "responsible_agency": "Department of Public Works",
    "final_address": "10200 Almonaster Ave",
    "address_councildis": "E",
    "status": "Inspected",
    "rowid": "1005364",
    "final_x": "3713684.56383",
    "final_y": "551626.395989",
    "longitude": "-89.96568637555853",
    "latitude": "30.00976423388402",
    "geocoded_column": {
      "latitude": "30.00976423388402",
      "longitude": "-89.96568637555853"
    }
  },
  {
    "service_request": "2023-1005363",
    "request_type": "Abandoned Vehicles",
    "request_reason": "Abandoned/Junk Vehicles",
    "date_created": "2023-06-03T10:55:46.000",
    "date_modified": "2023-06-03T11:57:14.000",
    "request_status": "Pending",
    "responsible_agency": "Department of Public Works",
    "final_address": "10200 Almonaster Ave",
    "address_councildis": "E",
    "status": "Inspected",
    "rowid": "1005363",
    "final_x": "3713684.56383",
    "final_y": "551626.395989",
    "longitude": "-89.96568637555853",
    "latitude": "30.00976423388402",
    "geocoded_column": {
      "latitude": "30.00976423388402",
      "longitude": "-89.96568637555853"
    }
  },
  {
    "service_request": "2023-1005362",
    "request_type": "Abandoned Vehicles",
    "request_reason": "Abandoned/Junk Vehicles",
    "date_created": "2023-06-03T10:55:04.000",
    "date_modified": "2023-06-03T11:59:48.000",
    "request_status": "Pending",
    "responsible_agency": "Department of Public Works",
    "final_address": "10200 Almonaster Ave",
    "address_councildis": "E",
    "status": "Inspected",
    "rowid": "1005362",
    "final_x": "3713684.56383",
    "final_y": "551626.395989",
    "longitude": "-89.96568637555853",
    "latitude": "30.00976423388402",
    "geocoded_column": {
      "latitude": "30.00976423388402",
      "longitude": "-89.96568637555853"
    }
  },
  {
    "service_request": "2023-1005361",
    "request_type": "Abandoned Vehicles",
    "request_reason": "Abandoned/Junk Vehicles",
    "date_created": "2023-06-03T10:48:09.000",
    "date_modified": "2023-06-03T10:48:09.000",
    "request_status": "Pending",
    "responsible_agency": "Department of Public Works",
    "final_address": "7900 BLK Sandpiper Dr",
    "address_councildis": "E",
    "status": "Pending",
    "rowid": "1005361",
    "final_x": "3715195.92357",
    "final_y": "570657.794167",
    "longitude": "-89.96019096189873",
    "latitude": "30.06204323797017",
    "geocoded_column": {
      "latitude": "30.06204323797017",
      "longitude": "-89.96019096189873"
    }
  },
  {
    "service_request": "2023-1005360",
    "request_type": "Abandoned Vehicles",
    "request_reason": "Abandoned/Junk Vehicles",
    "date_created": "2023-06-03T10:44:56.000",
    "date_modified": "2023-06-03T10:44:56.000",
    "request_status": "Pending",
    "responsible_agency": "Department of Public Works",
    "final_address": "2107 Bienville Ave",
    "address_councildis": "B",
    "status": "Pending",
    "rowid": "1005360",
    "final_x": "3677708.28872",
    "final_y": "534377.525957",
    "longitude": "-90.07994448629448",
    "latitude": "29.963467495565293",
    "geocoded_column": {
      "latitude": "29.963467495565293",
      "longitude": "-90.07994448629448"
    }
  },
  {
    "service_request": "2023-1005359",
    "request_type": "Trash/Recycling",
    "request_reason": "Request a Large Item Pick Up",
    "date_created": "2023-06-03T10:44:28.000",
    "date_modified": "2023-06-03T10:44:29.000",
    "request_status": "Pending",
    "responsible_agency": "Department of Sanitation",
    "final_address": "4822 Cleveland Ave",
    "address_councildis": "A",
    "status": "Assigned to Contractor",
    "contractor": "Richards Disposal",
    "rowid": "1005359",
    "final_x": "3668365.69857",
    "final_y": "539808.562826",
    "longitude": "-90.10926425820907",
    "latitude": "29.97867872482772",
    "geocoded_column": {
      "latitude": "29.97867872482772",
      "longitude": "-90.10926425820907"
    }
  },
  {
    "service_request": "2023-1005358",
    "request_type": "Abandoned Vehicles",
    "request_reason": "Abandoned/Junk Vehicles",
    "date_created": "2023-06-03T10:35:22.000",
    "date_modified": "2023-06-03T10:35:22.000",
    "request_status": "Pending",
    "responsible_agency": "Department of Public Works",
    "final_address": "3300 BLK Robert St",
    "address_councildis": "B",
    "status": "Pending",
    "rowid": "1005358",
    "final_x": "3668928.5125",
    "final_y": "527325.612459",
    "longitude": "-90.10790831794256",
    "latitude": "29.94433820022276",
    "geocoded_column": {
      "latitude": "29.94433820022276",
      "longitude": "-90.10790831794256"
    }
  },
  {
    "service_request": "2023-1005357",
    "request_type": "Trash/Recycling",
    "request_reason": "Missed Trash Pick-Up",
    "date_created": "2023-06-03T10:24:51.000",
    "date_modified": "2023-06-03T10:24:52.000",
    "request_status": "Pending",
    "responsible_agency": "Department of Sanitation",
    "final_address": "12001 Curran Rd",
    "address_councildis": "E",
    "status": "Assigned to Contractor",
    "contractor": "Waste Pro",
    "rowid": "1005357",
    "final_x": "3713503.28837",
    "final_y": "568404.618661",
    "longitude": "-89.96562636255173",
    "latitude": "30.055903596284143",
    "geocoded_column": {
      "latitude": "30.055903596284143",
      "longitude": "-89.96562636255173"
    }
  },
  {
    "service_request": "2023-1005356",
    "request_type": "Property Maintenance",
    "request_reason": "Property Maintenance",
    "date_created": "2023-06-03T10:05:48.000",
    "date_modified": "2023-06-03T10:05:49.000",
    "request_status": "Pending",
    "responsible_agency": "Department of Code Enforcement",
    "final_address": "1548 N Roman St",
    "address_councildis": "D",
    "status": "Pending",
    "rowid": "1005356",
    "final_x": "3681441.16879",
    "final_y": "537950.476681",
    "longitude": "-90.06803186858481",
    "latitude": "29.97317907758484",
    "geocoded_column": {
      "latitude": "29.97317907758484",
      "longitude": "-90.06803186858481"
    }
  },
  {
    "service_request": "2023-1005355",
    "request_type": "Trash/Recycling",
    "request_reason": "Report a Missed Trash/Recycling Pick Up",
    "date_created": "2023-06-03T10:01:05.000",
    "date_modified": "2023-06-03T10:01:06.000",
    "request_status": "Pending",
    "responsible_agency": "Department of Sanitation",
    "final_address": "4920 Bienville Ave",
    "address_councildis": "A",
    "contractor": "Richards Disposal",
    "rowid": "1005355",
    "final_x": "3668811.80858",
    "final_y": "541000.147467",
    "longitude": "-90.10781502003057",
    "latitude": "29.981942067874193",
    "geocoded_column": {
      "latitude": "29.981942067874193",
      "longitude": "-90.10781502003057"
    }
  },
  {
    "service_request": "2023-1005354",
    "request_type": "Trash/Recycling",
    "request_reason": "MIssed Recycling Pick-Up",
    "date_created": "2023-06-03T10:00:02.000",
    "date_modified": "2023-06-03T10:00:03.000",
    "request_status": "Pending",
    "responsible_agency": "Department of Sanitation",
    "final_address": "4804 Crowder Blvd",
    "address_councildis": "E",
    "status": "Assigned to Contractor",
    "contractor": "Waste Pro",
    "rowid": "1005354",
    "final_x": "3706295.12011",
    "final_y": "555980.839641",
    "longitude": "-89.98887065598569",
    "latitude": "30.02197772026598",
    "geocoded_column": {
      "latitude": "30.02197772026598",
      "longitude": "-89.98887065598569"
    }
  },
  {
    "service_request": "2023-1005353",
    "request_type": "Trash/Recycling",
    "request_reason": "Request a Large Item Pick Up",
    "date_created": "2023-06-03T09:58:37.000",
    "date_modified": "2023-06-03T10:01:14.000",
    "request_status": "Pending",
    "responsible_agency": "Department of Sanitation",
    "final_address": "2222 St Bernard Ave",
    "address_councildis": "D",
    "status": "Assigned to Contractor",
    "contractor": "IV Waste",
    "rowid": "1005353",
    "final_x": "3680963.65755",
    "final_y": "539990.235467",
    "longitude": "-90.0694688885408",
    "latitude": "29.978802197275876",
    "geocoded_column": {
      "latitude": "29.978802197275876",
      "longitude": "-90.0694688885408"
    }
  },
  {
    "service_request": "2023-1005352",
    "request_type": "Abandoned Vehicles",
    "request_reason": "Abandoned/Junk Vehicles",
    "date_created": "2023-06-03T09:57:59.000",
    "date_modified": "2023-06-03T10:45:54.000",
    "request_status": "Pending",
    "responsible_agency": "Department of Public Works",
    "final_address": "10200 Almonaster Ave",
    "address_councildis": "E",
    "status": "Inspected",
    "rowid": "1005352",
    "final_x": "3713684.56383",
    "final_y": "551626.395989",
    "longitude": "-89.96568637555853",
    "latitude": "30.00976423388402",
    "geocoded_column": {
      "latitude": "30.00976423388402",
      "longitude": "-89.96568637555853"
    }
  },
  {
    "service_request": "2023-1005351",
    "request_type": "Abandoned Vehicles",
    "request_reason": "Abandoned/Junk Vehicles",
    "date_created": "2023-06-03T09:57:20.000",
    "date_modified": "2023-06-03T10:42:53.000",
    "request_status": "Pending",
    "responsible_agency": "Department of Public Works",
    "final_address": "10200 Almonaster Ave",
    "address_councildis": "E",
    "status": "Inspected",
    "rowid": "1005351",
    "final_x": "3713684.56383",
    "final_y": "551626.395989",
    "longitude": "-89.96568637555853",
    "latitude": "30.00976423388402",
    "geocoded_column": {
      "latitude": "30.00976423388402",
      "longitude": "-89.96568637555853"
    }
  },
  {
    "service_request": "2023-1005350",
    "request_type": "Abandoned Vehicles",
    "request_reason": "Abandoned/Junk Vehicles",
    "date_created": "2023-06-03T09:56:41.000",
    "date_modified": "2023-06-03T10:40:07.000",
    "request_status": "Pending",
    "responsible_agency": "Department of Public Works",
    "final_address": "10200 Almonaster Ave",
    "address_councildis": "E",
    "status": "Inspected",
    "rowid": "1005350",
    "final_x": "3713684.56383",
    "final_y": "551626.395989",
    "longitude": "-89.96568637555853",
    "latitude": "30.00976423388402",
    "geocoded_column": {
      "latitude": "30.00976423388402",
      "longitude": "-89.96568637555853"
    }
  },
  {
    "service_request": "2023-1005349",
    "request_type": "Abandoned Vehicles",
    "request_reason": "Abandoned/Junk Vehicles",
    "date_created": "2023-06-03T09:56:01.000",
    "date_modified": "2023-06-03T10:37:30.000",
    "request_status": "Pending",
    "responsible_agency": "Department of Public Works",
    "final_address": "10200 Almonaster Ave",
    "address_councildis": "E",
    "status": "Inspected",
    "rowid": "1005349",
    "final_x": "3713684.56383",
    "final_y": "551626.395989",
    "longitude": "-89.96568637555853",
    "latitude": "30.00976423388402",
    "geocoded_column": {
      "latitude": "30.00976423388402",
      "longitude": "-89.96568637555853"
    }
  },
  {
    "service_request": "2023-1005348",
    "request_type": "Abandoned Vehicles",
    "request_reason": "Abandoned/Junk Vehicles",
    "date_created": "2023-06-03T09:55:20.000",
    "date_modified": "2023-06-03T10:34:19.000",
    "request_status": "Pending",
    "responsible_agency": "Department of Public Works",
    "final_address": "10200 Almonaster Ave",
    "address_councildis": "E",
    "status": "Inspected",
    "rowid": "1005348",
    "final_x": "3713684.56383",
    "final_y": "551626.395989",
    "longitude": "-89.96568637555853",
    "latitude": "30.00976423388402",
    "geocoded_column": {
      "latitude": "30.00976423388402",
      "longitude": "-89.96568637555853"
    }
  },
  {
    "service_request": "2023-1005347",
    "request_type": "Abandoned Vehicles",
    "request_reason": "Abandoned/Junk Vehicles",
    "date_created": "2023-06-03T09:54:30.000",
    "date_modified": "2023-06-03T10:31:54.000",
    "request_status": "Pending",
    "responsible_agency": "Department of Public Works",
    "final_address": "10200 Almonaster Ave",
    "address_councildis": "E",
    "status": "Inspected",
    "rowid": "1005347",
    "final_x": "3713684.56383",
    "final_y": "551626.395989",
    "longitude": "-89.96568637555853",
    "latitude": "30.00976423388402",
    "geocoded_column": {
      "latitude": "30.00976423388402",
      "longitude": "-89.96568637555853"
    }
  },
  {
    "service_request": "2023-1005346",
    "request_type": "Trash/Recycling",
    "request_reason": "Replace Trash Cart",
    "date_created": "2023-06-03T09:51:54.000",
    "date_modified": "2023-06-03T09:51:54.000",
    "request_status": "Pending",
    "responsible_agency": "Department of Sanitation",
    "final_address": "935 Leboeuf St",
    "address_councildis": "C",
    "status": "Assigned to Contractor",
    "contractor": "Richards Disposal",
    "rowid": "1005346",
    "final_x": "3689722.17667",
    "final_y": "527973.532223",
    "longitude": "-90.04223391249315",
    "latitude": "29.945491910525153",
    "geocoded_column": {
      "latitude": "29.945491910525153",
      "longitude": "-90.04223391249315"
    }
  },
  {
    "service_request": "2023-1005345",
    "request_type": "Trash/Recycling",
    "request_reason": "Order Recycling Cart",
    "date_created": "2023-06-03T09:36:44.000",
    "date_modified": "2023-06-03T09:36:44.000",
    "request_status": "Pending",
    "responsible_agency": "Department of Sanitation",
    "final_address": "22 Stilt St",
    "address_councildis": "D",
    "status": "Pending",
    "rowid": "1005345",
    "final_x": "3673190.41416",
    "final_y": "557449.820187",
    "longitude": "-90.0934230574922",
    "latitude": "30.027043382080823",
    "geocoded_column": {
      "latitude": "30.027043382080823",
      "longitude": "-90.0934230574922"
    }
  },
  {
    "service_request": "2023-1005344",
    "request_type": "Trash/Recycling",
    "request_reason": "Replace Trash Cart",
    "date_created": "2023-06-03T09:35:02.000",
    "date_modified": "2023-06-03T09:35:02.000",
    "request_status": "Pending",
    "responsible_agency": "Department of Sanitation",
    "final_address": "1713 Ursulines Ave",
    "address_councildis": "D",
    "status": "Assigned to Contractor",
    "contractor": "Richards Disposal",
    "rowid": "1005344",
    "final_x": "3680557.88603",
    "final_y": "535951.110407",
    "longitude": "-90.07089102021163",
    "latitude": "29.96770829812241",
    "geocoded_column": {
      "latitude": "29.96770829812241",
      "longitude": "-90.07089102021163"
    }
  },
  {
    "service_request": "2023-1005343",
    "request_type": "Trash/Recycling",
    "request_reason": "MIssed Recycling Pick-Up",
    "date_created": "2023-06-03T09:29:47.000",
    "date_modified": "2023-06-03T09:29:48.000",
    "request_status": "Pending",
    "responsible_agency": "Department of Sanitation",
    "final_address": "1728 S Rendon St",
    "address_councildis": "B",
    "status": "Assigned to Contractor",
    "contractor": "Richards Disposal",
    "rowid": "1005343",
    "final_x": "3669580.17735",
    "final_y": "530560.783554",
    "longitude": "-90.10574138784025",
    "latitude": "29.953214684543667",
    "geocoded_column": {
      "latitude": "29.953214684543667",
      "longitude": "-90.10574138784025"
    }
  },
  {
    "service_request": "2023-1005342",
    "request_type": "Trash/Recycling",
    "request_reason": "Repair Trash Cart",
    "date_created": "2023-06-03T09:21:00.000",
    "date_modified": "2023-06-03T09:21:00.000",
    "request_status": "Pending",
    "responsible_agency": "Department of Sanitation",
    "final_address": "1114 N Roman St",
    "address_councildis": "D",
    "status": "Assigned to Contractor",
    "contractor": "Richards Disposal",
    "rowid": "1005342",
    "final_x": "3680222.61954",
    "final_y": "536337.589191",
    "longitude": "-90.07193636433105",
    "latitude": "29.968781134751676",
    "geocoded_column": {
      "latitude": "29.968781134751676",
      "longitude": "-90.07193636433105"
    }
  },
  {
    "service_request": "2023-1005341",
    "request_type": "Trash/Recycling",
    "request_reason": "MIssed Recycling Pick-Up",
    "date_created": "2023-06-03T09:15:32.000",
    "date_modified": "2023-06-03T09:15:33.000",
    "request_status": "Pending",
    "responsible_agency": "Department of Sanitation",
    "final_address": "6623 Foch Rd",
    "address_councildis": "D",
    "status": "Assigned to Contractor",
    "contractor": "Waste Pro",
    "rowid": "1005341",
    "final_x": "3696980.26282",
    "final_y": "555705.460121",
    "longitude": "-90.01831305289907",
    "latitude": "30.021517762753394",
    "geocoded_column": {
      "latitude": "30.021517762753394",
      "longitude": "-90.01831305289907"
    }
  },
  {
    "service_request": "2023-1005340",
    "request_type": "Trash/Recycling",
    "request_reason": "MIssed Recycling Pick-Up",
    "date_created": "2023-06-03T09:12:18.000",
    "date_modified": "2023-06-03T09:12:19.000",
    "request_status": "Pending",
    "responsible_agency": "Department of Sanitation",
    "final_address": "1616 Burdette St",
    "address_councildis": "A",
    "status": "Assigned to Contractor",
    "contractor": "Richards Disposal",
    "rowid": "1005340",
    "final_x": "3663810.17043",
    "final_y": "528796.987456",
    "longitude": "-90.12401943713066",
    "latitude": "29.948533528919445",
    "geocoded_column": {
      "latitude": "29.948533528919445",
      "longitude": "-90.12401943713066"
    }
  },
  {
    "service_request": "2023-1005339",
    "request_type": "Abandoned Vehicles",
    "request_reason": "Abandoned/Junk Vehicles",
    "date_created": "2023-06-03T09:07:10.000",
    "date_modified": "2023-06-03T09:07:10.000",
    "request_status": "Pending",
    "responsible_agency": "Department of Public Works",
    "final_address": "1601 King Dr",
    "address_councildis": "D",
    "status": "Pending",
    "rowid": "1005339",
    "final_x": "3679407.72661",
    "final_y": "550079.384596",
    "longitude": "-90.07403289922499",
    "latitude": "30.006590901558344",
    "geocoded_column": {
      "latitude": "30.006590901558344",
      "longitude": "-90.07403289922499"
    }
  },
  {
    "service_request": "2023-1005338",
    "request_type": "Trash/Recycling",
    "request_reason": "Missed Trash Pick-Up",
    "date_created": "2023-06-03T09:03:36.000",
    "date_modified": "2023-06-03T09:03:37.000",
    "request_status": "Pending",
    "responsible_agency": "Department of Sanitation",
    "final_address": "2318 Dauphine St",
    "address_councildis": "C",
    "status": "Assigned to Contractor",
    "contractor": "IV Waste",
    "rowid": "1005338",
    "final_x": "3685674.28604",
    "final_y": "535182.333126",
    "longitude": "-90.05476041637549",
    "latitude": "29.965438435817102",
    "geocoded_column": {
      "latitude": "29.965438435817102",
      "longitude": "-90.05476041637549"
    }
  },
  {
    "service_request": "2023-1005337",
    "request_type": "Abandoned Vehicles",
    "request_reason": "Abandoned/Junk Vehicles",
    "date_created": "2023-06-03T09:03:18.000",
    "date_modified": "2023-06-03T09:03:44.000",
    "request_status": "Pending",
    "responsible_agency": "Department of Public Works",
    "final_address": "10200 Almonaster Ave",
    "address_councildis": "E",
    "status": "Inspected",
    "rowid": "1005337",
    "final_x": "3713684.56383",
    "final_y": "551626.395989",
    "longitude": "-89.96568637555853",
    "latitude": "30.00976423388402",
    "geocoded_column": {
      "latitude": "30.00976423388402",
      "longitude": "-89.96568637555853"
    }
  },
  {
    "service_request": "2023-1005336",
    "request_type": "Trash/Recycling",
    "request_reason": "Order Recycling Cart",
    "date_created": "2023-06-03T09:00:27.000",
    "date_modified": "2023-06-03T09:00:28.000",
    "request_status": "Pending",
    "responsible_agency": "Department of Sanitation",
    "final_address": "2520 Freret St",
    "address_councildis": "B",
    "status": "Pending",
    "rowid": "1005336",
    "final_x": "3674751.72296",
    "final_y": "525663.575101",
    "longitude": "-90.08957970637135",
    "latitude": "29.939595618503027",
    "geocoded_column": {
      "latitude": "29.939595618503027",
      "longitude": "-90.08957970637135"
    }
  },
  {
    "service_request": "2023-1005335",
    "request_type": "Trash/Recycling",
    "request_reason": "Order Trash Cart",
    "date_created": "2023-06-03T09:00:03.000",
    "date_modified": "2023-06-03T09:00:04.000",
    "request_status": "Pending",
    "responsible_agency": "Department of Sanitation",
    "final_address": "2520 Freret St",
    "address_councildis": "B",
    "status": "Assigned to Contractor",
    "contractor": "Richards Disposal",
    "rowid": "1005335",
    "final_x": "3674751.72296",
    "final_y": "525663.575101",
    "longitude": "-90.08957970637135",
    "latitude": "29.939595618503027",
    "geocoded_column": {
      "latitude": "29.939595618503027",
      "longitude": "-90.08957970637135"
    }
  },