[
  {
    "service_request": "2024-1067787",
    "request_type": "Trash/Recycling",
    "request_reason": "Missed Trash Pick-Up",
    "date_created": "2024-02-14T23:05:25.000",
    "date_modified": "2024-02-14T23:05:26.000",
    "request_status": "Pending",
    "responsible_agency": "Department of Sanitation",
    "final_address": "8043 Haney Dr",
    "address_councildis": "E",
    "status": "Assigned to Contractor",
    "contractor": "Waste Pro",
    "rowid": "1067787",
    "final_x": "3711794.92786",
    "final_y": "568479.950757",
    "longitude": "-89.97102329638946",
    "latitude": "30.056166686702866",
    "geocoded_column": {
      "latitude": "30.056166686702866",
      "longitude": "-89.97102329638946"
    }
  },
  {
    "service_request": "2024-1067786",
    "request_type": "Property Maintenance",
    "request_reason": "Property Maintenance",
    "date_created": "2024-02-14T23:01:52.000",
    "date_modified": "2024-02-14T23:01:52.000",
    "request_status": "Pending",
    "responsible_agency": "Department of Code Enforcement",
    "final_address": "1118 Monroe St",
    "address_councildis": "A",
    "status": "Pending",
    "rowid": "1067786",
    "final_x": "3660229.15648",
    "final_y": "529686.717889",
    "longitude": "-90.13529689194613",
    "latitude": "29.95108343798854",
    "geocoded_column": {
      "latitude": "29.95108343798854",
      "longitude": "-90.13529689194613"
    }
  },
  {
    "service_request": "2024-1067785",
    "request_type": "Trash/Recycling",
    "request_reason": "Missed Trash Pick-Up",
    "date_created": "2024-02-14T22:17:41.000",
    "date_modified": "2024-02-14T22:17:41.000",
    "request_status": "Pending",
    "responsible_agency": "Department of Sanitation",
    "final_address": "5500 BLK Tullis Dr",
    "address_councildis": "C",
    "status": "Assigned to Contractor",
    "contractor": "Richards Disposal",
    "rowid": "1067785",
    "final_x": "3704871.479",
    "final_y": "512394.612794",
    "longitude": "-89.99497756159658",
    "latitude": "29.90217723961601",
    "geocoded_column": {
      "latitude": "29.90217723961601",
      "longitude": "-89.99497756159658"
    }
  },
  {
    "service_request": "2024-1067784",
    "request_type": "Abandoned Vehicles",
    "request_reason": "Abandoned/Junk Vehicles",
    "date_created": "2024-02-14T22:17:39.000",
    "date_modified": "2024-02-14T22:17:39.000",
    "request_status": "Pending",
    "responsible_agency": "Department of Public Works",
    "final_address": "13090 Michoud Blvd",
    "address_councildis": "E",
    "status": "Pending",
    "rowid": "1067784",
    "final_x": "3725416.47724",
    "final_y": "571303.590312",
    "longitude": "-89.92785907984221",
    "latitude": "30.063478169751583",
    "geocoded_column": {
      "latitude": "30.063478169751583",
      "longitude": "-89.92785907984221"
    }
  },
  {
    "service_request": "2024-1067783",
    "request_type": "Mosquito, Termite & Rodent Control",
    "request_reason": "Rodent Complaint (Rats)",
    "date_created": "2024-02-14T22:13:04.000",
    "date_modified": "2024-02-14T22:13:04.000",
    "request_status": "Pending",
    "responsible_agency": "Mosquito, Termite & Rodent Control Board",
    "final_address": "3321 Mistletoe St",
    "address_councildis": "A",
    "status": "Pending",
    "rowid": "1067783",
    "final_x": "3664301.7168",
    "final_y": "536627.879367",
    "longitude": "-90.12220606979547",
    "latitude": "29.97005165133894",
    "geocoded_column": {
      "latitude": "29.97005165133894",
      "longitude": "-90.12220606979547"
    }
  },
  {
    "service_request": "2024-1067782",
    "request_type": "Roads/Drainage",
    "request_reason": "Pothole",
    "date_created": "2024-02-14T22:08:33.000",
    "date_modified": "2024-02-14T22:08:33.000",
    "request_status": "Pending",
    "responsible_agency": "Department of Public Works",
    "final_address": "5410 Garfield St",
    "address_councildis": "A",
    "status": "Pending",
    "rowid": "1067782",
    "final_x": "3667095.53255",
    "final_y": "521016.120057",
    "longitude": "-90.11390758464746",
    "latitude": "29.92704288839983",
    "geocoded_column": {
      "latitude": "29.92704288839983",
      "longitude": "-90.11390758464746"
    }
  },
  {
    "service_request": "2024-1067781",
    "request_type": "Trash/Recycling",
    "request_reason": "MIssed Recycling Pick-Up",
    "date_created": "2024-02-14T21:49:58.000",
    "date_modified": "2024-02-14T21:49:59.000",
    "request_status": "Pending",
    "responsible_agency": "Department of Sanitation",
    "final_address": "3315 Chestnut St",
    "address_councildis": "B",
    "status": "Assigned to Contractor",
    "contractor": "Richards Disposal",
    "rowid": "1067781",
    "final_x": "3674957.27086",
    "final_y": "520448.399736",
    "longitude": "-90.08910955005064",
    "latitude": "29.92524944494753",
    "geocoded_column": {
      "latitude": "29.92524944494753",
      "longitude": "-90.08910955005064"
    }
  },
  {
    "service_request": "2024-1067780",
    "request_type": "Trash/Recycling",
    "request_reason": "MIssed Recycling Pick-Up",
    "date_created": "2024-02-14T21:46:18.000",
    "date_modified": "2024-02-14T21:46:18.000",
    "request_status": "Pending",
    "responsible_agency": "Department of Sanitation",
    "final_address": "4430 Lancelot Dr, New Orleans, Louisiana, 70127",
    "address_councildis": "E",
    "status": "Assigned to Contractor",
    "contractor": "Waste Pro",
    "rowid": "1067780",
    "final_x": "3707544.13688",
    "final_y": "553760.070743",
    "longitude": "-89.98500668723098",
    "latitude": "30.01583111096896",
    "geocoded_column": {
      "latitude": "30.01583111096896",
      "longitude": "-89.98500668723098"
    }
  },
  {
    "service_request": "2024-1067779",
    "request_type": "Trash/Recycling",
    "request_reason": "Missed Trash Pick-Up",
    "date_created": "2024-02-14T21:44:28.000",
    "date_modified": "2024-02-14T21:44:28.000",
    "request_status": "Pending",
    "responsible_agency": "Department of Sanitation",
    "final_address": "4430 Lancelot Dr, New Orleans, Louisiana, 70127",
    "address_councildis": "E",
    "status": "Assigned to Contractor",
    "contractor": "Waste Pro",
    "rowid": "1067779",
    "final_x": "3707544.13688",
    "final_y": "553760.070743",
    "longitude": "-89.98500668723098",
    "latitude": "30.01583111096896",
    "geocoded_column": {
      "latitude": "30.01583111096896",
      "longitude": "-89.98500668723098"
    }
  },
  {
    "service_request": "2024-1067778",
    "request_type": "Health Related Request",
    "request_reason": "Noise Ordinance Complaint",
    "date_created": "2024-02-14T20:23:48.000",
    "date_modified": "2024-02-14T20:23:48.000",
    "request_status": "Pending",
    "responsible_agency": "Health Department",
    "final_address": "3651 Rue Denise, New Orleans, Louisiana, 70131",
    "address_councildis": "C",
    "status": "Pending",
    "rowid": "1067778",
    "final_x": "3704201.08542",
    "final_y": "517054.713141",
    "longitude": "-89.99692174591713",
    "latitude": "29.915012437581023",
    "geocoded_column": {
      "latitude": "29.915012437581023",
      "longitude": "-89.99692174591713"
    }
  },
  {
    "service_request": "2024-1067777",
    "request_type": "Trash/Recycling",
    "request_reason": "Illegal Dumping",
    "date_created": "2024-02-14T20:16:23.000",
    "date_modified": "2024-02-14T20:16:23.000",
    "request_status": "Pending",
    "responsible_agency": "Department of Sanitation",
    "final_address": "1020 Toulouse St",
    "address_councildis": "C",
    "status": "Pending",
    "rowid": "1067777",
    "final_x": "3681299.20335",
    "final_y": "532869.85786",
    "longitude": "-90.06865732049766",
    "latitude": "29.95921342860236",
    "geocoded_column": {
      "latitude": "29.95921342860236",
      "longitude": "-90.06865732049766"
    }
  },
  {
    "service_request": "2024-1067776",
    "request_type": "Trash/Recycling",
    "request_reason": "Missed Trash Pick-Up",
    "date_created": "2024-02-14T20:07:36.000",
    "date_modified": "2024-02-14T20:07:36.000",
    "request_status": "Pending",
    "responsible_agency": "Department of Sanitation",
    "final_address": "625 Broadway St",
    "address_councildis": "A",
    "status": "Assigned to Contractor",
    "contractor": "Richards Disposal",
    "rowid": "1067776",
    "final_x": "3663179.67975",
    "final_y": "524888.07334",
    "longitude": "-90.1261401997073",
    "latitude": "29.937803545509258",
    "geocoded_column": {
      "latitude": "29.937803545509258",
      "longitude": "-90.1261401997073"
    }
  },
  {
    "service_request": "2024-1067775",
    "request_type": "Trash/Recycling",
    "request_reason": "Request a Large Item Pick Up",
    "date_created": "2024-02-14T19:57:55.000",
    "date_modified": "2024-02-14T19:57:55.000",
    "request_status": "Pending",
    "responsible_agency": "Department of Sanitation",
    "final_address": "1901 Prytania St",
    "address_councildis": "B",
    "status": "Assigned to Contractor",
    "contractor": "Richards Disposal",
    "rowid": "1067775",
    "final_x": "3678641.62408",
    "final_y": "523909.093372",
    "longitude": "-90.07735946925473",
    "latitude": "29.93465469994406",
    "geocoded_column": {
      "latitude": "29.93465469994406",
      "longitude": "-90.07735946925473"
    }
  },
  {
    "service_request": "2024-1067774",
    "request_type": "Trash/Recycling",
    "request_reason": "Order Trash Cart",
    "date_created": "2024-02-14T19:47:49.000",
    "date_modified": "2024-02-14T19:47:49.000",
    "request_status": "Pending",
    "responsible_agency": "Department of Sanitation",
    "final_address": "106 Fairfax Pl",
    "address_councildis": "C",
    "status": "Assigned to Contractor",
    "contractor": "Richards Disposal",
    "rowid": "1067774",
    "final_x": "3705817.86775",
    "final_y": "517504.560886",
    "longitude": "-89.99180201841475",
    "latitude": "29.91619741456867",
    "geocoded_column": {
      "latitude": "29.91619741456867",
      "longitude": "-89.99180201841475"
    }
  },
  {
    "service_request": "2024-1067771",
    "request_type": "Property Maintenance",
    "request_reason": "Property Maintenance",
    "date_created": "2024-02-14T19:28:40.000",
    "date_modified": "2024-02-14T19:28:40.000",
    "request_status": "Pending",
    "responsible_agency": "Department of Code Enforcement",
    "final_address": "2020 Columbus St",
    "address_councildis": "D",
    "status": "Pending",
    "rowid": "1067771",
    "final_x": "3680432.55247",
    "final_y": "538134.847369",
    "longitude": "-90.07121086527782",
    "latitude": "29.973716619641877",
    "geocoded_column": {
      "latitude": "29.973716619641877",
      "longitude": "-90.07121086527782"
    }
  },
  {
    "service_request": "2024-1067770",
    "request_type": "Traffic Signals/Signs/Striping/Streetlights",
    "request_reason": "Street Light Outage/Malfunction",
    "date_created": "2024-02-14T19:12:28.000",
    "date_modified": "2024-02-14T19:12:29.000",
    "request_status": "Pending",
    "responsible_agency": "Department of Public Works",
    "final_address": "13751 Dwyer Blvd",
    "address_councildis": "E",
    "status": "Assigned to Contractor",
    "contractor": "Legacy Professional Services",
    "rowid": "1067770",
    "final_x": "3727248.51021",
    "final_y": "562530.041184",
    "longitude": "-89.92240949812243",
    "latitude": "30.039292681748666",
    "geocoded_column": {
      "latitude": "30.039292681748666",
      "longitude": "-89.92240949812243"
    }
  },
  {
    "service_request": "2024-1067769",
    "request_type": "Traffic Signals/Signs/Striping/Streetlights",
    "request_reason": "Street Light Outage/Malfunction",
    "date_created": "2024-02-14T19:06:05.000",
    "date_modified": "2024-02-14T19:06:06.000",
    "request_status": "Pending",
    "responsible_agency": "Department of Public Works",
    "final_address": "13751 Dwyer Blvd",
    "address_councildis": "E",
    "status": "Assigned to Contractor",
    "contractor": "Legacy Professional Services",
    "rowid": "1067769",
    "final_x": "3727248.51021",
    "final_y": "562530.041184",
    "longitude": "-89.92240949812243",
    "latitude": "30.039292681748666",
    "geocoded_column": {
      "latitude": "30.039292681748666",
      "longitude": "-89.92240949812243"
    }
  },
  {
    "service_request": "2024-1067768",
    "request_type": "Traffic Signals/Signs/Striping/Streetlights",
    "request_reason": "Traffic Signal Malfunctioning/Damaged",
    "date_created": "2024-02-14T18:50:22.000",
    "date_modified": "2024-02-14T18:50:22.000",
    "request_status": "Pending",
    "responsible_agency": "Department of Public Works",
    "final_address": "6201 Elysian Fields Ave",
    "address_councildis": "D",
    "status": "Pending",
    "rowid": "1067768",
    "final_x": "3683605.97116",
    "final_y": "555974.068121",
    "longitude": "-90.06056272436395",
    "latitude": "30.022671594683796",
    "geocoded_column": {
      "latitude": "30.022671594683796",
      "longitude": "-90.06056272436395"
    }
  },
  {
    "service_request": "2024-1067767",
    "request_type": "Trash/Recycling",
    "request_reason": "Start Trash Service",
    "date_created": "2024-02-14T18:48:47.000",
    "date_modified": "2024-02-14T18:48:48.000",
    "request_status": "Pending",
    "responsible_agency": "Department of Sanitation",
    "final_address": "4531 Canal St",
    "address_councildis": "A",
    "status": "Assigned to Contractor",
    "contractor": "Richards Disposal",
    "rowid": "1067767",
    "final_x": "3669592.95706",
    "final_y": "539689.033418",
    "longitude": "-90.10539215192156",
    "latitude": "29.97831395306147",
    "geocoded_column": {
      "latitude": "29.97831395306147",
      "longitude": "-90.10539215192156"
    }
  },
  {
    "service_request": "2024-1067766",
    "request_type": "Traffic Signals/Signs/Striping/Streetlights",
    "request_reason": "Traffic Signal Malfunctioning/Damaged",
    "date_created": "2024-02-14T18:34:58.000",
    "date_modified": "2024-02-14T18:34:58.000",
    "request_status": "Pending",
    "responsible_agency": "Department of Public Works",
    "final_address": "2600 BLK Orleans Ave",
    "address_councildis": "D",
    "status": "Pending",
    "rowid": "1067766",
    "final_x": "3676926.52636",
    "final_y": "536928.540432",
    "longitude": "-90.08232525708554",
    "latitude": "29.970505408932876",
    "geocoded_column": {
      "latitude": "29.970505408932876",
      "longitude": "-90.08232525708554"
    }
  },
  {
    "service_request": "2024-1067765",
    "request_type": "Trash/Recycling",
    "request_reason": "Request a Large Item Pick Up",
    "date_created": "2024-02-14T17:47:42.000",
    "date_modified": "2024-02-14T17:47:42.000",
    "request_status": "Pending",
    "responsible_agency": "Department of Sanitation",
    "final_address": "67 Egret St",
    "address_councildis": "D",
    "status": "Assigned to Contractor",
    "contractor": "IV Waste",
    "rowid": "1067765",
    "final_x": "3673737.62395",
    "final_y": "555367.097945",
    "longitude": "-90.09176523374347",
    "latitude": "30.021300354782305",
    "geocoded_column": {
      "latitude": "30.021300354782305",
      "longitude": "-90.09176523374347"
    }
  },
  {
    "service_request": "2024-1067764",
    "request_type": "Roads/Drainage",
    "request_reason": "Street Flooding / Drainage",
    "date_created": "2024-02-14T17:46:53.000",
    "date_modified": "2024-02-14T17:46:53.000",
    "request_status": "Pending",
    "responsible_agency": "Department of Public Works",
    "final_address": "13761 Explorers Ave",
    "address_councildis": "E",
    "status": "Pending",
    "rowid": "1067764",
    "final_x": "3725961.55494",
    "final_y": "569672.449126",
    "longitude": "-89.92619940112404",
    "latitude": "30.058974827806747",
    "geocoded_column": {
      "latitude": "30.058974827806747",
      "longitude": "-89.92619940112404"
    }
  },
  {
    "service_request": "2024-1067763",
    "request_type": "Trash/Recycling",
    "request_reason": "Missed Trash Pick-Up",
    "date_created": "2024-02-14T17:36:21.000",
    "date_modified": "2024-02-14T17:36:22.000",
    "request_status": "Pending",
    "responsible_agency": "Department of Sanitation",
    "final_address": "4910 Loyola Ave",
    "address_councildis": "B",
    "status": "Assigned to Contractor",
    "contractor": "Richards Disposal",
    "rowid": "1067763",
    "final_x": "3669006.08487",
    "final_y": "522815.053051",
    "longitude": "-90.10781571313116",
    "latitude": "29.931933334119005",
    "geocoded_column": {
      "latitude": "29.931933334119005",
      "longitude": "-90.10781571313116"
    }
  },
  {
    "service_request": "2024-1067762",
    "request_type": "Abandoned Vehicles",
    "request_reason": "Abandoned/Junk Vehicles",
    "date_created": "2024-02-14T17:20:33.000",
    "date_modified": "2024-02-14T17:20:33.000",
    "request_status": "Pending",
    "responsible_agency": "Department of Public Works",
    "final_address": "2408 Valence St",
    "address_councildis": "B",
    "status": "Pending",
    "rowid": "1067762",
    "final_x": "3669397.30945",
    "final_y": "523673.356795",
    "longitude": "-90.10655164498321",
    "latitude": "29.93428188289645",
    "geocoded_column": {
      "latitude": "29.93428188289645",
      "longitude": "-90.10655164498321"
    }
  },
  {
    "service_request": "2024-1067761",
    "request_type": "Trash/Recycling",
    "request_reason": "Repair Trash Cart",
    "date_created": "2024-02-14T16:44:49.000",
    "date_modified": "2024-02-14T16:44:49.000",
    "request_status": "Pending",
    "responsible_agency": "Department of Sanitation",
    "final_address": "5029 Touro St",
    "address_councildis": "D",
    "status": "Assigned to Contractor",
    "contractor": "IV Waste",
    "rowid": "1067761",
    "final_x": "3683068.92392",
    "final_y": "551256.210453",
    "longitude": "-90.06242501098507",
    "latitude": "30.009715600845375",
    "geocoded_column": {
      "latitude": "30.009715600845375",
      "longitude": "-90.06242501098507"
    }
  },
  {
    "service_request": "2024-1067760",
    "request_type": "Roads/Drainage",
    "request_reason": "Ditch Issue",
    "date_created": "2024-02-14T16:43:29.000",
    "date_modified": "2024-02-14T16:43:29.000",
    "request_status": "Pending",
    "responsible_agency": "Department of Public Works",
    "final_address": "6700 BLK Deanne St",
    "address_councildis": "D",
    "status": "Pending",
    "rowid": "1067760",
    "final_x": "3695912.95952",
    "final_y": "555600.713061",
    "longitude": "-90.02168921469158",
    "latitude": "30.021263384676573",
    "geocoded_column": {
      "latitude": "30.021263384676573",
      "longitude": "-90.02168921469158"
    }
  },
  {
    "service_request": "2024-1067759",
    "request_type": "Mosquito, Termite & Rodent Control",
    "request_reason": "Mosquito Complaint",
    "date_created": "2024-02-14T16:41:00.000",
    "date_modified": "2024-02-14T16:41:00.000",
    "request_status": "Pending",
    "responsible_agency": "Mosquito, Termite & Rodent Control Board",
    "final_address": "6700 BLK Deanne St",
    "address_councildis": "D",
    "status": "Pending",
    "rowid": "1067759",
    "final_x": "3695912.95952",
    "final_y": "555600.713061",
    "longitude": "-90.02168921469158",
    "latitude": "30.021263384676573",
    "geocoded_column": {
      "latitude": "30.021263384676573",
      "longitude": "-90.02168921469158"
    }
  },
  {
    "service_request": "2024-1067758",
    "request_type": "Abandoned Vehicles",
    "request_reason": "Abandoned/Junk Vehicles",
    "date_created": "2024-02-14T16:38:15.000",
    "date_modified": "2024-02-14T16:38:15.000",
    "request_status": "Pending",
    "responsible_agency": "Department of Public Works",
    "final_address": "3500 BLK Desaix Blvd",
    "address_councildis": "D",
    "status": "Pending",
    "rowid": "1067758",
    "final_x": "3675994.33531",
    "final_y": "543695.344484",
    "longitude": "-90.08503641428646",
    "latitude": "29.989139743361427",
    "geocoded_column": {
      "latitude": "29.989139743361427",
      "longitude": "-90.08503641428646"
    }
  },
  {
    "service_request": "2024-1067757",
    "request_type": "Trash/Recycling",
    "request_reason": "Request a Large Item Pick Up",
    "date_created": "2024-02-14T16:37:43.000",
    "date_modified": "2024-02-14T16:37:43.000",
    "request_status": "Pending",
    "responsible_agency": "Department of Sanitation",
    "final_address": "7131 Neptune Ct",
    "address_councildis": "E",
    "status": "Assigned to Contractor",
    "contractor": "Waste Pro",
    "rowid": "1067757",
    "final_x": "3701749.20509",
    "final_y": "559450.745885",
    "longitude": "-90.00310720374841",
    "latitude": "30.031664502423943",
    "geocoded_column": {
      "latitude": "30.031664502423943",
      "longitude": "-90.00310720374841"
    }
  },
  {
    "service_request": "2024-1067756",
    "request_type": "Trash/Recycling",
    "request_reason": "Replace Trash Cart",
    "date_created": "2024-02-14T16:36:48.000",
    "date_modified": "2024-02-14T16:36:49.000",
    "request_status": "Pending",
    "responsible_agency": "Department of Sanitation",
    "final_address": "728 Seventh St",
    "address_councildis": "B",
    "status": "Assigned to Contractor",
    "contractor": "Richards Disposal",
    "rowid": "1067756",
    "final_x": "3677026.50107",
    "final_y": "519295.682743",
    "longitude": "-90.08261735964096",
    "latitude": "29.92201790166534",
    "geocoded_column": {
      "latitude": "29.92201790166534",
      "longitude": "-90.08261735964096"
    }
  },
  {
    "service_request": "2024-1067755",
    "request_type": "Tax and Revenue",
    "request_reason": "Occupational License Tax",
    "date_created": "2024-02-14T16:35:18.000",
    "date_modified": "2024-02-14T16:35:18.000",
    "request_status": "Pending",
    "responsible_agency": "Bureau of Revenue",
    "final_address": "501 Frenchmen St",
    "address_councildis": "C",
    "status": "Pending",
    "rowid": "1067755",
    "final_x": "3684790.34684",
    "final_y": "534160.008901",
    "longitude": "-90.057587796081",
    "latitude": "29.962654488246176",
    "geocoded_column": {
      "latitude": "29.962654488246176",
      "longitude": "-90.057587796081"
    }
  },
  {
    "service_request": "2024-1067754",
    "request_type": "Trash/Recycling",
    "request_reason": "Request a Large Item Pick Up",
    "date_created": "2024-02-14T16:30:40.000",
    "date_modified": "2024-02-14T16:30:40.000",
    "request_status": "Pending",
    "responsible_agency": "Department of Sanitation",
    "final_address": "2238 Esplanade Ave",
    "address_councildis": "D",
    "status": "Assigned to Contractor",
    "contractor": "Richards Disposal",
    "rowid": "1067754",
    "final_x": "3679297.44437",
    "final_y": "537994.189321",
    "longitude": "-90.07480066153367",
    "latitude": "29.973364188583712",
    "geocoded_column": {
      "latitude": "29.973364188583712",
      "longitude": "-90.07480066153367"
    }
  },
  {
    "service_request": "2024-1067753",
    "request_type": "Abandoned Vehicles",
    "request_reason": "Abandoned/Junk Vehicles",
    "date_created": "2024-02-14T16:29:49.000",
    "date_modified": "2024-02-14T16:29:50.000",
    "request_status": "Pending",
    "responsible_agency": "Department of Public Works",
    "final_address": "6041 Camp St",
    "address_councildis": "A",
    "status": "Pending",
    "rowid": "1067753",
    "final_x": "3664460.00308",
    "final_y": "519758.613176",
    "longitude": "-90.1222692579563",
    "latitude": "29.923661998656964",
    "geocoded_column": {
      "latitude": "29.923661998656964",
      "longitude": "-90.1222692579563"
    }
  },
  {
    "service_request": "2024-1067752",
    "request_type": "Trash/Recycling",
    "request_reason": "Illegal Dumping",
    "date_created": "2024-02-14T16:22:23.000",
    "date_modified": "2024-02-14T16:22:23.000",
    "request_status": "Pending",
    "responsible_agency": "Department of Sanitation",
    "final_address": "4728 Stemway Dr",
    "address_councildis": "D",
    "status": "Pending",
    "rowid": "1067752",
    "final_x": "3696845.24343",
    "final_y": "554186.104984",
    "longitude": "-90.01879475083793",
    "latitude": "30.017344371052182",
    "geocoded_column": {
      "latitude": "30.017344371052182",
      "longitude": "-90.01879475083793"
    }
  },
  {
    "service_request": "2024-1067751",
    "request_type": "Trash/Recycling",
    "request_reason": "Request a Large Item Pick Up",
    "date_created": "2024-02-14T16:21:52.000",
    "date_modified": "2024-02-14T16:21:53.000",
    "request_status": "Pending",
    "responsible_agency": "Department of Sanitation",
    "final_address": "7724 Sandy Cove Dr",
    "address_councildis": "E",
    "status": "Assigned to Contractor",
    "contractor": "Waste Pro",
    "rowid": "1067751",
    "final_x": "3715202.70834",
    "final_y": "569780.777894",
    "longitude": "-89.96020273696276",
    "latitude": "30.05963158236636",
    "geocoded_column": {
      "latitude": "30.05963158236636",
      "longitude": "-89.96020273696276"
    }
  },
  {
    "service_request": "2024-1067750",
    "request_type": "Trash/Recycling",
    "request_reason": "Illegal Dumping",
    "date_created": "2024-02-14T16:21:31.000",
    "date_modified": "2024-02-14T16:21:32.000",
    "request_status": "Pending",
    "responsible_agency": "Department of Sanitation",
    "final_address": "4705 Stemway Dr",
    "address_councildis": "D",
    "status": "Pending",
    "rowid": "1067750",
    "final_x": "3697005.48669",
    "final_y": "553959.817304",
    "longitude": "-90.01829665484335",
    "latitude": "30.016717109586086",
    "geocoded_column": {
      "latitude": "30.016717109586086",
      "longitude": "-90.01829665484335"
    }
  },
  {
    "service_request": "2024-1067749",
    "request_type": "Traffic Signals/Signs/Striping/Streetlights",
    "request_reason": "Street Light Outage/Malfunction",
    "date_created": "2024-02-14T16:20:15.000",
    "date_modified": "2024-02-14T16:20:15.000",
    "request_status": "Pending",
    "responsible_agency": "Department of Public Works",
    "final_address": "827 Tchoupitoulas St",
    "address_councildis": "B",
    "status": "Assigned to Contractor",
    "contractor": "Legacy Professional Services",
    "rowid": "1067749",
    "final_x": "3681672.34191",
    "final_y": "527456.075199",
    "longitude": "-90.06766787167993",
    "latitude": "29.944316025706247",
    "geocoded_column": {
      "latitude": "29.944316025706247",
      "longitude": "-90.06766787167993"
    }
  },
  {
    "service_request": "2024-1067748",
    "request_type": "Trash/Recycling",
    "request_reason": "Missed Trash Pick-Up",
    "date_created": "2024-02-14T16:16:01.000",
    "date_modified": "2024-02-14T16:16:02.000",
    "request_status": "Pending",
    "responsible_agency": "Department of Sanitation",
    "final_address": "731 Fern St",
    "address_councildis": "A",
    "status": "Assigned to Contractor",
    "contractor": "Richards Disposal",
    "rowid": "1067748",
    "final_x": "3661572.91936",
    "final_y": "526733.867006",
    "longitude": "-90.1311517589614",
    "latitude": "29.942925341207168",
    "geocoded_column": {
      "latitude": "29.942925341207168",
      "longitude": "-90.1311517589614"
    }
  },
  {
    "service_request": "2024-1067747",
    "request_type": "Roads/Drainage",
    "request_reason": "Street Subsidence (Sinking)",
    "date_created": "2024-02-14T16:12:26.000",
    "date_modified": "2024-02-14T16:12:26.000",
    "request_status": "Pending",
    "responsible_agency": "Department of Public Works",
    "final_address": "4713 Iberville St",
    "address_councildis": "A",
    "status": "Pending",
    "rowid": "1067747",
    "final_x": "3669325.79553",
    "final_y": "540342.367115",
    "longitude": "-90.10621384889012",
    "latitude": "29.98011826932792",
    "geocoded_column": {
      "latitude": "29.98011826932792",
      "longitude": "-90.10621384889012"
    }
  },
  {
    "service_request": "2024-1067746",
    "request_type": "Trash/Recycling",
    "request_reason": "Repair Recycling Cart",
    "date_created": "2024-02-14T16:10:19.000",
    "date_modified": "2024-02-14T16:10:20.000",
    "request_status": "Pending",
    "responsible_agency": "Department of Sanitation",
    "final_address": "825 Gallier St",
    "address_councildis": "C",
    "status": "Pending",
    "rowid": "1067746",
    "final_x": "3690274.62057",
    "final_y": "534711.614214",
    "longitude": "-90.04024959364351",
    "latitude": "29.96400217549977",
    "geocoded_column": {
      "latitude": "29.96400217549977",
      "longitude": "-90.04024959364351"
    }
  },
  {
    "service_request": "2024-1067745",
    "request_type": "Trash/Recycling",
    "request_reason": "Request a Large Item Pick Up",
    "date_created": "2024-02-14T16:06:46.000",
    "date_modified": "2024-02-14T16:06:46.000",
    "request_status": "Pending",
    "responsible_agency": "Department of Sanitation",
    "final_address": "7150 Yorktown Dr",
    "address_councildis": "E",
    "status": "Assigned to Contractor",
    "contractor": "Waste Pro",
    "rowid": "1067745",
    "final_x": "3705851.05905",
    "final_y": "561100.13283",
    "longitude": "-89.99008413992915",
    "latitude": "30.036068096145016",
    "geocoded_column": {
      "latitude": "30.036068096145016",
      "longitude": "-89.99008413992915"
    }
  },
  {
    "service_request": "2024-1067744",
    "request_type": "Parks & Parkways",
    "request_reason": "Request Tree Service (Right of Way/Public Property)",
    "date_created": "2024-02-14T16:04:07.000",
    "date_modified": "2024-02-14T16:04:07.000",
    "request_status": "Pending",
    "responsible_agency": "Department of Parks & Parkway",
    "final_address": "4104 Monroe St",
    "address_councildis": "A",
    "status": "Pending",
    "rowid": "1067744",
    "final_x": "3667316.34125",
    "final_y": "537496.213",
    "longitude": "-90.11265633506045",
    "latitude": "29.972351319953013",
    "geocoded_column": {
      "latitude": "29.972351319953013",
      "longitude": "-90.11265633506045"
    }
  },
  {
    "service_request": "2024-1067743",
    "request_type": "Trash/Recycling",
    "request_reason": "MIssed Recycling Pick-Up",
    "date_created": "2024-02-14T16:01:02.000",
    "date_modified": "2024-02-14T16:01:02.000",
    "request_status": "Pending",
    "responsible_agency": "Department of Sanitation",
    "final_address": "623 Eighth St",
    "address_councildis": "B",
    "status": "Assigned to Contractor",
    "contractor": "Richards Disposal",
    "rowid": "1067743",
    "final_x": "3677046.32181",
    "final_y": "518867.997303",
    "longitude": "-90.08256953027089",
    "latitude": "29.92084130986287",
    "geocoded_column": {
      "latitude": "29.92084130986287",
      "longitude": "-90.08256953027089"
    }
  },
  {
    "service_request": "2024-1067742",
    "request_type": "Trash/Recycling",
    "request_reason": "Order Recycling Cart",
    "date_created": "2024-02-14T15:57:51.000",
    "date_modified": "2024-02-14T15:57:51.000",
    "request_status": "Pending",
    "responsible_agency": "Department of Sanitation",
    "final_address": "1401 Henry Clay Ave",
    "address_councildis": "A",
    "status": "Pending",
    "rowid": "1067742",
    "final_x": "3664609.97485",
    "final_y": "521479.125625",
    "longitude": "-90.12173842311657",
    "latitude": "29.928388507765806",
    "geocoded_column": {
      "latitude": "29.928388507765806",
      "longitude": "-90.12173842311657"
    }
  },
  {
    "service_request": "2024-1067741",
    "request_type": "Trash/Recycling",
    "request_reason": "Order Trash Cart",
    "date_created": "2024-02-14T15:54:59.000",
    "date_modified": "2024-02-14T15:55:00.000",
    "request_status": "Pending",
    "responsible_agency": "Department of Sanitation",
    "final_address": "1401 Henry Clay Ave",
    "address_councildis": "A",
    "status": "Assigned to Contractor",
    "contractor": "Richards Disposal",
    "rowid": "1067741",
    "final_x": "3664609.97485",
    "final_y": "521479.125625",
    "longitude": "-90.12173842311657",
    "latitude": "29.928388507765806",
    "geocoded_column": {
      "latitude": "29.928388507765806",
      "longitude": "-90.12173842311657"
    }
  },
  {
    "service_request": "2024-1067740",
    "request_type": "Roads/Drainage",
    "request_reason": "Pothole",
    "date_created": "2024-02-14T15:52:42.000",
    "date_modified": "2024-02-14T15:52:42.000",
    "request_status": "Pending",
    "responsible_agency": "Department of Public Works",
    "final_address": "1301 Constantinople St",
    "address_councildis": "B",
    "status": "Pending",
    "rowid": "1067740",
    "final_x": "3672430.66305",
    "final_y": "520250.7726",
    "longitude": "-90.09709199725775",
    "latitude": "29.924781230435865",
    "geocoded_column": {
      "latitude": "29.924781230435865",
      "longitude": "-90.09709199725775"
    }
  },
  {
    "service_request": "2024-1067739",
    "request_type": "Trash/Recycling",
    "request_reason": "Request a Large Item Pick Up",
    "date_created": "2024-02-14T15:41:22.000",
    "date_modified": "2024-02-14T15:41:23.000",
    "request_status": "Pending",
    "responsible_agency": "Department of Sanitation",
    "final_address": "1509 Steeple Chase Ln",
    "address_councildis": "C",
    "status": "Assigned to Contractor",
    "contractor": "Richards Disposal",
    "rowid": "1067739",
    "final_x": "3699947.3866",
    "final_y": "525623.028541",
    "longitude": "-90.01003553127241",
    "latitude": "29.93870808524828",
    "geocoded_column": {
      "latitude": "29.93870808524828",
      "longitude": "-90.01003553127241"
    }
  },
  {
    "service_request": "2024-1067738",
    "request_type": "Traffic Signals/Signs/Striping/Streetlights",
    "request_reason": "Street Light Outage/Malfunction",
    "date_created": "2024-02-14T15:33:19.000",
    "date_modified": "2024-02-14T15:34:10.000",
    "request_status": "Pending",
    "responsible_agency": "Department of Public Works",
    "final_address": "BEHRMAN HWY & UTAH ST",
    "address_councildis": "C",
    "status": "Assigned to Contractor",
    "contractor": "Legacy Professional Services",
    "rowid": "1067738",
    "final_x": "3695562.7",
    "final_y": "518186.38",
    "longitude": "-90.02414664681183",
    "latitude": "29.918398345917314",
    "geocoded_column": {
      "latitude": "29.918398345917314",
      "longitude": "-90.02414664681183"
    }
  },
  {
    "service_request": "2024-1067737",
    "request_type": "Health Related Request",
    "request_reason": "Noise Ordinance Complaint",
    "date_created": "2024-02-14T15:32:40.000",
    "date_modified": "2024-02-14T15:32:41.000",
    "request_status": "Pending",
    "responsible_agency": "Health Department",
    "final_address": "4165 Iberville St",
    "address_councildis": "A",
    "status": "Pending",
    "rowid": "1067737",
    "final_x": "3670928.25377",
    "final_y": "539102.962186",
    "longitude": "-90.10119469533846",
    "latitude": "29.976663041449616",
    "geocoded_column": {
      "latitude": "29.976663041449616",
      "longitude": "-90.10119469533846"
    }
  },
  {
    "service_request": "2024-1067736",
    "request_type": "Traffic Signals/Signs/Striping/Streetlights",
    "request_reason": "Additional signage",
    "date_created": "2024-02-14T15:32:20.000",
    "date_modified": "2024-02-14T15:32:20.000",
    "request_status": "Pending",
    "responsible_agency": "Department of Public Works",
    "final_address": "2600 BLK Hamilton St",
    "address_councildis": "A",
    "status": "Pending",
    "rowid": "1067736",
    "final_x": "3662863.11551",
    "final_y": "534608.192382",
    "longitude": "-90.12681650077332",
    "latitude": "29.964539907539564",
    "geocoded_column": {
      "latitude": "29.964539907539564",
      "longitude": "-90.12681650077332"
    }
  },
  {
    "service_request": "2024-1067735",
    "request_type": "Trash/Recycling",
    "request_reason": "Request a Large Item Pick Up",
    "date_created": "2024-02-14T15:31:30.000",
    "date_modified": "2024-02-14T15:31:30.000",
    "request_status": "Pending",
    "responsible_agency": "Department of Sanitation",
    "final_address": "2316 Allen St",
    "address_councildis": "D",
    "status": "Assigned to Contractor",
    "contractor": "IV Waste",
    "rowid": "1067735",
    "final_x": "3682366.33212",
    "final_y": "540709.592011",
    "longitude": "-90.06501356844204",
    "latitude": "29.98073756056614",
    "geocoded_column": {
      "latitude": "29.98073756056614",
      "longitude": "-90.06501356844204"
    }
  },
  {
    "service_request": "2024-1067734",
    "request_type": "Trash/Recycling",
    "request_reason": "Request a Large Item Pick Up",
    "date_created": "2024-02-14T15:21:46.000",
    "date_modified": "2024-02-14T15:21:46.000",
    "request_status": "Pending",
    "responsible_agency": "Department of Sanitation",
    "final_address": "1901 Robert St",
    "address_councildis": "B",
    "status": "Assigned to Contractor",
    "contractor": "Richards Disposal",
    "rowid": "1067734",
    "final_x": "3668853.53473",
    "final_y": "522544.116922",
    "longitude": "-90.10830644359065",
    "latitude": "29.93119283182215",
    "geocoded_column": {
      "latitude": "29.93119283182215",
      "longitude": "-90.10830644359065"
    }
  },
  {
    "service_request": "2024-1067733",
    "request_type": "Roads/Drainage",
    "request_reason": "Pothole",
    "date_created": "2024-02-14T15:20:22.000",
    "date_modified": "2024-02-14T15:20:22.000",
    "request_status": "Pending",
    "responsible_agency": "Department of Public Works",
    "final_address": "4216 Chestnut St",
    "address_councildis": "B",
    "status": "Pending",
    "rowid": "1067733",
    "final_x": "3671574.31393",
    "final_y": "519539.203703",
    "longitude": "-90.09981939416457",
    "latitude": "29.922850019854593",
    "geocoded_column": {
      "latitude": "29.922850019854593",
      "longitude": "-90.09981939416457"
    }
  },
  {
    "service_request": "2024-1067732",
    "request_type": "Trash/Recycling",
    "request_reason": "Missed Trash Pick-Up",
    "date_created": "2024-02-14T15:20:00.000",
    "date_modified": "2024-02-14T16:13:39.000",
    "case_close_date": "2024-02-14T10:13:39.000",
    "request_status": "Closed",
    "responsible_agency": "Department of Sanitation",
    "final_address": "5125 Perlita St",
    "address_councildis": "D",
    "status": "Invalid Request",
    "contractor": "IV Waste",
    "contractor_action": "Invalid Pick-Up",
    "rowid": "1067732",
    "final_x": "3678648.73826",
    "final_y": "551142.778581",
    "longitude": "-90.07639388650365",
    "latitude": "30.009537768406837",
    "geocoded_column": {
      "latitude": "30.009537768406837",
      "longitude": "-90.07639388650365"
    }
  },
  {
    "service_request": "2024-1067731",
    "request_type": "Traffic Signals/Signs/Striping/Streetlights",
    "request_reason": "Street Light Outage/Malfunction",
    "date_created": "2024-02-14T15:17:43.000",
    "date_modified": "2024-02-14T15:18:25.000",
    "request_status": "Pending",
    "responsible_agency": "Department of Public Works",
    "final_address": "7600 Rochon Ave",
    "address_councildis": "E",
    "status": "Assigned to Contractor",
    "contractor": "Legacy Professional Services",
    "rowid": "1067731",
    "final_x": "3718648.23538",
    "final_y": "571604.571624",
    "longitude": "-89.949242139717",
    "latitude": "30.06453227295778",
    "geocoded_column": {
      "latitude": "30.06453227295778",
      "longitude": "-89.949242139717"
    }
  },
  {
    "service_request": "2024-1067730",
    "request_type": "Trash/Recycling",
    "request_reason": "Request a Large Item Pick Up",
    "date_created": "2024-02-14T15:17:24.000",
    "date_modified": "2024-02-14T15:17:33.000",
    "request_status": "Pending",
    "responsible_agency": "Department of Sanitation",
    "final_address": "7519 Scottwood Dr",
    "address_councildis": "E",
    "status": "Assigned to Contractor",
    "contractor": "Waste Pro",
    "rowid": "1067730",
    "final_x": "3717730.70361",
    "final_y": "570262.493863",
    "longitude": "-89.95219364414879",
    "latitude": "30.060872560695774",
    "geocoded_column": {
      "latitude": "30.060872560695774",
      "longitude": "-89.95219364414879"
    }
  },
  {
    "service_request": "2024-1067729",
    "request_type": "Trash/Recycling",
    "request_reason": "Order Trash Cart",
    "date_created": "2024-02-14T15:08:16.000",
    "date_modified": "2024-02-14T15:08:16.000",
    "request_status": "Pending",
    "responsible_agency": "Department of Sanitation",
    "final_address": "3534 Upperline St A",
    "address_councildis": "B",
    "status": "Assigned to Contractor",
    "contractor": "Richards Disposal",
    "rowid": "1067729",
    "final_x": "3669251.04711",
    "final_y": "527989.154047",
    "longitude": "-90.10686755657366",
    "latitude": "29.946153235318885",
    "geocoded_column": {
      "latitude": "29.946153235318885",
      "longitude": "-90.10686755657366"
    }
  },
  {
    "service_request": "2024-1067728",
    "request_type": "Traffic Signals/Signs/Striping/Streetlights",
    "request_reason": "Street Light Outage/Malfunction",
    "date_created": "2024-02-14T15:05:59.000",
    "date_modified": "2024-02-14T15:06:38.000",
    "request_status": "Pending",
    "responsible_agency": "Department of Public Works",
    "final_address": "5800 BLK Saint Roch Ave",
    "address_councildis": "D",
    "status": "Assigned to Contractor",
    "contractor": "Legacy Professional Services",
    "rowid": "1067728",
    "final_x": "3685079.56353",
    "final_y": "554528.008842",
    "longitude": "-90.05595746159085",
    "latitude": "30.01865037590591",
    "geocoded_column": {
      "latitude": "30.01865037590591",
      "longitude": "-90.05595746159085"
    }
  },
  {
    "service_request": "2024-1067727",
    "request_type": "Trash/Recycling",
    "request_reason": "Missed Trash Pick-Up",
    "date_created": "2024-02-14T15:03:35.000",
    "date_modified": "2024-02-14T15:03:36.000",
    "request_status": "Pending",
    "responsible_agency": "Department of Sanitation",
    "final_address": "127 Alvin Callender St",
    "address_councildis": "A",
    "status": "Assigned to Contractor",
    "contractor": "Richards Disposal",
    "rowid": "1067727",
    "final_x": "3661079.35078",
    "final_y": "523318.053627",
    "longitude": "-90.13282307405838",
    "latitude": "29.933547163249973",
    "geocoded_column": {
      "latitude": "29.933547163249973",
      "longitude": "-90.13282307405838"
    }
  },
  {
    "service_request": "2024-1067726",
    "request_type": "Abandoned Vehicles",
    "request_reason": "Abandoned/Junk Vehicles",
    "date_created": "2024-02-14T14:58:23.000",
    "date_modified": "2024-02-14T14:58:24.000",
    "request_status": "Pending",
    "responsible_agency": "Department of Public Works",
    "final_address": "2100 BLK Terpsichore St",
    "address_councildis": "B",
    "status": "Pending",
    "rowid": "1067726",
    "final_x": "3676955.3242",
    "final_y": "526583.717618",
    "longitude": "-90.08259092119515",
    "latitude": "29.942059753676777",
    "geocoded_column": {
      "latitude": "29.942059753676777",
      "longitude": "-90.08259092119515"
    }
  },
  {
    "service_request": "2024-1067725",
    "request_type": "Trash/Recycling",
    "request_reason": "Order Recycling Cart",
    "date_created": "2024-02-14T14:57:25.000",
    "date_modified": "2024-02-14T14:57:25.000",
    "request_status": "Pending",
    "responsible_agency": "Department of Sanitation",
    "final_address": "850 Tchoupitoulas St",
    "address_councildis": "B",
    "status": "Pending",
    "rowid": "1067725",
    "final_x": "3681751.7988",
    "final_y": "527256.750463",
    "longitude": "-90.06742395643104",
    "latitude": "29.943765535935917",
    "geocoded_column": {
      "latitude": "29.943765535935917",
      "longitude": "-90.06742395643104"
    }
  },
  {
    "service_request": "2024-1067724",
    "request_type": "Trash/Recycling",
    "request_reason": "Missed Trash Pick-Up",
    "date_created": "2024-02-14T14:53:31.000",
    "date_modified": "2024-02-14T14:53:31.000",
    "request_status": "Pending",
    "responsible_agency": "Department of Sanitation",
    "final_address": "633 Harmony St",
    "address_councildis": "B",
    "status": "Assigned to Contractor",
    "contractor": "Richards Disposal",
    "rowid": "1067724",
    "final_x": "3676545.82497",
    "final_y": "518607.671415",
    "longitude": "-90.08415833008416",
    "latitude": "29.92014051024334",
    "geocoded_column": {
      "latitude": "29.92014051024334",
      "longitude": "-90.08415833008416"
    }
  },
  {
    "service_request": "2024-1067723",
    "request_type": "Roads/Drainage",
    "request_reason": "WaterMain Break",
    "date_created": "2024-02-14T14:50:48.000",
    "date_modified": "2024-02-14T14:50:48.000",
    "request_status": "Pending",
    "responsible_agency": "Department of Public Works",
    "final_address": "2411 Bristol Pl",
    "address_councildis": "C",
    "status": "Pending",
    "rowid": "1067723",
    "final_x": "3702591.41098",
    "final_y": "522194.444474",
    "longitude": "-90.00181390362789",
    "latitude": "29.929196450072986",
    "geocoded_column": {
      "latitude": "29.929196450072986",
      "longitude": "-90.00181390362789"
    }
  },
  {
    "service_request": "2024-1067722",
    "request_type": "Trash/Recycling",
    "request_reason": "Missed Trash Pick-Up",
    "date_created": "2024-02-14T14:47:56.000",
    "date_modified": "2024-02-14T15:31:15.000",
    "case_close_date": "2024-02-14T09:31:15.000",
    "request_status": "Closed",
    "responsible_agency": "Department of Sanitation",
    "final_address": "4216 Mccoy St",
    "address_councildis": "E",
    "status": "Invalid Request",
    "contractor": "Waste Pro",
    "contractor_action": "Invalid Request",
    "rowid": "1067722",
    "final_x": "3711967.34981",
    "final_y": "553752.011799",
    "longitude": "-89.97103177127718",
    "latitude": "30.015665096050245",
    "geocoded_column": {
      "latitude": "30.015665096050245",
      "longitude": "-89.97103177127718"
    }
  },
  {
    "service_request": "2024-1067721",
    "request_type": "Property Maintenance",
    "request_reason": "Property Maintenance",
    "date_created": "2024-02-14T14:46:26.000",
    "date_modified": "2024-02-14T15:18:38.000",
    "case_close_date": "2024-02-14T09:18:38.000",
    "request_status": "Closed",
    "responsible_agency": "Department of Code Enforcement",
    "final_address": "1718 N Roman St",
    "address_councildis": "D",
    "status": "Resolved",
    "rowid": "1067721",
    "final_x": "3682381.81685",
    "final_y": "538649.343177",
    "longitude": "-90.06503668681782",
    "latitude": "29.975072123221583",
    "geocoded_column": {
      "latitude": "29.975072123221583",
      "longitude": "-90.06503668681782"
    }
  },
  {
    "service_request": "2024-1067720",
    "request_type": "Trash/Recycling",
    "request_reason": "Order Recycling Cart",
    "date_created": "2024-02-14T14:44:13.000",
    "date_modified": "2024-02-14T14:44:13.000",
    "request_status": "Pending",
    "responsible_agency": "Department of Sanitation",
    "final_address": "1545 N Prieur St",
    "address_councildis": "D",
    "status": "Pending",
    "rowid": "1067720",
    "final_x": "3681067.87343",
    "final_y": "538177.797321",
    "longitude": "-90.06920288876442",
    "latitude": "29.97381545992346",
    "geocoded_column": {
      "latitude": "29.97381545992346",
      "longitude": "-90.06920288876442"
    }
  },
  {
    "service_request": "2024-1067719",
    "request_type": "Property Maintenance",
    "request_reason": "Property Maintenance",
    "date_created": "2024-02-14T14:42:42.000",
    "date_modified": "2024-02-14T15:38:22.000",
    "case_close_date": "2024-02-14T09:38:22.000",
    "request_status": "Closed",
    "responsible_agency": "Department of Code Enforcement",
    "final_address": "1716 N Roman St",
    "address_councildis": "D",
    "status": "Resolved",
    "rowid": "1067719",
    "final_x": "3682364.33282",
    "final_y": "538644.807753",
    "longitude": "-90.06509206440928",
    "latitude": "29.97506018449815",
    "geocoded_column": {
      "latitude": "29.97506018449815",
      "longitude": "-90.06509206440928"
    }
  },
  {
    "service_request": "2024-1067718",
    "request_type": "Trash/Recycling",
    "request_reason": "Order Recycling Cart",
    "date_created": "2024-02-14T14:40:17.000",
    "date_modified": "2024-02-14T14:40:17.000",
    "request_status": "Pending",
    "responsible_agency": "Department of Sanitation",
    "final_address": "11432 S St Andrews Cir",
    "address_councildis": "E",
    "status": "Pending",
    "rowid": "1067718",
    "final_x": "3719892.72684",
    "final_y": "559664.075101",
    "longitude": "-89.94576531199309",
    "latitude": "30.031659433930656",
    "geocoded_column": {
      "latitude": "30.031659433930656",
      "longitude": "-89.94576531199309"
    }
  },
  {
    "service_request": "2024-1067717",
    "request_type": "Trash/Recycling",
    "request_reason": "Return Recycling Cart",
    "date_created": "2024-02-14T14:36:34.000",
    "date_modified": "2024-02-14T14:36:34.000",
    "request_status": "Pending",
    "responsible_agency": "Department of Sanitation",
    "final_address": "3819 General Pershing St",
    "address_councildis": "B",
    "status": "Pending",
    "rowid": "1067717",
    "final_x": "3670513.51623",
    "final_y": "528737.508416",
    "longitude": "-90.10285612308411",
    "latitude": "29.948173748559544",
    "geocoded_column": {
      "latitude": "29.948173748559544",
      "longitude": "-90.10285612308411"
    }
  },
  {
    "service_request": "2024-1067716",
    "request_type": "Abandoned Vehicles",
    "request_reason": "Abandoned/Junk Vehicles",
    "date_created": "2024-02-14T14:34:45.000",
    "date_modified": "2024-02-14T14:34:45.000",
    "request_status": "Pending",
    "responsible_agency": "Department of Public Works",
    "final_address": "1936 St Louis St",
    "address_councildis": "B",
    "status": "Pending",
    "rowid": "1067716",
    "final_x": "3678422.58056",
    "final_y": "534544.016645",
    "longitude": "-90.07768306771105",
    "latitude": "29.9639037850116",
    "geocoded_column": {
      "latitude": "29.9639037850116",
      "longitude": "-90.07768306771105"
    }
  },
  {
    "service_request": "2024-1067715",
    "request_type": "Trash/Recycling",
    "request_reason": "Request a Large Item Pick Up",
    "date_created": "2024-02-14T14:33:22.000",
    "date_modified": "2024-02-14T14:33:23.000",
    "request_status": "Pending",
    "responsible_agency": "Department of Sanitation",
    "final_address": "11123 Winchester Park Dr",
    "address_councildis": "E",
    "status": "Assigned to Contractor",
    "contractor": "Waste Pro",
    "rowid": "1067715",
    "final_x": "3714943.59717",
    "final_y": "561309.779614",
    "longitude": "-89.96134237144803",
    "latitude": "30.036348323046827",
    "geocoded_column": {
      "latitude": "30.036348323046827",
      "longitude": "-89.96134237144803"
    }
  },
  {
    "service_request": "2024-1067714",
    "request_type": "Roads/Drainage",
    "request_reason": "Accessibility Ramps, Curbs and Sidewalk Repair",
    "date_created": "2024-02-14T14:26:24.000",
    "date_modified": "2024-02-14T14:26:25.000",
    "request_status": "Pending",
    "responsible_agency": "Department of Public Works",
    "final_address": "4767 Lancelot Dr",
    "address_councildis": "E",
    "status": "Pending",
    "rowid": "1067714",
    "final_x": "3707503.41643",
    "final_y": "555678.689369",
    "longitude": "-89.98506401555545",
    "latitude": "30.02110788641665",
    "geocoded_column": {
      "latitude": "30.02110788641665",
      "longitude": "-89.98506401555545"
    }
  },
  {
    "service_request": "2024-1067713",
    "request_type": "Parks & Parkways",
    "request_reason": "Request Tree Service (Right of Way/Public Property)",
    "date_created": "2024-02-14T14:26:10.000",
    "date_modified": "2024-02-14T14:26:10.000",
    "request_status": "Pending",
    "responsible_agency": "Department of Parks & Parkway",
    "final_address": "51 Neron Pl",
    "address_councildis": "A",
    "status": "Pending",
    "rowid": "1067713",
    "final_x": "3665609.51232",
    "final_y": "530338.726082",
    "longitude": "-90.11828651744213",
    "latitude": "29.952720471021166",
    "geocoded_column": {
      "latitude": "29.952720471021166",
      "longitude": "-90.11828651744213"
    }
  },
  {
    "service_request": "2024-1067712",
    "request_type": "Trash/Recycling",
    "request_reason": "Repair Trash Cart",
    "date_created": "2024-02-14T14:21:55.000",
    "date_modified": "2024-02-14T14:21:56.000",
    "request_status": "Pending",
    "responsible_agency": "Department of Sanitation",
    "final_address": "3515 Constance St",
    "address_councildis": "B",
    "status": "Assigned to Contractor",
    "contractor": "Richards Disposal",
    "rowid": "1067712",
    "final_x": "3674422.53352",
    "final_y": "519041.604535",
    "longitude": "-90.0908457025817",
    "latitude": "29.921397165356453",
    "geocoded_column": {
      "latitude": "29.921397165356453",
      "longitude": "-90.0908457025817"
    }
  },
  {
    "service_request": "2024-1067711",
    "request_type": "Trash/Recycling",
    "request_reason": "Repair Recycling Cart",
    "date_created": "2024-02-14T14:21:23.000",
    "date_modified": "2024-02-14T14:21:23.000",
    "request_status": "Pending",
    "responsible_agency": "Department of Sanitation",
    "final_address": "3515 Constance St",
    "address_councildis": "B",
    "status": "Pending",
    "rowid": "1067711",
    "final_x": "3674422.53352",
    "final_y": "519041.604535",
    "longitude": "-90.0908457025817",
    "latitude": "29.921397165356453",
    "geocoded_column": {
      "latitude": "29.921397165356453",
      "longitude": "-90.0908457025817"
    }
  },
  {
    "service_request": "2024-1067710",
    "request_type": "Abandoned Vehicles",
    "request_reason": "Abandoned/Junk Vehicles",
    "date_created": "2024-02-14T14:18:59.000",
    "date_modified": "2024-02-14T14:18:59.000",
    "request_status": "Pending",
    "responsible_agency": "Department of Public Works",
    "final_address": "1907 Arts St",
    "address_councildis": "D",
    "status": "Pending",
    "rowid": "1067710",
    "final_x": "3687001.47772",
    "final_y": "539507.207882",
    "longitude": "-90.05041629924743",
    "latitude": "29.97728954083266",
    "geocoded_column": {
      "latitude": "29.97728954083266",
      "longitude": "-90.05041629924743"
    }
  },
  {
    "service_request": "2024-1067709",
    "request_type": "Trash/Recycling",
    "request_reason": "Repair Trash Cart",
    "date_created": "2024-02-14T14:18:33.000",
    "date_modified": "2024-02-14T14:18:34.000",
    "request_status": "Pending",
    "responsible_agency": "Department of Sanitation",
    "final_address": "3315 Louisiana Avenue Prkwy",
    "address_councildis": "B",
    "status": "Assigned to Contractor",
    "contractor": "Richards Disposal",
    "rowid": "1067709",
    "final_x": "3671883.37076",
    "final_y": "527367.620671",
    "longitude": "-90.0985775329248",
    "latitude": "29.944366486325162",
    "geocoded_column": {
      "latitude": "29.944366486325162",
      "longitude": "-90.0985775329248"
    }
  },
  {
    "service_request": "2024-1067708",
    "request_type": "Utility Poles",
    "request_reason": "Utility Pole Leaning",
    "date_created": "2024-02-14T14:16:44.000",
    "date_modified": "2024-02-14T14:16:50.000",
    "request_status": "Pending",
    "responsible_agency": "Utility Company Collective",
    "final_address": "3600 BLK General Ogden St",
    "address_councildis": "A",
    "status": "Pending",
    "rowid": "1067708",
    "final_x": "3665745.67602",
    "final_y": "536725.933226",
    "longitude": "-90.11764259773112",
    "latitude": "29.97027922169797",
    "geocoded_column": {
      "latitude": "29.97027922169797",
      "longitude": "-90.11764259773112"
    }
  },
  {
    "service_request": "2024-1067707",
    "request_type": "Roads/Drainage",
    "request_reason": "Catch Basin - Broken/Damage",
    "date_created": "2024-02-14T14:16:07.000",
    "date_modified": "2024-02-14T14:16:07.000",
    "request_status": "Pending",
    "responsible_agency": "Department of Public Works",
    "final_address": "7101 Coliseum St",
    "address_councildis": "A",
    "status": "Pending",
    "rowid": "1067707",
    "final_x": "3661449.68013",
    "final_y": "522127.238842",
    "longitude": "-90.1316933824551",
    "latitude": "29.93026212252391",
    "geocoded_column": {
      "latitude": "29.93026212252391",
      "longitude": "-90.1316933824551"
    }
  },
  {
    "service_request": "2024-1067706",
    "request_type": "Trash/Recycling",
    "request_reason": "Missed Trash Pick-Up",
    "date_created": "2024-02-14T14:15:59.000",
    "date_modified": "2024-02-14T15:43:37.000",
    "case_close_date": "2024-02-14T09:43:37.000",
    "request_status": "Closed",
    "responsible_agency": "Department of Sanitation",
    "final_address": "8010 Old Gentilly Rd",
    "address_councildis": "E",
    "status": "Invalid Request",
    "contractor": "Waste Pro",
    "contractor_action": "Invalid Request",
    "rowid": "1067706",
    "final_x": "3705527.073",
    "final_y": "552256.063702",
    "longitude": "-89.99143529977718",
    "latitude": "30.01176077699712",
    "geocoded_column": {
      "latitude": "30.01176077699712",
      "longitude": "-89.99143529977718"
    }
  },
  {
    "service_request": "2024-1067705",
    "request_type": "EMS",
    "request_reason": "EMS Compliment",
    "date_created": "2024-02-14T14:14:42.000",
    "date_modified": "2024-02-14T14:14:42.000",
    "request_status": "Pending",
    "responsible_agency": "Emergency Medical Services",
    "final_address": " & BALDWIN ST",
    "address_councildis": "D",
    "status": "Pending",
    "rowid": "1067705",
    "final_x": "3687880.8",
    "final_y": "560035.64",
    "longitude": "-90.04691121641319",
    "latitude": "30.03370814054373",
    "geocoded_column": {
      "latitude": "30.03370814054373",
      "longitude": "-90.04691121641319"
    }
  },
  {
    "service_request": "2024-1067704",
    "request_type": "Traffic Signals/Signs/Striping/Streetlights",
    "request_reason": "Street Light Knocked Down/Leaning",
    "date_created": "2024-02-14T14:13:51.000",
    "date_modified": "2024-02-14T14:15:29.000",
    "request_status": "Pending",
    "responsible_agency": "Department of Public Works",
    "final_address": "308 Royal St",
    "address_councildis": "C",
    "status": "Inspected",
    "contractor": "Legacy Professional Services",
    "rowid": "1067704",
    "final_x": "3681738.2036",
    "final_y": "531355.000194",
    "longitude": "-90.0673239174327",
    "latitude": "29.95503475471769",
    "geocoded_column": {
      "latitude": "29.95503475471769",
      "longitude": "-90.0673239174327"
    }
  },
  {
    "service_request": "2024-1067703",
    "request_type": "Trash/Recycling",
    "request_reason": "Request a Large Item Pick Up",
    "date_created": "2024-02-14T14:10:56.000",
    "date_modified": "2024-02-14T14:10:57.000",
    "request_status": "Pending",
    "responsible_agency": "Department of Sanitation",
    "final_address": "7640 Rochon Ave",
    "address_councildis": "E",
    "status": "Assigned to Contractor",
    "contractor": "Waste Pro",
    "rowid": "1067703",
    "final_x": "3718513.88281",
    "final_y": "571752.62948",
    "longitude": "-89.94966118381188",
    "latitude": "30.064943831702916",
    "geocoded_column": {
      "latitude": "30.064943831702916",
      "longitude": "-89.94966118381188"
    }
  },
  {
    "service_request": "2024-1067702",
    "request_type": "Roads/Drainage",
    "request_reason": "Service Cut",
    "date_created": "2024-02-14T14:07:51.000",
    "date_modified": "2024-02-14T14:09:05.000",
    "case_close_date": "2024-02-14T08:09:05.000",
    "request_status": "Closed",
    "responsible_agency": "Department of Public Works",
    "final_address": "312 Royal St",
    "address_councildis": "C",
    "status": "Referred to External Agency",
    "rowid": "1067702",
    "final_x": "3681755.15112",
    "final_y": "531375.624066",
    "longitude": "-90.0672696840041",
    "latitude": "29.955090948489833",
    "geocoded_column": {
      "latitude": "29.955090948489833",
      "longitude": "-90.0672696840041"
    }
  },
  {
    "service_request": "2024-1067701",
    "request_type": "Trash/Recycling",
    "request_reason": "Repair Trash Cart",
    "date_created": "2024-02-14T14:05:42.000",
    "date_modified": "2024-02-14T14:05:43.000",
    "request_status": "Pending",
    "responsible_agency": "Department of Sanitation",
    "final_address": "2517 Milan St",
    "address_councildis": "B",
    "status": "Assigned to Contractor",
    "contractor": "Richards Disposal",
    "rowid": "1067701",
    "final_x": "3671315.79687",
    "final_y": "524271.9559",
    "longitude": "-90.10047469298708",
    "latitude": "29.93587121916349",
    "geocoded_column": {
      "latitude": "29.93587121916349",
      "longitude": "-90.10047469298708"
    }
  },
  {
    "service_request": "2024-1067700",
    "request_type": "Trash/Recycling",
    "request_reason": "Order Recycling Cart",
    "date_created": "2024-02-14T14:04:16.000",
    "date_modified": "2024-02-14T14:04:16.000",
    "request_status": "Pending",
    "responsible_agency": "Department of Sanitation",
    "final_address": "118 City Park Ave, New Orleans, Louisiana, 70119",
    "address_councildis": "A",
    "status": "Pending",
    "rowid": "1067700",
    "final_x": "3667651.43245",
    "final_y": "540854.232907",
    "longitude": "-90.1114849682831",
    "latitude": "29.98157492613766",
    "geocoded_column": {
      "latitude": "29.98157492613766",
      "longitude": "-90.1114849682831"
    }
  },
  {
    "service_request": "2024-1067699",
    "request_type": "Roads/Drainage",
    "request_reason": "Street Flooding / Drainage",
    "date_created": "2024-02-14T14:02:10.000",
    "date_modified": "2024-02-14T14:02:10.000",
    "request_status": "Pending",
    "responsible_agency": "Department of Public Works",
    "final_address": "775 Germain St",
    "address_councildis": "A",
    "status": "Pending",
    "rowid": "1067699",
    "final_x": "3669163.53287",
    "final_y": "547957.43925",
    "longitude": "-90.106468820526",
    "latitude": "30.001061883683214",
    "geocoded_column": {
      "latitude": "30.001061883683214",
      "longitude": "-90.106468820526"
    }
  },
  {
    "service_request": "2024-1067698",
    "request_type": "Trash/Recycling",
    "request_reason": "Replace Trash Cart",
    "date_created": "2024-02-14T14:00:25.000",
    "date_modified": "2024-02-14T14:00:26.000",
    "request_status": "Pending",
    "responsible_agency": "Department of Sanitation",
    "final_address": "3238 Orleans Ave",
    "address_councildis": "A",
    "status": "Assigned to Contractor",
    "contractor": "Richards Disposal",
    "rowid": "1067698",
    "final_x": "3674724.32718",
    "final_y": "538482.805577",
    "longitude": "-90.08922676944788",
    "latitude": "29.974845036205096",
    "geocoded_column": {
      "latitude": "29.974845036205096",
      "longitude": "-90.08922676944788"
    }
  },
  {
    "service_request": "2024-1067697",
    "request_type": "Trash/Recycling",
    "request_reason": "Replace Trash Cart",
    "date_created": "2024-02-14T13:59:55.000",
    "date_modified": "2024-02-14T13:59:55.000",
    "request_status": "Pending",
    "responsible_agency": "Department of Sanitation",
    "final_address": "3236 Orleans Ave",
    "address_councildis": "A",
    "status": "Assigned to Contractor",
    "contractor": "Richards Disposal",
    "rowid": "1067697",
    "final_x": "3674733.44181",
    "final_y": "538476.729161",
    "longitude": "-90.08919819147968",
    "latitude": "29.97482805601622",
    "geocoded_column": {
      "latitude": "29.97482805601622",
      "longitude": "-90.08919819147968"
    }
  },
  {
    "service_request": "2024-1067696",
    "request_type": "Roads/Drainage",
    "request_reason": "Pothole",
    "date_created": "2024-02-14T13:57:05.000",
    "date_modified": "2024-02-14T13:57:31.000",
    "case_close_date": "2024-02-14T07:57:31.000",
    "request_status": "Closed",
    "responsible_agency": "Department of Public Works",
    "final_address": "2400 BLK S Derbigny St",
    "address_councildis": "B",
    "status": "Resolved",
    "rowid": "1067696",
    "final_x": "3673841.17295",
    "final_y": "527642.502245",
    "longitude": "-90.09238677883558",
    "latitude": "29.945064164678694",
    "geocoded_column": {
      "latitude": "29.945064164678694",
      "longitude": "-90.09238677883558"
    }
  },
  {
    "service_request": "2024-1067695",
    "request_type": "Trash/Recycling",
    "request_reason": "Replace Trash Cart",
    "date_created": "2024-02-14T13:55:04.000",
    "date_modified": "2024-02-14T13:55:04.000",
    "request_status": "Pending",
    "responsible_agency": "Department of Sanitation",
    "final_address": "331 S Alexander St, New Orleans, Louisiana, 70119",
    "address_councildis": "A",
    "status": "Assigned to Contractor",
    "contractor": "Richards Disposal",
    "rowid": "1067695",
    "final_x": "3669329.83258",
    "final_y": "538368.059593",
    "longitude": "-90.10626787541375",
    "latitude": "29.97468947138185",
    "geocoded_column": {
      "latitude": "29.97468947138185",
      "longitude": "-90.10626787541375"
    }
  },
  {
    "service_request": "2024-1067693",
    "request_type": "Trash/Recycling",
    "request_reason": "Replace Trash Cart",
    "date_created": "2024-02-14T13:47:42.000",
    "date_modified": "2024-02-14T13:47:43.000",
    "request_status": "Pending",
    "responsible_agency": "Department of Sanitation",
    "final_address": "4717 Carondelet St",
    "address_councildis": "B",
    "status": "Assigned to Contractor",
    "contractor": "Richards Disposal",
    "rowid": "1067693",
    "final_x": "3669548.30983",
    "final_y": "521171.216953",
    "longitude": "-90.10615953891194",
    "latitude": "29.92739735294438",
    "geocoded_column": {
      "latitude": "29.92739735294438",
      "longitude": "-90.10615953891194"
    }
  },
  {
    "service_request": "2024-1067692",
    "request_type": "Trash/Recycling",
    "request_reason": "Repair Trash Cart",
    "date_created": "2024-02-14T13:46:28.000",
    "date_modified": "2024-02-14T13:46:28.000",
    "request_status": "Pending",
    "responsible_agency": "Department of Sanitation",
    "final_address": "3515 S Saratoga St",
    "address_councildis": "B",
    "status": "Assigned to Contractor",
    "contractor": "Richards Disposal",
    "rowid": "1067692",
    "final_x": "3672999.39348",
    "final_y": "523025.379515",
    "longitude": "-90.09520206090603",
    "latitude": "29.932393621650334",
    "geocoded_column": {
      "latitude": "29.932393621650334",
      "longitude": "-90.09520206090603"
    }
  },
  {
    "service_request": "2024-1067691",
    "request_type": "Trash/Recycling",
    "request_reason": "Request a Large Item Pick Up",
    "date_created": "2024-02-14T13:43:45.000",
    "date_modified": "2024-02-14T13:43:45.000",
    "request_status": "Pending",
    "responsible_agency": "Department of Sanitation",
    "final_address": "4717 Carondelet St",
    "address_councildis": "B",
    "status": "Assigned to Contractor",
    "contractor": "Richards Disposal",
    "rowid": "1067691",
    "final_x": "3669548.30983",
    "final_y": "521171.216953",
    "longitude": "-90.10615953891194",
    "latitude": "29.92739735294438",
    "geocoded_column": {
      "latitude": "29.92739735294438",
      "longitude": "-90.10615953891194"
    }
  },
  {
    "service_request": "2024-1067690",
    "request_type": "Trash/Recycling",
    "request_reason": "Request a Large Item Pick Up",
    "date_created": "2024-02-14T13:41:44.000",
    "date_modified": "2024-02-14T13:41:45.000",
    "request_status": "Pending",
    "responsible_agency": "Department of Sanitation",
    "final_address": "3521 Annunciation St",
    "address_councildis": "B",
    "status": "Assigned to Contractor",
    "contractor": "Richards Disposal",
    "rowid": "1067690",
    "final_x": "3674619.1556",
    "final_y": "518348.444854",
    "longitude": "-90.09024878897728",
    "latitude": "29.919485334412535",
    "geocoded_column": {
      "latitude": "29.919485334412535",
      "longitude": "-90.09024878897728"
    }
  },
  {
    "service_request": "2024-1067689",
    "request_type": "Roads/Drainage",
    "request_reason": "Pothole",
    "date_created": "2024-02-14T13:41:41.000",
    "date_modified": "2024-02-14T13:42:19.000",
    "case_close_date": "2024-02-14T07:42:19.000",
    "request_status": "Closed",
    "responsible_agency": "Department of Public Works",
    "final_address": "2500 BLK S Derbigny St",
    "address_councildis": "B",
    "status": "Resolved",
    "rowid": "1067689",
    "final_x": "3673585.07569",
    "final_y": "527471.979293",
    "longitude": "-90.09320118559567",
    "latitude": "29.944602906395616",
    "geocoded_column": {
      "latitude": "29.944602906395616",
      "longitude": "-90.09320118559567"
    }
  },
  {
    "service_request": "2024-1067688",
    "request_type": "Abandoned Vehicles",
    "request_reason": "Abandoned/Junk Vehicles",
    "date_created": "2024-02-14T13:39:39.000",
    "date_modified": "2024-02-14T13:39:39.000",
    "request_status": "Pending",
    "responsible_agency": "Department of Public Works",
    "final_address": "1141 N Robertson St",
    "address_councildis": "D",
    "status": "Pending",
    "rowid": "1067688",
    "final_x": "3681126.16437",
    "final_y": "535855.004039",
    "longitude": "-90.0690997319334",
    "latitude": "29.967426810585486",
    "geocoded_column": {
      "latitude": "29.967426810585486",
      "longitude": "-90.0690997319334"
    }
  },
  {
    "service_request": "2024-1067687",
    "request_type": "Traffic Signals/Signs/Striping/Streetlights",
    "request_reason": "Street Light Outage/Malfunction",
    "date_created": "2024-02-14T13:38:53.000",
    "date_modified": "2024-02-14T13:38:53.000",
    "request_status": "Pending",
    "responsible_agency": "Department of Public Works",
    "final_address": "6854 General Haig St",
    "address_councildis": "A",
    "status": "Assigned to Contractor",
    "contractor": "Legacy Professional Services",
    "rowid": "1067687",
    "final_x": "3670957.52987",
    "final_y": "552940.598935",
    "longitude": "-90.1006320666859",
    "latitude": "30.01471088208776",
    "geocoded_column": {
      "latitude": "30.01471088208776",
      "longitude": "-90.1006320666859"
    }
  },
  {
    "service_request": "2024-1067686",
    "request_type": "Abandoned Vehicles",
    "request_reason": "Abandoned/Junk Vehicles",
    "date_created": "2024-02-14T13:34:19.000",
    "date_modified": "2024-02-14T13:34:20.000",
    "request_status": "Pending",
    "responsible_agency": "Department of Public Works",
    "final_address": "4740 De Montluzin St",
    "address_councildis": "D",
    "status": "Pending",
    "rowid": "1067686",
    "final_x": "3687087.37378",
    "final_y": "550618.100756",
    "longitude": "-90.04975190976606",
    "latitude": "30.007837867099038",
    "geocoded_column": {
      "latitude": "30.007837867099038",
      "longitude": "-90.04975190976606"
    }
  },
  {
    "service_request": "2024-1067685",
    "request_type": "Trash/Recycling",
    "request_reason": "Replace Recycling Cart",
    "date_created": "2024-02-14T13:33:35.000",
    "date_modified": "2024-02-14T13:33:35.000",
    "request_status": "Pending",
    "responsible_agency": "Department of Sanitation",
    "final_address": "3640 Cleveland Ave",
    "address_councildis": "B",
    "status": "Pending",
    "rowid": "1067685",
    "final_x": "3672069.38132",
    "final_y": "536972.066248",
    "longitude": "-90.09766322971149",
    "latitude": "29.970770009130135",
    "geocoded_column": {
      "latitude": "29.970770009130135",
      "longitude": "-90.09766322971149"
    }
  },
  {
    "service_request": "2024-1067684",
    "request_type": "Trash/Recycling",
    "request_reason": "Illegal Dumping",
    "date_created": "2024-02-14T13:33:09.000",
    "date_modified": "2024-02-14T13:33:09.000",
    "request_status": "Pending",
    "responsible_agency": "Department of Sanitation",
    "final_address": "4800 BLK Raymond Joseph Dr",
    "address_councildis": "E",
    "status": "Pending",
    "rowid": "1067684",
    "final_x": "3703651.1796",
    "final_y": "555741.09467",
    "longitude": "-89.99723360285378",
    "latitude": "30.021403549213975",
    "geocoded_column": {
      "latitude": "30.021403549213975",
      "longitude": "-89.99723360285378"
    }
  },
  {
    "service_request": "2024-1067683",
    "request_type": "Property Maintenance",
    "request_reason": "Property Maintenance",
    "date_created": "2024-02-14T13:31:56.000",
    "date_modified": "2024-02-14T13:31:56.000",
    "request_status": "Pending",
    "responsible_agency": "Department of Code Enforcement",
    "final_address": "CROWDER BLVD & HAYNE BLVD",
    "address_councildis": "E",
    "status": "Pending",
    "rowid": "1067683",
    "final_x": "3702703.2",
    "final_y": "563269.78",
    "longitude": "-89.99995211704505",
    "latitude": "30.042134864972766",
    "geocoded_column": {
      "latitude": "30.042134864972766",
      "longitude": "-89.99995211704505"
    }
  },
  {
    "service_request": "2024-1067682",
    "request_type": "Trash/Recycling",
    "request_reason": "Repair Trash Cart",
    "date_created": "2024-02-14T13:28:07.000",
    "date_modified": "2024-02-14T13:28:07.000",
    "request_status": "Pending",
    "responsible_agency": "Department of Sanitation",
    "final_address": "3743 Tall Pines Dr",
    "address_councildis": "C",
    "status": "Assigned to Contractor",
    "contractor": "Richards Disposal",
    "rowid": "1067682",
    "final_x": "3703975.82628",
    "final_y": "513409.576882",
    "longitude": "-89.99776684286627",
    "latitude": "29.904996781023822",
    "geocoded_column": {
      "latitude": "29.904996781023822",
      "longitude": "-89.99776684286627"
    }
  },
  {
    "service_request": "2024-1067680",
    "request_type": "Trash/Recycling",
    "request_reason": "Illegal Dumping",
    "date_created": "2024-02-14T13:24:27.000",
    "date_modified": "2024-02-14T13:24:27.000",
    "request_status": "Pending",
    "responsible_agency": "Department of Sanitation",
    "final_address": "2978 Ridgeway Blvd",
    "address_councildis": "E",
    "status": "Pending",
    "rowid": "1067680",
    "final_x": "3744248.91457",
    "final_y": "596299.948543",
    "longitude": "-89.86731895468311",
    "latitude": "30.131558088174632",
    "geocoded_column": {
      "latitude": "30.131558088174632",
      "longitude": "-89.86731895468311"
    }
  },
  {
    "service_request": "2024-1067679",
    "request_type": "Trash/Recycling",
    "request_reason": "Illegal Dumping",
    "date_created": "2024-02-14T13:24:01.000",
    "date_modified": "2024-02-14T13:24:01.000",
    "request_status": "Pending",
    "responsible_agency": "Department of Sanitation",
    "final_address": "2978 Ridgeway Blvd",
    "address_councildis": "E",
    "status": "Pending",
    "rowid": "1067679",
    "final_x": "3744248.91457",
    "final_y": "596299.948543",
    "longitude": "-89.86731895468311",
    "latitude": "30.131558088174632",
    "geocoded_column": {
      "latitude": "30.131558088174632",
      "longitude": "-89.86731895468311"
    }
  },
  {
    "service_request": "2024-1067678",
    "request_type": "Roads/Drainage",
    "request_reason": "Pothole",
    "date_created": "2024-02-14T13:21:45.000",
    "date_modified": "2024-02-14T13:22:13.000",
    "case_close_date": "2024-02-14T07:22:13.000",
    "request_status": "Closed",
    "responsible_agency": "Department of Public Works",
    "final_address": "100 BLK Poydras St",
    "address_councildis": "B",
    "status": "Resolved",
    "rowid": "1067678",
    "final_x": "3682802.5881",
    "final_y": "528894.478744",
    "longitude": "-90.06404905779497",
    "latitude": "29.948236774850592",
    "geocoded_column": {
      "latitude": "29.948236774850592",
      "longitude": "-90.06404905779497"
    }
  },
  {
    "service_request": "2024-1067677",
    "request_type": "Trash/Recycling",
    "request_reason": "Repair Trash Cart",
    "date_created": "2024-02-14T13:19:55.000",
    "date_modified": "2024-02-14T13:19:56.000",
    "request_status": "Pending",
    "responsible_agency": "Department of Sanitation",
    "final_address": "1961 Humanity St",
    "address_councildis": "D",
    "status": "Assigned to Contractor",
    "contractor": "IV Waste",
    "rowid": "1067677",
    "final_x": "3682631.63874",
    "final_y": "544692.200591",
    "longitude": "-90.06403627356285",
    "latitude": "29.991680254043096",
    "geocoded_column": {
      "latitude": "29.991680254043096",
      "longitude": "-90.06403627356285"
    }
  },
  {
    "service_request": "2024-1067676",
    "request_type": "Trash/Recycling",
    "request_reason": "Repair Recycling Cart",
    "date_created": "2024-02-14T13:19:34.000",
    "date_modified": "2024-02-14T13:19:34.000",
    "request_status": "Pending",
    "responsible_agency": "Department of Sanitation",
    "final_address": "4622 Eastern St",
    "address_councildis": "D",
    "status": "Pending",
    "rowid": "1067676",
    "final_x": "3688012.7334",
    "final_y": "549999.85218",
    "longitude": "-90.04685036154713",
    "latitude": "30.006109374305257",
    "geocoded_column": {
      "latitude": "30.006109374305257",
      "longitude": "-90.04685036154713"
    }
  },
  {
    "service_request": "2024-1067675",
    "request_type": "Roads/Drainage",
    "request_reason": "Pothole",
    "date_created": "2024-02-14T13:19:11.000",
    "date_modified": "2024-02-14T13:19:48.000",
    "case_close_date": "2024-02-14T07:19:48.000",
    "request_status": "Closed",
    "responsible_agency": "Department of Public Works",
    "final_address": "1100 BLK Thalia St",
    "address_councildis": "B",
    "status": "Resolved",
    "rowid": "1067675",
    "final_x": "3680350.02673",
    "final_y": "525284.068642",
    "longitude": "-90.07191829112026",
    "latitude": "29.938383825750112",
    "geocoded_column": {
      "latitude": "29.938383825750112",
      "longitude": "-90.07191829112026"
    }
  },
  {
    "service_request": "2024-1067674",
    "request_type": "Roads/Drainage",
    "request_reason": "Pothole",
    "date_created": "2024-02-14T13:16:14.000",
    "date_modified": "2024-02-14T13:17:18.000",
    "case_close_date": "2024-02-14T07:17:18.000",
    "request_status": "Closed",
    "responsible_agency": "Department of Public Works",
    "final_address": "1000 BLK Thalia St",
    "address_councildis": "B",
    "status": "Resolved",
    "rowid": "1067674",
    "final_x": "3680723.16247",
    "final_y": "525192.933326",
    "longitude": "-90.07074343574735",
    "latitude": "29.938121933742863",
    "geocoded_column": {
      "latitude": "29.938121933742863",
      "longitude": "-90.07074343574735"
    }
  },
  {
    "service_request": "2024-1067673",
    "request_type": "Trash/Recycling",
    "request_reason": "Illegal Dumping",
    "date_created": "2024-02-14T13:13:56.000",
    "date_modified": "2024-02-14T13:15:55.000",
    "request_status": "Pending",
    "responsible_agency": "Department of Sanitation",
    "final_address": "2978 Ridgeway Blvd",
    "address_councildis": "E",
    "status": "Pending",
    "rowid": "1067673",
    "final_x": "3744248.91457",
    "final_y": "596299.948543",
    "longitude": "-89.86731895468311",
    "latitude": "30.131558088174632",
    "geocoded_column": {
      "latitude": "30.131558088174632",
      "longitude": "-89.86731895468311"
    }
  },
  {
    "service_request": "2024-1067672",
    "request_type": "Traffic Signals/Signs/Striping/Streetlights",
    "request_reason": "Street Light Outage/Malfunction",
    "date_created": "2024-02-14T13:11:45.000",
    "date_modified": "2024-02-14T13:11:46.000",
    "request_status": "Pending",
    "responsible_agency": "Department of Public Works",
    "final_address": "2472 Bedford Dr",
    "address_councildis": "C",
    "status": "Assigned to Contractor",
    "contractor": "Legacy Professional Services",
    "rowid": "1067672",
    "final_x": "3705275.6387",
    "final_y": "521779.81849",
    "longitude": "-89.99335568763448",
    "latitude": "29.92797033317305",
    "geocoded_column": {
      "latitude": "29.92797033317305",
      "longitude": "-89.99335568763448"
    }
  },
  {
    "service_request": "2024-1067671",
    "request_type": "Trash/Recycling",
    "request_reason": "Request a Large Item Pick Up",
    "date_created": "2024-02-14T13:09:40.000",
    "date_modified": "2024-02-14T16:28:25.000",
    "case_close_date": "2024-02-14T10:28:25.000",
    "request_status": "Closed",
    "responsible_agency": "Department of Sanitation",
    "final_address": "6390 Eastover Dr",
    "address_councildis": "E",
    "status": "Assigned to Contractor",
    "contractor": "Waste Pro",
    "contractor_action": "Completed",
    "rowid": "1067671",
    "final_x": "3718165.90578",
    "final_y": "563340.759008",
    "longitude": "-89.95108193212951",
    "latitude": "30.0418262096572",
    "geocoded_column": {
      "latitude": "30.0418262096572",
      "longitude": "-89.95108193212951"
    }
  },
  {
    "service_request": "2024-1067670",
    "request_type": "Abandoned Vehicles",
    "request_reason": "Abandoned/Junk Vehicles",
    "date_created": "2024-02-14T13:09:35.000",
    "date_modified": "2024-02-14T13:15:49.000",
    "request_status": "Closed",
    "responsible_agency": "Department of Public Works",
    "final_address": "3600 BLK Orleans Ave",
    "address_councildis": "A",
    "status": "Inspected",
    "rowid": "1067670",
    "final_x": "3673966.42368",
    "final_y": "539244.96034",
    "longitude": "-90.09159433831887",
    "latitude": "29.97696330720575",
    "geocoded_column": {
      "latitude": "29.97696330720575",
      "longitude": "-90.09159433831887"
    }
  },
  {
    "service_request": "2024-1067669",
    "request_type": "Traffic Signals/Signs/Striping/Streetlights",
    "request_reason": "Street Light Outage/Malfunction",
    "date_created": "2024-02-14T13:07:47.000",
    "date_modified": "2024-02-14T13:07:47.000",
    "request_status": "Pending",
    "responsible_agency": "Department of Public Works",
    "final_address": "2460 Bedford Dr",
    "address_councildis": "C",
    "status": "Assigned to Contractor",
    "contractor": "Legacy Professional Services",
    "rowid": "1067669",
    "final_x": "3705323.76446",
    "final_y": "521876.66297",
    "longitude": "-89.99320019142745",
    "latitude": "29.928235074065615",
    "geocoded_column": {
      "latitude": "29.928235074065615",
      "longitude": "-89.99320019142745"
    }
  },
  {
    "service_request": "2024-1067668",
    "request_type": "Traffic Signals/Signs/Striping/Streetlights",
    "request_reason": "Street Light Outage/Malfunction",
    "date_created": "2024-02-14T13:01:51.000",
    "date_modified": "2024-02-14T13:01:51.000",
    "request_status": "Pending",
    "responsible_agency": "Department of Public Works",
    "final_address": "8623 Colapissa St",
    "address_councildis": "A",
    "status": "Assigned to Contractor",
    "contractor": "Legacy Professional Services",
    "rowid": "1067668",
    "final_x": "3665106.47405",
    "final_y": "534751.887814",
    "longitude": "-90.11972730443175",
    "latitude": "29.9648698807414",
    "geocoded_column": {
      "latitude": "29.9648698807414",
      "longitude": "-90.11972730443175"
    }
  },
  {
    "service_request": "2024-1067667",
    "request_type": "Roads/Drainage",
    "request_reason": "Catch Basin - Broken/Damage",
    "date_created": "2024-02-14T13:01:48.000",
    "date_modified": "2024-02-14T13:01:48.000",
    "request_status": "Pending",
    "responsible_agency": "Department of Public Works",
    "final_address": "10 Elysian Fields Ave",
    "address_councildis": "D",
    "status": "Pending",
    "rowid": "1067667",
    "final_x": "3683547.89602",
    "final_y": "552090.847318",
    "longitude": "-90.06088248659371",
    "latitude": "30.011995932794086",
    "geocoded_column": {
      "latitude": "30.011995932794086",
      "longitude": "-90.06088248659371"
    }
  },
  {
    "service_request": "2024-1067666",
    "request_type": "Abandoned Vehicles",
    "request_reason": "Abandoned/Junk Vehicles",
    "date_created": "2024-02-14T13:00:48.000",
    "date_modified": "2024-02-14T13:00:48.000",
    "request_status": "Pending",
    "responsible_agency": "Department of Public Works",
    "final_address": "1000 BLK Race St",
    "address_councildis": "B",
    "status": "Pending",
    "rowid": "1067666",
    "final_x": "3680381.63625",
    "final_y": "523800.355074",
    "longitude": "-90.07187006577261",
    "latitude": "29.934303147628842",
    "geocoded_column": {
      "latitude": "29.934303147628842",
      "longitude": "-90.07187006577261"
    }
  },
  {
    "service_request": "2024-1067665",
    "request_type": "Abandoned Vehicles",
    "request_reason": "Abandoned/Junk Vehicles",
    "date_created": "2024-02-14T13:00:02.000",
    "date_modified": "2024-02-14T13:00:02.000",
    "request_status": "Pending",
    "responsible_agency": "Department of Public Works",
    "final_address": "2423 Aubry St",
    "address_councildis": "D",
    "status": "Pending",
    "rowid": "1067665",
    "final_x": "3680467.48866",
    "final_y": "540538.282123",
    "longitude": "-90.07101690770774",
    "latitude": "29.98032417387519",
    "geocoded_column": {
      "latitude": "29.98032417387519",
      "longitude": "-90.07101690770774"
    }
  },
  {
    "service_request": "2024-1067664",
    "request_type": "Trash/Recycling",
    "request_reason": "Replace Trash Cart",
    "date_created": "2024-02-14T12:58:08.000",
    "date_modified": "2024-02-14T12:58:09.000",
    "request_status": "Pending",
    "responsible_agency": "Department of Sanitation",
    "final_address": "1907 Aubry St",
    "address_councildis": "D",
    "status": "Assigned to Contractor",
    "contractor": "IV Waste",
    "rowid": "1067664",
    "final_x": "3681940.98396",
    "final_y": "539423.470922",
    "longitude": "-90.066401917605",
    "latitude": "29.97721411490636",
    "geocoded_column": {
      "latitude": "29.97721411490636",
      "longitude": "-90.066401917605"
    }
  },
  {
    "service_request": "2024-1067663",
    "request_type": "Trash/Recycling",
    "request_reason": "Request a Large Item Pick Up",
    "date_created": "2024-02-14T12:55:24.000",
    "date_modified": "2024-02-14T12:55:25.000",
    "request_status": "Pending",
    "responsible_agency": "Department of Sanitation",
    "final_address": "5801 Sutton Pl",
    "address_councildis": "C",
    "status": "Assigned to Contractor",
    "contractor": "Richards Disposal",
    "rowid": "1067663",
    "final_x": "3705375.69182",
    "final_y": "518532.610871",
    "longitude": "-89.99315973716017",
    "latitude": "29.919038424024613",
    "geocoded_column": {
      "latitude": "29.919038424024613",
      "longitude": "-89.99315973716017"
    }
  },
  {
    "service_request": "2024-1067662",
    "request_type": "Roads/Drainage",
    "request_reason": "Pothole",
    "date_created": "2024-02-14T12:50:36.000",
    "date_modified": "2024-02-14T12:51:07.000",
    "case_close_date": "2024-02-14T06:51:07.000",
    "request_status": "Closed",
    "responsible_agency": "Department of Public Works",
    "final_address": "3726 Milan St",
    "address_councildis": "B",
    "status": "Resolved",
    "rowid": "1067662",
    "final_x": "3670794.95803",
    "final_y": "528445.014336",
    "longitude": "-90.10197741866344",
    "latitude": "29.947361172244",
    "geocoded_column": {
      "latitude": "29.947361172244",
      "longitude": "-90.10197741866344"
    }
  },
  {
    "service_request": "2024-1067660",
    "request_type": "Abandoned Vehicles",
    "request_reason": "Abandoned/Junk Vehicles",
    "date_created": "2024-02-14T12:48:40.000",
    "date_modified": "2024-02-14T12:48:40.000",
    "request_status": "Pending",
    "responsible_agency": "Department of Public Works",
    "final_address": "2805 Carondelet St",
    "address_councildis": "B",
    "status": "Pending",
    "rowid": "1067660",
    "final_x": "3675614.71253",
    "final_y": "522855.212091",
    "longitude": "-90.08695157086846",
    "latitude": "29.931847752664915",
    "geocoded_column": {
      "latitude": "29.931847752664915",
      "longitude": "-90.08695157086846"
    }
  },
  {
    "service_request": "2024-1067659",
    "request_type": "Trash/Recycling",
    "request_reason": "Return Recycling Cart",
    "date_created": "2024-02-14T12:48:04.000",
    "date_modified": "2024-02-14T12:48:04.000",
    "request_status": "Pending",
    "responsible_agency": "Department of Sanitation",
    "final_address": "1317 Cambronne St",
    "address_councildis": "A",
    "status": "Pending",
    "rowid": "1067659",
    "final_x": "3661539.60781",
    "final_y": "529448.948929",
    "longitude": "-90.13116699646764",
    "latitude": "29.950391910127173",
    "geocoded_column": {
      "latitude": "29.950391910127173",
      "longitude": "-90.13116699646764"
    }
  },
  {
    "service_request": "2024-1067658",
    "request_type": "Trash/Recycling",
    "request_reason": "Request a Large Item Pick Up",
    "date_created": "2024-02-14T12:37:41.000",
    "date_modified": "2024-02-14T12:37:42.000",
    "request_status": "Pending",
    "responsible_agency": "Department of Sanitation",
    "final_address": "7151 E Renaissance Ct",
    "address_councildis": "E",
    "status": "Assigned to Contractor",
    "contractor": "Waste Pro",
    "rowid": "1067658",
    "final_x": "3717234.4046",
    "final_y": "568046.991781",
    "longitude": "-89.95384672649836",
    "latitude": "30.054797286422193",
    "geocoded_column": {
      "latitude": "30.054797286422193",
      "longitude": "-89.95384672649836"
    }
  },
  {
    "service_request": "2024-1067657",
    "request_type": "Trash/Recycling",
    "request_reason": "Order Trash Cart",
    "date_created": "2024-02-14T12:37:33.000",
    "date_modified": "2024-02-14T12:37:34.000",
    "request_status": "Pending",
    "responsible_agency": "Department of Sanitation",
    "final_address": "7801 Vanderkloot Ave",
    "address_councildis": "E",
    "status": "Assigned to Contractor",
    "contractor": "Waste Pro",
    "rowid": "1067657",
    "final_x": "3705724.34148",
    "final_y": "563712.851041",
    "longitude": "-89.99038781875598",
    "latitude": "30.043256122497525",
    "geocoded_column": {
      "latitude": "30.043256122497525",
      "longitude": "-89.99038781875598"
    }
  },
  {
    "service_request": "2024-1067656",
    "request_type": "Property Maintenance",
    "request_reason": "Property Maintenance",
    "date_created": "2024-02-14T12:35:17.000",
    "date_modified": "2024-02-14T15:51:18.000",
    "case_close_date": "2024-02-14T09:51:18.000",
    "request_status": "Closed",
    "responsible_agency": "Department of Code Enforcement",
    "final_address": "4826 Lurline St",
    "address_councildis": "E",
    "status": "Resolved",
    "rowid": "1067656",
    "final_x": "3711854.12702",
    "final_y": "556558.751962",
    "longitude": "-89.97128408713846",
    "latitude": "30.023386232812246",
    "geocoded_column": {
      "latitude": "30.023386232812246",
      "longitude": "-89.97128408713846"
    }
  },
  {
    "service_request": "2024-1067655",
    "request_type": "Trash/Recycling",
    "request_reason": "Replace Recycling Cart",
    "date_created": "2024-02-14T12:34:15.000",
    "date_modified": "2024-02-14T12:34:16.000",
    "request_status": "Pending",
    "responsible_agency": "Department of Sanitation",
    "final_address": "1437 S Carrollton Ave",
    "address_councildis": "A",
    "status": "Pending",
    "rowid": "1067655",
    "final_x": "3662754.54963",
    "final_y": "528998.52864",
    "longitude": "-90.12734579366413",
    "latitude": "29.94911829419373",
    "geocoded_column": {
      "latitude": "29.94911829419373",
      "longitude": "-90.12734579366413"
    }
  },
  {
    "service_request": "2024-1067654",
    "request_type": "Trash/Recycling",
    "request_reason": "Repair Trash Cart",
    "date_created": "2024-02-14T12:26:25.000",
    "date_modified": "2024-02-14T12:26:26.000",
    "request_status": "Pending",
    "responsible_agency": "Department of Sanitation",
    "final_address": "4021 Chestnut St",
    "address_councildis": "B",
    "status": "Assigned to Contractor",
    "contractor": "Richards Disposal",
    "rowid": "1067654",
    "final_x": "3672269.28167",
    "final_y": "519710.416888",
    "longitude": "-90.0976198209347",
    "latitude": "29.923300211612524",
    "geocoded_column": {
      "latitude": "29.923300211612524",
      "longitude": "-90.0976198209347"
    }
  },
  {
    "service_request": "2024-1067653",
    "request_type": "Trash/Recycling",
    "request_reason": "Missed Trash Pick-Up",
    "date_created": "2024-02-14T12:26:03.000",
    "date_modified": "2024-02-14T12:26:04.000",
    "request_status": "Pending",
    "responsible_agency": "Department of Sanitation",
    "final_address": "4021 Chestnut St",
    "address_councildis": "B",
    "status": "Assigned to Contractor",
    "contractor": "Richards Disposal",
    "rowid": "1067653",
    "final_x": "3672269.28167",
    "final_y": "519710.416888",
    "longitude": "-90.0976198209347",
    "latitude": "29.923300211612524",
    "geocoded_column": {
      "latitude": "29.923300211612524",
      "longitude": "-90.0976198209347"
    }
  },
  {
    "service_request": "2024-1067652",
    "request_type": "Abandoned Vehicles",
    "request_reason": "Vehicle Blocking Your Driveway",
    "date_created": "2024-02-14T12:20:59.000",
    "date_modified": "2024-02-14T12:20:59.000",
    "request_status": "Pending",
    "responsible_agency": "Department of Public Works",
    "final_address": "2252 St Denis St",
    "address_councildis": "D",
    "status": "Pending",
    "rowid": "1067652",
    "final_x": "3684754.47522",
    "final_y": "546256.949328",
    "longitude": "-90.05727565631989",
    "latitude": "29.99591792395558",
    "geocoded_column": {
      "latitude": "29.99591792395558",
      "longitude": "-90.05727565631989"
    }
  },
  {
    "service_request": "2024-1067651",
    "request_type": "Trash/Recycling",
    "request_reason": "Return Recycling Cart",
    "date_created": "2024-02-14T12:19:51.000",
    "date_modified": "2024-02-14T12:19:51.000",
    "request_status": "Pending",
    "responsible_agency": "Department of Sanitation",
    "final_address": "5809 St Bernard Ave",
    "address_councildis": "D",
    "status": "Pending",
    "rowid": "1067651",
    "final_x": "3676984.21275",
    "final_y": "553820.067735",
    "longitude": "-90.0815603051352",
    "latitude": "30.01694945388819",
    "geocoded_column": {
      "latitude": "30.01694945388819",
      "longitude": "-90.0815603051352"
    }
  },
  {
    "service_request": "2024-1067650",
    "request_type": "Traffic Signals/Signs/Striping/Streetlights",
    "request_reason": "Traffic Signal Malfunctioning/Damaged",
    "date_created": "2024-02-14T12:17:14.000",
    "date_modified": "2024-02-14T12:17:14.000",
    "request_status": "Pending",
    "responsible_agency": "Department of Public Works",
    "final_address": "POYDRAS ST & TCHOUPITOULAS ST",
    "address_councildis": "B",
    "status": "Pending",
    "rowid": "1067650",
    "final_x": "3681889.0",
    "final_y": "529116.48",
    "longitude": "-90.06692588082657",
    "latitude": "29.948874998826515",
    "geocoded_column": {
      "latitude": "29.948874998826515",
      "longitude": "-90.06692588082657"
    }
  },
  {
    "service_request": "2024-1067649",
    "request_type": "Traffic Signals/Signs/Striping/Streetlights",
    "request_reason": "Traffic Signal Malfunctioning/Damaged",
    "date_created": "2024-02-14T12:16:43.000",
    "date_modified": "2024-02-14T12:16:43.000",
    "request_status": "Pending",
    "responsible_agency": "Department of Public Works",
    "final_address": "CONVENTION CENTER BLVD & CANAL ST",
    "address_councildis": "C",
    "status": "Pending",
    "rowid": "1067649",
    "final_x": "3682833.2",
    "final_y": "529485.68",
    "longitude": "-90.06393172402518",
    "latitude": "29.94986144618824",
    "geocoded_column": {
      "latitude": "29.94986144618824",
      "longitude": "-90.06393172402518"
    }
  },
  {
    "service_request": "2024-1067648",
    "request_type": "Traffic Signals/Signs/Striping/Streetlights",
    "request_reason": "Traffic Signal Malfunctioning/Damaged",
    "date_created": "2024-02-14T12:15:52.000",
    "date_modified": "2024-02-14T12:15:52.000",
    "request_status": "Pending",
    "responsible_agency": "Department of Public Works",
    "final_address": "CANAL ST & CAMP ST & CHARTRES ST",
    "address_councildis": "B",
    "status": "Pending",
    "rowid": "1067648",
    "final_x": "3681440.9",
    "final_y": "530424.38",
    "longitude": "-90.06829513253405",
    "latitude": "29.9524848929036",
    "geocoded_column": {
      "latitude": "29.9524848929036",
      "longitude": "-90.06829513253405"
    }
  },
  {
    "service_request": "2024-1067647",
    "request_type": "Roads/Drainage",
    "request_reason": "Pothole",
    "date_created": "2024-02-14T12:15:40.000",
    "date_modified": "2024-02-14T12:15:40.000",
    "request_status": "Pending",
    "responsible_agency": "Department of Public Works",
    "final_address": "2130 Perdido St",
    "address_councildis": "B",
    "status": "Pending",
    "rowid": "1067647",
    "final_x": "3675609.30229",
    "final_y": "531912.165187",
    "longitude": "-90.08665757097846",
    "latitude": "29.956751546943305",
    "geocoded_column": {
      "latitude": "29.956751546943305",
      "longitude": "-90.08665757097846"
    }
  },
  {
    "service_request": "2024-1067646",
    "request_type": "Abandoned Vehicles",
    "request_reason": "Abandoned/Junk Vehicles",
    "date_created": "2024-02-14T12:13:17.000",
    "date_modified": "2024-02-14T12:13:17.000",
    "request_status": "Pending",
    "responsible_agency": "Department of Public Works",
    "final_address": "814 Fourth St",
    "address_councildis": "B",
    "status": "Pending",
    "rowid": "1067646",
    "final_x": "3677811.83291",
    "final_y": "520164.501432",
    "longitude": "-90.08010839990453",
    "latitude": "29.92438327762147",
    "geocoded_column": {
      "latitude": "29.92438327762147",
      "longitude": "-90.08010839990453"
    }
  },