[
  {
    "service_request": "2022-955755",
    "request_type": "Abandoned Vehicles",
    "request_reason": "Abandoned/Junk Vehicles",
    "date_created": "2022-12-23T00:44:14.000",
    "date_modified": "2022-12-23T00:44:14.000",
    "request_status": "Pending",
    "responsible_agency": "Department of Public Works",
    "final_address": "8333 Jeannette St",
    "address_councildis": "A",
    "status": "Pending",
    "rowid": "955755",
    "final_x": "3661933.34554",
    "final_y": "529872.838721",
    "longitude": "-90.12990971486317",
    "latitude": "29.95154610626974",
    "geocoded_column": {
      "latitude": "29.95154610626974",
      "longitude": "-90.12990971486317"
    }
  },
  {
    "service_request": "2022-955754",
    "request_type": "Mayor's Request",
    "request_reason": "Requests to the Mayor",
    "date_created": "2022-12-22T23:36:11.000",
    "date_modified": "2022-12-22T23:36:11.000",
    "request_status": "Pending",
    "responsible_agency": "Executive Office of the Mayor",
    "status": "Pending",
    "rowid": "955754",
    "longitude": "0.0",
    "latitude": "0.0",
    "geocoded_column": {
      "latitude": "0.0",
      "longitude": "0.0"
    }
  },
  {
    "service_request": "2022-955753",
    "request_type": "Law Enforcement Services",
    "request_reason": "Off Duty Officer for Hire",
    "date_created": "2022-12-22T23:22:59.000",
    "date_modified": "2022-12-22T23:22:59.000",
    "request_status": "Pending",
    "responsible_agency": "Office of Police Secondary Employment",
    "status": "Pending",
    "rowid": "955753",
    "longitude": "0.0",
    "latitude": "0.0",
    "geocoded_column": {
      "latitude": "0.0",
      "longitude": "0.0"
    }
  },
  {
    "service_request": "2022-955752",
    "request_type": "Traffic Signals/Signs/Striping/Streetlights",
    "request_reason": "Street Light Outage/Malfunction",
    "date_created": "2022-12-22T22:28:09.000",
    "date_modified": "2022-12-22T22:28:09.000",
    "request_status": "Pending",
    "responsible_agency": "Department of Public Works",
    "final_address": "6075 Argonne Blvd",
    "address_councildis": "A",
    "status": "Pending",
    "contractor": "Legacy Professional Services",
    "rowid": "955752",
    "final_x": "3670258.78286",
    "final_y": "547713.489426",
    "longitude": "-90.10301710110474",
    "latitude": "30.00035881606608",
    "geocoded_column": {
      "latitude": "30.00035881606608",
      "longitude": "-90.10301710110474"
    }
  },
  {
    "service_request": "2022-955751",
    "request_type": "Trash/Recycling",
    "request_reason": "MIssed Recycling Pick-Up",
    "date_created": "2022-12-22T22:21:08.000",
    "date_modified": "2022-12-22T22:21:08.000",
    "request_status": "Pending",
    "responsible_agency": "Department of Sanitation",
    "final_address": "5944 Argonne Blvd",
    "address_councildis": "A",
    "status": "Assigned to Contractor",
    "contractor": "IV Waste",
    "rowid": "955751",
    "final_x": "3670066.86791",
    "final_y": "546827.277457",
    "longitude": "-90.1036534180396",
    "latitude": "29.997927705448376",
    "geocoded_column": {
      "latitude": "29.997927705448376",
      "longitude": "-90.1036534180396"
    }
  },
  {
    "service_request": "2022-955750",
    "request_type": "Trash/Recycling",
    "request_reason": "Missed Trash Pick-Up",
    "date_created": "2022-12-22T22:03:12.000",
    "date_modified": "2022-12-22T22:03:13.000",
    "request_status": "Pending",
    "responsible_agency": "Department of Sanitation",
    "final_address": "4032 Vincennes Pl",
    "address_councildis": "B",
    "status": "Assigned to Contractor",
    "contractor": "Richards Disposal",
    "rowid": "955750",
    "final_x": "3668429.93934",
    "final_y": "530387.253314",
    "longitude": "-90.10937920682078",
    "latitude": "29.952771367296748",
    "geocoded_column": {
      "latitude": "29.952771367296748",
      "longitude": "-90.10937920682078"
    }
  },
  {
    "service_request": "2022-955749",
    "request_type": "Roads/Drainage",
    "request_reason": "Pothole",
    "date_created": "2022-12-22T21:42:41.000",
    "date_modified": "2022-12-22T21:43:38.000",
    "request_status": "Pending",
    "responsible_agency": "Department of Public Works",
    "final_address": "COLISEUM ST & GENERAL TAYLOR",
    "address_councildis": "B",
    "status": "Pending",
    "rowid": "955749",
    "final_x": "3672874.7",
    "final_y": "520015.98",
    "longitude": "-90.09569832258471",
    "latitude": "29.924122445708274",
    "geocoded_column": {
      "latitude": "29.924122445708274",
      "longitude": "-90.09569832258471"
    }
  },
  {
    "service_request": "2022-955748",
    "request_type": "Traffic Signals/Signs/Striping/Streetlights",
    "request_reason": "Street Light Outage/Malfunction",
    "date_created": "2022-12-22T21:36:40.000",
    "date_modified": "2022-12-22T21:36:40.000",
    "request_status": "Pending",
    "responsible_agency": "Department of Public Works",
    "final_address": "1461 Magazine St",
    "address_councildis": "B",
    "status": "Pending",
    "contractor": "Legacy Professional Services",
    "rowid": "955748",
    "final_x": "3680202.78491",
    "final_y": "524023.150652",
    "longitude": "-90.0724269539209",
    "latitude": "29.934921174757065",
    "geocoded_column": {
      "latitude": "29.934921174757065",
      "longitude": "-90.0724269539209"
    }
  },
  {
    "service_request": "2022-955747",
    "request_type": "Trash/Recycling",
    "request_reason": "Missed Trash Pick-Up",
    "date_created": "2022-12-22T21:34:46.000",
    "date_modified": "2022-12-22T21:34:47.000",
    "request_status": "Pending",
    "responsible_agency": "Department of Sanitation",
    "final_address": "1461 Magazine St",
    "address_councildis": "B",
    "status": "Assigned to Contractor",
    "contractor": "Richards Disposal",
    "rowid": "955747",
    "final_x": "3680202.78491",
    "final_y": "524023.150652",
    "longitude": "-90.0724269539209",
    "latitude": "29.934921174757065",
    "geocoded_column": {
      "latitude": "29.934921174757065",
      "longitude": "-90.0724269539209"
    }
  },
  {
    "service_request": "2022-955746",
    "request_type": "Traffic Signals/Signs/Striping/Streetlights",
    "request_reason": "Street Light Outage/Malfunction",
    "date_created": "2022-12-22T20:55:14.000",
    "date_modified": "2022-12-22T20:55:14.000",
    "request_status": "Pending",
    "responsible_agency": "Department of Public Works",
    "final_address": "1501 Mandeville St",
    "address_councildis": "C",
    "status": "Pending",
    "contractor": "Legacy Professional Services",
    "rowid": "955746",
    "final_x": "3685693.2742",
    "final_y": "537873.872585",
    "longitude": "-90.05460559774029",
    "latitude": "29.972838650290722",
    "geocoded_column": {
      "latitude": "29.972838650290722",
      "longitude": "-90.05460559774029"
    }
  },
  {
    "service_request": "2022-955745",
    "request_type": "Traffic Signals/Signs/Striping/Streetlights",
    "request_reason": "Street Light Outage/Malfunction",
    "date_created": "2022-12-22T20:53:39.000",
    "date_modified": "2022-12-22T20:53:39.000",
    "request_status": "Pending",
    "responsible_agency": "Department of Public Works",
    "final_address": "12161 E Barrington Dr",
    "address_councildis": "E",
    "status": "Pending",
    "contractor": "Legacy Professional Services",
    "rowid": "955745",
    "final_x": "3715122.24127",
    "final_y": "566451.043747",
    "longitude": "-89.96058317861758",
    "latitude": "30.05047883243071",
    "geocoded_column": {
      "latitude": "30.05047883243071",
      "longitude": "-89.96058317861758"
    }
  },
  {
    "service_request": "2022-955744",
    "request_type": "Traffic Signals/Signs/Striping/Streetlights",
    "request_reason": "Street Light Outage/Malfunction",
    "date_created": "2022-12-22T20:49:30.000",
    "date_modified": "2022-12-22T20:49:31.000",
    "request_status": "Pending",
    "responsible_agency": "Department of Public Works",
    "final_address": "12151 E Barrington Dr",
    "address_councildis": "E",
    "status": "Pending",
    "contractor": "Legacy Professional Services",
    "rowid": "955744",
    "final_x": "3715075.50642",
    "final_y": "566419.790947",
    "longitude": "-89.9607320726262",
    "latitude": "30.05039443941739",
    "geocoded_column": {
      "latitude": "30.05039443941739",
      "longitude": "-89.9607320726262"
    }
  },
  {
    "service_request": "2022-955743",
    "request_type": "Trash/Recycling",
    "request_reason": "Missed Trash Pick-Up",
    "date_created": "2022-12-22T20:17:59.000",
    "date_modified": "2022-12-22T20:18:00.000",
    "request_status": "Pending",
    "responsible_agency": "Department of Sanitation",
    "final_address": "620 Soraparu St",
    "address_councildis": "B",
    "status": "Assigned to Contractor",
    "contractor": "Richards Disposal",
    "rowid": "955743",
    "final_x": "3679239.42933",
    "final_y": "520277.98508",
    "longitude": "-90.0755980373529",
    "latitude": "29.924652310462665",
    "geocoded_column": {
      "latitude": "29.924652310462665",
      "longitude": "-90.0755980373529"
    }
  },
  {
    "service_request": "2022-955742",
    "request_type": "Trash/Recycling",
    "request_reason": "MIssed Recycling Pick-Up",
    "date_created": "2022-12-22T19:32:30.000",
    "date_modified": "2022-12-22T19:32:31.000",
    "request_status": "Pending",
    "responsible_agency": "Department of Sanitation",
    "final_address": "417 Henry Clay Ave",
    "address_councildis": "A",
    "status": "Assigned to Contractor",
    "contractor": "Richards Disposal",
    "rowid": "955742",
    "final_x": "3663375.75616",
    "final_y": "518379.00959",
    "longitude": "-90.12573773977351",
    "latitude": "29.919899984815505",
    "geocoded_column": {
      "latitude": "29.919899984815505",
      "longitude": "-90.12573773977351"
    }
  },
  {
    "service_request": "2022-955741",
    "request_type": "Trash/Recycling",
    "request_reason": "Missed Trash Pick-Up",
    "date_created": "2022-12-22T19:21:38.000",
    "date_modified": "2022-12-22T19:21:38.000",
    "request_status": "Pending",
    "responsible_agency": "Department of Sanitation",
    "final_address": "1218 Race St",
    "address_councildis": "B",
    "status": "Assigned to Contractor",
    "contractor": "Richards Disposal",
    "rowid": "955741",
    "final_x": "3679562.20181",
    "final_y": "523954.95238",
    "longitude": "-90.07445163294042",
    "latitude": "29.93475301917532",
    "geocoded_column": {
      "latitude": "29.93475301917532",
      "longitude": "-90.07445163294042"
    }
  },
  {
    "service_request": "2022-955740",
    "request_type": "Trash/Recycling",
    "request_reason": "Missed Trash Pick-Up",
    "date_created": "2022-12-22T19:11:10.000",
    "date_modified": "2022-12-22T19:11:10.000",
    "request_status": "Pending",
    "responsible_agency": "Department of Sanitation",
    "final_address": "1015 Louisiana Ave",
    "address_councildis": "B",
    "status": "Assigned to Contractor",
    "contractor": "Richards Disposal",
    "rowid": "955740",
    "final_x": "3675199.70267",
    "final_y": "519448.536567",
    "longitude": "-90.08837856136961",
    "latitude": "29.922492902670886",
    "geocoded_column": {
      "latitude": "29.922492902670886",
      "longitude": "-90.08837856136961"
    }
  },
  {
    "service_request": "2022-955739",
    "request_type": "Trash/Recycling",
    "request_reason": "Missed Trash Pick-Up",
    "date_created": "2022-12-22T18:39:28.000",
    "date_modified": "2022-12-22T18:39:28.000",
    "request_status": "Pending",
    "responsible_agency": "Department of Sanitation",
    "final_address": "1388 Camp St, New Orleans, Louisiana, 70130",
    "address_councildis": "B",
    "status": "Assigned to Contractor",
    "contractor": "Richards Disposal",
    "rowid": "955739",
    "final_x": "3680028.4708",
    "final_y": "524661.761788",
    "longitude": "-90.07295508536109",
    "latitude": "29.936682417573795",
    "geocoded_column": {
      "latitude": "29.936682417573795",
      "longitude": "-90.07295508536109"
    }
  },
  {
    "service_request": "2022-955737",
    "request_type": "Roads/Drainage",
    "request_reason": "Pothole",
    "date_created": "2022-12-22T18:26:04.000",
    "date_modified": "2022-12-22T18:26:04.000",
    "request_status": "Pending",
    "responsible_agency": "Department of Public Works",
    "final_address": "2717 N Rocheblave St",
    "address_councildis": "D",
    "status": "Pending",
    "rowid": "955737",
    "final_x": "3687337.96636",
    "final_y": "541342.652556",
    "longitude": "-90.04928859860006",
    "latitude": "29.98232600132571",
    "geocoded_column": {
      "latitude": "29.98232600132571",
      "longitude": "-90.04928859860006"
    }
  },
  {
    "service_request": "2022-955736",
    "request_type": "Trash/Recycling",
    "request_reason": "MIssed Recycling Pick-Up",
    "date_created": "2022-12-22T18:03:56.000",
    "date_modified": "2022-12-22T18:04:46.000",
    "request_status": "Pending",
    "responsible_agency": "Department of Sanitation",
    "final_address": "6100 Block of Patton St, New Orleans, Louisiana, 70118",
    "status": "Assigned to Contractor",
    "rowid": "955736",
    "longitude": "0.0",
    "latitude": "0.0",
    "geocoded_column": {
      "latitude": "0.0",
      "longitude": "0.0"
    }
  },
  {
    "service_request": "2022-955735",
    "request_type": "Trash/Recycling",
    "request_reason": "Missed Trash Pick-Up",
    "date_created": "2022-12-22T17:40:35.000",
    "date_modified": "2022-12-22T17:40:36.000",
    "request_status": "Pending",
    "responsible_agency": "Department of Sanitation",
    "final_address": "918 Sixth St",
    "address_councildis": "B",
    "status": "Assigned to Contractor",
    "contractor": "Richards Disposal",
    "rowid": "955735",
    "final_x": "3676890.08565",
    "final_y": "520025.410936",
    "longitude": "-90.0830228316674",
    "latitude": "29.924028511906265",
    "geocoded_column": {
      "latitude": "29.924028511906265",
      "longitude": "-90.0830228316674"
    }
  },
  {
    "service_request": "2022-955734",
    "request_type": "Trash/Recycling",
    "request_reason": "Missed Trash Pick-Up",
    "date_created": "2022-12-22T17:31:06.000",
    "date_modified": "2022-12-22T17:31:27.000",
    "request_status": "Pending",
    "responsible_agency": "Department of Sanitation",
    "final_address": "1804 Cambronne St",
    "address_councildis": "A",
    "status": "Assigned to Contractor",
    "contractor": "Richards Disposal",
    "rowid": "955734",
    "final_x": "3662597.19226",
    "final_y": "530731.596482",
    "longitude": "-90.12778507023238",
    "latitude": "29.953888225500574",
    "geocoded_column": {
      "latitude": "29.953888225500574",
      "longitude": "-90.12778507023238"
    }
  },
  {
    "service_request": "2022-955733",
    "request_type": "Trash/Recycling",
    "request_reason": "MIssed Recycling Pick-Up",
    "date_created": "2022-12-22T17:30:35.000",
    "date_modified": "2022-12-22T17:31:27.000",
    "request_status": "Pending",
    "responsible_agency": "Department of Sanitation",
    "final_address": "1802 Cambronne St",
    "address_councildis": "A",
    "status": "Assigned to Contractor",
    "contractor": "Richards Disposal",
    "rowid": "955733",
    "final_x": "3662584.68282",
    "final_y": "530717.40109",
    "longitude": "-90.1278250416714",
    "latitude": "29.95384955464348",
    "geocoded_column": {
      "latitude": "29.95384955464348",
      "longitude": "-90.1278250416714"
    }
  },
  {
    "service_request": "2022-955732",
    "request_type": "Trash/Recycling",
    "request_reason": "Missed Trash Pick-Up",
    "date_created": "2022-12-22T17:16:14.000",
    "date_modified": "2022-12-22T17:16:15.000",
    "request_status": "Pending",
    "responsible_agency": "Department of Sanitation",
    "final_address": "939 Seventh St",
    "address_councildis": "B",
    "status": "Assigned to Contractor",
    "contractor": "Richards Disposal",
    "rowid": "955732",
    "final_x": "3676639.38568",
    "final_y": "520053.925048",
    "longitude": "-90.08381322144345",
    "latitude": "29.924114436043542",
    "geocoded_column": {
      "latitude": "29.924114436043542",
      "longitude": "-90.08381322144345"
    }
  },
  {
    "service_request": "2022-955731",
    "request_type": "Abandoned Vehicles",
    "request_reason": "Abandoned/Junk Vehicles",
    "date_created": "2022-12-22T17:02:41.000",
    "date_modified": "2022-12-22T17:02:41.000",
    "request_status": "Pending",
    "responsible_agency": "Department of Public Works",
    "final_address": "1816 Annette St",
    "address_councildis": "D",
    "status": "Pending",
    "rowid": "955731",
    "final_x": "3682849.69071",
    "final_y": "538881.104841",
    "longitude": "-90.06355091004589",
    "latitude": "29.975695139060434",
    "geocoded_column": {
      "latitude": "29.975695139060434",
      "longitude": "-90.06355091004589"
    }
  },
  {
    "service_request": "2022-955730",
    "request_type": "Trash/Recycling",
    "request_reason": "Order Trash Cart",
    "date_created": "2022-12-22T16:59:46.000",
    "date_modified": "2022-12-22T16:59:47.000",
    "request_status": "Pending",
    "responsible_agency": "Department of Sanitation",
    "final_address": "4050 Oregon St",
    "address_councildis": "C",
    "status": "Assigned to Contractor",
    "contractor": "Richards Disposal",
    "rowid": "955730",
    "final_x": "3694610.42166",
    "final_y": "518106.116598",
    "longitude": "-90.02715535525164",
    "latitude": "29.918207531517485",
    "geocoded_column": {
      "latitude": "29.918207531517485",
      "longitude": "-90.02715535525164"
    }
  },
  {
    "service_request": "2022-955729",
    "request_type": "Trash/Recycling",
    "request_reason": "Order Trash Cart",
    "date_created": "2022-12-22T16:55:16.000",
    "date_modified": "2022-12-22T16:55:17.000",
    "request_status": "Pending",
    "responsible_agency": "Department of Sanitation",
    "final_address": "1938 Elysian Fields Ave",
    "address_councildis": "D",
    "status": "Assigned to Contractor",
    "contractor": "IV Waste",
    "rowid": "955729",
    "final_x": "3684646.94012",
    "final_y": "539575.560458",
    "longitude": "-90.05785028974655",
    "latitude": "29.977549763006465",
    "geocoded_column": {
      "latitude": "29.977549763006465",
      "longitude": "-90.05785028974655"
    }
  },
  {
    "service_request": "2022-955728",
    "request_type": "Trash/Recycling",
    "request_reason": "Return Recycling Cart",
    "date_created": "2022-12-22T16:49:17.000",
    "date_modified": "2022-12-22T16:49:17.000",
    "request_status": "Pending",
    "responsible_agency": "Department of Sanitation",
    "final_address": "1632 Valmont St",
    "address_councildis": "B",
    "status": "Pending",
    "rowid": "955728",
    "final_x": "3667777.02689",
    "final_y": "521623.064825",
    "longitude": "-90.1117358505334",
    "latitude": "29.928691833905468",
    "geocoded_column": {
      "latitude": "29.928691833905468",
      "longitude": "-90.1117358505334"
    }
  },
  {
    "service_request": "2022-955727",
    "request_type": "Trash/Recycling",
    "request_reason": "MIssed Recycling Pick-Up",
    "date_created": "2022-12-22T16:48:20.000",
    "date_modified": "2022-12-22T16:48:20.000",
    "request_status": "Pending",
    "responsible_agency": "Department of Sanitation",
    "final_address": "1614 Valmont St",
    "address_councildis": "B",
    "status": "Assigned to Contractor",
    "contractor": "Richards Disposal",
    "rowid": "955727",
    "final_x": "3667835.57377",
    "final_y": "521514.608377",
    "longitude": "-90.11155468023301",
    "latitude": "29.928391896729387",
    "geocoded_column": {
      "latitude": "29.928391896729387",
      "longitude": "-90.11155468023301"
    }
  },
  {
    "service_request": "2022-955726",
    "request_type": "Trash/Recycling",
    "request_reason": "MIssed Recycling Pick-Up",
    "date_created": "2022-12-22T16:47:38.000",
    "date_modified": "2022-12-22T16:47:38.000",
    "request_status": "Pending",
    "responsible_agency": "Department of Sanitation",
    "final_address": "1616 Valmont St",
    "address_councildis": "B",
    "status": "Assigned to Contractor",
    "contractor": "Richards Disposal",
    "rowid": "955726",
    "final_x": "3667839.46266",
    "final_y": "521537.386105",
    "longitude": "-90.1115416371059",
    "latitude": "29.928454414223854",
    "geocoded_column": {
      "latitude": "29.928454414223854",
      "longitude": "-90.1115416371059"
    }
  },
  {
    "service_request": "2022-955725",
    "request_type": "Roads/Drainage",
    "request_reason": "Man hole cover issue",
    "date_created": "2022-12-22T16:46:56.000",
    "date_modified": "2022-12-22T16:46:57.000",
    "request_status": "Pending",
    "responsible_agency": "Department of Public Works",
    "final_address": "ROYAL ST & GOVERNOR NICHOLLS ST",
    "address_councildis": "C",
    "status": "Pending",
    "rowid": "955725",
    "final_x": "3683658.9",
    "final_y": "533908.38",
    "longitude": "-90.06116957135539",
    "latitude": "29.96199718470995",
    "geocoded_column": {
      "latitude": "29.96199718470995",
      "longitude": "-90.06116957135539"
    }
  },
  {
    "service_request": "2022-955724",
    "request_type": "Trash/Recycling",
    "request_reason": "Missed Trash Pick-Up",
    "date_created": "2022-12-22T16:45:10.000",
    "date_modified": "2022-12-22T16:45:11.000",
    "request_status": "Pending",
    "responsible_agency": "Department of Sanitation",
    "final_address": "3218 Jena St",
    "address_councildis": "B",
    "status": "Assigned to Contractor",
    "contractor": "Richards Disposal",
    "rowid": "955724",
    "final_x": "3669783.51233",
    "final_y": "526678.793726",
    "longitude": "-90.10523071863965",
    "latitude": "29.94253448859815",
    "geocoded_column": {
      "latitude": "29.94253448859815",
      "longitude": "-90.10523071863965"
    }
  },
  {
    "service_request": "2022-955723",
    "request_type": "Roads/Drainage",
    "request_reason": "Catch Basin - Clogged",
    "date_created": "2022-12-22T16:43:27.000",
    "date_modified": "2022-12-22T16:43:27.000",
    "request_status": "Pending",
    "responsible_agency": "Department of Public Works",
    "final_address": "4910 Haik Dr",
    "address_councildis": "D",
    "status": "Pending",
    "rowid": "955723",
    "final_x": "3681925.72424",
    "final_y": "550740.479893",
    "longitude": "-90.06605480385542",
    "latitude": "30.00833234339459",
    "geocoded_column": {
      "latitude": "30.00833234339459",
      "longitude": "-90.06605480385542"
    }
  },
  {
    "service_request": "2022-955722",
    "request_type": "Trash/Recycling",
    "request_reason": "Request a Large Item Pick Up",
    "date_created": "2022-12-22T16:43:08.000",
    "date_modified": "2022-12-22T16:43:10.000",
    "request_status": "Pending",
    "responsible_agency": "Department of Sanitation",
    "final_address": "7512 Garnet St",
    "address_councildis": "D",
    "status": "Assigned to Contractor",
    "contractor": "IV Waste",
    "rowid": "955722",
    "final_x": "3667326.43969",
    "final_y": "556530.460122",
    "longitude": "-90.11198369319493",
    "latitude": "30.02468864100917",
    "geocoded_column": {
      "latitude": "30.02468864100917",
      "longitude": "-90.11198369319493"
    }
  },
  {
    "service_request": "2022-955721",
    "request_type": "Trash/Recycling",
    "request_reason": "MIssed Recycling Pick-Up",
    "date_created": "2022-12-22T16:41:47.000",
    "date_modified": "2022-12-22T16:41:48.000",
    "request_status": "Pending",
    "responsible_agency": "Department of Sanitation",
    "final_address": "1000 BLK Milan St",
    "address_councildis": "B",
    "status": "Assigned to Contractor",
    "contractor": "Richards Disposal",
    "rowid": "955721",
    "final_x": "3671749.30935",
    "final_y": "519408.235906",
    "longitude": "-90.09927145355202",
    "latitude": "29.92248471903635",
    "geocoded_column": {
      "latitude": "29.92248471903635",
      "longitude": "-90.09927145355202"
    }
  },
  {
    "service_request": "2022-955720",
    "request_type": "Trash/Recycling",
    "request_reason": "Illegal Dumping",
    "date_created": "2022-12-22T16:40:48.000",
    "date_modified": "2022-12-22T16:40:49.000",
    "request_status": "Pending",
    "responsible_agency": "Department of Sanitation",
    "final_address": "1438 Arts St",
    "address_councildis": "C",
    "status": "Pending",
    "rowid": "955720",
    "final_x": "3687062.02108",
    "final_y": "537903.811465",
    "longitude": "-90.05028178837578",
    "latitude": "29.97287890015911",
    "geocoded_column": {
      "latitude": "29.97287890015911",
      "longitude": "-90.05028178837578"
    }
  },
  {
    "service_request": "2022-955719",
    "request_type": "Abandoned Vehicles",
    "request_reason": "Abandoned/Junk Vehicles",
    "date_created": "2022-12-22T16:36:28.000",
    "date_modified": "2022-12-22T16:38:40.000",
    "request_status": "Pending",
    "responsible_agency": "Department of Public Works",
    "final_address": "1500 BLK Arts St",
    "address_councildis": "C",
    "status": "Pending",
    "rowid": "955719",
    "final_x": "3687072.927",
    "final_y": "538138.60855",
    "longitude": "-90.05023904191748",
    "latitude": "29.973524174011693",
    "geocoded_column": {
      "latitude": "29.973524174011693",
      "longitude": "-90.05023904191748"
    }
  },
  {
    "service_request": "2022-955718",
    "request_type": "Trash/Recycling",
    "request_reason": "Order Trash Cart",
    "date_created": "2022-12-22T16:36:18.000",
    "date_modified": "2022-12-22T16:36:19.000",
    "request_status": "Pending",
    "responsible_agency": "Department of Sanitation",
    "final_address": "1120 St Roch Ave",
    "address_councildis": "C",
    "status": "Assigned to Contractor",
    "contractor": "IV Waste",
    "rowid": "955718",
    "final_x": "3686398.57545",
    "final_y": "536669.488455",
    "longitude": "-90.05242064863322",
    "latitude": "29.969505353329684",
    "geocoded_column": {
      "latitude": "29.969505353329684",
      "longitude": "-90.05242064863322"
    }
  },
  {
    "service_request": "2022-955717",
    "request_type": "Trash/Recycling",
    "request_reason": "Replace Trash Cart",
    "date_created": "2022-12-22T16:34:27.000",
    "date_modified": "2022-12-22T16:34:27.000",
    "request_status": "Pending",
    "responsible_agency": "Department of Sanitation",
    "final_address": "11 Glacier Ct",
    "address_councildis": "C",
    "status": "Assigned to Contractor",
    "contractor": "Richards Disposal",
    "rowid": "955717",
    "final_x": "3700040.25508",
    "final_y": "516221.236276",
    "longitude": "-90.01008511801129",
    "latitude": "29.91285344090819",
    "geocoded_column": {
      "latitude": "29.91285344090819",
      "longitude": "-90.01008511801129"
    }
  },
  {
    "service_request": "2022-955716",
    "request_type": "Trash/Recycling",
    "request_reason": "MIssed Recycling Pick-Up",
    "date_created": "2022-12-22T16:34:15.000",
    "date_modified": "2022-12-22T16:34:16.000",
    "request_status": "Pending",
    "responsible_agency": "Department of Sanitation",
    "final_address": "4600 BLK S Prieur St",
    "address_councildis": "B",
    "status": "Assigned to Contractor",
    "contractor": "Richards Disposal",
    "rowid": "955716",
    "final_x": "3669381.3341",
    "final_y": "526808.152864",
    "longitude": "-90.10649611860855",
    "latitude": "29.94290203064535",
    "geocoded_column": {
      "latitude": "29.94290203064535",
      "longitude": "-90.10649611860855"
    }
  },
  {
    "service_request": "2022-955715",
    "request_type": "Trash/Recycling",
    "request_reason": "Repair Recycling Cart",
    "date_created": "2022-12-22T16:33:16.000",
    "date_modified": "2022-12-22T16:33:16.000",
    "request_status": "Pending",
    "responsible_agency": "Department of Sanitation",
    "final_address": "4214 Loyola Ave",
    "address_councildis": "B",
    "status": "Pending",
    "rowid": "955715",
    "final_x": "3671262.69697",
    "final_y": "523023.309691",
    "longitude": "-90.1006847372496",
    "latitude": "29.93243941580251",
    "geocoded_column": {
      "latitude": "29.93243941580251",
      "longitude": "-90.1006847372496"
    }
  },
  {
    "service_request": "2022-955714",
    "request_type": "Trash/Recycling",
    "request_reason": "MIssed Recycling Pick-Up",
    "date_created": "2022-12-22T16:32:35.000",
    "date_modified": "2022-12-22T16:32:35.000",
    "request_status": "Pending",
    "responsible_agency": "Department of Sanitation",
    "final_address": "4613 St Charles Ave",
    "address_councildis": "B",
    "status": "Assigned to Contractor",
    "contractor": "Richards Disposal",
    "rowid": "955714",
    "final_x": "3669951.66202",
    "final_y": "520897.834937",
    "longitude": "-90.10489550501012",
    "latitude": "29.926633755320253",
    "geocoded_column": {
      "latitude": "29.926633755320253",
      "longitude": "-90.10489550501012"
    }
  },
  {
    "service_request": "2022-955713",
    "request_type": "Trash/Recycling",
    "request_reason": "Replace Trash Cart",
    "date_created": "2022-12-22T16:32:15.000",
    "date_modified": "2022-12-22T16:32:16.000",
    "request_status": "Pending",
    "responsible_agency": "Department of Sanitation",
    "final_address": "4214 Loyola Ave",
    "address_councildis": "B",
    "status": "Assigned to Contractor",
    "contractor": "Richards Disposal",
    "rowid": "955713",
    "final_x": "3671262.69697",
    "final_y": "523023.309691",
    "longitude": "-90.1006847372496",
    "latitude": "29.93243941580251",
    "geocoded_column": {
      "latitude": "29.93243941580251",
      "longitude": "-90.1006847372496"
    }
  },
  {
    "service_request": "2022-955712",
    "request_type": "Trash/Recycling",
    "request_reason": "Illegal Dumping",
    "date_created": "2022-12-22T16:32:13.000",
    "date_modified": "2022-12-22T16:32:13.000",
    "request_status": "Pending",
    "responsible_agency": "Department of Sanitation",
    "final_address": "500 BLK Orange St",
    "address_councildis": "B",
    "status": "Pending",
    "rowid": "955712",
    "final_x": "3682136.96574",
    "final_y": "522985.308804",
    "longitude": "-90.06635699999894",
    "latitude": "29.932008787558615",
    "geocoded_column": {
      "latitude": "29.932008787558615",
      "longitude": "-90.06635699999894"
    }
  },
  {
    "service_request": "2022-955711",
    "request_type": "Trash/Recycling",
    "request_reason": "MIssed Recycling Pick-Up",
    "date_created": "2022-12-22T16:30:52.000",
    "date_modified": "2022-12-22T16:30:53.000",
    "request_status": "Pending",
    "responsible_agency": "Department of Sanitation",
    "final_address": "1100 BLK Third St",
    "address_councildis": "B",
    "status": "Assigned to Contractor",
    "contractor": "Richards Disposal",
    "rowid": "955711",
    "final_x": "3677469.08728",
    "final_y": "521322.41318",
    "longitude": "-90.08115038691676",
    "latitude": "29.927577462020523",
    "geocoded_column": {
      "latitude": "29.927577462020523",
      "longitude": "-90.08115038691676"
    }
  },
  {
    "service_request": "2022-955710",
    "request_type": "Trash/Recycling",
    "request_reason": "Return Trash Cart",
    "date_created": "2022-12-22T16:25:53.000",
    "date_modified": "2022-12-22T16:25:53.000",
    "request_status": "Pending",
    "responsible_agency": "Department of Sanitation",
    "final_address": "2119 N Claiborne Ave",
    "address_councildis": "D",
    "status": "Assigned to Contractor",
    "contractor": "IV Waste",
    "rowid": "955710",
    "final_x": "3684603.58191",
    "final_y": "538166.496713",
    "longitude": "-90.05803676027753",
    "latitude": "29.97367665729143",
    "geocoded_column": {
      "latitude": "29.97367665729143",
      "longitude": "-90.05803676027753"
    }
  },
  {
    "service_request": "2022-955709",
    "request_type": "Trash/Recycling",
    "request_reason": "Return Trash Cart",
    "date_created": "2022-12-22T16:25:25.000",
    "date_modified": "2022-12-22T16:25:26.000",
    "request_status": "Pending",
    "responsible_agency": "Department of Sanitation",
    "final_address": "2117 N Claiborne Ave",
    "address_councildis": "D",
    "status": "Assigned to Contractor",
    "contractor": "IV Waste",
    "rowid": "955709",
    "final_x": "3684590.45257",
    "final_y": "538165.246281",
    "longitude": "-90.05807826944317",
    "latitude": "29.97367362083126",
    "geocoded_column": {
      "latitude": "29.97367362083126",
      "longitude": "-90.05807826944317"
    }
  },
  {
    "service_request": "2022-955708",
    "request_type": "Trash/Recycling",
    "request_reason": "Order Recycling Cart",
    "date_created": "2022-12-22T16:22:41.000",
    "date_modified": "2022-12-22T16:22:41.000",
    "request_status": "Pending",
    "responsible_agency": "Department of Sanitation",
    "final_address": "2512 Acacia St",
    "address_councildis": "D",
    "status": "Pending",
    "rowid": "955708",
    "final_x": "3686530.02006",
    "final_y": "546254.264336",
    "longitude": "-90.05166696065275",
    "latitude": "29.995856052321148",
    "geocoded_column": {
      "latitude": "29.995856052321148",
      "longitude": "-90.05166696065275"
    }
  },
  {
    "service_request": "2022-955707",
    "request_type": "Trash/Recycling",
    "request_reason": "Replace Trash Cart",
    "date_created": "2022-12-22T16:21:56.000",
    "date_modified": "2022-12-22T16:21:56.000",
    "request_status": "Pending",
    "responsible_agency": "Department of Sanitation",
    "final_address": "2512 Acacia St",
    "address_councildis": "D",
    "status": "Assigned to Contractor",
    "contractor": "IV Waste",
    "rowid": "955707",
    "final_x": "3686530.02006",
    "final_y": "546254.264336",
    "longitude": "-90.05166696065275",
    "latitude": "29.995856052321148",
    "geocoded_column": {
      "latitude": "29.995856052321148",
      "longitude": "-90.05166696065275"
    }
  },
  {
    "service_request": "2022-955706",
    "request_type": "Trash/Recycling",
    "request_reason": "Order Trash Cart",
    "date_created": "2022-12-22T16:18:56.000",
    "date_modified": "2022-12-22T16:18:57.000",
    "request_status": "Pending",
    "responsible_agency": "Department of Sanitation",
    "final_address": "1630 Valmont St",
    "address_councildis": "B",
    "status": "Assigned to Contractor",
    "contractor": "Richards Disposal",
    "rowid": "955706",
    "final_x": "3667777.02689",
    "final_y": "521623.064825",
    "longitude": "-90.1117358505334",
    "latitude": "29.928691833905468",
    "geocoded_column": {
      "latitude": "29.928691833905468",
      "longitude": "-90.1117358505334"
    }
  },
  {
    "service_request": "2022-955705",
    "request_type": "Trash/Recycling",
    "request_reason": "Request a Large Item Pick Up",
    "date_created": "2022-12-22T16:18:15.000",
    "date_modified": "2022-12-22T16:18:16.000",
    "request_status": "Pending",
    "responsible_agency": "Department of Sanitation",
    "final_address": "8440 Beechwood Ct",
    "address_councildis": "E",
    "status": "Assigned to Contractor",
    "contractor": "Waste Pro",
    "rowid": "955705",
    "final_x": "3704387.11473",
    "final_y": "560686.28003",
    "longitude": "-89.99472572646263",
    "latitude": "30.03497726981938",
    "geocoded_column": {
      "latitude": "30.03497726981938",
      "longitude": "-89.99472572646263"
    }
  },
  {
    "service_request": "2022-955704",
    "request_type": "Traffic Signals/Signs/Striping/Streetlights",
    "request_reason": "Traffic Sign Missing/Damaged",
    "date_created": "2022-12-22T16:15:17.000",
    "date_modified": "2022-12-22T16:15:18.000",
    "request_status": "Pending",
    "responsible_agency": "Department of Public Works",
    "final_address": "BELFAST ST & MONROE ST",
    "address_councildis": "A",
    "status": "Pending",
    "rowid": "955704",
    "final_x": "3664020.1",
    "final_y": "533791.38",
    "longitude": "-90.12319005468927",
    "latitude": "29.962260392732436",
    "geocoded_column": {
      "latitude": "29.962260392732436",
      "longitude": "-90.12319005468927"
    }
  },
  {
    "service_request": "2022-955703",
    "request_type": "Trash/Recycling",
    "request_reason": "Missed Trash Pick-Up",
    "date_created": "2022-12-22T16:15:09.000",
    "date_modified": "2022-12-22T16:15:10.000",
    "request_status": "Pending",
    "responsible_agency": "Department of Sanitation",
    "final_address": "1441 Spain St",
    "address_councildis": "C",
    "status": "Assigned to Contractor",
    "contractor": "IV Waste",
    "rowid": "955703",
    "final_x": "3686052.82601",
    "final_y": "537828.584777",
    "longitude": "-90.05347166519601",
    "latitude": "29.972703086758415",
    "geocoded_column": {
      "latitude": "29.972703086758415",
      "longitude": "-90.05347166519601"
    }
  },
  {
    "service_request": "2022-955702",
    "request_type": "Trash/Recycling",
    "request_reason": "Missed Trash Pick-Up",
    "date_created": "2022-12-22T16:12:16.000",
    "date_modified": "2022-12-22T16:12:16.000",
    "request_status": "Pending",
    "responsible_agency": "Department of Sanitation",
    "final_address": "1831 Bordeaux St",
    "address_councildis": "B",
    "status": "Assigned to Contractor",
    "contractor": "Richards Disposal",
    "rowid": "955702",
    "final_x": "3669331.87892",
    "final_y": "521703.529722",
    "longitude": "-90.10682477262996",
    "latitude": "29.928867415105458",
    "geocoded_column": {
      "latitude": "29.928867415105458",
      "longitude": "-90.10682477262996"
    }
  },
  {
    "service_request": "2022-955701",
    "request_type": "Trash/Recycling",
    "request_reason": "Request a Large Item Pick Up",
    "date_created": "2022-12-22T16:11:23.000",
    "date_modified": "2022-12-22T16:11:24.000",
    "request_status": "Pending",
    "responsible_agency": "Department of Sanitation",
    "final_address": "8443 Cohn St",
    "address_councildis": "A",
    "status": "Assigned to Contractor",
    "contractor": "Richards Disposal",
    "rowid": "955701",
    "final_x": "3662619.11968",
    "final_y": "531159.166978",
    "longitude": "-90.12770162667576",
    "latitude": "29.955063271779125",
    "geocoded_column": {
      "latitude": "29.955063271779125",
      "longitude": "-90.12770162667576"
    }
  },
  {
    "service_request": "2022-955700",
    "request_type": "Trash/Recycling",
    "request_reason": "Replace Trash Cart",
    "date_created": "2022-12-22T16:11:17.000",
    "date_modified": "2022-12-22T16:11:18.000",
    "request_status": "Pending",
    "responsible_agency": "Department of Sanitation",
    "final_address": "1537 Annunciation St",
    "address_councildis": "B",
    "status": "Assigned to Contractor",
    "contractor": "Richards Disposal",
    "rowid": "955700",
    "final_x": "3680756.33314",
    "final_y": "523389.453563",
    "longitude": "-90.07070145390342",
    "latitude": "29.933161956320887",
    "geocoded_column": {
      "latitude": "29.933161956320887",
      "longitude": "-90.07070145390342"
    }
  },
  {
    "service_request": "2022-955699",
    "request_type": "Trash/Recycling",
    "request_reason": "MIssed Recycling Pick-Up",
    "date_created": "2022-12-22T16:10:13.000",
    "date_modified": "2022-12-22T16:10:14.000",
    "request_status": "Pending",
    "responsible_agency": "Department of Sanitation",
    "final_address": "4603 S Derbigny St",
    "address_councildis": "B",
    "status": "Assigned to Contractor",
    "contractor": "Richards Disposal",
    "rowid": "955699",
    "final_x": "3669509.73831",
    "final_y": "526236.717438",
    "longitude": "-90.10611003734729",
    "latitude": "29.94132698755996",
    "geocoded_column": {
      "latitude": "29.94132698755996",
      "longitude": "-90.10611003734729"
    }
  },
  {
    "service_request": "2022-955698",
    "request_type": "Trash/Recycling",
    "request_reason": "MIssed Recycling Pick-Up",
    "date_created": "2022-12-22T16:10:05.000",
    "date_modified": "2022-12-22T16:10:06.000",
    "request_status": "Pending",
    "responsible_agency": "Department of Sanitation",
    "final_address": "1334 Henry Clay Ave, New Orleans, Louisiana, 70118",
    "address_councildis": "A",
    "status": "Assigned to Contractor",
    "contractor": "Richards Disposal",
    "rowid": "955698",
    "final_x": "3664463.52551",
    "final_y": "521447.226105",
    "longitude": "-90.12220179822322",
    "latitude": "29.928305051290806",
    "geocoded_column": {
      "latitude": "29.928305051290806",
      "longitude": "-90.12220179822322"
    }
  },
  {
    "service_request": "2022-955697",
    "request_type": "Trash/Recycling",
    "request_reason": "MIssed Recycling Pick-Up",
    "date_created": "2022-12-22T16:09:33.000",
    "date_modified": "2022-12-22T16:09:34.000",
    "request_status": "Pending",
    "responsible_agency": "Department of Sanitation",
    "final_address": "2025 Marengo St",
    "address_councildis": "B",
    "status": "Assigned to Contractor",
    "contractor": "Richards Disposal",
    "rowid": "955697",
    "final_x": "3671842.35905",
    "final_y": "522630.783354",
    "longitude": "-90.0988681420251",
    "latitude": "29.93134293582544",
    "geocoded_column": {
      "latitude": "29.93134293582544",
      "longitude": "-90.0988681420251"
    }
  },
  {
    "service_request": "2022-955696",
    "request_type": "Trash/Recycling",
    "request_reason": "Missed Trash Pick-Up",
    "date_created": "2022-12-22T16:09:01.000",
    "date_modified": "2022-12-22T16:09:02.000",
    "request_status": "Pending",
    "responsible_agency": "Department of Sanitation",
    "final_address": "2025 Marengo St",
    "address_councildis": "B",
    "status": "Assigned to Contractor",
    "contractor": "Richards Disposal",
    "rowid": "955696",
    "final_x": "3671842.35905",
    "final_y": "522630.783354",
    "longitude": "-90.0988681420251",
    "latitude": "29.93134293582544",
    "geocoded_column": {
      "latitude": "29.93134293582544",
      "longitude": "-90.0988681420251"
    }
  },
  {
    "service_request": "2022-955695",
    "request_type": "Trash/Recycling",
    "request_reason": "Missed Trash Pick-Up",
    "date_created": "2022-12-22T16:07:15.000",
    "date_modified": "2022-12-22T16:07:16.000",
    "request_status": "Pending",
    "responsible_agency": "Department of Sanitation",
    "final_address": "3300 Nevada St",
    "address_councildis": "C",
    "status": "Assigned to Contractor",
    "contractor": "Richards Disposal",
    "rowid": "955695",
    "final_x": "3694965.72496",
    "final_y": "519805.95436",
    "longitude": "-90.0259726419808",
    "latitude": "29.92287036989086",
    "geocoded_column": {
      "latitude": "29.92287036989086",
      "longitude": "-90.0259726419808"
    }
  },
  {
    "service_request": "2022-955694",
    "request_type": "Trash/Recycling",
    "request_reason": "Request a Large Item Pick Up",
    "date_created": "2022-12-22T16:06:47.000",
    "date_modified": "2022-12-22T16:06:48.000",
    "request_status": "Pending",
    "responsible_agency": "Department of Sanitation",
    "final_address": "911 Hagan St",
    "address_councildis": "A",
    "status": "Assigned to Contractor",
    "contractor": "Richards Disposal",
    "rowid": "955694",
    "final_x": "3675145.72072",
    "final_y": "539161.112522",
    "longitude": "-90.08787261557006",
    "latitude": "29.976697561213516",
    "geocoded_column": {
      "latitude": "29.976697561213516",
      "longitude": "-90.08787261557006"
    }
  },
  {
    "service_request": "2022-955693",
    "request_type": "Roads/Drainage",
    "request_reason": "Leaking Hydrant",
    "date_created": "2022-12-22T16:01:33.000",
    "date_modified": "2022-12-22T16:01:34.000",
    "request_status": "Pending",
    "responsible_agency": "Department of Public Works",
    "final_address": "1ST ST & MAGAZINE ST",
    "address_councildis": "B",
    "status": "Pending",
    "rowid": "955693",
    "final_x": "3678080.3",
    "final_y": "521503.78",
    "longitude": "-90.07921467002753",
    "latitude": "29.928057781401485",
    "geocoded_column": {
      "latitude": "29.928057781401485",
      "longitude": "-90.07921467002753"
    }
  },
  {
    "service_request": "2022-955692",
    "request_type": "Trash/Recycling",
    "request_reason": "Missed Trash Pick-Up",
    "date_created": "2022-12-22T15:59:49.000",
    "date_modified": "2022-12-22T15:59:50.000",
    "request_status": "Pending",
    "responsible_agency": "Department of Sanitation",
    "final_address": "1018 Josephine St",
    "address_councildis": "B",
    "status": "Assigned to Contractor",
    "contractor": "Richards Disposal",
    "rowid": "955692",
    "final_x": "3679253.04303",
    "final_y": "522126.895994",
    "longitude": "-90.07549099469816",
    "latitude": "29.92973580054483",
    "geocoded_column": {
      "latitude": "29.92973580054483",
      "longitude": "-90.07549099469816"
    }
  },
  {
    "service_request": "2022-955691",
    "request_type": "Trash/Recycling",
    "request_reason": "Missed Trash Pick-Up",
    "date_created": "2022-12-22T15:59:19.000",
    "date_modified": "2022-12-22T15:59:19.000",
    "request_status": "Pending",
    "responsible_agency": "Department of Sanitation",
    "final_address": "2041 Upperline St",
    "address_councildis": "B",
    "status": "Assigned to Contractor",
    "contractor": "Richards Disposal",
    "rowid": "955691",
    "final_x": "3669139.60647",
    "final_y": "522392.693754",
    "longitude": "-90.10740846359799",
    "latitude": "29.930768053782995",
    "geocoded_column": {
      "latitude": "29.930768053782995",
      "longitude": "-90.10740846359799"
    }
  },
  {
    "service_request": "2022-955690",
    "request_type": "Trash/Recycling",
    "request_reason": "Missed Trash Pick-Up",
    "date_created": "2022-12-22T15:55:51.000",
    "date_modified": "2022-12-22T15:55:52.000",
    "request_status": "Pending",
    "responsible_agency": "Department of Sanitation",
    "final_address": "2600 BLK Clara St",
    "address_councildis": "B",
    "status": "Assigned to Contractor",
    "contractor": "Richards Disposal",
    "rowid": "955690",
    "final_x": "3673968.01029",
    "final_y": "526332.96451",
    "longitude": "-90.09203110421879",
    "latitude": "29.94145958802487",
    "geocoded_column": {
      "latitude": "29.94145958802487",
      "longitude": "-90.09203110421879"
    }
  },
  {
    "service_request": "2022-955689",
    "request_type": "Trash/Recycling",
    "request_reason": "Missed Trash Pick-Up",
    "date_created": "2022-12-22T15:50:15.000",
    "date_modified": "2022-12-22T15:50:16.000",
    "request_status": "Pending",
    "responsible_agency": "Department of Sanitation",
    "final_address": "542 Jackson Ave, New Orleans, Louisiana, 70130",
    "address_councildis": "B",
    "status": "Assigned to Contractor",
    "contractor": "Richards Disposal",
    "rowid": "955689",
    "final_x": "3679965.64053",
    "final_y": "520544.068856",
    "longitude": "-90.07329639645648",
    "latitude": "29.925362015574226",
    "geocoded_column": {
      "latitude": "29.925362015574226",
      "longitude": "-90.07329639645648"
    }
  },
  {
    "service_request": "2022-955688",
    "request_type": "Trash/Recycling",
    "request_reason": "Missed Trash Pick-Up",
    "date_created": "2022-12-22T15:47:57.000",
    "date_modified": "2022-12-22T15:47:57.000",
    "request_status": "Pending",
    "responsible_agency": "Department of Sanitation",
    "final_address": "4133 Vincennes Pl",
    "address_councildis": "B",
    "status": "Assigned to Contractor",
    "contractor": "Richards Disposal",
    "rowid": "955688",
    "final_x": "3668690.06023",
    "final_y": "530771.10797",
    "longitude": "-90.10854490304123",
    "latitude": "29.953819199199952",
    "geocoded_column": {
      "latitude": "29.953819199199952",
      "longitude": "-90.10854490304123"
    }
  },
  {
    "service_request": "2022-955687",
    "request_type": "Abandoned Vehicles",
    "request_reason": "Abandoned/Junk Vehicles",
    "date_created": "2022-12-22T15:45:13.000",
    "date_modified": "2022-12-22T15:47:57.000",
    "request_status": "Pending",
    "responsible_agency": "Department of Public Works",
    "final_address": "4219 Perrier St",
    "address_councildis": "B",
    "status": "Pending",
    "rowid": "955687",
    "final_x": "3671489.15854",
    "final_y": "520169.613432",
    "longitude": "-90.1000667790255",
    "latitude": "29.924585965852152",
    "geocoded_column": {
      "latitude": "29.924585965852152",
      "longitude": "-90.1000667790255"
    }
  },
  {
    "service_request": "2022-955686",
    "request_type": "Trash/Recycling",
    "request_reason": "Missed Trash Pick-Up",
    "date_created": "2022-12-22T15:45:03.000",
    "date_modified": "2022-12-22T16:15:57.000",
    "case_close_date": "2022-12-22T10:15:57.000",
    "request_status": "Closed",
    "responsible_agency": "Department of Sanitation",
    "final_address": "4314 N Rampart St",
    "address_councildis": "C",
    "status": "Assigned to Contractor",
    "contractor": "IV Waste",
    "contractor_action": "Completed",
    "rowid": "955686",
    "final_x": "3692725.07491",
    "final_y": "534575.504901",
    "longitude": "-90.03251619336378",
    "latitude": "29.963551657813248",
    "geocoded_column": {
      "latitude": "29.963551657813248",
      "longitude": "-90.03251619336378"
    }
  },
  {
    "service_request": "2022-955685",
    "request_type": "Trash/Recycling",
    "request_reason": "Missed Trash Pick-Up",
    "date_created": "2022-12-22T15:43:22.000",
    "date_modified": "2022-12-22T15:43:23.000",
    "request_status": "Pending",
    "responsible_agency": "Department of Sanitation",
    "final_address": "1138 Josephine St, New Orleans, Louisiana, 70130",
    "address_councildis": "B",
    "status": "Assigned to Contractor",
    "contractor": "Richards Disposal",
    "rowid": "955685",
    "final_x": "3678939.07432",
    "final_y": "522549.966266",
    "longitude": "-90.0764674893942",
    "latitude": "29.930908578442235",
    "geocoded_column": {
      "latitude": "29.930908578442235",
      "longitude": "-90.0764674893942"
    }
  },
  {
    "service_request": "2022-955684",
    "request_type": "Trash/Recycling",
    "request_reason": "Missed Trash Pick-Up",
    "date_created": "2022-12-22T15:39:11.000",
    "date_modified": "2022-12-22T15:39:12.000",
    "request_status": "Pending",
    "responsible_agency": "Department of Sanitation",
    "final_address": "1718 Bordeaux St",
    "address_councildis": "B",
    "status": "Assigned to Contractor",
    "contractor": "Richards Disposal",
    "rowid": "955684",
    "final_x": "3669289.00282",
    "final_y": "521240.118969",
    "longitude": "-90.10697578111542",
    "latitude": "29.927594445194373",
    "geocoded_column": {
      "latitude": "29.927594445194373",
      "longitude": "-90.10697578111542"
    }
  },
  {
    "service_request": "2022-955683",
    "request_type": "Trash/Recycling",
    "request_reason": "Request a Large Item Pick Up",
    "date_created": "2022-12-22T15:31:31.000",
    "date_modified": "2022-12-22T15:31:32.000",
    "request_status": "Pending",
    "responsible_agency": "Department of Sanitation",
    "final_address": "8 Virginia Ct",
    "address_councildis": "A",
    "status": "Assigned to Contractor",
    "contractor": "IV Waste",
    "rowid": "955683",
    "final_x": "3668827.81178",
    "final_y": "542353.943629",
    "longitude": "-90.10771873781705",
    "latitude": "29.985664076624342",
    "geocoded_column": {
      "latitude": "29.985664076624342",
      "longitude": "-90.10771873781705"
    }
  },
  {
    "service_request": "2022-955682",
    "request_type": "Trash/Recycling",
    "request_reason": "Missed Trash Pick-Up",
    "date_created": "2022-12-22T15:27:44.000",
    "date_modified": "2022-12-22T15:27:45.000",
    "request_status": "Pending",
    "responsible_agency": "Department of Sanitation",
    "final_address": "1521 Ursulines Ave",
    "address_councildis": "C",
    "status": "Assigned to Contractor",
    "contractor": "Richards Disposal",
    "rowid": "955682",
    "final_x": "3681084.20699",
    "final_y": "535496.987974",
    "longitude": "-90.06924470697969",
    "latitude": "29.966443662089375",
    "geocoded_column": {
      "latitude": "29.966443662089375",
      "longitude": "-90.06924470697969"
    }
  },
  {
    "service_request": "2022-955680",
    "request_type": "Trash/Recycling",
    "request_reason": "Request a Large Item Pick Up",
    "date_created": "2022-12-22T15:24:46.000",
    "date_modified": "2022-12-22T15:24:46.000",
    "request_status": "Pending",
    "responsible_agency": "Department of Sanitation",
    "final_address": "2013 Piety St",
    "address_councildis": "D",
    "status": "Assigned to Contractor",
    "contractor": "IV Waste",
    "rowid": "955680",
    "final_x": "3690749.60188",
    "final_y": "539251.034378",
    "longitude": "-90.0385876717874",
    "latitude": "29.976469232908915",
    "geocoded_column": {
      "latitude": "29.976469232908915",
      "longitude": "-90.0385876717874"
    }
  },
  {
    "service_request": "2022-955679",
    "request_type": "Trash/Recycling",
    "request_reason": "MIssed Recycling Pick-Up",
    "date_created": "2022-12-22T15:24:45.000",
    "date_modified": "2022-12-22T15:24:46.000",
    "request_status": "Pending",
    "responsible_agency": "Department of Sanitation",
    "final_address": "6227 Magazine St",
    "address_councildis": "A",
    "status": "Assigned to Contractor",
    "contractor": "Richards Disposal",
    "rowid": "955679",
    "final_x": "3663587.86605",
    "final_y": "519717.036664",
    "longitude": "-90.12502367117801",
    "latitude": "29.923572993451124",
    "geocoded_column": {
      "latitude": "29.923572993451124",
      "longitude": "-90.12502367117801"
    }
  },
  {
    "service_request": "2022-955677",
    "request_type": "Trash/Recycling",
    "request_reason": "Request a Large Item Pick Up",
    "date_created": "2022-12-22T15:13:49.000",
    "date_modified": "2022-12-22T15:13:49.000",
    "request_status": "Pending",
    "responsible_agency": "Department of Sanitation",
    "final_address": "4665 Pecan St",
    "address_councildis": "E",
    "status": "Assigned to Contractor",
    "contractor": "Waste Pro",
    "rowid": "955677",
    "final_x": "3701909.22301",
    "final_y": "553914.073367",
    "longitude": "-90.00280470422516",
    "latitude": "30.016435675048957",
    "geocoded_column": {
      "latitude": "30.016435675048957",
      "longitude": "-90.00280470422516"
    }
  },
  {
    "service_request": "2022-955676",
    "request_type": "Trash/Recycling",
    "request_reason": "Missed Trash Pick-Up",
    "date_created": "2022-12-22T15:13:45.000",
    "date_modified": "2022-12-22T16:12:42.000",
    "case_close_date": "2022-12-22T10:12:42.000",
    "request_status": "Closed",
    "responsible_agency": "Department of Sanitation",
    "final_address": "1815 Kerlerec St",
    "address_councildis": "D",
    "status": "Assigned to Contractor",
    "contractor": "IV Waste",
    "contractor_action": "Completed",
    "rowid": "955676",
    "final_x": "3680847.60437",
    "final_y": "537442.59988",
    "longitude": "-90.06992414803906",
    "latitude": "29.97180060087676",
    "geocoded_column": {
      "latitude": "29.97180060087676",
      "longitude": "-90.06992414803906"
    }
  },
  {
    "service_request": "2022-955675",
    "request_type": "Trash/Recycling",
    "request_reason": "MIssed Recycling Pick-Up",
    "date_created": "2022-12-22T15:05:12.000",
    "date_modified": "2022-12-22T15:05:13.000",
    "request_status": "Pending",
    "responsible_agency": "Department of Sanitation",
    "final_address": "1410 Third St",
    "address_councildis": "B",
    "status": "Assigned to Contractor",
    "contractor": "Richards Disposal",
    "rowid": "955675",
    "final_x": "3676858.08853",
    "final_y": "522138.553466",
    "longitude": "-90.08305105084322",
    "latitude": "29.929839927888427",
    "geocoded_column": {
      "latitude": "29.929839927888427",
      "longitude": "-90.08305105084322"
    }
  },
  {
    "service_request": "2022-955674",
    "request_type": "Trash/Recycling",
    "request_reason": "MIssed Recycling Pick-Up",
    "date_created": "2022-12-22T15:01:02.000",
    "date_modified": "2022-12-22T15:01:03.000",
    "request_status": "Pending",
    "responsible_agency": "Department of Sanitation",
    "final_address": "7322 Cohn St",
    "address_councildis": "A",
    "status": "Assigned to Contractor",
    "contractor": "Richards Disposal",
    "rowid": "955674",
    "final_x": "3665130.43808",
    "final_y": "528792.665792",
    "longitude": "-90.11985092521078",
    "latitude": "29.94848326571452",
    "geocoded_column": {
      "latitude": "29.94848326571452",
      "longitude": "-90.11985092521078"
    }
  },
  {
    "service_request": "2022-955673",
    "request_type": "Trash/Recycling",
    "request_reason": "Missed Trash Pick-Up",
    "date_created": "2022-12-22T14:59:48.000",
    "date_modified": "2022-12-22T14:59:50.000",
    "request_status": "Pending",
    "responsible_agency": "Department of Sanitation",
    "final_address": "7322 Cohn St",
    "address_councildis": "A",
    "status": "Assigned to Contractor",
    "contractor": "Richards Disposal",
    "rowid": "955673",
    "final_x": "3665130.43808",
    "final_y": "528792.665792",
    "longitude": "-90.11985092521078",
    "latitude": "29.94848326571452",
    "geocoded_column": {
      "latitude": "29.94848326571452",
      "longitude": "-90.11985092521078"
    }
  },
  {
    "service_request": "2022-955672",
    "request_type": "Trash/Recycling",
    "request_reason": "Order Recycling Cart",
    "date_created": "2022-12-22T14:57:28.000",
    "date_modified": "2022-12-22T14:57:28.000",
    "request_status": "Pending",
    "responsible_agency": "Department of Sanitation",
    "final_address": "1740 Desire St",
    "address_councildis": "D",
    "status": "Pending",
    "rowid": "955672",
    "final_x": "3690780.2342",
    "final_y": "538269.954889",
    "longitude": "-90.03852593970919",
    "latitude": "29.973770660452793",
    "geocoded_column": {
      "latitude": "29.973770660452793",
      "longitude": "-90.03852593970919"
    }
  },
  {
    "service_request": "2022-955671",
    "request_type": "Trash/Recycling",
    "request_reason": "Repair Trash Cart",
    "date_created": "2022-12-22T14:56:49.000",
    "date_modified": "2022-12-22T14:56:49.000",
    "request_status": "Pending",
    "responsible_agency": "Department of Sanitation",
    "final_address": "2820 S Roman St",
    "address_councildis": "B",
    "status": "Assigned to Contractor",
    "contractor": "Richards Disposal",
    "rowid": "955671",
    "final_x": "3672626.45326",
    "final_y": "527173.740223",
    "longitude": "-90.09623801185451",
    "latitude": "29.943811339833477",
    "geocoded_column": {
      "latitude": "29.943811339833477",
      "longitude": "-90.09623801185451"
    }
  },
  {
    "service_request": "2022-955670",
    "request_type": "Trash/Recycling",
    "request_reason": "MIssed Recycling Pick-Up",
    "date_created": "2022-12-22T14:54:20.000",
    "date_modified": "2022-12-22T14:54:20.000",
    "request_status": "Pending",
    "responsible_agency": "Department of Sanitation",
    "final_address": "702 General Pershing St",
    "address_councildis": "B",
    "status": "Assigned to Contractor",
    "contractor": "Richards Disposal",
    "rowid": "955670",
    "final_x": "3671467.96065",
    "final_y": "518140.008694",
    "longitude": "-90.1002026422634",
    "latitude": "29.919005826298992",
    "geocoded_column": {
      "latitude": "29.919005826298992",
      "longitude": "-90.1002026422634"
    }
  },
  {
    "service_request": "2022-955669",
    "request_type": "Trash/Recycling",
    "request_reason": "Illegal Dumping",
    "date_created": "2022-12-22T14:53:54.000",
    "date_modified": "2022-12-22T14:53:54.000",
    "request_status": "Pending",
    "responsible_agency": "Department of Sanitation",
    "final_address": "4217 Baudin St",
    "address_councildis": "A",
    "status": "Pending",
    "rowid": "955669",
    "final_x": "3669540.85742",
    "final_y": "537587.578056",
    "longitude": "-90.10562781550783",
    "latitude": "29.972537194164378",
    "geocoded_column": {
      "latitude": "29.972537194164378",
      "longitude": "-90.10562781550783"
    }
  },
  {
    "service_request": "2022-955668",
    "request_type": "Trash/Recycling",
    "request_reason": "Missed Trash Pick-Up",
    "date_created": "2022-12-22T14:52:09.000",
    "date_modified": "2022-12-22T14:52:10.000",
    "request_status": "Pending",
    "responsible_agency": "Department of Sanitation",
    "final_address": "2612 S Claiborne Ave",
    "address_councildis": "B",
    "status": "Assigned to Contractor",
    "contractor": "Richards Disposal",
    "rowid": "955668",
    "final_x": "3673627.90958",
    "final_y": "526875.10195",
    "longitude": "-90.09308634398779",
    "latitude": "29.942960414774642",
    "geocoded_column": {
      "latitude": "29.942960414774642",
      "longitude": "-90.09308634398779"
    }
  },
  {
    "service_request": "2022-955667",
    "request_type": "Trash/Recycling",
    "request_reason": "Request a Large Item Pick Up",
    "date_created": "2022-12-22T14:48:19.000",
    "date_modified": "2022-12-22T14:48:20.000",
    "request_status": "Pending",
    "responsible_agency": "Department of Sanitation",
    "final_address": "416 S Gayoso St",
    "address_councildis": "B",
    "status": "Assigned to Contractor",
    "contractor": "Richards Disposal",
    "rowid": "955667",
    "final_x": "3673533.81665",
    "final_y": "534734.080838",
    "longitude": "-90.09311485435438",
    "latitude": "29.964572798886934",
    "geocoded_column": {
      "latitude": "29.964572798886934",
      "longitude": "-90.09311485435438"
    }
  },
  {
    "service_request": "2022-955666",
    "request_type": "Trash/Recycling",
    "request_reason": "Order Trash Cart",
    "date_created": "2022-12-22T14:47:09.000",
    "date_modified": "2022-12-22T14:47:10.000",
    "request_status": "Pending",
    "responsible_agency": "Department of Sanitation",
    "final_address": "1523 Columbus St, New Orleans, Louisiana, 70116",
    "address_councildis": "C",
    "status": "Assigned to Contractor",
    "contractor": "IV Waste",
    "rowid": "955666",
    "final_x": "3681890.22044",
    "final_y": "537101.27412",
    "longitude": "-90.0666433231348",
    "latitude": "29.97083042193257",
    "geocoded_column": {
      "latitude": "29.97083042193257",
      "longitude": "-90.0666433231348"
    }
  },
  {
    "service_request": "2022-955665",
    "request_type": "Trash/Recycling",
    "request_reason": "MIssed Recycling Pick-Up",
    "date_created": "2022-12-22T14:45:13.000",
    "date_modified": "2022-12-22T14:45:14.000",
    "request_status": "Pending",
    "responsible_agency": "Department of Sanitation",
    "final_address": "4515 S Johnson St",
    "address_councildis": "B",
    "status": "Assigned to Contractor",
    "contractor": "Richards Disposal",
    "rowid": "955665",
    "final_x": "3669677.07271",
    "final_y": "527237.719743",
    "longitude": "-90.10554786534615",
    "latitude": "29.944074490071973",
    "geocoded_column": {
      "latitude": "29.944074490071973",
      "longitude": "-90.10554786534615"
    }
  },
  {
    "service_request": "2022-955663",
    "request_type": "Trash/Recycling",
    "request_reason": "Missed Trash Pick-Up",
    "date_created": "2022-12-22T14:41:38.000",
    "date_modified": "2022-12-22T14:41:39.000",
    "request_status": "Pending",
    "responsible_agency": "Department of Sanitation",
    "final_address": "4662 Alcee Fortier Blvd",
    "address_councildis": "E",
    "status": "Assigned to Contractor",
    "contractor": "Waste Pro",
    "rowid": "955663",
    "final_x": "3730462.5193",
    "final_y": "561927.853599",
    "longitude": "-89.91227605550334",
    "latitude": "30.037527708137656",
    "geocoded_column": {
      "latitude": "30.037527708137656",
      "longitude": "-89.91227605550334"
    }
  },
  {
    "service_request": "2022-955662",
    "request_type": "Trash/Recycling",
    "request_reason": "MIssed Recycling Pick-Up",
    "date_created": "2022-12-22T14:40:08.000",
    "date_modified": "2022-12-22T14:40:09.000",
    "request_status": "Pending",
    "responsible_agency": "Department of Sanitation",
    "final_address": "5317 Douglass St",
    "address_councildis": "E",
    "status": "Assigned to Contractor",
    "contractor": "Waste Pro",
    "rowid": "955662",
    "final_x": "3696381.23191",
    "final_y": "531917.787075",
    "longitude": "-90.02106661305902",
    "latitude": "29.956129237803463",
    "geocoded_column": {
      "latitude": "29.956129237803463",
      "longitude": "-90.02106661305902"
    }
  },
  {
    "service_request": "2022-955661",
    "request_type": "Trash/Recycling",
    "request_reason": "MIssed Recycling Pick-Up",
    "date_created": "2022-12-22T14:40:06.000",
    "date_modified": "2022-12-22T14:40:06.000",
    "request_status": "Pending",
    "responsible_agency": "Department of Sanitation",
    "final_address": "6761 Louis Xiv St",
    "address_councildis": "A",
    "status": "Assigned to Contractor",
    "contractor": "IV Waste",
    "rowid": "955661",
    "final_x": "3668648.5737",
    "final_y": "552549.672918",
    "longitude": "-90.10794047947957",
    "latitude": "30.013704071963033",
    "geocoded_column": {
      "latitude": "30.013704071963033",
      "longitude": "-90.10794047947957"
    }
  },
  {
    "service_request": "2022-955660",
    "request_type": "Trash/Recycling",
    "request_reason": "Missed Trash Pick-Up",
    "date_created": "2022-12-22T14:39:14.000",
    "date_modified": "2022-12-22T14:39:15.000",
    "request_status": "Pending",
    "responsible_agency": "Department of Sanitation",
    "final_address": "9809 Old Gentilly Rd",
    "address_councildis": "E",
    "status": "Assigned to Contractor",
    "contractor": "Waste Pro",
    "rowid": "955660",
    "final_x": "3712027.72824",
    "final_y": "553014.867159",
    "longitude": "-89.97086869832809",
    "latitude": "30.013636261663233",
    "geocoded_column": {
      "latitude": "30.013636261663233",
      "longitude": "-89.97086869832809"
    }
  },
  {
    "service_request": "2022-955659",
    "request_type": "Trash/Recycling",
    "request_reason": "Missed Trash Pick-Up",
    "date_created": "2022-12-22T14:37:43.000",
    "date_modified": "2022-12-22T14:37:44.000",
    "request_status": "Pending",
    "responsible_agency": "Department of Sanitation",
    "final_address": "2105 Rousseau St, New Orleans, Louisiana, 70130",
    "address_councildis": "B",
    "status": "Assigned to Contractor",
    "contractor": "Richards Disposal",
    "rowid": "955659",
    "final_x": "3680460.66869",
    "final_y": "520517.322296",
    "longitude": "-90.07173467782835",
    "latitude": "29.925273493778985",
    "geocoded_column": {
      "latitude": "29.925273493778985",
      "longitude": "-90.07173467782835"
    }
  },
  {
    "service_request": "2022-955658",
    "request_type": "Roads/Drainage",
    "request_reason": "WaterMain Break",
    "date_created": "2022-12-22T14:36:34.000",
    "date_modified": "2022-12-22T14:36:34.000",
    "request_status": "Closed",
    "responsible_agency": "Department of Public Works",
    "final_address": "834 Audubon St",
    "address_councildis": "A",
    "status": "Invalid Case",
    "rowid": "955658",
    "final_x": "3663745.7833",
    "final_y": "525401.800637",
    "longitude": "-90.12433584444115",
    "latitude": "29.939199720522865",
    "geocoded_column": {
      "latitude": "29.939199720522865",
      "longitude": "-90.12433584444115"
    }
  },
  {
    "service_request": "2022-955657",
    "request_type": "Traffic Signals/Signs/Striping/Streetlights",
    "request_reason": "Traffic Signal Malfunctioning/Damaged",
    "date_created": "2022-12-22T14:33:59.000",
    "date_modified": "2022-12-22T14:33:59.000",
    "request_status": "Pending",
    "responsible_agency": "Department of Public Works",
    "final_address": "1111 Poland Ave",
    "address_councildis": "D",
    "status": "Pending",
    "rowid": "955657",
    "final_x": "3693198.2847",
    "final_y": "535193.421126",
    "longitude": "-90.03099967493971",
    "latitude": "29.965235929674588",
    "geocoded_column": {
      "latitude": "29.965235929674588",
      "longitude": "-90.03099967493971"
    }
  },
  {
    "service_request": "2022-955656",
    "request_type": "Trash/Recycling",
    "request_reason": "Request a Large Item Pick Up",
    "date_created": "2022-12-22T14:31:29.000",
    "date_modified": "2022-12-22T14:37:05.000",
    "request_status": "Pending",
    "responsible_agency": "Department of Sanitation",
    "final_address": "823 Julia St",
    "address_councildis": "B",
    "contractor": "Empire Services",
    "rowid": "955656",
    "final_x": "3679803.21224",
    "final_y": "528219.940992",
    "longitude": "-90.07354273209216",
    "latitude": "29.94647303866597",
    "geocoded_column": {
      "latitude": "29.94647303866597",
      "longitude": "-90.07354273209216"
    }
  },
  {
    "service_request": "2022-955655",
    "request_type": "Abandoned Vehicles",
    "request_reason": "Abandoned/Junk Vehicles",
    "date_created": "2022-12-22T14:31:15.000",
    "date_modified": "2022-12-22T14:31:15.000",
    "request_status": "Pending",
    "responsible_agency": "Department of Public Works",
    "final_address": "3448 Laurel St",
    "address_councildis": "B",
    "status": "Pending",
    "rowid": "955655",
    "final_x": "3674935.25774",
    "final_y": "518733.663607",
    "longitude": "-90.0892378089035",
    "latitude": "29.920535129276253",
    "geocoded_column": {
      "latitude": "29.920535129276253",
      "longitude": "-90.0892378089035"
    }
  },
  {
    "service_request": "2022-955654",
    "request_type": "Trash/Recycling",
    "request_reason": "Illegal Dumping",
    "date_created": "2022-12-22T14:30:43.000",
    "date_modified": "2022-12-22T14:30:44.000",
    "request_status": "Pending",
    "responsible_agency": "Department of Sanitation",
    "final_address": "4200 Mccoy St",
    "address_councildis": "E",
    "status": "Pending",
    "rowid": "955654",
    "final_x": "3711987.78821",
    "final_y": "553553.752663",
    "longitude": "-89.97097464362662",
    "latitude": "30.01511929259929",
    "geocoded_column": {
      "latitude": "30.01511929259929",
      "longitude": "-89.97097464362662"
    }
  },
  {
    "service_request": "2022-955653",
    "request_type": "Trash/Recycling",
    "request_reason": "Missed Trash Pick-Up",
    "date_created": "2022-12-22T14:29:46.000",
    "date_modified": "2022-12-22T14:29:47.000",
    "request_status": "Pending",
    "responsible_agency": "Department of Sanitation",
    "final_address": "4216 Mccoy St",
    "address_councildis": "E",
    "status": "Assigned to Contractor",
    "contractor": "Waste Pro",
    "rowid": "955653",
    "final_x": "3711967.34981",
    "final_y": "553752.011799",
    "longitude": "-89.97103177127718",
    "latitude": "30.015665096050245",
    "geocoded_column": {
      "latitude": "30.015665096050245",
      "longitude": "-89.97103177127718"
    }
  },
  {
    "service_request": "2022-955652",
    "request_type": "Abandoned Vehicles",
    "request_reason": "Abandoned/Junk Vehicles",
    "date_created": "2022-12-22T14:28:59.000",
    "date_modified": "2022-12-22T14:28:59.000",
    "request_status": "Pending",
    "responsible_agency": "Department of Public Works",
    "final_address": "1124 Baronne St",
    "address_councildis": "B",
    "status": "Pending",
    "rowid": "955652",
    "final_x": "3679070.6973",
    "final_y": "526957.586238",
    "longitude": "-90.0758992801898",
    "latitude": "29.94302410785997",
    "geocoded_column": {
      "latitude": "29.94302410785997",
      "longitude": "-90.0758992801898"
    }
  },
  {
    "service_request": "2022-955651",
    "request_type": "Trash/Recycling",
    "request_reason": "Replace Trash Cart",
    "date_created": "2022-12-22T14:28:07.000",
    "date_modified": "2022-12-22T14:28:08.000",
    "request_status": "Pending",
    "responsible_agency": "Department of Sanitation",
    "final_address": "3740 Red Oak Ct",
    "address_councildis": "C",
    "status": "Assigned to Contractor",
    "contractor": "Richards Disposal",
    "rowid": "955651",
    "final_x": "3703447.04004",
    "final_y": "514007.528882",
    "longitude": "-89.99941373313816",
    "latitude": "29.906657882555436",
    "geocoded_column": {
      "latitude": "29.906657882555436",
      "longitude": "-89.99941373313816"
    }
  },
  {
    "service_request": "2022-955650",
    "request_type": "Trash/Recycling",
    "request_reason": "MIssed Recycling Pick-Up",
    "date_created": "2022-12-22T14:23:45.000",
    "date_modified": "2022-12-22T14:23:46.000",
    "request_status": "Pending",
    "responsible_agency": "Department of Sanitation",
    "final_address": "8008 Brevard Ave",
    "address_councildis": "E",
    "status": "Assigned to Contractor",
    "contractor": "Waste Pro",
    "rowid": "955650",
    "final_x": "3705721.62129",
    "final_y": "564523.608993",
    "longitude": "-89.99036638420274",
    "latitude": "30.045485472343625",
    "geocoded_column": {
      "latitude": "30.045485472343625",
      "longitude": "-89.99036638420274"
    }
  },
  {
    "service_request": "2022-955649",
    "request_type": "Trash/Recycling",
    "request_reason": "Illegal Dumping",
    "date_created": "2022-12-22T14:18:15.000",
    "date_modified": "2022-12-22T14:18:15.000",
    "request_status": "Pending",
    "responsible_agency": "Department of Sanitation",
    "final_address": "2724 Pauger St",
    "address_councildis": "D",
    "status": "Pending",
    "rowid": "955649",
    "final_x": "3683559.75785",
    "final_y": "539734.05601",
    "longitude": "-90.0612784169168",
    "latitude": "29.978018801551755",
    "geocoded_column": {
      "latitude": "29.978018801551755",
      "longitude": "-90.0612784169168"
    }
  },
  {
    "service_request": "2022-955648",
    "request_type": "Trash/Recycling",
    "request_reason": "Missed Trash Pick-Up",
    "date_created": "2022-12-22T14:15:36.000",
    "date_modified": "2022-12-22T14:15:37.000",
    "request_status": "Pending",
    "responsible_agency": "Department of Sanitation",
    "final_address": "1918 S Gayoso St",
    "address_councildis": "B",
    "status": "Assigned to Contractor",
    "contractor": "Richards Disposal",
    "rowid": "955648",
    "final_x": "3670121.54196",
    "final_y": "529556.462657",
    "longitude": "-90.10406600882041",
    "latitude": "29.95043717292334",
    "geocoded_column": {
      "latitude": "29.95043717292334",
      "longitude": "-90.10406600882041"
    }
  },
  {
    "service_request": "2022-955647",
    "request_type": "Trash/Recycling",
    "request_reason": "MIssed Recycling Pick-Up",
    "date_created": "2022-12-22T14:15:26.000",
    "date_modified": "2022-12-22T14:15:27.000",
    "request_status": "Pending",
    "responsible_agency": "Department of Sanitation",
    "final_address": "2600 BLK Joseph St",
    "address_councildis": "A",
    "status": "Assigned to Contractor",
    "contractor": "Richards Disposal",
    "rowid": "955647",
    "final_x": "3667619.90882",
    "final_y": "525594.574583",
    "longitude": "-90.1120982195407",
    "latitude": "29.939616821020007",
    "geocoded_column": {
      "latitude": "29.939616821020007",
      "longitude": "-90.1120982195407"
    }
  },
  {
    "service_request": "2022-955646",
    "request_type": "Trash/Recycling",
    "request_reason": "Replace Trash Cart",
    "date_created": "2022-12-22T14:14:17.000",
    "date_modified": "2022-12-22T14:14:18.000",
    "request_status": "Pending",
    "responsible_agency": "Department of Sanitation",
    "final_address": "1918 S Gayoso St",
    "address_councildis": "B",
    "status": "Assigned to Contractor",
    "contractor": "Richards Disposal",
    "rowid": "955646",
    "final_x": "3670121.54196",
    "final_y": "529556.462657",
    "longitude": "-90.10406600882041",
    "latitude": "29.95043717292334",
    "geocoded_column": {
      "latitude": "29.95043717292334",
      "longitude": "-90.10406600882041"
    }
  },
  {
    "service_request": "2022-955645",
    "request_type": "Trash/Recycling",
    "request_reason": "Missed Trash Pick-Up",
    "date_created": "2022-12-22T14:12:49.000",
    "date_modified": "2022-12-22T14:12:50.000",
    "request_status": "Pending",
    "responsible_agency": "Department of Sanitation",
    "final_address": "334 Royal St",
    "address_councildis": "C",
    "status": "Assigned to Contractor",
    "contractor": "Empire Services",
    "rowid": "955645",
    "final_x": "3681860.50888",
    "final_y": "531492.449795",
    "longitude": "-90.0669329267041",
    "latitude": "29.9554089782484",
    "geocoded_column": {
      "latitude": "29.9554089782484",
      "longitude": "-90.0669329267041"
    }
  },
  {
    "service_request": "2022-955644",
    "request_type": "Trash/Recycling",
    "request_reason": "Order Trash Cart",
    "date_created": "2022-12-22T14:09:45.000",
    "date_modified": "2022-12-22T14:10:07.000",
    "request_status": "Pending",
    "responsible_agency": "Department of Sanitation",
    "final_address": "6124 Marshal Foch St",
    "address_councildis": "A",
    "status": "Assigned to Contractor",
    "contractor": "IV Waste",
    "rowid": "955644",
    "final_x": "3669829.8459",
    "final_y": "548073.849746",
    "longitude": "-90.10435993258373",
    "latitude": "30.0013623384453",
    "geocoded_column": {
      "latitude": "30.0013623384453",
      "longitude": "-90.10435993258373"
    }
  },
  {
    "service_request": "2022-955643",
    "request_type": "Trash/Recycling",
    "request_reason": "Order Recycling Cart",
    "date_created": "2022-12-22T14:08:10.000",
    "date_modified": "2022-12-22T14:08:11.000",
    "request_status": "Pending",
    "responsible_agency": "Department of Sanitation",
    "final_address": "6124 Marshal Foch St",
    "address_councildis": "A",
    "status": "Pending",
    "rowid": "955643",
    "final_x": "3669829.8459",
    "final_y": "548073.849746",
    "longitude": "-90.10435993258373",
    "latitude": "30.0013623384453",
    "geocoded_column": {
      "latitude": "30.0013623384453",
      "longitude": "-90.10435993258373"
    }
  },
  {
    "service_request": "2022-955642",
    "request_type": "Trash/Recycling",
    "request_reason": "Missed Trash Pick-Up",
    "date_created": "2022-12-22T14:02:13.000",
    "date_modified": "2022-12-22T14:02:14.000",
    "request_status": "Pending",
    "responsible_agency": "Department of Sanitation",
    "final_address": "4300 BLK State Street Dr",
    "address_councildis": "B",
    "status": "Assigned to Contractor",
    "contractor": "Richards Disposal",
    "rowid": "955642",
    "final_x": "3668748.80617",
    "final_y": "531947.409318",
    "longitude": "-90.10831969785667",
    "latitude": "29.95705191468067",
    "geocoded_column": {
      "latitude": "29.95705191468067",
      "longitude": "-90.10831969785667"
    }
  },
  {
    "service_request": "2022-955641",
    "request_type": "Trash/Recycling",
    "request_reason": "Missed Trash Pick-Up",
    "date_created": "2022-12-22T13:56:39.000",
    "date_modified": "2022-12-22T13:56:40.000",
    "request_status": "Pending",
    "responsible_agency": "Department of Sanitation",
    "final_address": "6744 Cindy Pl",
    "address_councildis": "E",
    "status": "Assigned to Contractor",
    "contractor": "Waste Pro",
    "rowid": "955641",
    "final_x": "3707101.4602",
    "final_y": "558820.1119",
    "longitude": "-89.98621737697741",
    "latitude": "30.02975857167119",
    "geocoded_column": {
      "latitude": "30.02975857167119",
      "longitude": "-89.98621737697741"
    }
  },
  {
    "service_request": "2022-955640",
    "request_type": "Trash/Recycling",
    "request_reason": "Order Recycling Cart",
    "date_created": "2022-12-22T13:54:53.000",
    "date_modified": "2022-12-22T13:54:53.000",
    "request_status": "Pending",
    "responsible_agency": "Department of Sanitation",
    "final_address": "2424 Lapeyrouse St",
    "address_councildis": "D",
    "status": "Pending",
    "rowid": "955640",
    "final_x": "3679742.51637",
    "final_y": "539607.061642",
    "longitude": "-90.07333902050823",
    "latitude": "29.977785581213887",
    "geocoded_column": {
      "latitude": "29.977785581213887",
      "longitude": "-90.07333902050823"
    }
  },
  {
    "service_request": "2022-955639",
    "request_type": "Trash/Recycling",
    "request_reason": "Repair Trash Cart",
    "date_created": "2022-12-22T13:50:46.000",
    "date_modified": "2022-12-22T13:50:47.000",
    "request_status": "Pending",
    "responsible_agency": "Department of Sanitation",
    "final_address": "8 Marcus Christian Cir",
    "address_councildis": "D",
    "status": "Assigned to Contractor",
    "contractor": "IV Waste",
    "rowid": "955639",
    "final_x": "3689872.06307",
    "final_y": "543242.923982",
    "longitude": "-90.041217026256",
    "latitude": "29.987472741495328",
    "geocoded_column": {
      "latitude": "29.987472741495328",
      "longitude": "-90.041217026256"
    }
  },
  {
    "service_request": "2022-955638",
    "request_type": "Trash/Recycling",
    "request_reason": "Request a Large Item Pick Up",
    "date_created": "2022-12-22T13:50:24.000",
    "date_modified": "2022-12-22T13:50:24.000",
    "request_status": "Pending",
    "responsible_agency": "Department of Sanitation",
    "final_address": "1679 N Broad St",
    "address_councildis": "D",
    "status": "Assigned to Contractor",
    "contractor": "IV Waste",
    "rowid": "955638",
    "final_x": "3679458.47765",
    "final_y": "540729.876811",
    "longitude": "-90.07419714405697",
    "latitude": "29.980881518689365",
    "geocoded_column": {
      "latitude": "29.980881518689365",
      "longitude": "-90.07419714405697"
    }
  },
  {
    "service_request": "2022-955637",
    "request_type": "Trash/Recycling",
    "request_reason": "MIssed Recycling Pick-Up",
    "date_created": "2022-12-22T13:41:58.000",
    "date_modified": "2022-12-22T13:41:59.000",
    "request_status": "Pending",
    "responsible_agency": "Department of Sanitation",
    "final_address": "7220 Pinebrook Dr",
    "address_councildis": "E",
    "status": "Assigned to Contractor",
    "contractor": "Waste Pro",
    "rowid": "955637",
    "final_x": "3718946.88396",
    "final_y": "570482.043943",
    "longitude": "-89.94834098548135",
    "latitude": "30.061435868598046",
    "geocoded_column": {
      "latitude": "30.061435868598046",
      "longitude": "-89.94834098548135"
    }
  },
  {
    "service_request": "2022-955636",
    "request_type": "Trash/Recycling",
    "request_reason": "Repair Recycling Cart",
    "date_created": "2022-12-22T13:41:28.000",
    "date_modified": "2022-12-22T13:41:28.000",
    "request_status": "Pending",
    "responsible_agency": "Department of Sanitation",
    "final_address": "7220 Pinebrook Dr",
    "address_councildis": "E",
    "status": "Pending",
    "contractor": "Waste Pro",
    "rowid": "955636",
    "final_x": "3718946.88396",
    "final_y": "570482.043943",
    "longitude": "-89.94834098548135",
    "latitude": "30.061435868598046",
    "geocoded_column": {
      "latitude": "30.061435868598046",
      "longitude": "-89.94834098548135"
    }
  },
  {
    "service_request": "2022-955635",
    "request_type": "Trash/Recycling",
    "request_reason": "Repair Trash Cart",
    "date_created": "2022-12-22T13:40:52.000",
    "date_modified": "2022-12-22T13:40:52.000",
    "request_status": "Pending",
    "responsible_agency": "Department of Sanitation",
    "final_address": "7220 Pinebrook Dr",
    "address_councildis": "E",
    "status": "Assigned to Contractor",
    "contractor": "Waste Pro",
    "rowid": "955635",
    "final_x": "3718946.88396",
    "final_y": "570482.043943",
    "longitude": "-89.94834098548135",
    "latitude": "30.061435868598046",
    "geocoded_column": {
      "latitude": "30.061435868598046",
      "longitude": "-89.94834098548135"
    }
  },
  {
    "service_request": "2022-955634",
    "request_type": "Trash/Recycling",
    "request_reason": "Order Recycling Cart",
    "date_created": "2022-12-22T13:39:17.000",
    "date_modified": "2022-12-22T13:39:57.000",
    "request_status": "Pending",
    "responsible_agency": "Department of Sanitation",
    "final_address": "4112 S Derbigny St",
    "address_councildis": "B",
    "status": "Pending",
    "rowid": "955634",
    "final_x": "3671253.8619",
    "final_y": "526307.35923",
    "longitude": "-90.10060109236817",
    "latitude": "29.9414697504494",
    "geocoded_column": {
      "latitude": "29.9414697504494",
      "longitude": "-90.10060109236817"
    }
  },
  {
    "service_request": "2022-955632",
    "request_type": "Trash/Recycling",
    "request_reason": "Order Trash Cart",
    "date_created": "2022-12-22T13:35:38.000",
    "date_modified": "2022-12-22T13:35:38.000",
    "request_status": "Pending",
    "responsible_agency": "Department of Sanitation",
    "final_address": "7808 Star St",
    "address_councildis": "E",
    "status": "Assigned to Contractor",
    "contractor": "Waste Pro",
    "rowid": "955632",
    "final_x": "3720676.59666",
    "final_y": "574395.415403",
    "longitude": "-89.94272331830943",
    "latitude": "30.072138390822623",
    "geocoded_column": {
      "latitude": "30.072138390822623",
      "longitude": "-89.94272331830943"
    }
  },
  {
    "service_request": "2022-955631",
    "request_type": "Trash/Recycling",
    "request_reason": "Replace Trash Cart",
    "date_created": "2022-12-22T13:33:56.000",
    "date_modified": "2022-12-22T13:33:57.000",
    "request_status": "Pending",
    "responsible_agency": "Department of Sanitation",
    "final_address": "1614 First St",
    "address_councildis": "B",
    "status": "Assigned to Contractor",
    "contractor": "Richards Disposal",
    "rowid": "955631",
    "final_x": "3676862.04929",
    "final_y": "523276.894779",
    "longitude": "-90.08299933481308",
    "latitude": "29.932969876295186",
    "geocoded_column": {
      "latitude": "29.932969876295186",
      "longitude": "-90.08299933481308"
    }
  },
  {
    "service_request": "2022-955630",
    "request_type": "Safety & Permits",
    "request_reason": "Licenses & Permits",
    "date_created": "2022-12-22T13:31:33.000",
    "date_modified": "2022-12-22T13:31:33.000",
    "request_status": "Pending",
    "responsible_agency": "Safety and Permits",
    "final_address": "1015 Louisiana Ave",
    "address_councildis": "B",
    "status": "Pending",
    "rowid": "955630",
    "final_x": "3675199.70267",
    "final_y": "519448.536567",
    "longitude": "-90.08837856136961",
    "latitude": "29.922492902670886",
    "geocoded_column": {
      "latitude": "29.922492902670886",
      "longitude": "-90.08837856136961"
    }
  },
  {
    "service_request": "2022-955629",
    "request_type": "Property Maintenance",
    "request_reason": "Property Maintenance",
    "date_created": "2022-12-22T13:30:28.000",
    "date_modified": "2022-12-22T13:30:28.000",
    "request_status": "Pending",
    "responsible_agency": "Department of Code Enforcement",
    "final_address": "1800 Jefferson Ave",
    "address_councildis": "A",
    "status": "Pending",
    "rowid": "955629",
    "final_x": "3667456.57025",
    "final_y": "522350.692922",
    "longitude": "-90.11272300045577",
    "latitude": "29.930701970033716",
    "geocoded_column": {
      "latitude": "29.930701970033716",
      "longitude": "-90.11272300045577"
    }
  },
  {
    "service_request": "2022-955628",
    "request_type": "Property Maintenance",
    "request_reason": "Property Maintenance",
    "date_created": "2022-12-22T13:30:09.000",
    "date_modified": "2022-12-22T13:30:09.000",
    "request_status": "Pending",
    "responsible_agency": "Department of Code Enforcement",
    "final_address": "1726 Laharpe St",
    "address_councildis": "D",
    "status": "Pending",
    "rowid": "955628",
    "final_x": "3681469.26767",
    "final_y": "537805.792008",
    "longitude": "-90.06794817293122",
    "latitude": "29.97278039157533",
    "geocoded_column": {
      "latitude": "29.97278039157533",
      "longitude": "-90.06794817293122"
    }
  },
  {
    "service_request": "2022-955627",
    "request_type": "Property Maintenance",
    "request_reason": "Property Maintenance",
    "date_created": "2022-12-22T13:22:59.000",
    "date_modified": "2022-12-22T13:23:00.000",
    "request_status": "Pending",
    "responsible_agency": "Department of Code Enforcement",
    "final_address": "2013 Simon Bolivar Ave",
    "address_councildis": "B",
    "status": "Pending",
    "rowid": "955627",
    "final_x": "3676575.51131",
    "final_y": "525970.281981",
    "longitude": "-90.08381119299544",
    "latitude": "29.940384402110606",
    "geocoded_column": {
      "latitude": "29.940384402110606",
      "longitude": "-90.08381119299544"
    }
  },
  {
    "service_request": "2022-955626",
    "request_type": "Trash/Recycling",
    "request_reason": "Missed Trash Pick-Up",
    "date_created": "2022-12-22T13:22:27.000",
    "date_modified": "2022-12-22T13:22:27.000",
    "request_status": "Pending",
    "responsible_agency": "Department of Sanitation",
    "final_address": "4114 Vendome Pl",
    "address_councildis": "B",
    "status": "Assigned to Contractor",
    "contractor": "Richards Disposal",
    "rowid": "955626",
    "final_x": "3668768.88391",
    "final_y": "530585.875778",
    "longitude": "-90.10830226274658",
    "latitude": "29.95330755444614",
    "geocoded_column": {
      "latitude": "29.95330755444614",
      "longitude": "-90.10830226274658"
    }
  },
  {
    "service_request": "2022-955625",
    "request_type": "Trash/Recycling",
    "request_reason": "Missed Trash Pick-Up",
    "date_created": "2022-12-22T13:21:52.000",
    "date_modified": "2022-12-22T13:21:53.000",
    "request_status": "Pending",
    "responsible_agency": "Department of Sanitation",
    "final_address": "4207 State Street Dr",
    "address_councildis": "B",
    "status": "Assigned to Contractor",
    "contractor": "Richards Disposal",
    "rowid": "955625",
    "final_x": "3668518.41729",
    "final_y": "531093.334146",
    "longitude": "-90.10907601137009",
    "latitude": "29.954710259189195",
    "geocoded_column": {
      "latitude": "29.954710259189195",
      "longitude": "-90.10907601137009"
    }
  },
  {
    "service_request": "2022-955624",
    "request_type": "Trash/Recycling",
    "request_reason": "MIssed Recycling Pick-Up",
    "date_created": "2022-12-22T13:19:25.000",
    "date_modified": "2022-12-22T13:19:26.000",
    "request_status": "Pending",
    "responsible_agency": "Department of Sanitation",
    "final_address": "4724 Carondelet St",
    "address_councildis": "B",
    "status": "Assigned to Contractor",
    "contractor": "Richards Disposal",
    "rowid": "955624",
    "final_x": "3669512.45076",
    "final_y": "521024.064185",
    "longitude": "-90.10627771189625",
    "latitude": "29.926993785677297",
    "geocoded_column": {
      "latitude": "29.926993785677297",
      "longitude": "-90.10627771189625"
    }
  },
  {
    "service_request": "2022-955623",
    "request_type": "Tax and Revenue",
    "request_reason": "Sales Tax Question",
    "date_created": "2022-12-22T13:17:28.000",
    "date_modified": "2022-12-22T13:17:29.000",
    "request_status": "Pending",
    "responsible_agency": "Bureau of Revenue",
    "status": "Pending",
    "rowid": "955623",
    "longitude": "0.0",
    "latitude": "0.0",
    "geocoded_column": {
      "latitude": "0.0",
      "longitude": "0.0"
    }
  },
  {
    "service_request": "2022-955621",
    "request_type": "Trash/Recycling",
    "request_reason": "Missed Trash Pick-Up",
    "date_created": "2022-12-22T13:09:17.000",
    "date_modified": "2022-12-22T13:09:18.000",
    "request_status": "Pending",
    "responsible_agency": "Department of Sanitation",
    "final_address": "3903 Panama Ct",
    "address_councildis": "B",
    "status": "Assigned to Contractor",
    "contractor": "Richards Disposal",
    "rowid": "955621",
    "final_x": "3668123.16909",
    "final_y": "530767.72557",
    "longitude": "-90.11033503096658",
    "latitude": "29.953826548128063",
    "geocoded_column": {
      "latitude": "29.953826548128063",
      "longitude": "-90.11033503096658"
    }
  },
  {
    "service_request": "2022-955619",
    "request_type": "Property Maintenance",
    "request_reason": "Property Maintenance",
    "date_created": "2022-12-22T13:04:29.000",
    "date_modified": "2022-12-22T13:04:29.000",
    "request_status": "Pending",
    "responsible_agency": "Department of Code Enforcement",
    "final_address": "609 Filmore Ave",
    "address_councildis": "A",
    "status": "Pending",
    "rowid": "955619",
    "final_x": "3668637.87732",
    "final_y": "551965.69359",
    "longitude": "-90.10799400548107",
    "latitude": "30.01209864882097",
    "geocoded_column": {
      "latitude": "30.01209864882097",
      "longitude": "-90.10799400548107"
    }
  },
  {
    "service_request": "2022-955618",
    "request_type": "Trash/Recycling",
    "request_reason": "Order Trash Cart",
    "date_created": "2022-12-22T13:04:22.000",
    "date_modified": "2022-12-22T13:04:23.000",
    "request_status": "Pending",
    "responsible_agency": "Department of Sanitation",
    "final_address": "1629 N Prieur St",
    "address_councildis": "D",
    "status": "Assigned to Contractor",
    "contractor": "IV Waste",
    "rowid": "955618",
    "final_x": "3681411.58991",
    "final_y": "538658.823049",
    "longitude": "-90.06810058256688",
    "latitude": "29.975127682870777",
    "geocoded_column": {
      "latitude": "29.975127682870777",
      "longitude": "-90.06810058256688"
    }
  },
  {
    "service_request": "2022-955617",
    "request_type": "Trash/Recycling",
    "request_reason": "Missed Trash Pick-Up",
    "date_created": "2022-12-22T12:59:00.000",
    "date_modified": "2022-12-22T14:59:54.000",
    "case_close_date": "2022-12-22T08:59:54.000",
    "request_status": "Closed",
    "responsible_agency": "Department of Sanitation",
    "final_address": "1205 Jourdan Ave",
    "address_councildis": "E",
    "status": "Duplicate Request",
    "contractor": "Waste Pro",
    "rowid": "955617",
    "final_x": "3695240.35165",
    "final_y": "534978.447814",
    "longitude": "-90.02455871942828",
    "latitude": "29.964580852799607",
    "geocoded_column": {
      "latitude": "29.964580852799607",
      "longitude": "-90.02455871942828"
    }
  },
  {
    "service_request": "2022-955616",
    "request_type": "Trash/Recycling",
    "request_reason": "Missed Trash Pick-Up",
    "date_created": "2022-12-22T12:57:23.000",
    "date_modified": "2022-12-22T12:57:24.000",
    "request_status": "Pending",
    "responsible_agency": "Department of Sanitation",
    "final_address": "4500 BLK Eden St",
    "address_councildis": "B",
    "status": "Assigned to Contractor",
    "contractor": "Richards Disposal",
    "rowid": "955616",
    "final_x": "3669512.26625",
    "final_y": "530911.937964",
    "longitude": "-90.10594394528606",
    "latitude": "29.954182244193042",
    "geocoded_column": {
      "latitude": "29.954182244193042",
      "longitude": "-90.10594394528606"
    }
  },
  {
    "service_request": "2022-955615",
    "request_type": "Trash/Recycling",
    "request_reason": "Order Recycling Cart",
    "date_created": "2022-12-22T12:55:41.000",
    "date_modified": "2022-12-22T12:55:42.000",
    "request_status": "Pending",
    "responsible_agency": "Department of Sanitation",
    "final_address": "5704 Wildair Dr",
    "address_councildis": "D",
    "status": "Pending",
    "rowid": "955615",
    "final_x": "3681490.37666",
    "final_y": "553780.093655",
    "longitude": "-90.06732409996762",
    "latitude": "30.01670341195069",
    "geocoded_column": {
      "latitude": "30.01670341195069",
      "longitude": "-90.06732409996762"
    }
  },
  {
    "service_request": "2022-955614",
    "request_type": "Trash/Recycling",
    "request_reason": "Request a Large Item Pick Up",
    "date_created": "2022-12-22T12:51:40.000",
    "date_modified": "2022-12-22T12:51:41.000",
    "request_status": "Pending",
    "responsible_agency": "Department of Sanitation",
    "final_address": "4503 Baudin St",
    "address_councildis": "A",
    "status": "Assigned to Contractor",
    "contractor": "Richards Disposal",
    "rowid": "955614",
    "final_x": "3668713.0121",
    "final_y": "538180.957001",
    "longitude": "-90.10822227112772",
    "latitude": "29.9741931504233",
    "geocoded_column": {
      "latitude": "29.9741931504233",
      "longitude": "-90.10822227112772"
    }
  },
  {
    "service_request": "2022-955612",
    "request_type": "Trash/Recycling",
    "request_reason": "Missed Trash Pick-Up",
    "date_created": "2022-12-22T12:47:27.000",
    "date_modified": "2022-12-22T12:47:27.000",
    "request_status": "Pending",
    "responsible_agency": "Department of Sanitation",
    "final_address": "1205 Jourdan Ave",
    "address_councildis": "E",
    "status": "Assigned to Contractor",
    "contractor": "Waste Pro",
    "rowid": "955612",
    "final_x": "3695240.35165",
    "final_y": "534978.447814",
    "longitude": "-90.02455871942828",
    "latitude": "29.964580852799607",
    "geocoded_column": {
      "latitude": "29.964580852799607",
      "longitude": "-90.02455871942828"
    }
  },
  {
    "service_request": "2022-955611",
    "request_type": "Trash/Recycling",
    "request_reason": "MIssed Recycling Pick-Up",
    "date_created": "2022-12-22T12:37:54.000",
    "date_modified": "2022-12-22T12:37:55.000",
    "request_status": "Pending",
    "responsible_agency": "Department of Sanitation",
    "final_address": "6016 St Charles Ave",
    "address_councildis": "A",
    "status": "Assigned to Contractor",
    "contractor": "Richards Disposal",
    "rowid": "955611",
    "final_x": "3665536.5257",
    "final_y": "522450.08089",
    "longitude": "-90.11878100278054",
    "latitude": "29.931031355859783",
    "geocoded_column": {
      "latitude": "29.931031355859783",
      "longitude": "-90.11878100278054"
    }
  },
  {
    "service_request": "2022-955610",
    "request_type": "Trash/Recycling",
    "request_reason": "Missed Trash Pick-Up",
    "date_created": "2022-12-22T12:36:29.000",
    "date_modified": "2022-12-22T12:36:29.000",
    "request_status": "Pending",
    "responsible_agency": "Department of Sanitation",
    "final_address": "7860 Tulsa St",
    "address_councildis": "E",
    "status": "Assigned to Contractor",
    "contractor": "Waste Pro",
    "rowid": "955610",
    "final_x": "3704333.48919",
    "final_y": "553425.378583",
    "longitude": "-89.99516315968452",
    "latitude": "30.015014326467917",
    "geocoded_column": {
      "latitude": "30.015014326467917",
      "longitude": "-89.99516315968452"
    }
  },