[
  {
    "service_request": "2021-830028",
    "request_type": "Property Maintenance",
    "request_reason": "Property Maintenance",
    "date_created": "2021-10-06T00:16:46.000",
    "date_modified": "2021-10-06T00:16:46.000",
    "request_status": "Pending",
    "responsible_agency": "Department of Code Enforcement",
    "final_address": "4344 Sybil St",
    "address_councildis": "D",
    "status": "Pending",
    "rowid": "830028",
    "final_x": "3679004.55733",
    "final_y": "548450.538194",
    "longitude": "-90.07536311003685",
    "latitude": "30.00212433226133",
    "geocoded_column": {
      "latitude": "30.00212433226133",
      "longitude": "-90.07536311003685"
    }
  },
  {
    "service_request": "2021-830027",
    "request_type": "Trash/Recycling",
    "request_reason": "Missed Trash Pick-Up",
    "date_created": "2021-10-05T23:36:00.000",
    "date_modified": "2021-10-05T23:36:01.000",
    "request_status": "Pending",
    "responsible_agency": "Department of Sanitation",
    "final_address": "702 Desire St",
    "address_councildis": "C",
    "status": "Assigned to Contractor",
    "contractor": "Metro Disposal",
    "rowid": "830027",
    "final_x": "3689771.86601",
    "final_y": "534252.024133",
    "longitude": "-90.0418535998059",
    "latitude": "29.962754054098557",
    "geocoded_column": {
      "latitude": "29.962754054098557",
      "longitude": "-90.0418535998059"
    }
  },
  {
    "service_request": "2021-830026",
    "request_type": "Traffic Signals/Signs/Striping/Streetlights",
    "request_reason": "Street Light Outage/Malfunction",
    "date_created": "2021-10-05T22:22:21.000",
    "date_modified": "2021-10-05T22:22:22.000",
    "request_status": "Pending",
    "responsible_agency": "Department of Public Works",
    "final_address": "GERMAIN ST & COLBERT ST",
    "address_councildis": "A",
    "status": "Pending",
    "contractor": "Royal Engineering",
    "rowid": "830026",
    "final_x": "3667480.0",
    "final_y": "548032.38",
    "longitude": "-90.11178473421101",
    "latitude": "30.00131740192959",
    "geocoded_column": {
      "latitude": "30.00131740192959",
      "longitude": "-90.11178473421101"
    }
  },
  {
    "service_request": "2021-830025",
    "request_type": "Trash/Recycling",
    "request_reason": "Replace Trash Cart",
    "date_created": "2021-10-05T22:15:55.000",
    "date_modified": "2021-10-05T22:15:56.000",
    "request_status": "Pending",
    "responsible_agency": "Department of Sanitation",
    "final_address": "2111 Prytania St",
    "address_councildis": "B",
    "status": "Assigned to Contractor",
    "contractor": "Richards Disposal",
    "rowid": "830025",
    "final_x": "3678133.6027",
    "final_y": "523495.709115",
    "longitude": "-90.07897756980975",
    "latitude": "29.9335333307127",
    "geocoded_column": {
      "latitude": "29.9335333307127",
      "longitude": "-90.07897756980975"
    }
  },
  {
    "service_request": "2021-830024",
    "request_type": "Trash/Recycling",
    "request_reason": "Missed Trash Pick-Up",
    "date_created": "2021-10-05T22:08:04.000",
    "date_modified": "2021-10-05T22:08:04.000",
    "request_status": "Pending",
    "responsible_agency": "Department of Sanitation",
    "final_address": "2124 Burgundy St",
    "address_councildis": "C",
    "status": "Assigned to Contractor",
    "contractor": "Metro Disposal",
    "rowid": "830024",
    "final_x": "3684875.93609",
    "final_y": "535540.749062",
    "longitude": "-90.05726895990139",
    "latitude": "29.96644842625025",
    "geocoded_column": {
      "latitude": "29.96644842625025",
      "longitude": "-90.05726895990139"
    }
  },
  {
    "service_request": "2021-830023",
    "request_type": "Traffic Signals/Signs/Striping/Streetlights",
    "request_reason": "Street Light Outage/Malfunction",
    "date_created": "2021-10-05T22:03:41.000",
    "date_modified": "2021-10-05T22:03:42.000",
    "request_status": "Pending",
    "responsible_agency": "Department of Public Works",
    "final_address": "901 Semmes St",
    "address_councildis": "C",
    "status": "Pending",
    "contractor": "Royal Engineering",
    "rowid": "830023",
    "final_x": "3688419.75241",
    "final_y": "524043.307772",
    "longitude": "-90.04648543585084",
    "latitude": "29.934725414132878",
    "geocoded_column": {
      "latitude": "29.934725414132878",
      "longitude": "-90.04648543585084"
    }
  },
  {
    "service_request": "2021-830022",
    "request_type": "Traffic Signals/Signs/Striping/Streetlights",
    "request_reason": "Street Light Outage/Malfunction",
    "date_created": "2021-10-05T21:49:15.000",
    "date_modified": "2021-10-05T21:49:16.000",
    "request_status": "Pending",
    "responsible_agency": "Department of Public Works",
    "final_address": "BODENGER BLVD & SEMMES ST",
    "address_councildis": "C",
    "status": "Pending",
    "contractor": "Royal Engineering",
    "rowid": "830022",
    "final_x": "3688409.9",
    "final_y": "524110.08",
    "longitude": "-90.04651417231041",
    "latitude": "29.93490931948951",
    "geocoded_column": {
      "latitude": "29.93490931948951",
      "longitude": "-90.04651417231041"
    }
  },
  {
    "service_request": "2021-830021",
    "request_type": "COVID-19",
    "request_reason": "COVID-19 Business Non-Compliance",
    "date_created": "2021-10-05T21:40:15.000",
    "date_modified": "2021-10-05T21:40:16.000",
    "request_status": "Pending",
    "responsible_agency": "Safety and Permits",
    "final_address": "823 Fulton St",
    "address_councildis": "B",
    "status": "Pending",
    "rowid": "830021",
    "final_x": "3682388.0582",
    "final_y": "527339.970943",
    "longitude": "-90.06541220899426",
    "latitude": "29.943975020749342",
    "geocoded_column": {
      "latitude": "29.943975020749342",
      "longitude": "-90.06541220899426"
    }
  },
  {
    "service_request": "2021-830020",
    "request_type": "Trash/Recycling",
    "request_reason": "MIssed Recycling Pick-Up",
    "date_created": "2021-10-05T21:19:28.000",
    "date_modified": "2021-10-05T21:19:28.000",
    "request_status": "Pending",
    "responsible_agency": "Department of Sanitation",
    "final_address": "916 N Rendon St",
    "address_councildis": "A",
    "status": "Assigned to Contractor",
    "contractor": "Richards Disposal",
    "rowid": "830020",
    "final_x": "3675532.59304",
    "final_y": "538958.539978",
    "longitude": "-90.08665771204619",
    "latitude": "29.97612898788816",
    "geocoded_column": {
      "latitude": "29.97612898788816",
      "longitude": "-90.08665771204619"
    }
  },
  {
    "service_request": "2021-830019",
    "request_type": "Trash/Recycling",
    "request_reason": "Missed Trash Pick-Up",
    "date_created": "2021-10-05T21:18:49.000",
    "date_modified": "2021-10-05T21:18:50.000",
    "request_status": "Pending",
    "responsible_agency": "Department of Sanitation",
    "final_address": "916 N Rendon St",
    "address_councildis": "A",
    "status": "Assigned to Contractor",
    "contractor": "Richards Disposal",
    "rowid": "830019",
    "final_x": "3675532.59304",
    "final_y": "538958.539978",
    "longitude": "-90.08665771204619",
    "latitude": "29.97612898788816",
    "geocoded_column": {
      "latitude": "29.97612898788816",
      "longitude": "-90.08665771204619"
    }
  },
  {
    "service_request": "2021-830018",
    "request_type": "Trash/Recycling",
    "request_reason": "Request a Large Item Pick Up",
    "date_created": "2021-10-05T21:14:05.000",
    "date_modified": "2021-10-05T21:14:05.000",
    "request_status": "Pending",
    "responsible_agency": "Department of Sanitation",
    "final_address": "1350 Bourbon St",
    "address_councildis": "C",
    "status": "Assigned to Contractor",
    "contractor": "Empire Services",
    "rowid": "830018",
    "final_x": "3683700.26441",
    "final_y": "534514.026181",
    "longitude": "-90.06101771273805",
    "latitude": "29.963661240674625",
    "geocoded_column": {
      "latitude": "29.963661240674625",
      "longitude": "-90.06101771273805"
    }
  },
  {
    "service_request": "2021-830017",
    "request_type": "Trash/Recycling",
    "request_reason": "Request a Large Item Pick Up",
    "date_created": "2021-10-05T21:09:54.000",
    "date_modified": "2021-10-05T21:11:49.000",
    "request_status": "Pending",
    "responsible_agency": "Department of Sanitation",
    "final_address": "1350 Bourbon St, New Orleans, Louisiana, 70116",
    "address_councildis": "C",
    "status": "Assigned to Contractor",
    "contractor": "Empire Services",
    "rowid": "830017",
    "final_x": "3683700.26441",
    "final_y": "534514.026181",
    "longitude": "-90.06101771273805",
    "latitude": "29.963661240674625",
    "geocoded_column": {
      "latitude": "29.963661240674625",
      "longitude": "-90.06101771273805"
    }
  },
  {
    "service_request": "2021-830016",
    "request_type": "Traffic Signals/Signs/Striping/Streetlights",
    "request_reason": "Street Light Outage/Malfunction",
    "date_created": "2021-10-05T21:08:13.000",
    "date_modified": "2021-10-05T21:08:14.000",
    "request_status": "Pending",
    "responsible_agency": "Department of Public Works",
    "final_address": "2028 Bienville Ave",
    "address_councildis": "B",
    "status": "Pending",
    "contractor": "Royal Engineering",
    "rowid": "830016",
    "final_x": "3677781.86184",
    "final_y": "534161.742149",
    "longitude": "-90.07971960535554",
    "latitude": "29.962871950137785",
    "geocoded_column": {
      "latitude": "29.962871950137785",
      "longitude": "-90.07971960535554"
    }
  },
  {
    "service_request": "2021-830015",
    "request_type": "Roads/Drainage",
    "request_reason": "Street Subsidence (Sinking)",
    "date_created": "2021-10-05T21:07:00.000",
    "date_modified": "2021-10-05T21:07:00.000",
    "request_status": "Pending",
    "responsible_agency": "Department of Public Works",
    "final_address": "801 St Maurice Ave",
    "address_councildis": "E",
    "status": "Pending",
    "rowid": "830015",
    "final_x": "3699488.85898",
    "final_y": "532103.097987",
    "longitude": "-90.01124709376732",
    "latitude": "29.956540551135003",
    "geocoded_column": {
      "latitude": "29.956540551135003",
      "longitude": "-90.01124709376732"
    }
  },
  {
    "service_request": "2021-830014",
    "request_type": "Traffic Signals/Signs/Striping/Streetlights",
    "request_reason": "Street Light Outage/Malfunction",
    "date_created": "2021-10-05T21:02:10.000",
    "date_modified": "2021-10-05T21:02:11.000",
    "request_status": "Pending",
    "responsible_agency": "Department of Public Works",
    "final_address": "6122 Dauphine St",
    "address_councildis": "E",
    "status": "Pending",
    "contractor": "Royal Engineering",
    "rowid": "830014",
    "final_x": "3699207.76989",
    "final_y": "532078.315779",
    "longitude": "-90.01213557797783",
    "latitude": "29.956481323665226",
    "geocoded_column": {
      "latitude": "29.956481323665226",
      "longitude": "-90.01213557797783"
    }
  },
  {
    "service_request": "2021-830013",
    "request_type": "Trash/Recycling",
    "request_reason": "Illegal Dumping",
    "date_created": "2021-10-05T20:32:00.000",
    "date_modified": "2021-10-05T20:32:00.000",
    "request_status": "Pending",
    "responsible_agency": "Department of Sanitation",
    "final_address": "2825 Amelia St",
    "address_councildis": "B",
    "status": "Pending",
    "rowid": "830013",
    "final_x": "3672055.17883",
    "final_y": "525620.074621",
    "longitude": "-90.09809456408547",
    "latitude": "29.939556212815248",
    "geocoded_column": {
      "latitude": "29.939556212815248",
      "longitude": "-90.09809456408547"
    }
  },
  {
    "service_request": "2021-830012",
    "request_type": "Trash/Recycling",
    "request_reason": "Missed Trash Pick-Up",
    "date_created": "2021-10-05T20:28:50.000",
    "date_modified": "2021-10-05T20:28:51.000",
    "request_status": "Pending",
    "responsible_agency": "Department of Sanitation",
    "final_address": "3420 Willow St",
    "address_councildis": "B",
    "status": "Assigned to Contractor",
    "contractor": "Richards Disposal",
    "rowid": "830012",
    "final_x": "3672187.13819",
    "final_y": "525661.120317",
    "longitude": "-90.09767655216501",
    "latitude": "29.93966516292449",
    "geocoded_column": {
      "latitude": "29.93966516292449",
      "longitude": "-90.09767655216501"
    }
  },
  {
    "service_request": "2021-830011",
    "request_type": "Trash/Recycling",
    "request_reason": "Missed Trash Pick-Up",
    "date_created": "2021-10-05T20:22:08.000",
    "date_modified": "2021-10-05T20:22:09.000",
    "request_status": "Pending",
    "responsible_agency": "Department of Sanitation",
    "final_address": "1400 New York St",
    "address_councildis": "D",
    "status": "Assigned to Contractor",
    "contractor": "Metro Disposal",
    "rowid": "830011",
    "final_x": "3677703.55886",
    "final_y": "555506.866777",
    "longitude": "-90.07922913704077",
    "latitude": "30.021565912899682",
    "geocoded_column": {
      "latitude": "30.021565912899682",
      "longitude": "-90.07922913704077"
    }
  },
  {
    "service_request": "2021-830010",
    "request_type": "Traffic Signals/Signs/Striping/Streetlights",
    "request_reason": "Street Light Outage/Malfunction",
    "date_created": "2021-10-05T20:18:56.000",
    "date_modified": "2021-10-05T20:18:57.000",
    "request_status": "Pending",
    "responsible_agency": "Department of Public Works",
    "final_address": "4726 Rosemont Pl",
    "address_councildis": "E",
    "status": "Pending",
    "contractor": "Royal Engineering",
    "rowid": "830010",
    "final_x": "3702676.54577",
    "final_y": "554804.42396",
    "longitude": "-90.0003475868234",
    "latitude": "30.018859276852496",
    "geocoded_column": {
      "latitude": "30.018859276852496",
      "longitude": "-90.0003475868234"
    }
  },
  {
    "service_request": "2021-830009",
    "request_type": "Abandoned Vehicles",
    "request_reason": "Abandoned/Junk Vehicles",
    "date_created": "2021-10-05T20:17:49.000",
    "date_modified": "2021-10-05T20:17:49.000",
    "request_status": "Pending",
    "responsible_agency": "Department of Public Works",
    "final_address": "5100 Gallier Dr",
    "address_councildis": "D",
    "status": "Pending",
    "rowid": "830009",
    "final_x": "3691663.06793",
    "final_y": "552591.05775",
    "longitude": "-90.03522537414437",
    "latitude": "30.01312103592419",
    "geocoded_column": {
      "latitude": "30.01312103592419",
      "longitude": "-90.03522537414437"
    }
  },
  {
    "service_request": "2021-830008",
    "request_type": "Traffic Signals/Signs/Striping/Streetlights",
    "request_reason": "Street Light Outage/Malfunction",
    "date_created": "2021-10-05T20:02:08.000",
    "date_modified": "2021-10-05T20:02:09.000",
    "request_status": "Pending",
    "responsible_agency": "Department of Public Works",
    "final_address": "5755 E Louis Prima Dr",
    "address_councildis": "E",
    "status": "Pending",
    "contractor": "Royal Engineering",
    "rowid": "830008",
    "final_x": "3716115.49029",
    "final_y": "562441.007711",
    "longitude": "-89.95759607641243",
    "latitude": "30.039420109232474",
    "geocoded_column": {
      "latitude": "30.039420109232474",
      "longitude": "-89.95759607641243"
    }
  },
  {
    "service_request": "2021-830007",
    "request_type": "Trash/Recycling",
    "request_reason": "Repair Trash Cart",
    "date_created": "2021-10-05T20:01:59.000",
    "date_modified": "2021-10-05T20:02:00.000",
    "request_status": "Pending",
    "responsible_agency": "Department of Sanitation",
    "final_address": "1115 Washington Ave",
    "address_councildis": "B",
    "status": "Assigned to Contractor",
    "contractor": "Richards Disposal",
    "rowid": "830007",
    "final_x": "3677014.87752",
    "final_y": "520964.882041",
    "longitude": "-90.08259653721477",
    "latitude": "29.92660800808757",
    "geocoded_column": {
      "latitude": "29.92660800808757",
      "longitude": "-90.08259653721477"
    }
  },
  {
    "service_request": "2021-830006",
    "request_type": "Trash/Recycling",
    "request_reason": "Missed Trash Pick-Up",
    "date_created": "2021-10-05T19:55:11.000",
    "date_modified": "2021-10-05T19:55:12.000",
    "request_status": "Pending",
    "responsible_agency": "Department of Sanitation",
    "final_address": "5313 Wildair Dr",
    "address_councildis": "D",
    "status": "Assigned to Contractor",
    "contractor": "Metro Disposal",
    "rowid": "830006",
    "final_x": "3681739.1085",
    "final_y": "552510.689622",
    "longitude": "-90.06658255299209",
    "latitude": "30.013205453533782",
    "geocoded_column": {
      "latitude": "30.013205453533782",
      "longitude": "-90.06658255299209"
    }
  },
  {
    "service_request": "2021-830005",
    "request_type": "Trash/Recycling",
    "request_reason": "Missed Trash Pick-Up",
    "date_created": "2021-10-05T19:52:01.000",
    "date_modified": "2021-10-05T19:52:01.000",
    "request_status": "Pending",
    "responsible_agency": "Department of Sanitation",
    "final_address": "122 Winthrop Pl",
    "address_councildis": "D",
    "status": "Assigned to Contractor",
    "contractor": "Metro Disposal",
    "rowid": "830005",
    "final_x": "3677538.14702",
    "final_y": "543948.869902",
    "longitude": "-90.08015120805909",
    "latitude": "29.989790514304307",
    "geocoded_column": {
      "latitude": "29.989790514304307",
      "longitude": "-90.08015120805909"
    }
  },
  {
    "service_request": "2021-830004",
    "request_type": "Trash/Recycling",
    "request_reason": "Replace Trash Cart",
    "date_created": "2021-10-05T19:44:42.000",
    "date_modified": "2021-10-05T19:44:43.000",
    "request_status": "Pending",
    "responsible_agency": "Department of Sanitation",
    "final_address": "6734 Catina St",
    "address_councildis": "A",
    "status": "Assigned to Contractor",
    "contractor": "Metro Disposal",
    "rowid": "830004",
    "final_x": "3666967.41684",
    "final_y": "552570.222422",
    "longitude": "-90.11325139366357",
    "latitude": "30.01380990387143",
    "geocoded_column": {
      "latitude": "30.01380990387143",
      "longitude": "-90.11325139366357"
    }
  },
  {
    "service_request": "2021-830003",
    "request_type": "Trash/Recycling",
    "request_reason": "Missed Trash Pick-Up",
    "date_created": "2021-10-05T19:43:49.000",
    "date_modified": "2021-10-05T19:43:50.000",
    "request_status": "Pending",
    "responsible_agency": "Department of Sanitation",
    "final_address": "1518 Piety St",
    "address_councildis": "D",
    "status": "Assigned to Contractor",
    "contractor": "Metro Disposal",
    "rowid": "830003",
    "final_x": "3690215.0223",
    "final_y": "537446.474184",
    "longitude": "-90.04034034344905",
    "latitude": "29.97152392907044",
    "geocoded_column": {
      "latitude": "29.97152392907044",
      "longitude": "-90.04034034344905"
    }
  },
  {
    "service_request": "2021-830002",
    "request_type": "Traffic Signals/Signs/Striping/Streetlights",
    "request_reason": "Street Light Outage/Malfunction",
    "date_created": "2021-10-05T19:41:08.000",
    "date_modified": "2021-10-05T19:41:09.000",
    "request_status": "Pending",
    "responsible_agency": "Department of Public Works",
    "final_address": "7832 Lafourche St",
    "address_councildis": "E",
    "status": "Pending",
    "contractor": "Royal Engineering",
    "rowid": "830002",
    "final_x": "3709685.13803",
    "final_y": "566299.272355",
    "longitude": "-89.97777345907953",
    "latitude": "30.050239505840572",
    "geocoded_column": {
      "latitude": "30.050239505840572",
      "longitude": "-89.97777345907953"
    }
  },
  {
    "service_request": "2021-830001",
    "request_type": "Trash/Recycling",
    "request_reason": "Missed Trash Pick-Up",
    "date_created": "2021-10-05T19:40:59.000",
    "date_modified": "2021-10-05T19:40:59.000",
    "request_status": "Pending",
    "responsible_agency": "Department of Sanitation",
    "final_address": "1534 France St",
    "address_councildis": "D",
    "status": "Assigned to Contractor",
    "contractor": "Metro Disposal",
    "rowid": "830001",
    "final_x": "3692791.90147",
    "final_y": "536941.367496",
    "longitude": "-90.03222032753692",
    "latitude": "29.970054858478235",
    "geocoded_column": {
      "latitude": "29.970054858478235",
      "longitude": "-90.03222032753692"
    }
  },
  {
    "service_request": "2021-830000",
    "request_type": "Trash/Recycling",
    "request_reason": "Missed Trash Pick-Up",
    "date_created": "2021-10-05T19:39:57.000",
    "date_modified": "2021-10-05T19:39:57.000",
    "request_status": "Pending",
    "responsible_agency": "Department of Sanitation",
    "final_address": "2912 Palmyra St Apt C",
    "address_councildis": "B",
    "status": "Assigned to Contractor",
    "contractor": "Richards Disposal",
    "rowid": "830000",
    "final_x": "3673974.47112",
    "final_y": "535052.562758",
    "longitude": "-90.09171239932815",
    "latitude": "29.965435395145203",
    "geocoded_column": {
      "latitude": "29.965435395145203",
      "longitude": "-90.09171239932815"
    }
  },
  {
    "service_request": "2021-829999",
    "request_type": "Abandoned Vehicles",
    "request_reason": "Abandoned/Junk Vehicles",
    "date_created": "2021-10-05T19:35:39.000",
    "date_modified": "2021-10-05T19:35:39.000",
    "request_status": "Pending",
    "responsible_agency": "Department of Public Works",
    "final_address": "1504 Ursulines Ave",
    "address_councildis": "C",
    "status": "Pending",
    "rowid": "829999",
    "final_x": "3681135.05883",
    "final_y": "535371.784326",
    "longitude": "-90.06908848014467",
    "latitude": "29.966097852350316",
    "geocoded_column": {
      "latitude": "29.966097852350316",
      "longitude": "-90.06908848014467"
    }
  },
  {
    "service_request": "2021-829998",
    "request_type": "Trash/Recycling",
    "request_reason": "Replace Trash Cart",
    "date_created": "2021-10-05T19:28:25.000",
    "date_modified": "2021-10-05T19:28:26.000",
    "request_status": "Pending",
    "responsible_agency": "Department of Sanitation",
    "final_address": "1203 Marengo St",
    "address_councildis": "B",
    "status": "Assigned to Contractor",
    "contractor": "Richards Disposal",
    "rowid": "829998",
    "final_x": "3672176.13345",
    "final_y": "520000.311352",
    "longitude": "-90.09790398888146",
    "latitude": "29.924100090571372",
    "geocoded_column": {
      "latitude": "29.924100090571372",
      "longitude": "-90.09790398888146"
    }
  },
  {
    "service_request": "2021-829997",
    "request_type": "Roads/Drainage",
    "request_reason": "Alley Way",
    "date_created": "2021-10-05T19:23:24.000",
    "date_modified": "2021-10-05T19:23:24.000",
    "request_status": "Pending",
    "responsible_agency": "Department of Public Works",
    "final_address": "6153 General Haig St",
    "address_councildis": "A",
    "status": "Pending",
    "rowid": "829997",
    "final_x": "3670677.66932",
    "final_y": "548147.300818",
    "longitude": "-90.10167907952194",
    "latitude": "30.001539272547998",
    "geocoded_column": {
      "latitude": "30.001539272547998",
      "longitude": "-90.10167907952194"
    }
  },
  {
    "service_request": "2021-829996",
    "request_type": "Trash/Recycling",
    "request_reason": "Missed Trash Pick-Up",
    "date_created": "2021-10-05T19:23:12.000",
    "date_modified": "2021-10-05T19:23:12.000",
    "request_status": "Pending",
    "responsible_agency": "Department of Sanitation",
    "final_address": "2217 Onzaga St",
    "address_councildis": "D",
    "status": "Assigned to Contractor",
    "contractor": "Metro Disposal",
    "rowid": "829996",
    "final_x": "3680607.25051",
    "final_y": "539487.855242",
    "longitude": "-90.07061204161982",
    "latitude": "29.977431630654873",
    "geocoded_column": {
      "latitude": "29.977431630654873",
      "longitude": "-90.07061204161982"
    }
  },
  {
    "service_request": "2021-829995",
    "request_type": "Trash/Recycling",
    "request_reason": "Missed Trash Pick-Up",
    "date_created": "2021-10-05T19:15:48.000",
    "date_modified": "2021-10-05T19:15:49.000",
    "request_status": "Pending",
    "responsible_agency": "Department of Sanitation",
    "final_address": "500 Pacific Ave",
    "address_councildis": "C",
    "status": "Assigned to Contractor",
    "contractor": "Richards Disposal",
    "rowid": "829995",
    "final_x": "3688542.18383",
    "final_y": "529859.865537",
    "longitude": "-90.04589260325965",
    "latitude": "29.950715187860883",
    "geocoded_column": {
      "latitude": "29.950715187860883",
      "longitude": "-90.04589260325965"
    }
  },
  {
    "service_request": "2021-829994",
    "request_type": "Trash/Recycling",
    "request_reason": "Missed Trash Pick-Up",
    "date_created": "2021-10-05T19:06:44.000",
    "date_modified": "2021-10-05T19:06:45.000",
    "request_status": "Pending",
    "responsible_agency": "Department of Sanitation",
    "final_address": "1235 Hagan St",
    "address_councildis": "A",
    "status": "Assigned to Contractor",
    "contractor": "Richards Disposal",
    "rowid": "829994",
    "final_x": "3675610.75214",
    "final_y": "539929.56961",
    "longitude": "-90.0863774881643",
    "latitude": "29.978796648037193",
    "geocoded_column": {
      "latitude": "29.978796648037193",
      "longitude": "-90.0863774881643"
    }
  },
  {
    "service_request": "2021-829993",
    "request_type": "Parks & Parkways",
    "request_reason": "Tree Stump (removal, grind)",
    "date_created": "2021-10-05T19:01:03.000",
    "date_modified": "2021-10-05T19:01:03.000",
    "request_status": "Pending",
    "responsible_agency": "Department of Parks & Parkway",
    "final_address": "1522 Chippewa St",
    "address_councildis": "B",
    "status": "Pending",
    "rowid": "829993",
    "final_x": "3681429.47701",
    "final_y": "523418.397115",
    "longitude": "-90.0685753764163",
    "latitude": "29.933221128534747",
    "geocoded_column": {
      "latitude": "29.933221128534747",
      "longitude": "-90.0685753764163"
    }
  },
  {
    "service_request": "2021-829992",
    "request_type": "Trash/Recycling",
    "request_reason": "Missed Trash Pick-Up",
    "date_created": "2021-10-05T18:54:42.000",
    "date_modified": "2021-10-05T18:54:43.000",
    "request_status": "Pending",
    "responsible_agency": "Department of Sanitation",
    "final_address": "4800 Odin St, New Orleans, Louisiana, 70126",
    "address_councildis": "D",
    "status": "Assigned to Contractor",
    "contractor": "Metro Disposal",
    "rowid": "829992",
    "final_x": "3691361.29852",
    "final_y": "553810.554135",
    "longitude": "-90.03613518126076",
    "latitude": "30.016483594497515",
    "geocoded_column": {
      "latitude": "30.016483594497515",
      "longitude": "-90.03613518126076"
    }
  },
  {
    "service_request": "2021-829991",
    "request_type": "Roads/Drainage",
    "request_reason": "Debris in Roadway",
    "date_created": "2021-10-05T18:50:46.000",
    "date_modified": "2021-10-05T18:50:46.000",
    "request_status": "Pending",
    "responsible_agency": "Department of Public Works",
    "final_address": "4782 Marque Dr",
    "address_councildis": "E",
    "status": "Pending",
    "rowid": "829991",
    "final_x": "3709963.21957",
    "final_y": "556011.848153",
    "longitude": "-89.97727935012318",
    "latitude": "30.021944129281856",
    "geocoded_column": {
      "latitude": "30.021944129281856",
      "longitude": "-89.97727935012318"
    }
  },
  {
    "service_request": "2021-829990",
    "request_type": "Trash/Recycling",
    "request_reason": "Illegal Dumping",
    "date_created": "2021-10-05T18:45:47.000",
    "date_modified": "2021-10-05T18:45:47.000",
    "request_status": "Pending",
    "responsible_agency": "Department of Sanitation",
    "final_address": "7600 Gannon Rd",
    "address_councildis": "E",
    "status": "Pending",
    "rowid": "829990",
    "final_x": "3716469.08671",
    "final_y": "569659.73431",
    "longitude": "-89.95620443875303",
    "latitude": "30.059256974348585",
    "geocoded_column": {
      "latitude": "30.059256974348585",
      "longitude": "-89.95620443875303"
    }
  },
  {
    "service_request": "2021-829989",
    "request_type": "Abandoned Vehicles",
    "request_reason": "Abandoned/Junk Vehicles",
    "date_created": "2021-10-05T18:45:13.000",
    "date_modified": "2021-10-05T18:45:13.000",
    "request_status": "Pending",
    "responsible_agency": "Department of Public Works",
    "final_address": "8630 Willow St",
    "address_councildis": "A",
    "status": "Pending",
    "rowid": "829989",
    "final_x": "3660903.10074",
    "final_y": "530235.869505",
    "longitude": "-90.13315073940402",
    "latitude": "29.95257403612351",
    "geocoded_column": {
      "latitude": "29.95257403612351",
      "longitude": "-90.13315073940402"
    }
  },
  {
    "service_request": "2021-829988",
    "request_type": "Trash/Recycling",
    "request_reason": "Replace Trash Cart",
    "date_created": "2021-10-05T18:34:24.000",
    "date_modified": "2021-10-05T18:34:25.000",
    "request_status": "Pending",
    "responsible_agency": "Department of Sanitation",
    "final_address": "7434 Canal Blvd",
    "address_councildis": "D",
    "status": "Assigned to Contractor",
    "contractor": "Metro Disposal",
    "rowid": "829988",
    "final_x": "3669142.27841",
    "final_y": "556238.874842",
    "longitude": "-90.10625579967761",
    "latitude": "30.02383354141289",
    "geocoded_column": {
      "latitude": "30.02383354141289",
      "longitude": "-90.10625579967761"
    }
  },
  {
    "service_request": "2021-829987",
    "request_type": "Trash/Recycling",
    "request_reason": "Illegal Dumping",
    "date_created": "2021-10-05T18:27:01.000",
    "date_modified": "2021-10-05T18:27:01.000",
    "request_status": "Pending",
    "responsible_agency": "Department of Sanitation",
    "final_address": "8525 Hickory St",
    "address_councildis": "A",
    "status": "Pending",
    "rowid": "829987",
    "final_x": "3662199.84314",
    "final_y": "531055.468418",
    "longitude": "-90.12902899342679",
    "latitude": "29.9547902578764",
    "geocoded_column": {
      "latitude": "29.9547902578764",
      "longitude": "-90.12902899342679"
    }
  },
  {
    "service_request": "2021-829985",
    "request_type": "Abandoned Vehicles",
    "request_reason": "Abandoned/Junk Vehicles",
    "date_created": "2021-10-05T18:21:08.000",
    "date_modified": "2021-10-05T18:21:08.000",
    "request_status": "Pending",
    "responsible_agency": "Department of Public Works",
    "final_address": "3219 Jefferson Ave",
    "address_councildis": "B",
    "status": "Pending",
    "rowid": "829985",
    "final_x": "3668653.2329",
    "final_y": "527043.453822",
    "longitude": "-90.10878697783913",
    "latitude": "29.94357044756528",
    "geocoded_column": {
      "latitude": "29.94357044756528",
      "longitude": "-90.10878697783913"
    }
  },
  {
    "service_request": "2021-829984",
    "request_type": "Trash/Recycling",
    "request_reason": "Missed Trash Pick-Up",
    "date_created": "2021-10-05T18:17:33.000",
    "date_modified": "2021-10-05T18:17:34.000",
    "request_status": "Pending",
    "responsible_agency": "Department of Sanitation",
    "final_address": "2729 Edna St",
    "address_councildis": "D",
    "status": "Assigned to Contractor",
    "contractor": "Metro Disposal",
    "rowid": "829984",
    "final_x": "3689619.9638",
    "final_y": "545327.968975",
    "longitude": "-90.04193909236174",
    "latitude": "29.993213679326495",
    "geocoded_column": {
      "latitude": "29.993213679326495",
      "longitude": "-90.04193909236174"
    }
  },
  {
    "service_request": "2021-829981",
    "request_type": "Property Maintenance",
    "request_reason": "Property Maintenance",
    "date_created": "2021-10-05T18:10:03.000",
    "date_modified": "2021-10-05T18:10:03.000",
    "request_status": "Pending",
    "responsible_agency": "Department of Code Enforcement",
    "final_address": "3669 Fairmont Dr",
    "address_councildis": "D",
    "status": "Pending",
    "rowid": "829981",
    "final_x": "3685477.48726",
    "final_y": "546012.276624",
    "longitude": "-90.05500034661743",
    "latitude": "29.995223002385487",
    "geocoded_column": {
      "latitude": "29.995223002385487",
      "longitude": "-90.05500034661743"
    }
  },
  {
    "service_request": "2021-829980",
    "request_type": "Trash/Recycling",
    "request_reason": "Missed Trash Pick-Up",
    "date_created": "2021-10-05T18:09:17.000",
    "date_modified": "2021-10-05T18:09:18.000",
    "request_status": "Pending",
    "responsible_agency": "Department of Sanitation",
    "final_address": "5519 Charlotte Dr",
    "address_councildis": "D",
    "status": "Assigned to Contractor",
    "contractor": "Metro Disposal",
    "rowid": "829980",
    "final_x": "3680130.96949",
    "final_y": "552772.898774",
    "longitude": "-90.07165429172042",
    "latitude": "30.013975219792353",
    "geocoded_column": {
      "latitude": "30.013975219792353",
      "longitude": "-90.07165429172042"
    }
  },
  {
    "service_request": "2021-829979",
    "request_type": "Roads/Drainage",
    "request_reason": "Street Subsidence (Sinking)",
    "date_created": "2021-10-05T18:05:47.000",
    "date_modified": "2021-10-05T18:05:47.000",
    "request_status": "Pending",
    "responsible_agency": "Department of Public Works",
    "final_address": "3267 Desaix Blvd",
    "address_councildis": "D",
    "status": "Pending",
    "rowid": "829979",
    "final_x": "3677761.15022",
    "final_y": "543694.951054",
    "longitude": "-90.07945557871298",
    "latitude": "29.989085618090346",
    "geocoded_column": {
      "latitude": "29.989085618090346",
      "longitude": "-90.07945557871298"
    }
  },
  {
    "service_request": "2021-829977",
    "request_type": "Trash/Recycling",
    "request_reason": "Missed Trash Pick-Up",
    "date_created": "2021-10-05T17:56:41.000",
    "date_modified": "2021-10-05T17:56:41.000",
    "request_status": "Pending",
    "responsible_agency": "Department of Sanitation",
    "final_address": "6957 Catina St",
    "address_councildis": "A",
    "status": "Assigned to Contractor",
    "contractor": "Metro Disposal",
    "rowid": "829977",
    "final_x": "3667205.96423",
    "final_y": "554021.019608",
    "longitude": "-90.11244886397648",
    "latitude": "30.01779209916705",
    "geocoded_column": {
      "latitude": "30.01779209916705",
      "longitude": "-90.11244886397648"
    }
  },
  {
    "service_request": "2021-829976",
    "request_type": "Trash/Recycling",
    "request_reason": "Missed Trash Pick-Up",
    "date_created": "2021-10-05T17:53:50.000",
    "date_modified": "2021-10-05T17:53:51.000",
    "request_status": "Pending",
    "responsible_agency": "Department of Sanitation",
    "final_address": "5923 Alfred St",
    "address_councildis": "D",
    "status": "Assigned to Contractor",
    "contractor": "Metro Disposal",
    "rowid": "829976",
    "final_x": "3677254.4173",
    "final_y": "554121.514008",
    "longitude": "-90.08069615806365",
    "latitude": "30.017770203074463",
    "geocoded_column": {
      "latitude": "30.017770203074463",
      "longitude": "-90.08069615806365"
    }
  },
  {
    "service_request": "2021-829975",
    "request_type": "Roads/Drainage",
    "request_reason": "Catch Basin - Clogged",
    "date_created": "2021-10-05T17:52:35.000",
    "date_modified": "2021-10-05T17:52:35.000",
    "request_status": "Pending",
    "responsible_agency": "Department of Public Works",
    "final_address": "5923 Alfred St",
    "address_councildis": "D",
    "status": "Pending",
    "rowid": "829975",
    "final_x": "3677254.4173",
    "final_y": "554121.514008",
    "longitude": "-90.08069615806365",
    "latitude": "30.017770203074463",
    "geocoded_column": {
      "latitude": "30.017770203074463",
      "longitude": "-90.08069615806365"
    }
  },
  {
    "service_request": "2021-829974",
    "request_type": "Traffic Signals/Signs/Striping/Streetlights",
    "request_reason": "Traffic Signal Malfunctioning/Damaged",
    "date_created": "2021-10-05T17:51:53.000",
    "date_modified": "2021-10-05T17:51:53.000",
    "request_status": "Pending",
    "responsible_agency": "Department of Public Works",
    "final_address": "3736 Gentilly Blvd",
    "address_councildis": "D",
    "status": "Pending",
    "rowid": "829974",
    "final_x": "3687498.9149",
    "final_y": "548727.572179",
    "longitude": "-90.04851870389956",
    "latitude": "30.00262691953027",
    "geocoded_column": {
      "latitude": "30.00262691953027",
      "longitude": "-90.04851870389956"
    }
  },
  {
    "service_request": "2021-829973",
    "request_type": "Trash/Recycling",
    "request_reason": "Missed Trash Pick-Up",
    "date_created": "2021-10-05T17:51:26.000",
    "date_modified": "2021-10-05T17:51:27.000",
    "request_status": "Pending",
    "responsible_agency": "Department of Sanitation",
    "final_address": "1219 Kentucky St",
    "address_councildis": "D",
    "status": "Assigned to Contractor",
    "contractor": "Metro Disposal",
    "rowid": "829973",
    "final_x": "3693523.56374",
    "final_y": "535413.52199",
    "longitude": "-90.02996455891095",
    "latitude": "29.965830959720016",
    "geocoded_column": {
      "latitude": "29.965830959720016",
      "longitude": "-90.02996455891095"
    }
  },
  {
    "service_request": "2021-829972",
    "request_type": "Trash/Recycling",
    "request_reason": "Replace Trash Cart",
    "date_created": "2021-10-05T17:51:09.000",
    "date_modified": "2021-10-05T17:51:09.000",
    "request_status": "Pending",
    "responsible_agency": "Department of Sanitation",
    "final_address": "1335 Elysian Fields Ave",
    "address_councildis": "C",
    "status": "Assigned to Contractor",
    "contractor": "Metro Disposal",
    "rowid": "829972",
    "final_x": "3685058.5645",
    "final_y": "537322.21236",
    "longitude": "-90.05662953943244",
    "latitude": "29.97134123802114",
    "geocoded_column": {
      "latitude": "29.97134123802114",
      "longitude": "-90.05662953943244"
    }
  },
  {
    "service_request": "2021-829970",
    "request_type": "Trash/Recycling",
    "request_reason": "Missed Trash Pick-Up",
    "date_created": "2021-10-05T17:48:20.000",
    "date_modified": "2021-10-05T17:48:21.000",
    "request_status": "Pending",
    "responsible_agency": "Department of Sanitation",
    "final_address": "1028 Eliza St",
    "address_councildis": "C",
    "status": "Assigned to Contractor",
    "contractor": "Richards Disposal",
    "rowid": "829970",
    "final_x": "3688665.68547",
    "final_y": "529935.045377",
    "longitude": "-90.04549998140911",
    "latitude": "29.95091809049814",
    "geocoded_column": {
      "latitude": "29.95091809049814",
      "longitude": "-90.04549998140911"
    }
  },
  {
    "service_request": "2021-829969",
    "request_type": "Trash/Recycling",
    "request_reason": "Request a Large Item Pick Up",
    "date_created": "2021-10-05T17:46:40.000",
    "date_modified": "2021-10-05T17:46:41.000",
    "request_status": "Pending",
    "responsible_agency": "Department of Sanitation",
    "final_address": "3008 Toulouse St",
    "address_councildis": "A",
    "status": "Assigned to Contractor",
    "contractor": "Richards Disposal",
    "rowid": "829969",
    "final_x": "3675353.15374",
    "final_y": "537348.488648",
    "longitude": "-90.0872797319936",
    "latitude": "29.97170726298513",
    "geocoded_column": {
      "latitude": "29.97170726298513",
      "longitude": "-90.0872797319936"
    }
  },
  {
    "service_request": "2021-829967",
    "request_type": "Mosquito, Termite & Rodent Control",
    "request_reason": "Mosquito Complaint",
    "date_created": "2021-10-05T17:38:21.000",
    "date_modified": "2021-10-05T17:38:21.000",
    "request_status": "Pending",
    "responsible_agency": "Mosquito, Termite & Rodent Control Board",
    "final_address": "5458 Canal Blvd",
    "address_councildis": "A",
    "status": "Pending",
    "rowid": "829967",
    "final_x": "3668016.85645",
    "final_y": "543576.607502",
    "longitude": "-90.11023900283277",
    "latitude": "29.989049811779648",
    "geocoded_column": {
      "latitude": "29.989049811779648",
      "longitude": "-90.11023900283277"
    }
  },
  {
    "service_request": "2021-829966",
    "request_type": "Trash/Recycling",
    "request_reason": "Missed Trash Pick-Up",
    "date_created": "2021-10-05T17:37:53.000",
    "date_modified": "2021-10-05T17:37:54.000",
    "request_status": "Pending",
    "responsible_agency": "Department of Sanitation",
    "final_address": "5828 Magnolia St",
    "address_councildis": "A",
    "status": "Assigned to Contractor",
    "contractor": "Richards Disposal",
    "rowid": "829966",
    "final_x": "3666802.00109",
    "final_y": "524902.680572",
    "longitude": "-90.114703708006",
    "latitude": "29.937738278607156",
    "geocoded_column": {
      "latitude": "29.937738278607156",
      "longitude": "-90.114703708006"
    }
  },
  {
    "service_request": "2021-829963",
    "request_type": "Trash/Recycling",
    "request_reason": "Missed Trash Pick-Up",
    "date_created": "2021-10-05T17:23:58.000",
    "date_modified": "2021-10-05T17:23:58.000",
    "request_status": "Pending",
    "responsible_agency": "Department of Sanitation",
    "final_address": "1477 Westbrook Dr",
    "address_councildis": "D",
    "status": "Assigned to Contractor",
    "contractor": "Metro Disposal",
    "rowid": "829963",
    "final_x": "3678456.18363",
    "final_y": "549577.745171",
    "longitude": "-90.07705644468082",
    "latitude": "30.00524029263791",
    "geocoded_column": {
      "latitude": "30.00524029263791",
      "longitude": "-90.07705644468082"
    }
  },
  {
    "service_request": "2021-829962",
    "request_type": "Trash/Recycling",
    "request_reason": "Request a Large Item Pick Up",
    "date_created": "2021-10-05T17:22:29.000",
    "date_modified": "2021-10-05T17:22:30.000",
    "request_status": "Pending",
    "responsible_agency": "Department of Sanitation",
    "final_address": "728 Harmony St",
    "address_councildis": "B",
    "status": "Assigned to Contractor",
    "contractor": "Richards Disposal",
    "rowid": "829962",
    "final_x": "3676345.92046",
    "final_y": "518863.116663",
    "longitude": "-90.08478054757074",
    "latitude": "29.920848893368476",
    "geocoded_column": {
      "latitude": "29.920848893368476",
      "longitude": "-90.08478054757074"
    }
  },
  {
    "service_request": "2021-829961",
    "request_type": "Trash/Recycling",
    "request_reason": "Replace Trash Cart",
    "date_created": "2021-10-05T17:19:02.000",
    "date_modified": "2021-10-05T17:19:03.000",
    "request_status": "Pending",
    "responsible_agency": "Department of Sanitation",
    "final_address": "11326 Hayne Blvd, New Orleans, Louisiana, 70128",
    "address_councildis": "E",
    "status": "Assigned to Contractor",
    "contractor": "Metro Disposal",
    "rowid": "829961",
    "final_x": "3710595.11947",
    "final_y": "567682.127652",
    "longitude": "-89.97484554511844",
    "latitude": "30.054012165527325",
    "geocoded_column": {
      "latitude": "30.054012165527325",
      "longitude": "-89.97484554511844"
    }
  },
  {
    "service_request": "2021-829960",
    "request_type": "Trash/Recycling",
    "request_reason": "Missed Trash Pick-Up",
    "date_created": "2021-10-05T17:15:16.000",
    "date_modified": "2021-10-05T17:15:16.000",
    "request_status": "Pending",
    "responsible_agency": "Department of Sanitation",
    "final_address": "4419 Orleans Ave",
    "address_councildis": "A",
    "status": "Assigned to Contractor",
    "contractor": "Richards Disposal",
    "rowid": "829960",
    "final_x": "3671372.92398",
    "final_y": "541239.435532",
    "longitude": "-90.09971764034044",
    "latitude": "29.982524461088904",
    "geocoded_column": {
      "latitude": "29.982524461088904",
      "longitude": "-90.09971764034044"
    }
  },
  {
    "service_request": "2021-829959",
    "request_type": "Traffic Signals/Signs/Striping/Streetlights",
    "request_reason": "Additional signage",
    "date_created": "2021-10-05T17:14:57.000",
    "date_modified": "2021-10-05T17:14:57.000",
    "request_status": "Pending",
    "responsible_agency": "Department of Public Works",
    "final_address": "N ROBERTSON ST & FRANCE ST",
    "address_councildis": "D",
    "status": "Pending",
    "rowid": "829959",
    "final_x": "3692757.8",
    "final_y": "536645.08",
    "longitude": "-90.03233864701068",
    "latitude": "29.9692412374848",
    "geocoded_column": {
      "latitude": "29.9692412374848",
      "longitude": "-90.03233864701068"
    }
  },
  {
    "service_request": "2021-829958",
    "request_type": "Trash/Recycling",
    "request_reason": "MIssed Recycling Pick-Up",
    "date_created": "2021-10-05T17:14:15.000",
    "date_modified": "2021-10-05T17:14:15.000",
    "request_status": "Pending",
    "responsible_agency": "Department of Sanitation",
    "final_address": "4419 Orleans Ave",
    "address_councildis": "A",
    "status": "Assigned to Contractor",
    "contractor": "Richards Disposal",
    "rowid": "829958",
    "final_x": "3671372.92398",
    "final_y": "541239.435532",
    "longitude": "-90.09971764034044",
    "latitude": "29.982524461088904",
    "geocoded_column": {
      "latitude": "29.982524461088904",
      "longitude": "-90.09971764034044"
    }
  },
  {
    "service_request": "2021-829957",
    "request_type": "Traffic Signals/Signs/Striping/Streetlights",
    "request_reason": "Traffic Sign Missing/Damaged",
    "date_created": "2021-10-05T17:05:39.000",
    "date_modified": "2021-10-05T17:05:39.000",
    "request_status": "Pending",
    "responsible_agency": "Department of Public Works",
    "final_address": "333 Girod St",
    "address_councildis": "B",
    "status": "Pending",
    "rowid": "829957",
    "final_x": "3681881.54223",
    "final_y": "528244.71168",
    "longitude": "-90.06697984864125",
    "latitude": "29.94647815587424",
    "geocoded_column": {
      "latitude": "29.94647815587424",
      "longitude": "-90.06697984864125"
    }
  },
  {
    "service_request": "2021-829955",
    "request_type": "Traffic Signals/Signs/Striping/Streetlights",
    "request_reason": "Street Light Outage/Malfunction",
    "date_created": "2021-10-05T16:58:33.000",
    "date_modified": "2021-10-05T16:58:34.000",
    "request_status": "Pending",
    "responsible_agency": "Department of Public Works",
    "final_address": "6021 Stratford Pl",
    "address_councildis": "C",
    "status": "Pending",
    "contractor": "Royal Engineering",
    "rowid": "829955",
    "final_x": "3706099.74673",
    "final_y": "516118.433012",
    "longitude": "-89.99096355957872",
    "latitude": "29.912376963958497",
    "geocoded_column": {
      "latitude": "29.912376963958497",
      "longitude": "-89.99096355957872"
    }
  },
  {
    "service_request": "2021-829954",
    "request_type": "Traffic Signals/Signs/Striping/Streetlights",
    "request_reason": "Street Light Outage/Malfunction",
    "date_created": "2021-10-05T16:58:06.000",
    "date_modified": "2021-10-05T16:58:07.000",
    "request_status": "Pending",
    "responsible_agency": "Department of Public Works",
    "final_address": "6039 Stratford Pl",
    "address_councildis": "C",
    "status": "Pending",
    "contractor": "Royal Engineering",
    "rowid": "829954",
    "final_x": "3706219.99217",
    "final_y": "516116.55762",
    "longitude": "-89.99058410433099",
    "latitude": "29.912367933284962",
    "geocoded_column": {
      "latitude": "29.912367933284962",
      "longitude": "-89.99058410433099"
    }
  },
  {
    "service_request": "2021-829953",
    "request_type": "Traffic Signals/Signs/Striping/Streetlights",
    "request_reason": "Street Light Outage/Malfunction",
    "date_created": "2021-10-05T16:57:46.000",
    "date_modified": "2021-10-05T16:57:46.000",
    "request_status": "Pending",
    "responsible_agency": "Department of Public Works",
    "final_address": "6101 Stratford Pl",
    "address_councildis": "C",
    "status": "Pending",
    "contractor": "Royal Engineering",
    "rowid": "829953",
    "final_x": "3706409.41188",
    "final_y": "516113.567924",
    "longitude": "-89.98998635918105",
    "latitude": "29.912353607825906",
    "geocoded_column": {
      "latitude": "29.912353607825906",
      "longitude": "-89.98998635918105"
    }
  },
  {
    "service_request": "2021-829952",
    "request_type": "Traffic Signals/Signs/Striping/Streetlights",
    "request_reason": "Street Light Outage/Malfunction",
    "date_created": "2021-10-05T16:57:22.000",
    "date_modified": "2021-10-05T16:57:23.000",
    "request_status": "Pending",
    "responsible_agency": "Department of Public Works",
    "final_address": "6130 Stratford Pl",
    "address_councildis": "C",
    "status": "Pending",
    "contractor": "Royal Engineering",
    "rowid": "829952",
    "final_x": "3706604.76702",
    "final_y": "516237.72946",
    "longitude": "-89.98936517335386",
    "latitude": "29.912688710244478",
    "geocoded_column": {
      "latitude": "29.912688710244478",
      "longitude": "-89.98936517335386"
    }
  },
  {
    "service_request": "2021-829951",
    "request_type": "Abandoned Vehicles",
    "request_reason": "Abandoned/Junk Vehicles",
    "date_created": "2021-10-05T16:57:11.000",
    "date_modified": "2021-10-05T16:57:11.000",
    "request_status": "Pending",
    "responsible_agency": "Department of Public Works",
    "final_address": "3125 Delachaise St",
    "address_councildis": "B",
    "status": "Pending",
    "rowid": "829951",
    "final_x": "3671773.59534",
    "final_y": "526627.409726",
    "longitude": "-90.09894930283683",
    "latitude": "29.94233440010121",
    "geocoded_column": {
      "latitude": "29.94233440010121",
      "longitude": "-90.09894930283683"
    }
  },
  {
    "service_request": "2021-829950",
    "request_type": "COVID-19",
    "request_reason": "COVID-19 Business Non-Compliance",
    "date_created": "2021-10-05T16:55:54.000",
    "date_modified": "2021-10-05T16:55:55.000",
    "request_status": "Pending",
    "responsible_agency": "Safety and Permits",
    "final_address": "401 N Carrollton Ave",
    "address_councildis": "A",
    "status": "Pending",
    "rowid": "829950",
    "final_x": "3671482.24667",
    "final_y": "539704.336458",
    "longitude": "-90.0994245569996",
    "latitude": "29.978300224786608",
    "geocoded_column": {
      "latitude": "29.978300224786608",
      "longitude": "-90.0994245569996"
    }
  },
  {
    "service_request": "2021-829948",
    "request_type": "Trash/Recycling",
    "request_reason": "Request a Large Item Pick Up",
    "date_created": "2021-10-05T16:50:06.000",
    "date_modified": "2021-10-05T16:50:07.000",
    "request_status": "Pending",
    "responsible_agency": "Department of Sanitation",
    "final_address": "2232 Baronne St",
    "address_councildis": "B",
    "status": "Assigned to Contractor",
    "contractor": "Richards Disposal",
    "rowid": "829948",
    "final_x": "3676827.85768",
    "final_y": "524273.192764",
    "longitude": "-90.08307295666425",
    "latitude": "29.935710395537498",
    "geocoded_column": {
      "latitude": "29.935710395537498",
      "longitude": "-90.08307295666425"
    }
  },
  {
    "service_request": "2021-829946",
    "request_type": "Trash/Recycling",
    "request_reason": "Replace Trash Cart",
    "date_created": "2021-10-05T16:49:27.000",
    "date_modified": "2021-10-05T16:49:27.000",
    "request_status": "Pending",
    "responsible_agency": "Department of Sanitation",
    "final_address": "1405 Marigny St",
    "address_councildis": "C",
    "status": "Assigned to Contractor",
    "contractor": "Metro Disposal",
    "rowid": "829946",
    "final_x": "3685360.64482",
    "final_y": "537517.949768",
    "longitude": "-90.05566863603903",
    "latitude": "29.971870189407994",
    "geocoded_column": {
      "latitude": "29.971870189407994",
      "longitude": "-90.05566863603903"
    }
  },
  {
    "service_request": "2021-829945",
    "request_type": "Traffic Signals/Signs/Striping/Streetlights",
    "request_reason": "Street Light Outage/Malfunction",
    "date_created": "2021-10-05T16:46:25.000",
    "date_modified": "2021-10-05T16:46:25.000",
    "request_status": "Pending",
    "responsible_agency": "Department of Public Works",
    "final_address": "1200 Barracks St",
    "address_councildis": "C",
    "status": "Pending",
    "contractor": "Royal Engineering",
    "rowid": "829945",
    "final_x": "3682335.65007",
    "final_y": "535338.643206",
    "longitude": "-90.0652982043444",
    "latitude": "29.965970247615253",
    "geocoded_column": {
      "latitude": "29.965970247615253",
      "longitude": "-90.0652982043444"
    }
  },
  {
    "service_request": "2021-829944",
    "request_type": "Trash/Recycling",
    "request_reason": "Order Recycling Cart",
    "date_created": "2021-10-05T16:42:58.000",
    "date_modified": "2021-10-05T16:42:58.000",
    "request_status": "Pending",
    "responsible_agency": "Department of Sanitation",
    "final_address": "6400 Debore Dr",
    "address_councildis": "D",
    "status": "Pending",
    "rowid": "829944",
    "final_x": "3690727.22537",
    "final_y": "556989.209242",
    "longitude": "-90.03802504071703",
    "latitude": "30.025243430450328",
    "geocoded_column": {
      "latitude": "30.025243430450328",
      "longitude": "-90.03802504071703"
    }
  },
  {
    "service_request": "2021-829943",
    "request_type": "Abandoned Vehicles",
    "request_reason": "Abandoned/Junk Vehicles",
    "date_created": "2021-10-05T16:42:38.000",
    "date_modified": "2021-10-05T16:45:35.000",
    "request_status": "Pending",
    "responsible_agency": "Department of Public Works",
    "final_address": "6200 BLK Pines Blvd",
    "address_councildis": "D",
    "status": "Pending",
    "rowid": "829943",
    "final_x": "3696829.6588",
    "final_y": "556329.213245",
    "longitude": "-90.01876630734591",
    "latitude": "30.02323759862187",
    "geocoded_column": {
      "latitude": "30.02323759862187",
      "longitude": "-90.01876630734591"
    }
  },
  {
    "service_request": "2021-829942",
    "request_type": "Trash/Recycling",
    "request_reason": "Order Trash Cart",
    "date_created": "2021-10-05T16:42:30.000",
    "date_modified": "2021-10-05T16:42:30.000",
    "request_status": "Pending",
    "responsible_agency": "Department of Sanitation",
    "final_address": "6400 Debore Dr",
    "address_councildis": "D",
    "status": "Assigned to Contractor",
    "contractor": "Metro Disposal",
    "rowid": "829942",
    "final_x": "3690727.22537",
    "final_y": "556989.209242",
    "longitude": "-90.03802504071703",
    "latitude": "30.025243430450328",
    "geocoded_column": {
      "latitude": "30.025243430450328",
      "longitude": "-90.03802504071703"
    }
  },
  {
    "service_request": "2021-829941",
    "request_type": "Trash/Recycling",
    "request_reason": "Missed Trash Pick-Up",
    "date_created": "2021-10-05T16:41:15.000",
    "date_modified": "2021-10-05T16:41:16.000",
    "request_status": "Pending",
    "responsible_agency": "Department of Sanitation",
    "final_address": "1020 Pauline St",
    "address_councildis": "C",
    "status": "Assigned to Contractor",
    "contractor": "Metro Disposal",
    "rowid": "829941",
    "final_x": "3691117.51459",
    "final_y": "535195.48679",
    "longitude": "-90.03757054119713",
    "latitude": "29.965306473488177",
    "geocoded_column": {
      "latitude": "29.965306473488177",
      "longitude": "-90.03757054119713"
    }
  },
  {
    "service_request": "2021-829939",
    "request_type": "Trash/Recycling",
    "request_reason": "MIssed Recycling Pick-Up",
    "date_created": "2021-10-05T16:38:10.000",
    "date_modified": "2021-10-05T16:38:11.000",
    "request_status": "Pending",
    "responsible_agency": "Department of Sanitation",
    "final_address": "1043 BLK N White St",
    "address_councildis": "A",
    "status": "Assigned to Contractor",
    "contractor": "Richards Disposal",
    "rowid": "829939",
    "final_x": "3677193.661",
    "final_y": "538656.188551",
    "longitude": "-90.08142200282481",
    "latitude": "29.975247827757144",
    "geocoded_column": {
      "latitude": "29.975247827757144",
      "longitude": "-90.08142200282481"
    }
  },
  {
    "service_request": "2021-829936",
    "request_type": "Trash/Recycling",
    "request_reason": "Missed Trash Pick-Up",
    "date_created": "2021-10-05T16:35:56.000",
    "date_modified": "2021-10-05T16:35:57.000",
    "request_status": "Pending",
    "responsible_agency": "Department of Sanitation",
    "final_address": "1043 BLK N White St",
    "address_councildis": "A",
    "status": "Assigned to Contractor",
    "contractor": "Richards Disposal",
    "rowid": "829936",
    "final_x": "3677193.661",
    "final_y": "538656.188551",
    "longitude": "-90.08142200282481",
    "latitude": "29.975247827757144",
    "geocoded_column": {
      "latitude": "29.975247827757144",
      "longitude": "-90.08142200282481"
    }
  },
  {
    "service_request": "2021-829934",
    "request_type": "Trash/Recycling",
    "request_reason": "Missed Trash Pick-Up",
    "date_created": "2021-10-05T16:34:29.000",
    "date_modified": "2021-10-05T16:34:29.000",
    "request_status": "Pending",
    "responsible_agency": "Department of Sanitation",
    "final_address": "2905 Prytania St",
    "address_councildis": "B",
    "status": "Assigned to Contractor",
    "contractor": "Richards Disposal",
    "rowid": "829934",
    "final_x": "3675699.17512",
    "final_y": "521814.726586",
    "longitude": "-90.08672066710494",
    "latitude": "29.928984229101548",
    "geocoded_column": {
      "latitude": "29.928984229101548",
      "longitude": "-90.08672066710494"
    }
  },
  {
    "service_request": "2021-829932",
    "request_type": "Trash/Recycling",
    "request_reason": "Missed Trash Pick-Up",
    "date_created": "2021-10-05T16:34:19.000",
    "date_modified": "2021-10-05T16:34:19.000",
    "request_status": "Pending",
    "responsible_agency": "Department of Sanitation",
    "final_address": "1778 Lafreniere St",
    "address_councildis": "D",
    "status": "Assigned to Contractor",
    "contractor": "Metro Disposal",
    "rowid": "829932",
    "final_x": "3681179.53493",
    "final_y": "545212.848015",
    "longitude": "-90.06860500237201",
    "latitude": "29.993156000153814",
    "geocoded_column": {
      "latitude": "29.993156000153814",
      "longitude": "-90.06860500237201"
    }
  },
  {
    "service_request": "2021-829931",
    "request_type": "Trash/Recycling",
    "request_reason": "Order Trash Cart",
    "date_created": "2021-10-05T16:33:47.000",
    "date_modified": "2021-10-05T16:33:48.000",
    "request_status": "Pending",
    "responsible_agency": "Department of Sanitation",
    "final_address": "1736 Soniat St",
    "address_councildis": "B",
    "status": "Assigned to Contractor",
    "contractor": "Richards Disposal",
    "rowid": "829931",
    "final_x": "3668418.91444",
    "final_y": "522105.609082",
    "longitude": "-90.10969327130485",
    "latitude": "29.929999844534876",
    "geocoded_column": {
      "latitude": "29.929999844534876",
      "longitude": "-90.10969327130485"
    }
  },
  {
    "service_request": "2021-829929",
    "request_type": "Trash/Recycling",
    "request_reason": "Replace Trash Cart",
    "date_created": "2021-10-05T16:29:52.000",
    "date_modified": "2021-10-05T16:29:53.000",
    "request_status": "Pending",
    "responsible_agency": "Department of Sanitation",
    "final_address": "6743 Colbert St",
    "address_councildis": "A",
    "status": "Assigned to Contractor",
    "contractor": "Metro Disposal",
    "rowid": "829929",
    "final_x": "3667971.9305",
    "final_y": "552476.414742",
    "longitude": "-90.1100808001325",
    "latitude": "30.013522517359874",
    "geocoded_column": {
      "latitude": "30.013522517359874",
      "longitude": "-90.1100808001325"
    }
  },
  {
    "service_request": "2021-829928",
    "request_type": "Abandoned Vehicles",
    "request_reason": "Abandoned/Junk Vehicles",
    "date_created": "2021-10-05T16:29:50.000",
    "date_modified": "2021-10-05T16:29:50.000",
    "request_status": "Pending",
    "responsible_agency": "Department of Public Works",
    "final_address": "520 S St Patrick St",
    "address_councildis": "A",
    "status": "Pending",
    "rowid": "829928",
    "final_x": "3668095.22669",
    "final_y": "538370.542409",
    "longitude": "-90.11016699539685",
    "latitude": "29.974732594401143",
    "geocoded_column": {
      "latitude": "29.974732594401143",
      "longitude": "-90.11016699539685"
    }
  },
  {
    "service_request": "2021-829927",
    "request_type": "Trash/Recycling",
    "request_reason": "Missed Trash Pick-Up",
    "date_created": "2021-10-05T16:28:39.000",
    "date_modified": "2021-10-05T16:28:40.000",
    "request_status": "Pending",
    "responsible_agency": "Department of Sanitation",
    "final_address": "6016 St Charles Ave",
    "address_councildis": "A",
    "status": "Assigned to Contractor",
    "contractor": "Richards Disposal",
    "rowid": "829927",
    "final_x": "3665536.5257",
    "final_y": "522450.08089",
    "longitude": "-90.11878100278054",
    "latitude": "29.931031355859783",
    "geocoded_column": {
      "latitude": "29.931031355859783",
      "longitude": "-90.11878100278054"
    }
  },
  {
    "service_request": "2021-829926",
    "request_type": "Trash/Recycling",
    "request_reason": "Repair Trash Cart",
    "date_created": "2021-10-05T16:27:32.000",
    "date_modified": "2021-10-05T16:27:33.000",
    "request_status": "Pending",
    "responsible_agency": "Department of Sanitation",
    "final_address": "334 Broadway St",
    "address_councildis": "A",
    "status": "Assigned to Contractor",
    "contractor": "Richards Disposal",
    "rowid": "829926",
    "final_x": "3661585.68838",
    "final_y": "522741.624698",
    "longitude": "-90.13124367637386",
    "latitude": "29.931947568263265",
    "geocoded_column": {
      "latitude": "29.931947568263265",
      "longitude": "-90.13124367637386"
    }
  },
  {
    "service_request": "2021-829924",
    "request_type": "Trash/Recycling",
    "request_reason": "Missed Trash Pick-Up",
    "date_created": "2021-10-05T16:22:10.000",
    "date_modified": "2021-10-05T16:22:11.000",
    "request_status": "Pending",
    "responsible_agency": "Department of Sanitation",
    "final_address": "1015 St Philip St",
    "address_councildis": "C",
    "status": "Assigned to Contractor",
    "contractor": "Empire Services",
    "rowid": "829924",
    "final_x": "3682259.90511",
    "final_y": "534123.711173",
    "longitude": "-90.06557985385373",
    "latitude": "29.96263190601524",
    "geocoded_column": {
      "latitude": "29.96263190601524",
      "longitude": "-90.06557985385373"
    }
  },
  {
    "service_request": "2021-829923",
    "request_type": "Property Maintenance",
    "request_reason": "Property Maintenance",
    "date_created": "2021-10-05T16:21:00.000",
    "date_modified": "2021-10-05T16:21:00.000",
    "request_status": "Pending",
    "responsible_agency": "Department of Code Enforcement",
    "final_address": "6320 S Robertson St",
    "address_councildis": "A",
    "status": "Pending",
    "rowid": "829923",
    "final_x": "3665599.47552",
    "final_y": "525081.400317",
    "longitude": "-90.1184942084569",
    "latitude": "29.93826481202953",
    "geocoded_column": {
      "latitude": "29.93826481202953",
      "longitude": "-90.1184942084569"
    }
  },
  {
    "service_request": "2021-829922",
    "request_type": "Abandoned Vehicles",
    "request_reason": "Vehicle Blocking Your Driveway",
    "date_created": "2021-10-05T16:18:09.000",
    "date_modified": "2021-10-05T16:18:09.000",
    "request_status": "Pending",
    "responsible_agency": "Department of Public Works",
    "final_address": "4513 Jeanne Marie Pl",
    "address_councildis": "D",
    "status": "Pending",
    "rowid": "829922",
    "final_x": "3678564.47086",
    "final_y": "549178.063827",
    "longitude": "-90.07672818939278",
    "latitude": "30.00413804649904",
    "geocoded_column": {
      "latitude": "30.00413804649904",
      "longitude": "-90.07672818939278"
    }
  },
  {
    "service_request": "2021-829920",
    "request_type": "Trash/Recycling",
    "request_reason": "Replace Trash Cart",
    "date_created": "2021-10-05T16:14:19.000",
    "date_modified": "2021-10-05T16:14:19.000",
    "request_status": "Pending",
    "responsible_agency": "Department of Sanitation",
    "final_address": "109 10Th St",
    "address_councildis": "A",
    "status": "Assigned to Contractor",
    "contractor": "Metro Disposal",
    "rowid": "829920",
    "final_x": "3665971.15808",
    "final_y": "547563.502738",
    "longitude": "-90.11656705019897",
    "latitude": "30.000072293733712",
    "geocoded_column": {
      "latitude": "30.000072293733712",
      "longitude": "-90.11656705019897"
    }
  },
  {
    "service_request": "2021-829918",
    "request_type": "Trash/Recycling",
    "request_reason": "Missed Trash Pick-Up",
    "date_created": "2021-10-05T16:13:16.000",
    "date_modified": "2021-10-05T16:13:16.000",
    "request_status": "Pending",
    "responsible_agency": "Department of Sanitation",
    "final_address": "2700 BLK Edna St",
    "address_councildis": "D",
    "status": "Assigned to Contractor",
    "contractor": "Metro Disposal",
    "rowid": "829918",
    "final_x": "3689686.30038",
    "final_y": "545289.876728",
    "longitude": "-90.04173090314175",
    "latitude": "29.993106883511192",
    "geocoded_column": {
      "latitude": "29.993106883511192",
      "longitude": "-90.04173090314175"
    }
  },
  {
    "service_request": "2021-829917",
    "request_type": "Trash/Recycling",
    "request_reason": "Missed Trash Pick-Up",
    "date_created": "2021-10-05T16:13:15.000",
    "date_modified": "2021-10-05T16:13:16.000",
    "request_status": "Pending",
    "responsible_agency": "Department of Sanitation",
    "final_address": "2700 BLK Edna St",
    "address_councildis": "D",
    "status": "Assigned to Contractor",
    "contractor": "Metro Disposal",
    "rowid": "829917",
    "final_x": "3689686.30038",
    "final_y": "545289.876728",
    "longitude": "-90.04173090314175",
    "latitude": "29.993106883511192",
    "geocoded_column": {
      "latitude": "29.993106883511192",
      "longitude": "-90.04173090314175"
    }
  },
  {
    "service_request": "2021-829916",
    "request_type": "Trash/Recycling",
    "request_reason": "Replace Trash Cart",
    "date_created": "2021-10-05T16:04:14.000",
    "date_modified": "2021-10-05T16:04:15.000",
    "request_status": "Pending",
    "responsible_agency": "Department of Sanitation",
    "final_address": "219 Whitney Ave",
    "address_councildis": "C",
    "status": "Assigned to Contractor",
    "contractor": "Richards Disposal",
    "rowid": "829916",
    "final_x": "3690213.9583",
    "final_y": "530878.602818",
    "longitude": "-90.0405777214524",
    "latitude": "29.95346460911449",
    "geocoded_column": {
      "latitude": "29.95346460911449",
      "longitude": "-90.0405777214524"
    }
  },
  {
    "service_request": "2021-829913",
    "request_type": "Trash/Recycling",
    "request_reason": "Missed Trash Pick-Up",
    "date_created": "2021-10-05T16:00:13.000",
    "date_modified": "2021-10-05T16:00:14.000",
    "request_status": "Pending",
    "responsible_agency": "Department of Sanitation",
    "final_address": "3526 N Claiborne Ave",
    "address_councildis": "D",
    "status": "Assigned to Contractor",
    "contractor": "Metro Disposal",
    "rowid": "829913",
    "final_x": "3691133.57878",
    "final_y": "537415.100232",
    "longitude": "-90.03744053815113",
    "latitude": "29.971409129100284",
    "geocoded_column": {
      "latitude": "29.971409129100284",
      "longitude": "-90.03744053815113"
    }
  },
  {
    "service_request": "2021-829911",
    "request_type": "Trash/Recycling",
    "request_reason": "Order Trash Cart",
    "date_created": "2021-10-05T15:59:04.000",
    "date_modified": "2021-10-05T15:59:05.000",
    "request_status": "Pending",
    "responsible_agency": "Department of Sanitation",
    "final_address": "3526 N Claiborne Ave",
    "address_councildis": "D",
    "status": "Assigned to Contractor",
    "contractor": "Metro Disposal",
    "rowid": "829911",
    "final_x": "3691133.57878",
    "final_y": "537415.100232",
    "longitude": "-90.03744053815113",
    "latitude": "29.971409129100284",
    "geocoded_column": {
      "latitude": "29.971409129100284",
      "longitude": "-90.03744053815113"
    }
  },
  {
    "service_request": "2021-829910",
    "request_type": "Trash/Recycling",
    "request_reason": "Request a Large Item Pick Up",
    "date_created": "2021-10-05T15:56:32.000",
    "date_modified": "2021-10-05T15:56:32.000",
    "request_status": "Pending",
    "responsible_agency": "Department of Sanitation",
    "final_address": "2436 George Nick Connor Dr",
    "address_councildis": "D",
    "status": "Assigned to Contractor",
    "contractor": "Metro Disposal",
    "rowid": "829910",
    "final_x": "3681156.24431",
    "final_y": "541115.47406",
    "longitude": "-90.06882140723134",
    "latitude": "29.98189036885708",
    "geocoded_column": {
      "latitude": "29.98189036885708",
      "longitude": "-90.06882140723134"
    }
  },
  {
    "service_request": "2021-829909",
    "request_type": "Trash/Recycling",
    "request_reason": "Missed Trash Pick-Up",
    "date_created": "2021-10-05T15:53:23.000",
    "date_modified": "2021-10-05T15:54:02.000",
    "request_status": "Pending",
    "responsible_agency": "Department of Sanitation",
    "final_address": "1016 Pauline St",
    "address_councildis": "C",
    "status": "Assigned to Contractor",
    "contractor": "Metro Disposal",
    "rowid": "829909",
    "final_x": "3691106.30524",
    "final_y": "535168.248454",
    "longitude": "-90.03760691232867",
    "latitude": "29.96523192616618",
    "geocoded_column": {
      "latitude": "29.96523192616618",
      "longitude": "-90.03760691232867"
    }
  },
  {
    "service_request": "2021-829908",
    "request_type": "Traffic Signals/Signs/Striping/Streetlights",
    "request_reason": "Street Light Outage/Malfunction",
    "date_created": "2021-10-05T15:53:01.000",
    "date_modified": "2021-10-05T15:53:42.000",
    "request_status": "Pending",
    "responsible_agency": "Department of Public Works",
    "final_address": "5960 Providence Pl",
    "address_councildis": "D",
    "status": "Pending",
    "contractor": "Royal Engineering",
    "rowid": "829908",
    "final_x": "3688092.11171",
    "final_y": "555411.032409",
    "longitude": "-90.04640758575887",
    "latitude": "30.020985676120144",
    "geocoded_column": {
      "latitude": "30.020985676120144",
      "longitude": "-90.04640758575887"
    }
  },
  {
    "service_request": "2021-829907",
    "request_type": "Traffic Signals/Signs/Striping/Streetlights",
    "request_reason": "Street Light Outage/Malfunction",
    "date_created": "2021-10-05T15:51:09.000",
    "date_modified": "2021-10-05T15:51:10.000",
    "request_status": "Pending",
    "responsible_agency": "Department of Public Works",
    "final_address": "6000 Providence Pl",
    "address_councildis": "D",
    "status": "Pending",
    "contractor": "Royal Engineering",
    "rowid": "829907",
    "final_x": "3688085.30153",
    "final_y": "555513.371033",
    "longitude": "-90.04642547221573",
    "latitude": "30.021267279615767",
    "geocoded_column": {
      "latitude": "30.021267279615767",
      "longitude": "-90.04642547221573"
    }
  },
  {
    "service_request": "2021-829903",
    "request_type": "Abandoned Vehicles",
    "request_reason": "Abandoned/Junk Vehicles",
    "date_created": "2021-10-05T15:45:01.000",
    "date_modified": "2021-10-05T15:45:01.000",
    "request_status": "Pending",
    "responsible_agency": "Department of Public Works",
    "final_address": "7019 Crowder Blvd, New Orleans, Louisiana, 70127",
    "address_councildis": "E",
    "status": "Pending",
    "rowid": "829903",
    "final_x": "3704860.36363",
    "final_y": "559771.817757",
    "longitude": "-89.9932639945913",
    "latitude": "30.03244764665377",
    "geocoded_column": {
      "latitude": "30.03244764665377",
      "longitude": "-89.9932639945913"
    }
  },
  {
    "service_request": "2021-829902",
    "request_type": "Trash/Recycling",
    "request_reason": "Missed Trash Pick-Up",
    "date_created": "2021-10-05T15:44:59.000",
    "date_modified": "2021-10-05T15:45:00.000",
    "request_status": "Pending",
    "responsible_agency": "Department of Sanitation",
    "final_address": "1400 Congress St",
    "address_councildis": "C",
    "status": "Assigned to Contractor",
    "contractor": "Metro Disposal",
    "rowid": "829902",
    "final_x": "3690962.98851",
    "final_y": "536722.011143",
    "longitude": "-90.03800402913159",
    "latitude": "29.969508682510632",
    "geocoded_column": {
      "latitude": "29.969508682510632",
      "longitude": "-90.03800402913159"
    }
  },
  {
    "service_request": "2021-829901",
    "request_type": "Trash/Recycling",
    "request_reason": "Replace Trash Cart",
    "date_created": "2021-10-05T15:43:44.000",
    "date_modified": "2021-10-05T15:45:58.000",
    "request_status": "Pending",
    "responsible_agency": "Department of Sanitation",
    "final_address": "7700 BLK Doyle Ct",
    "address_councildis": "E",
    "status": "Assigned to Contractor",
    "contractor": "Metro Disposal",
    "rowid": "829901",
    "final_x": "3700385.02636",
    "final_y": "561056.085681",
    "longitude": "-90.00735934634098",
    "latitude": "30.03612203933449",
    "geocoded_column": {
      "latitude": "30.03612203933449",
      "longitude": "-90.00735934634098"
    }
  },
  {
    "service_request": "2021-829900",
    "request_type": "Trash/Recycling",
    "request_reason": "Replace Trash Cart",
    "date_created": "2021-10-05T15:41:42.000",
    "date_modified": "2021-10-05T15:41:42.000",
    "request_status": "Pending",
    "responsible_agency": "Department of Sanitation",
    "final_address": "7307 Burthe St",
    "address_councildis": "A",
    "status": "Assigned to Contractor",
    "contractor": "Richards Disposal",
    "rowid": "829900",
    "final_x": "3663287.19527",
    "final_y": "525849.362109",
    "longitude": "-90.12576877945969",
    "latitude": "29.94044366884792",
    "geocoded_column": {
      "latitude": "29.94044366884792",
      "longitude": "-90.12576877945969"
    }
  },
  {
    "service_request": "2021-829899",
    "request_type": "Trash/Recycling",
    "request_reason": "Replace Trash Cart",
    "date_created": "2021-10-05T15:40:40.000",
    "date_modified": "2021-10-05T15:40:41.000",
    "request_status": "Pending",
    "responsible_agency": "Department of Sanitation",
    "final_address": "1469 N Rocheblave St",
    "address_councildis": "D",
    "status": "Assigned to Contractor",
    "contractor": "Metro Disposal",
    "rowid": "829899",
    "final_x": "3679412.14696",
    "final_y": "538869.926665",
    "longitude": "-90.07440802006505",
    "latitude": "29.97576869971566",
    "geocoded_column": {
      "latitude": "29.97576869971566",
      "longitude": "-90.07440802006505"
    }
  },
  {
    "service_request": "2021-829897",
    "request_type": "Trash/Recycling",
    "request_reason": "Request a Large Item Pick Up",
    "date_created": "2021-10-05T15:38:28.000",
    "date_modified": "2021-10-05T15:38:29.000",
    "request_status": "Pending",
    "responsible_agency": "Department of Sanitation",
    "final_address": "2715 Fern St",
    "address_councildis": "A",
    "status": "Assigned to Contractor",
    "contractor": "Richards Disposal",
    "rowid": "829897",
    "final_x": "3666268.25377",
    "final_y": "531898.716611",
    "longitude": "-90.11615417470277",
    "latitude": "29.956990712265284",
    "geocoded_column": {
      "latitude": "29.956990712265284",
      "longitude": "-90.11615417470277"
    }
  },
  {
    "service_request": "2021-829896",
    "request_type": "Trash/Recycling",
    "request_reason": "Repair Trash Cart",
    "date_created": "2021-10-05T15:37:18.000",
    "date_modified": "2021-10-05T15:37:18.000",
    "request_status": "Pending",
    "responsible_agency": "Department of Sanitation",
    "final_address": "3912 Jennifer St",
    "address_councildis": "C",
    "status": "Assigned to Contractor",
    "contractor": "Richards Disposal",
    "rowid": "829896",
    "final_x": "3709650.31294",
    "final_y": "516398.657589",
    "longitude": "-89.97974665093352",
    "latitude": "29.913032632954913",
    "geocoded_column": {
      "latitude": "29.913032632954913",
      "longitude": "-89.97974665093352"
    }
  },
  {
    "service_request": "2021-829894",
    "request_type": "Trash/Recycling",
    "request_reason": "Repair Trash Cart",
    "date_created": "2021-10-05T15:35:04.000",
    "date_modified": "2021-10-05T15:35:05.000",
    "request_status": "Pending",
    "responsible_agency": "Department of Sanitation",
    "final_address": "4834 Michoud Blvd",
    "address_councildis": "E",
    "status": "Assigned to Contractor",
    "contractor": "Metro Disposal",
    "rowid": "829894",
    "final_x": "3724987.40089",
    "final_y": "560760.549662",
    "longitude": "-89.92962366832438",
    "latitude": "30.034503669224947",
    "geocoded_column": {
      "latitude": "30.034503669224947",
      "longitude": "-89.92962366832438"
    }
  },
  {
    "service_request": "2021-829893",
    "request_type": "Traffic Signals/Signs/Striping/Streetlights",
    "request_reason": "Street Light Outage/Malfunction",
    "date_created": "2021-10-05T15:32:41.000",
    "date_modified": "2021-10-05T15:32:42.000",
    "request_status": "Pending",
    "responsible_agency": "Department of Public Works",
    "final_address": "11941 Curran Rd",
    "address_councildis": "E",
    "status": "Pending",
    "contractor": "Royal Engineering",
    "rowid": "829893",
    "final_x": "3713149.81221",
    "final_y": "567961.014309",
    "longitude": "-89.96676034769094",
    "latitude": "30.054695462188285",
    "geocoded_column": {
      "latitude": "30.054695462188285",
      "longitude": "-89.96676034769094"
    }
  },
  {
    "service_request": "2021-829892",
    "request_type": "Trash/Recycling",
    "request_reason": "Repair Trash Cart",
    "date_created": "2021-10-05T15:29:57.000",
    "date_modified": "2021-10-05T15:29:59.000",
    "request_status": "Pending",
    "responsible_agency": "Department of Sanitation",
    "final_address": "2302 Napoleon Ave",
    "address_councildis": "B",
    "status": "Assigned to Contractor",
    "contractor": "Richards Disposal",
    "rowid": "829892",
    "final_x": "3670491.1602",
    "final_y": "523405.710907",
    "longitude": "-90.10310745503828",
    "latitude": "29.933513695581908",
    "geocoded_column": {
      "latitude": "29.933513695581908",
      "longitude": "-90.10310745503828"
    }
  },
  {
    "service_request": "2021-829891",
    "request_type": "Trash/Recycling",
    "request_reason": "Repair Trash Cart",
    "date_created": "2021-10-05T15:29:12.000",
    "date_modified": "2021-10-05T15:29:20.000",
    "request_status": "Pending",
    "responsible_agency": "Department of Sanitation",
    "final_address": "1018 Toledano St",
    "address_councildis": "B",
    "status": "Assigned to Contractor",
    "contractor": "Richards Disposal",
    "rowid": "829891",
    "final_x": "3675453.33038",
    "final_y": "519578.76812",
    "longitude": "-90.08757349088795",
    "latitude": "29.92284341789859",
    "geocoded_column": {
      "latitude": "29.92284341789859",
      "longitude": "-90.08757349088795"
    }
  },
  {
    "service_request": "2021-829890",
    "request_type": "Traffic Signals/Signs/Striping/Streetlights",
    "request_reason": "Street Light Outage/Malfunction",
    "date_created": "2021-10-05T15:28:27.000",
    "date_modified": "2021-10-05T15:28:39.000",
    "request_status": "Pending",
    "responsible_agency": "Department of Public Works",
    "final_address": "11941 Curran Rd",
    "address_councildis": "E",
    "status": "Pending",
    "contractor": "Royal Engineering",
    "rowid": "829890",
    "final_x": "3713149.81221",
    "final_y": "567961.014309",
    "longitude": "-89.96676034769094",
    "latitude": "30.054695462188285",
    "geocoded_column": {
      "latitude": "30.054695462188285",
      "longitude": "-89.96676034769094"
    }
  },
  {
    "service_request": "2021-829889",
    "request_type": "Roads/Drainage",
    "request_reason": "Pothole",
    "date_created": "2021-10-05T15:27:11.000",
    "date_modified": "2021-10-05T15:27:11.000",
    "request_status": "Pending",
    "responsible_agency": "Department of Public Works",
    "final_address": "4720 Painters St",
    "address_councildis": "D",
    "status": "Pending",
    "rowid": "829889",
    "final_x": "3686067.82652",
    "final_y": "550561.422676",
    "longitude": "-90.05297495639581",
    "latitude": "30.0077133874292",
    "geocoded_column": {
      "latitude": "30.0077133874292",
      "longitude": "-90.05297495639581"
    }
  },
  {
    "service_request": "2021-829888",
    "request_type": "Traffic Signals/Signs/Striping/Streetlights",
    "request_reason": "Street Light Outage/Malfunction",
    "date_created": "2021-10-05T15:26:47.000",
    "date_modified": "2021-10-05T15:27:51.000",
    "request_status": "Pending",
    "responsible_agency": "Department of Public Works",
    "final_address": "2200 Valentine Ct",
    "address_councildis": "C",
    "status": "Pending",
    "contractor": "Royal Engineering",
    "rowid": "829888",
    "final_x": "3699635.62743",
    "final_y": "523035.378235",
    "longitude": "-90.01111405267416",
    "latitude": "29.931602841010037",
    "geocoded_column": {
      "latitude": "29.931602841010037",
      "longitude": "-90.01111405267416"
    }
  },
  {
    "service_request": "2021-829887",
    "request_type": "Roads/Drainage",
    "request_reason": "Accessibility Ramps, Curbs and Sidewalk Repair",
    "date_created": "2021-10-05T15:24:42.000",
    "date_modified": "2021-10-05T15:24:42.000",
    "request_status": "Pending",
    "responsible_agency": "Department of Public Works",
    "final_address": "839 Marigny St",
    "address_councildis": "C",
    "status": "Pending",
    "rowid": "829887",
    "final_x": "3685516.64591",
    "final_y": "535576.06023",
    "longitude": "-90.0552443670129",
    "latitude": "29.966525884647336",
    "geocoded_column": {
      "latitude": "29.966525884647336",
      "longitude": "-90.0552443670129"
    }
  },
  {
    "service_request": "2021-829886",
    "request_type": "Trash/Recycling",
    "request_reason": "Missed Trash Pick-Up",
    "date_created": "2021-10-05T15:23:42.000",
    "date_modified": "2021-10-05T15:23:57.000",
    "request_status": "Pending",
    "responsible_agency": "Department of Sanitation",
    "final_address": "4013 Royal St",
    "address_councildis": "C",
    "status": "Assigned to Contractor",
    "contractor": "Metro Disposal",
    "rowid": "829886",
    "final_x": "3691553.03888",
    "final_y": "533807.592901",
    "longitude": "-90.03624479657847",
    "latitude": "29.96147670248431",
    "geocoded_column": {
      "latitude": "29.96147670248431",
      "longitude": "-90.03624479657847"
    }
  },
  {
    "service_request": "2021-829882",
    "request_type": "Traffic Signals/Signs/Striping/Streetlights",
    "request_reason": "Street Light Outage/Malfunction",
    "date_created": "2021-10-05T15:19:49.000",
    "date_modified": "2021-10-05T15:20:30.000",
    "request_status": "Pending",
    "responsible_agency": "Department of Public Works",
    "final_address": "2300 Valentine Ct",
    "address_councildis": "C",
    "status": "Pending",
    "contractor": "Royal Engineering",
    "rowid": "829882",
    "final_x": "3699466.29213",
    "final_y": "522670.577466",
    "longitude": "-90.0116619047387",
    "latitude": "29.930605136667744",
    "geocoded_column": {
      "latitude": "29.930605136667744",
      "longitude": "-90.0116619047387"
    }
  },
  {
    "service_request": "2021-829881",
    "request_type": "Trash/Recycling",
    "request_reason": "Missed Trash Pick-Up",
    "date_created": "2021-10-05T15:18:31.000",
    "date_modified": "2021-10-05T15:19:00.000",
    "request_status": "Pending",
    "responsible_agency": "Department of Sanitation",
    "final_address": "808 Napoleon Ave",
    "address_councildis": "B",
    "status": "Assigned to Contractor",
    "contractor": "Richards Disposal",
    "rowid": "829881",
    "final_x": "3670932.6107",
    "final_y": "518507.114295",
    "longitude": "-90.10188001750073",
    "latitude": "29.92003108123352",
    "geocoded_column": {
      "latitude": "29.92003108123352",
      "longitude": "-90.10188001750073"
    }
  },
  {
    "service_request": "2021-829880",
    "request_type": "Trash/Recycling",
    "request_reason": "Replace Trash Cart",
    "date_created": "2021-10-05T15:17:32.000",
    "date_modified": "2021-10-05T15:17:58.000",
    "request_status": "Pending",
    "responsible_agency": "Department of Sanitation",
    "final_address": "6117 Magazine St",
    "address_councildis": "A",
    "status": "Assigned to Contractor",
    "contractor": "Richards Disposal",
    "rowid": "829880",
    "final_x": "3663985.58548",
    "final_y": "519529.824695",
    "longitude": "-90.1237744505849",
    "latitude": "29.923046680896892",
    "geocoded_column": {
      "latitude": "29.923046680896892",
      "longitude": "-90.1237744505849"
    }
  },
  {
    "service_request": "2021-829879",
    "request_type": "Trash/Recycling",
    "request_reason": "Missed Trash Pick-Up",
    "date_created": "2021-10-05T15:16:19.000",
    "date_modified": "2021-10-05T15:16:45.000",
    "request_status": "Pending",
    "responsible_agency": "Department of Sanitation",
    "final_address": "13442 Lourdes St",
    "address_councildis": "E",
    "status": "Assigned to Contractor",
    "contractor": "Metro Disposal",
    "rowid": "829879",
    "final_x": "3726109.73171",
    "final_y": "560913.22083",
    "longitude": "-89.92607107184814",
    "latitude": "30.034885599617613",
    "geocoded_column": {
      "latitude": "30.034885599617613",
      "longitude": "-89.92607107184814"
    }
  },
  {
    "service_request": "2021-829878",
    "request_type": "Trash/Recycling",
    "request_reason": "Repair Trash Cart",
    "date_created": "2021-10-05T15:15:37.000",
    "date_modified": "2021-10-05T15:15:52.000",
    "request_status": "Pending",
    "responsible_agency": "Department of Sanitation",
    "final_address": "937 N White St",
    "address_councildis": "A",
    "status": "Assigned to Contractor",
    "contractor": "Richards Disposal",
    "rowid": "829878",
    "final_x": "3676846.77947",
    "final_y": "538147.402633",
    "longitude": "-90.08253508810161",
    "latitude": "29.973859257255768",
    "geocoded_column": {
      "latitude": "29.973859257255768",
      "longitude": "-90.08253508810161"
    }
  },
  {
    "service_request": "2021-829877",
    "request_type": "Property Maintenance",
    "request_reason": "Property Maintenance",
    "date_created": "2021-10-05T15:11:26.000",
    "date_modified": "2021-10-05T15:11:26.000",
    "request_status": "Pending",
    "responsible_agency": "Department of Code Enforcement",
    "final_address": "148 W Harrison Ave",
    "address_councildis": "A",
    "status": "Pending",
    "rowid": "829877",
    "final_x": "3665773.6137",
    "final_y": "549550.856019",
    "longitude": "-90.11712446832554",
    "latitude": "30.005542595650663",
    "geocoded_column": {
      "latitude": "30.005542595650663",
      "longitude": "-90.11712446832554"
    }
  },
  {
    "service_request": "2021-829875",
    "request_type": "Trash/Recycling",
    "request_reason": "Missed Trash Pick-Up",
    "date_created": "2021-10-05T15:04:24.000",
    "date_modified": "2021-10-05T15:04:32.000",
    "request_status": "Pending",
    "responsible_agency": "Department of Sanitation",
    "final_address": "6979 Memphis St, New Orleans, Louisiana, 70124",
    "address_councildis": "A",
    "status": "Assigned to Contractor",
    "contractor": "Metro Disposal",
    "rowid": "829875",
    "final_x": "3669884.38529",
    "final_y": "553869.260567",
    "longitude": "-90.10399121273396",
    "latitude": "30.017296073420546",
    "geocoded_column": {
      "latitude": "30.017296073420546",
      "longitude": "-90.10399121273396"
    }
  },
  {
    "service_request": "2021-829874",
    "request_type": "Property Maintenance",
    "request_reason": "Property Maintenance",
    "date_created": "2021-10-05T15:04:17.000",
    "date_modified": "2021-10-05T15:04:17.000",
    "request_status": "Pending",
    "responsible_agency": "Department of Code Enforcement",
    "final_address": "3435 Havana St",
    "address_councildis": "D",
    "status": "Pending",
    "rowid": "829874",
    "final_x": "3680913.25346",
    "final_y": "545161.250191",
    "longitude": "-90.06944793815637",
    "latitude": "29.99302220317762",
    "geocoded_column": {
      "latitude": "29.99302220317762",
      "longitude": "-90.06944793815637"
    }
  },
  {
    "service_request": "2021-829873",
    "request_type": "Trash/Recycling",
    "request_reason": "Illegal Dumping",
    "date_created": "2021-10-05T15:02:41.000",
    "date_modified": "2021-10-05T15:02:41.000",
    "request_status": "Pending",
    "responsible_agency": "Department of Sanitation",
    "final_address": "6601 Lake Willow Dr",
    "address_councildis": "E",
    "status": "Pending",
    "rowid": "829873",
    "final_x": "3704216.5443",
    "final_y": "559759.564189",
    "longitude": "-89.99529894928213",
    "latitude": "30.03243464175175",
    "geocoded_column": {
      "latitude": "30.03243464175175",
      "longitude": "-89.99529894928213"
    }
  },
  {
    "service_request": "2021-829872",
    "request_type": "Trash/Recycling",
    "request_reason": "Illegal Dumping",
    "date_created": "2021-10-05T15:01:39.000",
    "date_modified": "2021-10-05T15:01:39.000",
    "request_status": "Pending",
    "responsible_agency": "Department of Sanitation",
    "final_address": "6762 Lake Willow Dr",
    "address_councildis": "E",
    "status": "Pending",
    "rowid": "829872",
    "final_x": "3703784.60785",
    "final_y": "559143.470428",
    "longitude": "-89.99668660188658",
    "latitude": "30.030754485754827",
    "geocoded_column": {
      "latitude": "30.030754485754827",
      "longitude": "-89.99668660188658"
    }
  },
  {
    "service_request": "2021-829870",
    "request_type": "Parks & Parkways",
    "request_reason": "Request Grass Cutting Service (City Owned Property)",
    "date_created": "2021-10-05T14:57:30.000",
    "date_modified": "2021-10-05T15:58:41.000",
    "request_status": "Pending",
    "responsible_agency": "Department of Parks & Parkway",
    "final_address": "MORRISON RD & WRIGHT RD",
    "address_councildis": "E",
    "status": "Pending",
    "rowid": "829870",
    "final_x": "3711407.5",
    "final_y": "565075.08",
    "longitude": "-89.97237570338713",
    "latitude": "30.04681733326063",
    "geocoded_column": {
      "latitude": "30.04681733326063",
      "longitude": "-89.97237570338713"
    }
  },
  {
    "service_request": "2021-829869",
    "request_type": "Trash/Recycling",
    "request_reason": "Missed Trash Pick-Up",
    "date_created": "2021-10-05T14:46:20.000",
    "date_modified": "2021-10-05T14:46:26.000",
    "request_status": "Pending",
    "responsible_agency": "Department of Sanitation",
    "final_address": "6208 Pratt Pl",
    "address_councildis": "D",
    "status": "Assigned to Contractor",
    "contractor": "Metro Disposal",
    "rowid": "829869",
    "final_x": "3679890.83957",
    "final_y": "555683.170585",
    "longitude": "-90.07231178728918",
    "latitude": "30.02198467790487",
    "geocoded_column": {
      "latitude": "30.02198467790487",
      "longitude": "-90.07231178728918"
    }
  },
  {
    "service_request": "2021-829868",
    "request_type": "Trash/Recycling",
    "request_reason": "Illegal Dumping",
    "date_created": "2021-10-05T14:45:50.000",
    "date_modified": "2021-10-05T14:45:50.000",
    "request_status": "Pending",
    "responsible_agency": "Department of Sanitation",
    "final_address": "2429 Spain St",
    "address_councildis": "D",
    "status": "Pending",
    "rowid": "829868",
    "final_x": "3685774.87279",
    "final_y": "541417.562508",
    "longitude": "-90.05422296145262",
    "latitude": "29.982580048177546",
    "geocoded_column": {
      "latitude": "29.982580048177546",
      "longitude": "-90.05422296145262"
    }
  },
  {
    "service_request": "2021-829867",
    "request_type": "Roads/Drainage",
    "request_reason": "Alley Way",
    "date_created": "2021-10-05T14:40:36.000",
    "date_modified": "2021-10-05T14:40:36.000",
    "request_status": "Pending",
    "responsible_agency": "Department of Public Works",
    "final_address": "6659 Argonne Blvd",
    "address_councildis": "A",
    "status": "Pending",
    "rowid": "829867",
    "final_x": "3670629.93332",
    "final_y": "551673.831061",
    "longitude": "-90.10171013556065",
    "latitude": "30.01123740475629",
    "geocoded_column": {
      "latitude": "30.01123740475629",
      "longitude": "-90.10171013556065"
    }
  },
  {
    "service_request": "2021-829865",
    "request_type": "Roads/Drainage",
    "request_reason": "Street Flooding / Drainage",
    "date_created": "2021-10-05T14:36:06.000",
    "date_modified": "2021-10-05T14:36:06.000",
    "request_status": "Pending",
    "responsible_agency": "Department of Public Works",
    "final_address": "1421 Cabrini Ct",
    "address_councildis": "D",
    "status": "Pending",
    "rowid": "829865",
    "final_x": "3677955.14997",
    "final_y": "553127.555223",
    "longitude": "-90.07851650623414",
    "latitude": "30.015016093213106",
    "geocoded_column": {
      "latitude": "30.015016093213106",
      "longitude": "-90.07851650623414"
    }
  },
  {
    "service_request": "2021-829864",
    "request_type": "Trash/Recycling",
    "request_reason": "Replace Trash Cart",
    "date_created": "2021-10-05T14:35:42.000",
    "date_modified": "2021-10-05T14:35:43.000",
    "request_status": "Pending",
    "responsible_agency": "Department of Sanitation",
    "final_address": "13157 Laval St",
    "address_councildis": "E",
    "status": "Assigned to Contractor",
    "contractor": "Metro Disposal",
    "rowid": "829864",
    "final_x": "3724411.29638",
    "final_y": "562668.41744",
    "longitude": "-89.93137044638293",
    "latitude": "30.03976891433749",
    "geocoded_column": {
      "latitude": "30.03976891433749",
      "longitude": "-89.93137044638293"
    }
  },
  {
    "service_request": "2021-829863",
    "request_type": "Roads/Drainage",
    "request_reason": "Catch Basin - Clogged",
    "date_created": "2021-10-05T14:33:09.000",
    "date_modified": "2021-10-05T14:33:09.000",
    "request_status": "Pending",
    "responsible_agency": "Department of Public Works",
    "final_address": "1421 Cabrini Ct",
    "address_councildis": "D",
    "status": "Pending",
    "rowid": "829863",
    "final_x": "3677955.14997",
    "final_y": "553127.555223",
    "longitude": "-90.07851650623414",
    "latitude": "30.015016093213106",
    "geocoded_column": {
      "latitude": "30.015016093213106",
      "longitude": "-90.07851650623414"
    }
  },
  {
    "service_request": "2021-829861",
    "request_type": "Trash/Recycling",
    "request_reason": "Missed Trash Pick-Up",
    "date_created": "2021-10-05T14:31:05.000",
    "date_modified": "2021-10-05T14:31:48.000",
    "request_status": "Pending",
    "responsible_agency": "Department of Sanitation",
    "final_address": "900 Mazant St",
    "address_councildis": "C",
    "status": "Assigned to Contractor",
    "contractor": "Metro Disposal",
    "rowid": "829861",
    "final_x": "3691882.95056",
    "final_y": "534483.735877",
    "longitude": "-90.03517880630969",
    "latitude": "29.963325585676944",
    "geocoded_column": {
      "latitude": "29.963325585676944",
      "longitude": "-90.03517880630969"
    }
  },
  {
    "service_request": "2021-829860",
    "request_type": "Trash/Recycling",
    "request_reason": "Illegal Dumping",
    "date_created": "2021-10-05T14:27:05.000",
    "date_modified": "2021-10-05T14:27:05.000",
    "request_status": "Pending",
    "responsible_agency": "Department of Sanitation",
    "final_address": "208 Country Club Dr",
    "address_councildis": "A",
    "status": "Pending",
    "rowid": "829860",
    "final_x": "3665058.77524",
    "final_y": "544285.029839",
    "longitude": "-90.11955903536796",
    "latitude": "29.991084221960687",
    "geocoded_column": {
      "latitude": "29.991084221960687",
      "longitude": "-90.11955903536796"
    }
  },
  {
    "service_request": "2021-829859",
    "request_type": "Traffic Signals/Signs/Striping/Streetlights",
    "request_reason": "Street Light Outage/Malfunction",
    "date_created": "2021-10-05T14:26:26.000",
    "date_modified": "2021-10-05T14:26:27.000",
    "request_status": "Pending",
    "responsible_agency": "Department of Public Works",
    "final_address": "N ROCHEBLAVE ST & ST ROCH AVE",
    "address_councildis": "D",
    "status": "Pending",
    "contractor": "Royal Engineering",
    "rowid": "829859",
    "final_x": "3686064.3",
    "final_y": "541204.18",
    "longitude": "-90.05331633724236",
    "latitude": "29.98198443469543",
    "geocoded_column": {
      "latitude": "29.98198443469543",
      "longitude": "-90.05331633724236"
    }
  },
  {
    "service_request": "2021-829857",
    "request_type": "Roads/Drainage",
    "request_reason": "Pothole",
    "date_created": "2021-10-05T14:23:33.000",
    "date_modified": "2021-10-05T14:23:33.000",
    "request_status": "Pending",
    "responsible_agency": "Department of Public Works",
    "final_address": "3222 Dearmas St",
    "address_councildis": "C",
    "status": "Pending",
    "rowid": "829857",
    "final_x": "3696223.77936",
    "final_y": "527063.60883",
    "longitude": "-90.02173924296885",
    "latitude": "29.942786900652457",
    "geocoded_column": {
      "latitude": "29.942786900652457",
      "longitude": "-90.02173924296885"
    }
  },
  {
    "service_request": "2021-829856",
    "request_type": "Trash/Recycling",
    "request_reason": "Missed Trash Pick-Up",
    "date_created": "2021-10-05T14:23:29.000",
    "date_modified": "2021-10-05T14:23:30.000",
    "request_status": "Pending",
    "responsible_agency": "Department of Sanitation",
    "final_address": "6500 Marshal Foch St",
    "address_councildis": "A",
    "status": "Assigned to Contractor",
    "contractor": "Metro Disposal",
    "rowid": "829856",
    "final_x": "3670050.11162",
    "final_y": "550645.536724",
    "longitude": "-90.10357689922776",
    "latitude": "30.008427080824834",
    "geocoded_column": {
      "latitude": "30.008427080824834",
      "longitude": "-90.10357689922776"
    }
  },