[
  {
    "service_request": "2023-969286",
    "request_type": "Health Related Request",
    "request_reason": "Noise Ordinance Complaint",
    "date_created": "2023-01-22T02:09:27.000",
    "date_modified": "2023-01-22T02:09:27.000",
    "request_status": "Pending",
    "responsible_agency": "Health Department",
    "final_address": "1775 Joseph Guillaume Pl",
    "address_councildis": "C",
    "status": "Pending",
    "rowid": "969286",
    "final_x": "3683462.43785",
    "final_y": "536121.270855",
    "longitude": "-90.06171241725919",
    "latitude": "29.96808786850646",
    "geocoded_column": {
      "latitude": "29.96808786850646",
      "longitude": "-90.06171241725919"
    }
  },
  {
    "service_request": "2023-969285",
    "request_type": "Health Related Request",
    "request_reason": "Noise Ordinance Complaint",
    "date_created": "2023-01-22T02:06:35.000",
    "date_modified": "2023-01-22T02:06:35.000",
    "request_status": "Pending",
    "responsible_agency": "Health Department",
    "final_address": "1775 Joseph Guillaume Pl",
    "address_councildis": "C",
    "status": "Pending",
    "rowid": "969285",
    "final_x": "3683462.43785",
    "final_y": "536121.270855",
    "longitude": "-90.06171241725919",
    "latitude": "29.96808786850646",
    "geocoded_column": {
      "latitude": "29.96808786850646",
      "longitude": "-90.06171241725919"
    }
  },
  {
    "service_request": "2023-969284",
    "request_type": "Health Related Request",
    "request_reason": "Noise Ordinance Complaint",
    "date_created": "2023-01-22T02:03:58.000",
    "date_modified": "2023-01-22T02:03:58.000",
    "request_status": "Pending",
    "responsible_agency": "Health Department",
    "final_address": "1775 Joseph Guillaume Pl",
    "address_councildis": "C",
    "status": "Pending",
    "rowid": "969284",
    "final_x": "3683462.43785",
    "final_y": "536121.270855",
    "longitude": "-90.06171241725919",
    "latitude": "29.96808786850646",
    "geocoded_column": {
      "latitude": "29.96808786850646",
      "longitude": "-90.06171241725919"
    }
  },
  {
    "service_request": "2023-969283",
    "request_type": "Health Related Request",
    "request_reason": "Noise Ordinance Complaint",
    "date_created": "2023-01-22T02:02:25.000",
    "date_modified": "2023-01-22T02:02:25.000",
    "request_status": "Pending",
    "responsible_agency": "Health Department",
    "final_address": "1775 Joseph Guillaume Pl",
    "address_councildis": "C",
    "status": "Pending",
    "rowid": "969283",
    "final_x": "3683462.43785",
    "final_y": "536121.270855",
    "longitude": "-90.06171241725919",
    "latitude": "29.96808786850646",
    "geocoded_column": {
      "latitude": "29.96808786850646",
      "longitude": "-90.06171241725919"
    }
  },
  {
    "service_request": "2023-969282",
    "request_type": "Trash/Recycling",
    "request_reason": "Order Trash Cart",
    "date_created": "2023-01-22T00:58:37.000",
    "date_modified": "2023-01-22T00:58:37.000",
    "request_status": "Pending",
    "responsible_agency": "Department of Sanitation",
    "final_address": "1608 s rampart st",
    "address_councildis": "B",
    "status": "Assigned to Contractor",
    "contractor": "Richards Disposal",
    "rowid": "969282",
    "final_x": "3677567.99483",
    "final_y": "526085.74739",
    "longitude": "-90.08067377508532",
    "latitude": "29.940672097193012",
    "geocoded_column": {
      "latitude": "29.940672097193012",
      "longitude": "-90.08067377508532"
    }
  },
  {
    "service_request": "2023-969281",
    "request_type": "Trash/Recycling",
    "request_reason": "Missed Trash Pick-Up",
    "date_created": "2023-01-21T23:53:21.000",
    "date_modified": "2023-01-21T23:53:21.000",
    "request_status": "Pending",
    "responsible_agency": "Department of Sanitation",
    "final_address": "4137 General Ogden St, New Orleans, Louisiana, 70118",
    "address_councildis": "A",
    "status": "Assigned to Contractor",
    "contractor": "Richards Disposal",
    "rowid": "969281",
    "final_x": "3667022.69581",
    "final_y": "538069.887625",
    "longitude": "-90.11356443502756",
    "latitude": "29.973937331843185",
    "geocoded_column": {
      "latitude": "29.973937331843185",
      "longitude": "-90.11356443502756"
    }
  },
  {
    "service_request": "2023-969280",
    "request_type": "Trash/Recycling",
    "request_reason": "Missed Trash Pick-Up",
    "date_created": "2023-01-21T23:46:44.000",
    "date_modified": "2023-01-21T23:46:45.000",
    "request_status": "Pending",
    "responsible_agency": "Department of Sanitation",
    "final_address": "2824 Calhoun St",
    "address_councildis": "A",
    "status": "Assigned to Contractor",
    "contractor": "Richards Disposal",
    "rowid": "969280",
    "final_x": "3666618.59533",
    "final_y": "527138.943231",
    "longitude": "-90.11520768200867",
    "latitude": "29.943892644482503",
    "geocoded_column": {
      "latitude": "29.943892644482503",
      "longitude": "-90.11520768200867"
    }
  },
  {
    "service_request": "2023-969279",
    "request_type": "Health Related Request",
    "request_reason": "Noise Ordinance Complaint",
    "date_created": "2023-01-21T23:09:31.000",
    "date_modified": "2023-01-21T23:09:31.000",
    "request_status": "Pending",
    "responsible_agency": "Health Department",
    "final_address": "1775 Joseph Guillaume Pl",
    "address_councildis": "C",
    "status": "Pending",
    "rowid": "969279",
    "final_x": "3683462.43785",
    "final_y": "536121.270855",
    "longitude": "-90.06171241725919",
    "latitude": "29.96808786850646",
    "geocoded_column": {
      "latitude": "29.96808786850646",
      "longitude": "-90.06171241725919"
    }
  },
  {
    "service_request": "2023-969277",
    "request_type": "Health Related Request",
    "request_reason": "Noise Ordinance Complaint",
    "date_created": "2023-01-21T22:39:57.000",
    "date_modified": "2023-01-21T22:39:57.000",
    "request_status": "Pending",
    "responsible_agency": "Health Department",
    "final_address": "525 Frenchmen St",
    "address_councildis": "C",
    "status": "Pending",
    "rowid": "969277",
    "final_x": "3684776.90357",
    "final_y": "534376.138501",
    "longitude": "-90.05762264942118",
    "latitude": "29.96324918168695",
    "geocoded_column": {
      "latitude": "29.96324918168695",
      "longitude": "-90.05762264942118"
    }
  },
  {
    "service_request": "2023-969276",
    "request_type": "Health Related Request",
    "request_reason": "Noise Ordinance Complaint",
    "date_created": "2023-01-21T22:24:20.000",
    "date_modified": "2023-01-21T22:24:20.000",
    "request_status": "Pending",
    "responsible_agency": "Health Department",
    "final_address": "1775 Joseph Guillaume Pl",
    "address_councildis": "C",
    "status": "Pending",
    "rowid": "969276",
    "final_x": "3683462.43785",
    "final_y": "536121.270855",
    "longitude": "-90.06171241725919",
    "latitude": "29.96808786850646",
    "geocoded_column": {
      "latitude": "29.96808786850646",
      "longitude": "-90.06171241725919"
    }
  },
  {
    "service_request": "2023-969274",
    "request_type": "Property Maintenance",
    "request_reason": "Property Maintenance",
    "date_created": "2023-01-21T21:54:04.000",
    "date_modified": "2023-01-21T21:54:04.000",
    "request_status": "Pending",
    "responsible_agency": "Department of Code Enforcement",
    "final_address": "3060 St Claude Ave",
    "address_councildis": "C",
    "status": "Pending",
    "rowid": "969274",
    "final_x": "3688926.72828",
    "final_y": "535974.695367",
    "longitude": "-90.0444612363786",
    "latitude": "29.96751696360444",
    "geocoded_column": {
      "latitude": "29.96751696360444",
      "longitude": "-90.0444612363786"
    }
  },
  {
    "service_request": "2023-969273",
    "request_type": "Roads/Drainage",
    "request_reason": "Damaged Sidewalk",
    "date_created": "2023-01-21T21:21:19.000",
    "date_modified": "2023-01-21T21:21:19.000",
    "request_status": "Pending",
    "responsible_agency": "Department of Public Works",
    "final_address": "715 Jena St",
    "address_councildis": "B",
    "status": "Pending",
    "rowid": "969273",
    "final_x": "3670751.81927",
    "final_y": "518188.93631",
    "longitude": "-90.10246147903574",
    "latitude": "29.91916153400933",
    "geocoded_column": {
      "latitude": "29.91916153400933",
      "longitude": "-90.10246147903574"
    }
  },
  {
    "service_request": "2023-969272",
    "request_type": "Health Related Request",
    "request_reason": "Noise Ordinance Complaint",
    "date_created": "2023-01-21T20:59:43.000",
    "date_modified": "2023-01-21T20:59:43.000",
    "request_status": "Pending",
    "responsible_agency": "Health Department",
    "final_address": "1775 Joseph Guillaume Pl",
    "address_councildis": "C",
    "status": "Pending",
    "rowid": "969272",
    "final_x": "3683462.43785",
    "final_y": "536121.270855",
    "longitude": "-90.06171241725919",
    "latitude": "29.96808786850646",
    "geocoded_column": {
      "latitude": "29.96808786850646",
      "longitude": "-90.06171241725919"
    }
  },
  {
    "service_request": "2023-969271",
    "request_type": "Property Maintenance",
    "request_reason": "Property Maintenance",
    "date_created": "2023-01-21T19:51:06.000",
    "date_modified": "2023-01-21T19:51:06.000",
    "request_status": "Pending",
    "responsible_agency": "Department of Code Enforcement",
    "final_address": "232 28Th St",
    "address_councildis": "A",
    "status": "Pending",
    "rowid": "969271",
    "final_x": "3665528.8752",
    "final_y": "550170.05538",
    "longitude": "-90.11787690485842",
    "latitude": "30.007252319739372",
    "geocoded_column": {
      "latitude": "30.007252319739372",
      "longitude": "-90.11787690485842"
    }
  },
  {
    "service_request": "2023-969269",
    "request_type": "Property Maintenance",
    "request_reason": "Property Maintenance",
    "date_created": "2023-01-21T19:36:29.000",
    "date_modified": "2023-01-21T19:36:29.000",
    "request_status": "Pending",
    "responsible_agency": "Department of Code Enforcement",
    "final_address": "232 28Th St",
    "address_councildis": "A",
    "status": "Pending",
    "rowid": "969269",
    "final_x": "3665528.8752",
    "final_y": "550170.05538",
    "longitude": "-90.11787690485842",
    "latitude": "30.007252319739372",
    "geocoded_column": {
      "latitude": "30.007252319739372",
      "longitude": "-90.11787690485842"
    }
  },
  {
    "service_request": "2023-969268",
    "request_type": "Trash/Recycling",
    "request_reason": "Request a Large Item Pick Up",
    "date_created": "2023-01-21T19:30:42.000",
    "date_modified": "2023-01-21T19:30:43.000",
    "request_status": "Pending",
    "responsible_agency": "Department of Sanitation",
    "final_address": "2808 Seine St",
    "address_councildis": "C",
    "status": "Assigned to Contractor",
    "contractor": "Richards Disposal",
    "rowid": "969268",
    "final_x": "3693363.14576",
    "final_y": "521041.724089",
    "longitude": "-90.03098699779967",
    "latitude": "29.926318499274164",
    "geocoded_column": {
      "latitude": "29.926318499274164",
      "longitude": "-90.03098699779967"
    }
  },
  {
    "service_request": "2023-969267",
    "request_type": "Trash/Recycling",
    "request_reason": "Replace Trash Cart",
    "date_created": "2023-01-21T18:11:21.000",
    "date_modified": "2023-01-21T18:11:22.000",
    "request_status": "Pending",
    "responsible_agency": "Department of Sanitation",
    "final_address": "724 Gallier St",
    "address_councildis": "C",
    "status": "Assigned to Contractor",
    "contractor": "IV Waste",
    "rowid": "969267",
    "final_x": "3690107.53014",
    "final_y": "534341.881669",
    "longitude": "-90.04079041892834",
    "latitude": "29.962990723954636",
    "geocoded_column": {
      "latitude": "29.962990723954636",
      "longitude": "-90.04079041892834"
    }
  },
  {
    "service_request": "2023-969266",
    "request_type": "Trash/Recycling",
    "request_reason": "Request a Large Item Pick Up",
    "date_created": "2023-01-21T17:44:24.000",
    "date_modified": "2023-01-21T17:44:25.000",
    "request_status": "Pending",
    "responsible_agency": "Department of Sanitation",
    "final_address": "5626 Chamberlain Dr",
    "address_councildis": "D",
    "status": "Assigned to Contractor",
    "contractor": "IV Waste",
    "rowid": "969266",
    "final_x": "3679316.21967",
    "final_y": "553186.916119",
    "longitude": "-90.07421411261487",
    "latitude": "30.015138260189325",
    "geocoded_column": {
      "latitude": "30.015138260189325",
      "longitude": "-90.07421411261487"
    }
  },
  {
    "service_request": "2023-969265",
    "request_type": "Trash/Recycling",
    "request_reason": "Request a Large Item Pick Up",
    "date_created": "2023-01-21T17:42:11.000",
    "date_modified": "2023-01-21T17:42:12.000",
    "request_status": "Pending",
    "responsible_agency": "Department of Sanitation",
    "final_address": "1834 Cadiz St",
    "address_councildis": "B",
    "status": "Assigned to Contractor",
    "contractor": "Richards Disposal",
    "rowid": "969265",
    "final_x": "3669928.64743",
    "final_y": "521806.13529",
    "longitude": "-90.10493741759906",
    "latitude": "29.92913196971019",
    "geocoded_column": {
      "latitude": "29.92913196971019",
      "longitude": "-90.10493741759906"
    }
  },
  {
    "service_request": "2023-969264",
    "request_type": "Abandoned Vehicles",
    "request_reason": "Abandoned/Junk Vehicles",
    "date_created": "2023-01-21T17:29:41.000",
    "date_modified": "2023-01-21T17:29:41.000",
    "request_status": "Pending",
    "responsible_agency": "Department of Public Works",
    "final_address": "1038 Burdette St",
    "address_councildis": "A",
    "status": "Pending",
    "rowid": "969264",
    "final_x": "3662499.1113",
    "final_y": "527355.789567",
    "longitude": "-90.1282068806243",
    "latitude": "29.944608677815346",
    "geocoded_column": {
      "latitude": "29.944608677815346",
      "longitude": "-90.1282068806243"
    }
  },
  {
    "service_request": "2023-969263",
    "request_type": "Trash/Recycling",
    "request_reason": "Order Recycling Cart",
    "date_created": "2023-01-21T17:15:15.000",
    "date_modified": "2023-01-21T17:15:15.000",
    "request_status": "Pending",
    "responsible_agency": "Department of Sanitation",
    "final_address": "2928 Dublin St",
    "address_councildis": "A",
    "status": "Pending",
    "rowid": "969263",
    "final_x": "3665957.37255",
    "final_y": "533339.25978",
    "longitude": "-90.117087561342",
    "latitude": "29.96096081069353",
    "geocoded_column": {
      "latitude": "29.96096081069353",
      "longitude": "-90.117087561342"
    }
  },
  {
    "service_request": "2023-969262",
    "request_type": "Traffic Signals/Signs/Striping/Streetlights",
    "request_reason": "Street Light Outage/Malfunction",
    "date_created": "2023-01-21T17:09:44.000",
    "date_modified": "2023-01-21T17:09:44.000",
    "request_status": "Pending",
    "responsible_agency": "Department of Public Works",
    "final_address": "857 Wilson Dr",
    "address_councildis": "A",
    "status": "Assigned to Contractor",
    "contractor": "Legacy Professional Services",
    "rowid": "969262",
    "final_x": "3674033.71771",
    "final_y": "539692.351626",
    "longitude": "-90.09136648650885",
    "latitude": "29.97819147504569",
    "geocoded_column": {
      "latitude": "29.97819147504569",
      "longitude": "-90.09136648650885"
    }
  },
  {
    "service_request": "2023-969261",
    "request_type": "Roads/Drainage",
    "request_reason": "Accessibility Ramps, Curbs and Sidewalk Repair",
    "date_created": "2023-01-21T16:40:45.000",
    "date_modified": "2023-01-21T16:40:46.000",
    "request_status": "Pending",
    "responsible_agency": "Department of Public Works",
    "final_address": "8502 Edinburgh St",
    "address_councildis": "A",
    "status": "Pending",
    "rowid": "969261",
    "final_x": "3666365.22727",
    "final_y": "535400.287942",
    "longitude": "-90.11573046797395",
    "latitude": "29.96661604827536",
    "geocoded_column": {
      "latitude": "29.96661604827536",
      "longitude": "-90.11573046797395"
    }
  },
  {
    "service_request": "2023-969260",
    "request_type": "Trash/Recycling",
    "request_reason": "Request a Large Item Pick Up",
    "date_created": "2023-01-21T16:25:36.000",
    "date_modified": "2023-01-21T16:25:37.000",
    "request_status": "Pending",
    "responsible_agency": "Department of Sanitation",
    "final_address": "2637 Milan St",
    "address_councildis": "B",
    "status": "Assigned to Contractor",
    "contractor": "Richards Disposal",
    "rowid": "969260",
    "final_x": "3671265.52385",
    "final_y": "524732.00998",
    "longitude": "-90.10061778106343",
    "latitude": "29.937137706280648",
    "geocoded_column": {
      "latitude": "29.937137706280648",
      "longitude": "-90.10061778106343"
    }
  },
  {
    "service_request": "2023-969258",
    "request_type": "Abandoned Vehicles",
    "request_reason": "Abandoned/Junk Vehicles",
    "date_created": "2023-01-21T16:15:08.000",
    "date_modified": "2023-01-21T16:15:08.000",
    "request_status": "Pending",
    "responsible_agency": "Department of Public Works",
    "final_address": "2828 N Prieur St",
    "address_councildis": "D",
    "status": "Pending",
    "rowid": "969258",
    "final_x": "3688556.41583",
    "final_y": "539266.34465",
    "longitude": "-90.0455138560408",
    "latitude": "29.976579290251912",
    "geocoded_column": {
      "latitude": "29.976579290251912",
      "longitude": "-90.0455138560408"
    }
  },
  {
    "service_request": "2023-969257",
    "request_type": "Trash/Recycling",
    "request_reason": "Replace Trash Cart",
    "date_created": "2023-01-21T16:03:55.000",
    "date_modified": "2023-01-21T16:03:55.000",
    "request_status": "Pending",
    "responsible_agency": "Department of Sanitation",
    "final_address": "839 Sixth St",
    "address_councildis": "B",
    "status": "Assigned to Contractor",
    "contractor": "Richards Disposal",
    "rowid": "969257",
    "final_x": "3677080.40558",
    "final_y": "519909.853432",
    "longitude": "-90.082426041127",
    "latitude": "29.9237050544991",
    "geocoded_column": {
      "latitude": "29.9237050544991",
      "longitude": "-90.082426041127"
    }
  },
  {
    "service_request": "2023-969256",
    "request_type": "Traffic Signals/Signs/Striping/Streetlights",
    "request_reason": "Traffic Signal Malfunctioning/Damaged",
    "date_created": "2023-01-21T16:02:13.000",
    "date_modified": "2023-01-21T16:02:13.000",
    "request_status": "Pending",
    "responsible_agency": "Department of Public Works",
    "final_address": "1111 Tulane Ave Apt 201",
    "address_councildis": "B",
    "status": "Pending",
    "rowid": "969256",
    "final_x": "3679567.70651",
    "final_y": "531148.936002",
    "longitude": "-90.07418468341419",
    "latitude": "29.95453390956217",
    "geocoded_column": {
      "latitude": "29.95453390956217",
      "longitude": "-90.07418468341419"
    }
  },
  {
    "service_request": "2023-969255",
    "request_type": "Trash/Recycling",
    "request_reason": "Request a Large Item Pick Up",
    "date_created": "2023-01-21T15:58:29.000",
    "date_modified": "2023-01-21T15:58:30.000",
    "request_status": "Pending",
    "responsible_agency": "Department of Sanitation",
    "final_address": "4536 S Rocheblave St",
    "address_councildis": "B",
    "status": "Assigned to Contractor",
    "contractor": "Richards Disposal",
    "rowid": "969255",
    "final_x": "3669431.61671",
    "final_y": "528374.774784",
    "longitude": "-90.10628439622268",
    "latitude": "29.94720825105329",
    "geocoded_column": {
      "latitude": "29.94720825105329",
      "longitude": "-90.10628439622268"
    }
  },
  {
    "service_request": "2023-969254",
    "request_type": "Trash/Recycling",
    "request_reason": "Damaged Caused By Contractor",
    "date_created": "2023-01-21T15:40:02.000",
    "date_modified": "2023-01-21T15:40:03.000",
    "request_status": "Pending",
    "responsible_agency": "Department of Sanitation",
    "final_address": "1344 Farragut St",
    "address_councildis": "C",
    "status": "Assigned to Contractor",
    "contractor": "Richards Disposal",
    "rowid": "969254",
    "final_x": "3692406.36982",
    "final_y": "526224.54675",
    "longitude": "-90.03382170785588",
    "latitude": "29.940599365755567",
    "geocoded_column": {
      "latitude": "29.940599365755567",
      "longitude": "-90.03382170785588"
    }
  },
  {
    "service_request": "2023-969253",
    "request_type": "Trash/Recycling",
    "request_reason": "Order Recycling Cart",
    "date_created": "2023-01-21T15:38:01.000",
    "date_modified": "2023-01-21T15:38:01.000",
    "request_status": "Pending",
    "responsible_agency": "Department of Sanitation",
    "final_address": "315 Audubon St",
    "address_councildis": "A",
    "status": "Pending",
    "rowid": "969253",
    "final_x": "3661649.84838",
    "final_y": "522136.685498",
    "longitude": "-90.13106116679486",
    "latitude": "29.93028232433891",
    "geocoded_column": {
      "latitude": "29.93028232433891",
      "longitude": "-90.13106116679486"
    }
  },
  {
    "service_request": "2023-969252",
    "request_type": "Roads/Drainage",
    "request_reason": "Pothole",
    "date_created": "2023-01-21T15:37:32.000",
    "date_modified": "2023-01-21T15:37:32.000",
    "request_status": "Pending",
    "responsible_agency": "Department of Public Works",
    "final_address": "8318 Nelson St",
    "address_councildis": "A",
    "status": "Pending",
    "rowid": "969252",
    "final_x": "3664418.82208",
    "final_y": "532434.518339",
    "longitude": "-90.12197624076919",
    "latitude": "29.958517882026573",
    "geocoded_column": {
      "latitude": "29.958517882026573",
      "longitude": "-90.12197624076919"
    }
  },
  {
    "service_request": "2023-969251",
    "request_type": "Trash/Recycling",
    "request_reason": "Missed Trash Pick-Up",
    "date_created": "2023-01-21T15:34:32.000",
    "date_modified": "2023-01-21T15:34:33.000",
    "request_status": "Pending",
    "responsible_agency": "Department of Sanitation",
    "final_address": "8318 Nelson St",
    "address_councildis": "A",
    "status": "Assigned to Contractor",
    "contractor": "Richards Disposal",
    "rowid": "969251",
    "final_x": "3664418.82208",
    "final_y": "532434.518339",
    "longitude": "-90.12197624076919",
    "latitude": "29.958517882026573",
    "geocoded_column": {
      "latitude": "29.958517882026573",
      "longitude": "-90.12197624076919"
    }
  },
  {
    "service_request": "2023-969250",
    "request_type": "Traffic Signals/Signs/Striping/Streetlights",
    "request_reason": "Street Light Outage/Malfunction",
    "date_created": "2023-01-21T15:31:26.000",
    "date_modified": "2023-01-21T15:31:26.000",
    "request_status": "Pending",
    "responsible_agency": "Department of Public Works",
    "final_address": "FRERET ST & NAPOLEON AVE",
    "address_councildis": "B",
    "status": "Assigned to Contractor",
    "contractor": "Legacy Professional Services",
    "rowid": "969250",
    "final_x": "3670492.0",
    "final_y": "524033.18",
    "longitude": "-90.10308353572401",
    "latitude": "29.935239008691006",
    "geocoded_column": {
      "latitude": "29.935239008691006",
      "longitude": "-90.10308353572401"
    }
  },
  {
    "service_request": "2023-969249",
    "request_type": "Taxi Issues",
    "request_reason": "Taxi Complaint",
    "date_created": "2023-01-21T15:27:13.000",
    "date_modified": "2023-01-21T15:27:14.000",
    "request_status": "Pending",
    "responsible_agency": "Ground Transportation Bureau",
    "final_address": "CONVENTION CENTER BLVD & POYDRAS ST",
    "address_councildis": "B",
    "status": "Pending",
    "rowid": "969249",
    "final_x": "3682750.2",
    "final_y": "528853.18",
    "longitude": "-90.06421591259999",
    "latitude": "29.94812481281751",
    "geocoded_column": {
      "latitude": "29.94812481281751",
      "longitude": "-90.06421591259999"
    }
  },
  {
    "service_request": "2023-969248",
    "request_type": "Trash/Recycling",
    "request_reason": "Request a Large Item Pick Up",
    "date_created": "2023-01-21T15:03:33.000",
    "date_modified": "2023-01-21T15:03:34.000",
    "request_status": "Pending",
    "responsible_agency": "Department of Sanitation",
    "final_address": "2429 Napoleon Ave",
    "address_councildis": "B",
    "status": "Assigned to Contractor",
    "contractor": "Richards Disposal",
    "rowid": "969248",
    "final_x": "3670642.07444",
    "final_y": "523952.882172",
    "longitude": "-90.10261247242894",
    "latitude": "29.935013784163818",
    "geocoded_column": {
      "latitude": "29.935013784163818",
      "longitude": "-90.10261247242894"
    }
  },
  {
    "service_request": "2023-969247",
    "request_type": "Abandoned Vehicles",
    "request_reason": "Vehicle Blocking Your Driveway",
    "date_created": "2023-01-21T14:55:18.000",
    "date_modified": "2023-01-21T14:55:18.000",
    "request_status": "Pending",
    "responsible_agency": "Department of Public Works",
    "final_address": "2226 Columbus St",
    "address_councildis": "D",
    "status": "Pending",
    "rowid": "969247",
    "final_x": "3679832.56027",
    "final_y": "538598.424265",
    "longitude": "-90.0730896676768",
    "latitude": "29.975009454434094",
    "geocoded_column": {
      "latitude": "29.975009454434094",
      "longitude": "-90.0730896676768"
    }
  },
  {
    "service_request": "2023-969246",
    "request_type": "Traffic Signals/Signs/Striping/Streetlights",
    "request_reason": "Street Light Outage/Malfunction",
    "date_created": "2023-01-21T14:45:25.000",
    "date_modified": "2023-01-21T14:45:26.000",
    "request_status": "Pending",
    "responsible_agency": "Department of Public Works",
    "final_address": "319 Olivier St",
    "address_councildis": "C",
    "status": "Assigned to Contractor",
    "contractor": "Legacy Professional Services",
    "rowid": "969246",
    "final_x": "3687193.53577",
    "final_y": "530607.36237",
    "longitude": "-90.05012450216239",
    "latitude": "29.952812145183373",
    "geocoded_column": {
      "latitude": "29.952812145183373",
      "longitude": "-90.05012450216239"
    }
  },
  {
    "service_request": "2023-969245",
    "request_type": "Abandoned Vehicles",
    "request_reason": "Abandoned/Junk Vehicles",
    "date_created": "2023-01-21T14:37:59.000",
    "date_modified": "2023-01-21T14:37:59.000",
    "request_status": "Pending",
    "responsible_agency": "Department of Public Works",
    "final_address": "1038 Burdette St",
    "address_councildis": "A",
    "status": "Pending",
    "rowid": "969245",
    "final_x": "3662499.1113",
    "final_y": "527355.789567",
    "longitude": "-90.1282068806243",
    "latitude": "29.944608677815346",
    "geocoded_column": {
      "latitude": "29.944608677815346",
      "longitude": "-90.1282068806243"
    }
  },
  {
    "service_request": "2023-969244",
    "request_type": "Trash/Recycling",
    "request_reason": "Missed Trash Pick-Up",
    "date_created": "2023-01-21T14:36:49.000",
    "date_modified": "2023-01-21T14:36:50.000",
    "request_status": "Pending",
    "responsible_agency": "Department of Sanitation",
    "final_address": "100 Finland Pl",
    "address_councildis": "C",
    "status": "Assigned to Contractor",
    "contractor": "Richards Disposal",
    "rowid": "969244",
    "final_x": "3705692.30987",
    "final_y": "520839.658809",
    "longitude": "-89.99207510392958",
    "latitude": "29.92537181759368",
    "geocoded_column": {
      "latitude": "29.92537181759368",
      "longitude": "-89.99207510392958"
    }
  },
  {
    "service_request": "2023-969243",
    "request_type": "Trash/Recycling",
    "request_reason": "Request a Large Item Pick Up",
    "date_created": "2023-01-21T14:34:04.000",
    "date_modified": "2023-01-21T14:34:05.000",
    "request_status": "Pending",
    "responsible_agency": "Department of Sanitation",
    "final_address": "2401 Nashville Ave",
    "address_councildis": "A",
    "status": "Assigned to Contractor",
    "contractor": "Richards Disposal",
    "rowid": "969243",
    "final_x": "3667135.09684",
    "final_y": "524889.891708",
    "longitude": "-90.11365252468843",
    "latitude": "29.93769336825969",
    "geocoded_column": {
      "latitude": "29.93769336825969",
      "longitude": "-90.11365252468843"
    }
  },
  {
    "service_request": "2023-969242",
    "request_type": "Trash/Recycling",
    "request_reason": "Return Recycling Cart",
    "date_created": "2023-01-21T14:26:21.000",
    "date_modified": "2023-01-21T14:26:21.000",
    "request_status": "Pending",
    "responsible_agency": "Department of Sanitation",
    "final_address": "6617 Congress Dr",
    "address_councildis": "D",
    "status": "Pending",
    "rowid": "969242",
    "final_x": "3690699.50889",
    "final_y": "558055.039579",
    "longitude": "-90.03807454998797",
    "latitude": "30.028174924282492",
    "geocoded_column": {
      "latitude": "30.028174924282492",
      "longitude": "-90.03807454998797"
    }
  },
  {
    "service_request": "2023-969241",
    "request_type": "Property Maintenance",
    "request_reason": "Property Maintenance",
    "date_created": "2023-01-21T14:24:33.000",
    "date_modified": "2023-01-21T14:24:33.000",
    "request_status": "Pending",
    "responsible_agency": "Department of Code Enforcement",
    "final_address": "1443 N Roman St",
    "address_councildis": "D",
    "status": "Pending",
    "rowid": "969241",
    "final_x": "3680930.1604",
    "final_y": "537387.672392",
    "longitude": "-90.06966533643815",
    "latitude": "29.971647066052427",
    "geocoded_column": {
      "latitude": "29.971647066052427",
      "longitude": "-90.06966533643815"
    }
  },
  {
    "service_request": "2023-969240",
    "request_type": "Abandoned Vehicles",
    "request_reason": "Vehicle Blocking Your Driveway",
    "date_created": "2023-01-21T14:13:19.000",
    "date_modified": "2023-01-21T14:13:19.000",
    "request_status": "Pending",
    "responsible_agency": "Department of Public Works",
    "final_address": "2538 Dante St",
    "address_councildis": "A",
    "status": "Pending",
    "rowid": "969240",
    "final_x": "3664761.85863",
    "final_y": "532586.65178",
    "longitude": "-90.12088793419706",
    "latitude": "29.958926223163616",
    "geocoded_column": {
      "latitude": "29.958926223163616",
      "longitude": "-90.12088793419706"
    }
  },
  {
    "service_request": "2023-969239",
    "request_type": "Trash/Recycling",
    "request_reason": "Request a Large Item Pick Up",
    "date_created": "2023-01-21T14:12:48.000",
    "date_modified": "2023-01-21T14:12:48.000",
    "request_status": "Pending",
    "responsible_agency": "Department of Sanitation",
    "final_address": "7941 Unity Dr",
    "address_councildis": "E",
    "status": "Assigned to Contractor",
    "contractor": "Waste Pro",
    "rowid": "969239",
    "final_x": "3711534.11826",
    "final_y": "567910.033829",
    "longitude": "-89.97186906630677",
    "latitude": "30.054608170946572",
    "geocoded_column": {
      "latitude": "30.054608170946572",
      "longitude": "-89.97186906630677"
    }
  },
  {
    "service_request": "2023-969238",
    "request_type": "Trash/Recycling",
    "request_reason": "Order Recycling Cart",
    "date_created": "2023-01-21T14:11:56.000",
    "date_modified": "2023-01-21T14:11:57.000",
    "request_status": "Pending",
    "responsible_agency": "Department of Sanitation",
    "final_address": "7941 Unity Dr",
    "address_councildis": "E",
    "status": "Pending",
    "rowid": "969238",
    "final_x": "3711534.11826",
    "final_y": "567910.033829",
    "longitude": "-89.97186906630677",
    "latitude": "30.054608170946572",
    "geocoded_column": {
      "latitude": "30.054608170946572",
      "longitude": "-89.97186906630677"
    }
  },
  {
    "service_request": "2023-969237",
    "request_type": "Trash/Recycling",
    "request_reason": "MIssed Recycling Pick-Up",
    "date_created": "2023-01-21T14:10:55.000",
    "date_modified": "2023-01-21T14:10:55.000",
    "request_status": "Pending",
    "responsible_agency": "Department of Sanitation",
    "final_address": "7941 Unity Dr",
    "address_councildis": "E",
    "status": "Assigned to Contractor",
    "contractor": "Waste Pro",
    "rowid": "969237",
    "final_x": "3711534.11826",
    "final_y": "567910.033829",
    "longitude": "-89.97186906630677",
    "latitude": "30.054608170946572",
    "geocoded_column": {
      "latitude": "30.054608170946572",
      "longitude": "-89.97186906630677"
    }
  },
  {
    "service_request": "2023-969236",
    "request_type": "Safety & Permits",
    "request_reason": "Licenses & Permits",
    "date_created": "2023-01-21T14:10:44.000",
    "date_modified": "2023-01-21T14:10:44.000",
    "request_status": "Pending",
    "responsible_agency": "Safety and Permits",
    "final_address": "1623 Pine St",
    "address_councildis": "A",
    "status": "Pending",
    "rowid": "969236",
    "final_x": "3664923.2354",
    "final_y": "528009.568575",
    "longitude": "-90.1205313240945",
    "latitude": "29.946336032955024",
    "geocoded_column": {
      "latitude": "29.946336032955024",
      "longitude": "-90.1205313240945"
    }
  },
  {
    "service_request": "2023-969235",
    "request_type": "Traffic Signals/Signs/Striping/Streetlights",
    "request_reason": "Traffic Sign Missing/Damaged",
    "date_created": "2023-01-21T13:59:44.000",
    "date_modified": "2023-01-21T13:59:44.000",
    "request_status": "Pending",
    "responsible_agency": "Department of Public Works",
    "final_address": "2200 Royal St",
    "address_councildis": "C",
    "status": "Pending",
    "rowid": "969235",
    "final_x": "3685225.28021",
    "final_y": "534850.911046",
    "longitude": "-90.05619001924795",
    "latitude": "29.964540908372264",
    "geocoded_column": {
      "latitude": "29.964540908372264",
      "longitude": "-90.05619001924795"
    }
  },
  {
    "service_request": "2023-969231",
    "request_type": "Traffic Signals/Signs/Striping/Streetlights",
    "request_reason": "Traffic Signal Malfunctioning/Damaged",
    "date_created": "2023-01-21T13:50:07.000",
    "date_modified": "2023-01-21T13:50:07.000",
    "request_status": "Pending",
    "responsible_agency": "Department of Public Works",
    "final_address": "4201 Woodland Dr, New Orleans, Louisiana, 70131",
    "address_councildis": "C",
    "status": "Pending",
    "rowid": "969231",
    "final_x": "3705279.9571",
    "final_y": "515277.967988",
    "longitude": "-89.99358203754556",
    "latitude": "29.910092356057415",
    "geocoded_column": {
      "latitude": "29.910092356057415",
      "longitude": "-89.99358203754556"
    }
  },
  {
    "service_request": "2023-969230",
    "request_type": "Abandoned Vehicles",
    "request_reason": "Abandoned/Junk Vehicles",
    "date_created": "2023-01-21T13:44:26.000",
    "date_modified": "2023-01-21T13:44:26.000",
    "request_status": "Pending",
    "responsible_agency": "Department of Public Works",
    "final_address": "516 Natchez St",
    "address_councildis": "B",
    "status": "Pending",
    "rowid": "969230",
    "final_x": "3681417.12674",
    "final_y": "529426.442433",
    "longitude": "-90.06840498281659",
    "latitude": "29.949741622903225",
    "geocoded_column": {
      "latitude": "29.949741622903225",
      "longitude": "-90.06840498281659"
    }
  },
  {
    "service_request": "2023-969229",
    "request_type": "Trash/Recycling",
    "request_reason": "Missed Trash Pick-Up",
    "date_created": "2023-01-21T13:41:59.000",
    "date_modified": "2023-01-21T15:09:43.000",
    "request_status": "Pending",
    "responsible_agency": "Department of Sanitation",
    "final_address": "5542 Chatham Dr",
    "address_councildis": "D",
    "status": "Assigned to Contractor",
    "contractor": "IV Waste",
    "rowid": "969229",
    "final_x": "3679641.27439",
    "final_y": "552916.108375",
    "longitude": "-90.07319650292024",
    "latitude": "30.014383811412316",
    "geocoded_column": {
      "latitude": "30.014383811412316",
      "longitude": "-90.07319650292024"
    }
  },
  {
    "service_request": "2023-969228",
    "request_type": "Trash/Recycling",
    "request_reason": "Order Recycling Cart",
    "date_created": "2023-01-21T13:39:38.000",
    "date_modified": "2023-01-21T13:39:39.000",
    "request_status": "Pending",
    "responsible_agency": "Department of Sanitation",
    "final_address": "1229 Port St",
    "address_councildis": "C",
    "status": "Pending",
    "rowid": "969228",
    "final_x": "3687603.32514",
    "final_y": "536977.485768",
    "longitude": "-90.04860505280467",
    "latitude": "29.97031515176961",
    "geocoded_column": {
      "latitude": "29.97031515176961",
      "longitude": "-90.04860505280467"
    }
  },
  {
    "service_request": "2023-969227",
    "request_type": "Trash/Recycling",
    "request_reason": "Request a Large Item Pick Up",
    "date_created": "2023-01-21T13:18:47.000",
    "date_modified": "2023-01-21T13:18:48.000",
    "request_status": "Pending",
    "responsible_agency": "Department of Sanitation",
    "final_address": "718 Aline St",
    "address_councildis": "B",
    "status": "Assigned to Contractor",
    "contractor": "Richards Disposal",
    "rowid": "969227",
    "final_x": "3674890.23758",
    "final_y": "518012.458998",
    "longitude": "-90.08940463061303",
    "latitude": "29.918553391632983",
    "geocoded_column": {
      "latitude": "29.918553391632983",
      "longitude": "-90.08940463061303"
    }
  },
  {
    "service_request": "2023-969226",
    "request_type": "Traffic Signals/Signs/Striping/Streetlights",
    "request_reason": "Street Light Outage/Malfunction",
    "date_created": "2023-01-21T13:08:23.000",
    "date_modified": "2023-01-21T13:10:07.000",
    "request_status": "Pending",
    "responsible_agency": "Department of Public Works",
    "final_address": "1310 Soniat",
    "address_councildis": "B",
    "status": "Assigned to Contractor",
    "contractor": "Legacy Professional Services",
    "rowid": "969226",
    "final_x": "3668302.02458",
    "final_y": "520000.793592",
    "longitude": "-90.11013320588135",
    "latitude": "29.924215702412432",
    "geocoded_column": {
      "latitude": "29.924215702412432",
      "longitude": "-90.11013320588135"
    }
  },
  {
    "service_request": "2023-969225",
    "request_type": "Trash/Recycling",
    "request_reason": "Request a Large Item Pick Up",
    "date_created": "2023-01-21T13:01:11.000",
    "date_modified": "2023-01-21T13:01:12.000",
    "request_status": "Pending",
    "responsible_agency": "Department of Sanitation",
    "final_address": "1108 General Taylor St",
    "address_councildis": "B",
    "status": "Assigned to Contractor",
    "contractor": "Richards Disposal",
    "rowid": "969225",
    "final_x": "3672889.85",
    "final_y": "519801.804984",
    "longitude": "-90.09565780188899",
    "latitude": "29.923533083045537",
    "geocoded_column": {
      "latitude": "29.923533083045537",
      "longitude": "-90.09565780188899"
    }
  },
  {
    "service_request": "2023-969224",
    "request_type": "Trash/Recycling",
    "request_reason": "Missed Trash Pick-Up",
    "date_created": "2023-01-21T12:57:31.000",
    "date_modified": "2023-01-21T12:57:32.000",
    "request_status": "Pending",
    "responsible_agency": "Department of Sanitation",
    "final_address": "9019 Dixon St",
    "address_councildis": "A",
    "status": "Assigned to Contractor",
    "contractor": "Richards Disposal",
    "rowid": "969224",
    "final_x": "3665973.16596",
    "final_y": "537746.938184",
    "longitude": "-90.11688992588546",
    "latitude": "29.97308000721843",
    "geocoded_column": {
      "latitude": "29.97308000721843",
      "longitude": "-90.11688992588546"
    }
  },
  {
    "service_request": "2023-969223",
    "request_type": "Trash/Recycling",
    "request_reason": "Order Recycling Cart",
    "date_created": "2023-01-21T12:54:56.000",
    "date_modified": "2023-01-21T12:54:56.000",
    "request_status": "Pending",
    "responsible_agency": "Department of Sanitation",
    "final_address": "7601 Mackenzie St",
    "address_councildis": "E",
    "status": "Pending",
    "rowid": "969223",
    "final_x": "3711190.53649",
    "final_y": "565901.213155",
    "longitude": "-89.973030419559",
    "latitude": "30.049095949592893",
    "geocoded_column": {
      "latitude": "30.049095949592893",
      "longitude": "-89.973030419559"
    }
  },
  {
    "service_request": "2023-969222",
    "request_type": "Trash/Recycling",
    "request_reason": "Replace Recycling Cart",
    "date_created": "2023-01-21T12:37:27.000",
    "date_modified": "2023-01-21T12:37:28.000",
    "request_status": "Pending",
    "responsible_agency": "Department of Sanitation",
    "final_address": "1121 Pine St",
    "address_councildis": "A",
    "status": "Pending",
    "rowid": "969222",
    "final_x": "3663857.45754",
    "final_y": "526498.999358",
    "longitude": "-90.12394671232508",
    "latitude": "29.942213426520443",
    "geocoded_column": {
      "latitude": "29.942213426520443",
      "longitude": "-90.12394671232508"
    }
  },
  {
    "service_request": "2023-969221",
    "request_type": "Trash/Recycling",
    "request_reason": "Replace Trash Cart",
    "date_created": "2023-01-21T12:24:13.000",
    "date_modified": "2023-01-21T12:24:14.000",
    "request_status": "Pending",
    "responsible_agency": "Department of Sanitation",
    "final_address": "529 Patterson St Apt D",
    "address_councildis": "C",
    "status": "Assigned to Contractor",
    "contractor": "Richards Disposal",
    "rowid": "969221",
    "final_x": "3687032.15471",
    "final_y": "531357.97741",
    "longitude": "-90.05060753805492",
    "latitude": "29.95488104742321",
    "geocoded_column": {
      "latitude": "29.95488104742321",
      "longitude": "-90.05060753805492"
    }
  },
  {
    "service_request": "2023-969220",
    "request_type": "Trash/Recycling",
    "request_reason": "Replace Trash Cart",
    "date_created": "2023-01-21T12:23:42.000",
    "date_modified": "2023-01-21T12:23:43.000",
    "request_status": "Pending",
    "responsible_agency": "Department of Sanitation",
    "final_address": "529 Patterson St Apt C",
    "address_councildis": "C",
    "status": "Assigned to Contractor",
    "contractor": "Richards Disposal",
    "rowid": "969220",
    "final_x": "3687032.15471",
    "final_y": "531364.435714",
    "longitude": "-90.05060730976443",
    "latitude": "29.95489880554071",
    "geocoded_column": {
      "latitude": "29.95489880554071",
      "longitude": "-90.05060730976443"
    }
  },
  {
    "service_request": "2023-969219",
    "request_type": "Trash/Recycling",
    "request_reason": "Missed Trash Pick-Up",
    "date_created": "2023-01-21T12:20:16.000",
    "date_modified": "2023-01-21T12:20:17.000",
    "request_status": "Pending",
    "responsible_agency": "Department of Sanitation",
    "final_address": "525 Madison St",
    "address_councildis": "C",
    "status": "Assigned to Contractor",
    "contractor": "Empire Services",
    "rowid": "969219",
    "final_x": "3683351.15215",
    "final_y": "532619.923588",
    "longitude": "-90.06218652726542",
    "latitude": "29.95846376214642",
    "geocoded_column": {
      "latitude": "29.95846376214642",
      "longitude": "-90.06218652726542"
    }
  },
  {
    "service_request": "2023-969218",
    "request_type": "Trash/Recycling",
    "request_reason": "Missed Trash Pick-Up",
    "date_created": "2023-01-21T12:17:54.000",
    "date_modified": "2023-01-21T12:17:55.000",
    "request_status": "Pending",
    "responsible_agency": "Department of Sanitation",
    "final_address": "3320 N Tonti St",
    "address_councildis": "D",
    "status": "Assigned to Contractor",
    "contractor": "IV Waste",
    "rowid": "969218",
    "final_x": "3691136.89244",
    "final_y": "540225.649995",
    "longitude": "-90.03732967988714",
    "latitude": "29.979137040180575",
    "geocoded_column": {
      "latitude": "29.979137040180575",
      "longitude": "-90.03732967988714"
    }
  },
  {
    "service_request": "2023-969217",
    "request_type": "Roads/Drainage",
    "request_reason": "Street Subsidence (Sinking)",
    "date_created": "2023-01-21T12:13:18.000",
    "date_modified": "2023-01-21T12:13:18.000",
    "request_status": "Pending",
    "responsible_agency": "Department of Public Works",
    "final_address": "6601 Franklin Ave",
    "address_councildis": "D",
    "status": "Pending",
    "rowid": "969217",
    "final_x": "3686519.5773",
    "final_y": "557735.051611",
    "longitude": "-90.05129417201006",
    "latitude": "30.027424334336786",
    "geocoded_column": {
      "latitude": "30.027424334336786",
      "longitude": "-90.05129417201006"
    }
  },
  {
    "service_request": "2023-969216",
    "request_type": "Trash/Recycling",
    "request_reason": "MIssed Recycling Pick-Up",
    "date_created": "2023-01-21T11:53:20.000",
    "date_modified": "2023-01-21T11:53:20.000",
    "request_status": "Pending",
    "responsible_agency": "Department of Sanitation",
    "final_address": "1122 Euterpe St",
    "address_councildis": "B",
    "status": "Assigned to Contractor",
    "contractor": "Richards Disposal",
    "rowid": "969216",
    "final_x": "3680089.17659",
    "final_y": "524223.559932",
    "longitude": "-90.07277865373844",
    "latitude": "29.935475671146516",
    "geocoded_column": {
      "latitude": "29.935475671146516",
      "longitude": "-90.07277865373844"
    }
  },
  {
    "service_request": "2023-969215",
    "request_type": "Trash/Recycling",
    "request_reason": "Request a Large Item Pick Up",
    "date_created": "2023-01-21T11:44:22.000",
    "date_modified": "2023-01-21T11:44:23.000",
    "request_status": "Pending",
    "responsible_agency": "Department of Sanitation",
    "final_address": "856 Wilson Dr",
    "address_councildis": "A",
    "status": "Assigned to Contractor",
    "contractor": "Richards Disposal",
    "rowid": "969215",
    "final_x": "3674102.72449",
    "final_y": "539647.193802",
    "longitude": "-90.09115008421188",
    "latitude": "29.978065249657107",
    "geocoded_column": {
      "latitude": "29.978065249657107",
      "longitude": "-90.09115008421188"
    }
  },
  {
    "service_request": "2023-969213",
    "request_type": "Abandoned Vehicles",
    "request_reason": "Abandoned/Junk Vehicles",
    "date_created": "2023-01-21T11:37:01.000",
    "date_modified": "2023-01-21T11:37:02.000",
    "request_status": "Pending",
    "responsible_agency": "Department of Public Works",
    "final_address": "1823 Charbonnet St",
    "address_councildis": "E",
    "status": "Pending",
    "rowid": "969213",
    "final_x": "3699411.6986",
    "final_y": "536401.612615",
    "longitude": "-90.01133413950939",
    "latitude": "29.968362379128482",
    "geocoded_column": {
      "latitude": "29.968362379128482",
      "longitude": "-90.01133413950939"
    }
  },
  {
    "service_request": "2023-969212",
    "request_type": "Trash/Recycling",
    "request_reason": "Request a Large Item Pick Up",
    "date_created": "2023-01-21T11:30:25.000",
    "date_modified": "2023-01-21T11:30:26.000",
    "request_status": "Pending",
    "responsible_agency": "Department of Sanitation",
    "final_address": "4907 Music St",
    "address_councildis": "D",
    "status": "Assigned to Contractor",
    "contractor": "IV Waste",
    "rowid": "969212",
    "final_x": "3685652.36252",
    "final_y": "550939.132053",
    "longitude": "-90.0542742060209",
    "latitude": "30.008764709076527",
    "geocoded_column": {
      "latitude": "30.008764709076527",
      "longitude": "-90.0542742060209"
    }
  },
  {
    "service_request": "2023-969211",
    "request_type": "Trash/Recycling",
    "request_reason": "Order Trash Cart",
    "date_created": "2023-01-21T11:17:24.000",
    "date_modified": "2023-01-21T11:17:25.000",
    "request_status": "Pending",
    "responsible_agency": "Department of Sanitation",
    "final_address": "4142 Mirabeau Ave",
    "address_councildis": "D",
    "status": "Assigned to Contractor",
    "contractor": "IV Waste",
    "rowid": "969211",
    "final_x": "3689351.83279",
    "final_y": "551163.465045",
    "longitude": "-90.04257842492136",
    "latitude": "30.00926747501277",
    "geocoded_column": {
      "latitude": "30.00926747501277",
      "longitude": "-90.04257842492136"
    }
  },
  {
    "service_request": "2023-969210",
    "request_type": "Traffic Signals/Signs/Striping/Streetlights",
    "request_reason": "Request for Stop Sign",
    "date_created": "2023-01-21T11:16:27.000",
    "date_modified": "2023-01-21T11:16:27.000",
    "request_status": "Pending",
    "responsible_agency": "Department of Public Works",
    "final_address": "5323 Cartier Ave",
    "address_councildis": "D",
    "status": "Pending",
    "rowid": "969210",
    "final_x": "3677747.75579",
    "final_y": "551683.414805",
    "longitude": "-90.07922171287423",
    "latitude": "30.011051469397568",
    "geocoded_column": {
      "latitude": "30.011051469397568",
      "longitude": "-90.07922171287423"
    }
  },
  {
    "service_request": "2023-969208",
    "request_type": "Trash/Recycling",
    "request_reason": "Request a Large Item Pick Up",
    "date_created": "2023-01-21T11:09:37.000",
    "date_modified": "2023-01-21T11:09:38.000",
    "request_status": "Pending",
    "responsible_agency": "Department of Sanitation",
    "final_address": "4308 Dreux Ave",
    "address_councildis": "D",
    "status": "Assigned to Contractor",
    "contractor": "IV Waste",
    "rowid": "969208",
    "final_x": "3689777.84572",
    "final_y": "552663.512918",
    "longitude": "-90.04117906556934",
    "latitude": "30.0133788513177",
    "geocoded_column": {
      "latitude": "30.0133788513177",
      "longitude": "-90.04117906556934"
    }
  },
  {
    "service_request": "2023-969207",
    "request_type": "Trash/Recycling",
    "request_reason": "Request a Large Item Pick Up",
    "date_created": "2023-01-21T11:06:46.000",
    "date_modified": "2023-01-21T11:06:47.000",
    "request_status": "Pending",
    "responsible_agency": "Department of Sanitation",
    "final_address": "21 Cypress Point Ct",
    "address_councildis": "E",
    "status": "Assigned to Contractor",
    "contractor": "Waste Pro",
    "rowid": "969207",
    "final_x": "3719630.53452",
    "final_y": "563196.980576",
    "longitude": "-89.9464587170647",
    "latitude": "30.04138221584489",
    "geocoded_column": {
      "latitude": "30.04138221584489",
      "longitude": "-89.9464587170647"
    }
  },
  {
    "service_request": "2023-969206",
    "request_type": "Trash/Recycling",
    "request_reason": "Missed Trash Pick-Up",
    "date_created": "2023-01-21T11:06:15.000",
    "date_modified": "2023-01-21T11:06:16.000",
    "request_status": "Pending",
    "responsible_agency": "Department of Sanitation",
    "final_address": "2004 General Taylor St",
    "address_councildis": "B",
    "status": "Assigned to Contractor",
    "contractor": "Richards Disposal",
    "rowid": "969206",
    "final_x": "3672248.44174",
    "final_y": "522486.184314",
    "longitude": "-90.0975911096737",
    "latitude": "29.930933299253667",
    "geocoded_column": {
      "latitude": "29.930933299253667",
      "longitude": "-90.0975911096737"
    }
  },
  {
    "service_request": "2023-969205",
    "request_type": "Trash/Recycling",
    "request_reason": "Return Trash Cart",
    "date_created": "2023-01-21T11:03:38.000",
    "date_modified": "2023-01-21T11:03:41.000",
    "request_status": "Pending",
    "responsible_agency": "Department of Sanitation",
    "final_address": "3313 Calhoun St",
    "address_councildis": "A",
    "status": "Assigned to Contractor",
    "contractor": "Richards Disposal",
    "rowid": "969205",
    "final_x": "3667519.58849",
    "final_y": "528905.733888",
    "longitude": "-90.11230354803385",
    "latitude": "29.948724378191386",
    "geocoded_column": {
      "latitude": "29.948724378191386",
      "longitude": "-90.11230354803385"
    }
  },
  {
    "service_request": "2023-969204",
    "request_type": "Trash/Recycling",
    "request_reason": "Order Recycling Cart",
    "date_created": "2023-01-21T11:00:27.000",
    "date_modified": "2023-01-21T11:00:27.000",
    "request_status": "Pending",
    "responsible_agency": "Department of Sanitation",
    "final_address": "5532 Garfield St",
    "address_councildis": "A",
    "status": "Pending",
    "rowid": "969204",
    "final_x": "3666704.77716",
    "final_y": "521139.764409",
    "longitude": "-90.11513695275525",
    "latitude": "29.927394299975422",
    "geocoded_column": {
      "latitude": "29.927394299975422",
      "longitude": "-90.11513695275525"
    }
  },
  {
    "service_request": "2023-969203",
    "request_type": "Property Maintenance",
    "request_reason": "Property Maintenance",
    "date_created": "2023-01-21T10:59:38.000",
    "date_modified": "2023-01-21T11:00:25.000",
    "request_status": "Pending",
    "responsible_agency": "Department of Code Enforcement",
    "final_address": "1838 Pauline St",
    "address_councildis": "D",
    "status": "Pending",
    "rowid": "969203",
    "final_x": "3691891.10096",
    "final_y": "538374.251849",
    "longitude": "-90.03501386147337",
    "latitude": "29.974022877273118",
    "geocoded_column": {
      "latitude": "29.974022877273118",
      "longitude": "-90.03501386147337"
    }
  },
  {
    "service_request": "2023-969202",
    "request_type": "Trash/Recycling",
    "request_reason": "Repair Trash Cart",
    "date_created": "2023-01-21T10:35:05.000",
    "date_modified": "2023-01-21T10:35:06.000",
    "request_status": "Pending",
    "responsible_agency": "Department of Sanitation",
    "final_address": "3132 Bennett St",
    "address_councildis": "C",
    "status": "Assigned to Contractor",
    "contractor": "Richards Disposal",
    "rowid": "969202",
    "final_x": "3710574.16241",
    "final_y": "519066.266679",
    "longitude": "-89.97673105213894",
    "latitude": "29.920337583434772",
    "geocoded_column": {
      "latitude": "29.920337583434772",
      "longitude": "-89.97673105213894"
    }
  },
  {
    "service_request": "2023-969201",
    "request_type": "Trash/Recycling",
    "request_reason": "Missed Trash Pick-Up",
    "date_created": "2023-01-21T10:29:56.000",
    "date_modified": "2023-01-21T10:29:57.000",
    "request_status": "Pending",
    "responsible_agency": "Department of Sanitation",
    "final_address": "4228 Fontainebleau Dr",
    "address_councildis": "A",
    "status": "Assigned to Contractor",
    "contractor": "Richards Disposal",
    "rowid": "969201",
    "final_x": "3669526.60762",
    "final_y": "529250.469313",
    "longitude": "-90.10595485666136",
    "latitude": "29.949613327686013",
    "geocoded_column": {
      "latitude": "29.949613327686013",
      "longitude": "-90.10595485666136"
    }
  },
  {
    "service_request": "2023-969200",
    "request_type": "Roads/Drainage",
    "request_reason": "Pothole",
    "date_created": "2023-01-21T10:26:12.000",
    "date_modified": "2023-01-21T10:26:12.000",
    "request_status": "Pending",
    "responsible_agency": "Department of Public Works",
    "final_address": "5800 Prytania St",
    "address_councildis": "A",
    "status": "Pending",
    "rowid": "969200",
    "final_x": "3665782.97645",
    "final_y": "520652.338937",
    "longitude": "-90.11806317883935",
    "latitude": "29.926080948625895",
    "geocoded_column": {
      "latitude": "29.926080948625895",
      "longitude": "-90.11806317883935"
    }
  },
  {
    "service_request": "2023-969199",
    "request_type": "Trash/Recycling",
    "request_reason": "Illegal Dumping",
    "date_created": "2023-01-21T10:22:06.000",
    "date_modified": "2023-01-21T10:22:06.000",
    "request_status": "Pending",
    "responsible_agency": "Department of Sanitation",
    "final_address": "3613 Prytania St",
    "address_councildis": "B",
    "status": "Pending",
    "rowid": "969199",
    "final_x": "3673534.21569",
    "final_y": "520761.634489",
    "longitude": "-90.09359099385438",
    "latitude": "29.926153152224643",
    "geocoded_column": {
      "latitude": "29.926153152224643",
      "longitude": "-90.09359099385438"
    }
  },
  {
    "service_request": "2023-969198",
    "request_type": "Traffic Signals/Signs/Striping/Streetlights",
    "request_reason": "Street Light Outage/Malfunction",
    "date_created": "2023-01-21T10:18:06.000",
    "date_modified": "2023-01-21T10:18:06.000",
    "request_status": "Pending",
    "responsible_agency": "Department of Public Works",
    "final_address": "7617 Hampson St",
    "address_councildis": "A",
    "status": "Assigned to Contractor",
    "contractor": "Legacy Professional Services",
    "rowid": "969198",
    "final_x": "3662037.13639",
    "final_y": "526016.151934",
    "longitude": "-90.12970990865992",
    "latitude": "29.940938452804403",
    "geocoded_column": {
      "latitude": "29.940938452804403",
      "longitude": "-90.12970990865992"
    }
  },
  {
    "service_request": "2023-969197",
    "request_type": "Trash/Recycling",
    "request_reason": "MIssed Recycling Pick-Up",
    "date_created": "2023-01-21T10:17:20.000",
    "date_modified": "2023-01-21T10:17:20.000",
    "request_status": "Pending",
    "responsible_agency": "Department of Sanitation",
    "final_address": "3141 Burgundy St",
    "address_councildis": "C",
    "status": "Assigned to Contractor",
    "contractor": "IV Waste",
    "rowid": "969197",
    "final_x": "3689134.17993",
    "final_y": "535166.856518",
    "longitude": "-90.04383481202463",
    "latitude": "29.965289271445968",
    "geocoded_column": {
      "latitude": "29.965289271445968",
      "longitude": "-90.04383481202463"
    }
  },
  {
    "service_request": "2023-969196",
    "request_type": "Abandoned Vehicles",
    "request_reason": "Abandoned/Junk Vehicles",
    "date_created": "2023-01-21T10:12:37.000",
    "date_modified": "2023-01-21T10:12:38.000",
    "request_status": "Pending",
    "responsible_agency": "Department of Public Works",
    "final_address": "121 N Clark St",
    "address_councildis": "B",
    "status": "Pending",
    "rowid": "969196",
    "final_x": "3672983.31892",
    "final_y": "537233.442888",
    "longitude": "-90.09476797412714",
    "latitude": "29.971461574587757",
    "geocoded_column": {
      "latitude": "29.971461574587757",
      "longitude": "-90.09476797412714"
    }
  },
  {
    "service_request": "2023-969195",
    "request_type": "Trash/Recycling",
    "request_reason": "Missed Trash Pick-Up",
    "date_created": "2023-01-21T10:08:29.000",
    "date_modified": "2023-01-21T10:08:30.000",
    "request_status": "Pending",
    "responsible_agency": "Department of Sanitation",
    "final_address": "2216 Camp St",
    "address_councildis": "B",
    "status": "Assigned to Contractor",
    "contractor": "Richards Disposal",
    "rowid": "969195",
    "final_x": "3678502.41262",
    "final_y": "522245.417978",
    "longitude": "-90.07785650454653",
    "latitude": "29.93008433324849",
    "geocoded_column": {
      "latitude": "29.93008433324849",
      "longitude": "-90.07785650454653"
    }
  },
  {
    "service_request": "2023-969194",
    "request_type": "Trash/Recycling",
    "request_reason": "MIssed Recycling Pick-Up",
    "date_created": "2023-01-21T10:06:44.000",
    "date_modified": "2023-01-21T10:06:45.000",
    "request_status": "Pending",
    "responsible_agency": "Department of Sanitation",
    "final_address": "2216 Camp St",
    "address_councildis": "B",
    "status": "Assigned to Contractor",
    "contractor": "Richards Disposal",
    "rowid": "969194",
    "final_x": "3678502.41262",
    "final_y": "522245.417978",
    "longitude": "-90.07785650454653",
    "latitude": "29.93008433324849",
    "geocoded_column": {
      "latitude": "29.93008433324849",
      "longitude": "-90.07785650454653"
    }
  },
  {
    "service_request": "2023-969193",
    "request_type": "Trash/Recycling",
    "request_reason": "Replace Trash Cart",
    "date_created": "2023-01-21T10:05:38.000",
    "date_modified": "2023-01-21T10:05:39.000",
    "request_status": "Pending",
    "responsible_agency": "Department of Sanitation",
    "final_address": "306 River Oaks Dr",
    "address_councildis": "C",
    "status": "Assigned to Contractor",
    "contractor": "Richards Disposal",
    "rowid": "969193",
    "final_x": "3701627.35287",
    "final_y": "522634.040506",
    "longitude": "-90.0048411394969",
    "latitude": "29.930435955472543",
    "geocoded_column": {
      "latitude": "29.930435955472543",
      "longitude": "-90.0048411394969"
    }
  },
  {
    "service_request": "2023-969192",
    "request_type": "Trash/Recycling",
    "request_reason": "Order Recycling Cart",
    "date_created": "2023-01-21T09:50:20.000",
    "date_modified": "2023-01-21T09:50:20.000",
    "request_status": "Pending",
    "responsible_agency": "Department of Sanitation",
    "final_address": "4512 N Robertson St",
    "address_councildis": "D",
    "status": "Pending",
    "rowid": "969192",
    "final_x": "3693811.04937",
    "final_y": "536349.077575",
    "longitude": "-90.029023062384",
    "latitude": "29.968394411602734",
    "geocoded_column": {
      "latitude": "29.968394411602734",
      "longitude": "-90.029023062384"
    }
  },
  {
    "service_request": "2023-969191",
    "request_type": "Trash/Recycling",
    "request_reason": "Missed Trash Pick-Up",
    "date_created": "2023-01-21T09:48:09.000",
    "date_modified": "2023-01-21T09:48:10.000",
    "request_status": "Pending",
    "responsible_agency": "Department of Sanitation",
    "final_address": "1124 Dante St",
    "address_councildis": "A",
    "status": "Assigned to Contractor",
    "contractor": "Richards Disposal",
    "rowid": "969191",
    "final_x": "3661306.23642",
    "final_y": "528784.165184",
    "longitude": "-90.13192587385936",
    "latitude": "29.9485706980893",
    "geocoded_column": {
      "latitude": "29.9485706980893",
      "longitude": "-90.13192587385936"
    }
  },
  {
    "service_request": "2023-969190",
    "request_type": "Trash/Recycling",
    "request_reason": "Illegal Dumping",
    "date_created": "2023-01-21T09:38:10.000",
    "date_modified": "2023-01-21T09:38:10.000",
    "request_status": "Pending",
    "responsible_agency": "Department of Sanitation",
    "final_address": "N GAYOSO ST & ORLEANS AVE",
    "address_councildis": "A",
    "status": "Pending",
    "rowid": "969190",
    "final_x": "3675791.6",
    "final_y": "537780.18",
    "longitude": "-90.08588020773782",
    "latitude": "29.972881149612476",
    "geocoded_column": {
      "latitude": "29.972881149612476",
      "longitude": "-90.08588020773782"
    }
  },
  {
    "service_request": "2023-969188",
    "request_type": "Trash/Recycling",
    "request_reason": "Request a Large Item Pick Up",
    "date_created": "2023-01-21T09:32:50.000",
    "date_modified": "2023-01-21T09:32:51.000",
    "request_status": "Pending",
    "responsible_agency": "Department of Sanitation",
    "final_address": "2937 Orleans Ave",
    "address_councildis": "A",
    "status": "Assigned to Contractor",
    "contractor": "Richards Disposal",
    "rowid": "969188",
    "final_x": "3675856.64718",
    "final_y": "537782.495048",
    "longitude": "-90.08567469656055",
    "latitude": "29.972885567859922",
    "geocoded_column": {
      "latitude": "29.972885567859922",
      "longitude": "-90.08567469656055"
    }
  },
  {
    "service_request": "2023-969187",
    "request_type": "Trash/Recycling",
    "request_reason": "Request a Large Item Pick Up",
    "date_created": "2023-01-21T09:30:56.000",
    "date_modified": "2023-01-21T09:30:56.000",
    "request_status": "Pending",
    "responsible_agency": "Department of Sanitation",
    "final_address": "6887 Catina St",
    "address_councildis": "A",
    "status": "Assigned to Contractor",
    "contractor": "IV Waste",
    "rowid": "969187",
    "final_x": "3667168.01889",
    "final_y": "553421.157783",
    "longitude": "-90.11258894928523",
    "latitude": "30.01614380220073",
    "geocoded_column": {
      "latitude": "30.01614380220073",
      "longitude": "-90.11258894928523"
    }
  },
  {
    "service_request": "2023-969186",
    "request_type": "Traffic Signals/Signs/Striping/Streetlights",
    "request_reason": "Street Light Outage/Malfunction",
    "date_created": "2023-01-21T09:27:23.000",
    "date_modified": "2023-01-21T09:28:15.000",
    "request_status": "Pending",
    "responsible_agency": "Department of Public Works",
    "final_address": "CURRAN BLVD & HENLEY ST",
    "address_councildis": "E",
    "status": "Assigned to Contractor",
    "contractor": "Legacy Professional Services",
    "rowid": "969186",
    "final_x": "3696797.2",
    "final_y": "559394.18",
    "longitude": "-90.01875776197286",
    "latitude": "30.03166611055618",
    "geocoded_column": {
      "latitude": "30.03166611055618",
      "longitude": "-90.01875776197286"
    }
  },
  {
    "service_request": "2023-969185",
    "request_type": "Trash/Recycling",
    "request_reason": "Missed Trash Pick-Up",
    "date_created": "2023-01-21T09:25:40.000",
    "date_modified": "2023-01-21T09:25:41.000",
    "request_status": "Pending",
    "responsible_agency": "Department of Sanitation",
    "final_address": "6415 Curran Rd",
    "address_councildis": "E",
    "status": "Assigned to Contractor",
    "contractor": "Waste Pro",
    "rowid": "969185",
    "final_x": "3696685.72202",
    "final_y": "559407.925021",
    "longitude": "-90.01910953808787",
    "latitude": "30.03170742022867",
    "geocoded_column": {
      "latitude": "30.03170742022867",
      "longitude": "-90.01910953808787"
    }
  },
  {
    "service_request": "2023-969184",
    "request_type": "Trash/Recycling",
    "request_reason": "Order Recycling Cart",
    "date_created": "2023-01-21T09:18:59.000",
    "date_modified": "2023-01-21T09:18:59.000",
    "request_status": "Pending",
    "responsible_agency": "Department of Sanitation",
    "final_address": "7726 Oak St",
    "address_councildis": "A",
    "status": "Pending",
    "rowid": "969184",
    "final_x": "3662860.80039",
    "final_y": "527512.224703",
    "longitude": "-90.12705971614832",
    "latitude": "29.945028359623795",
    "geocoded_column": {
      "latitude": "29.945028359623795",
      "longitude": "-90.12705971614832"
    }
  },
  {
    "service_request": "2023-969183",
    "request_type": "Trash/Recycling",
    "request_reason": "Missed Trash Pick-Up",
    "date_created": "2023-01-21T09:16:29.000",
    "date_modified": "2023-01-21T09:16:30.000",
    "request_status": "Pending",
    "responsible_agency": "Department of Sanitation",
    "final_address": "8804 Apple St",
    "address_councildis": "A",
    "status": "Assigned to Contractor",
    "contractor": "Richards Disposal",
    "rowid": "969183",
    "final_x": "3663449.56301",
    "final_y": "533783.606021",
    "longitude": "-90.12499199448412",
    "latitude": "29.962255572729166",
    "geocoded_column": {
      "latitude": "29.962255572729166",
      "longitude": "-90.12499199448412"
    }
  },
  {
    "service_request": "2023-969182",
    "request_type": "Roads/Drainage",
    "request_reason": "Alley Way",
    "date_created": "2023-01-21T09:14:14.000",
    "date_modified": "2023-01-21T09:14:14.000",
    "request_status": "Pending",
    "responsible_agency": "Department of Public Works",
    "final_address": "6479 Colbert St",
    "address_councildis": "A",
    "status": "Pending",
    "rowid": "969182",
    "final_x": "3667813.36084",
    "final_y": "550739.410773",
    "longitude": "-90.11064036020993",
    "latitude": "30.00875101887176",
    "geocoded_column": {
      "latitude": "30.00875101887176",
      "longitude": "-90.11064036020993"
    }
  },
  {
    "service_request": "2023-969181",
    "request_type": "Traffic Signals/Signs/Striping/Streetlights",
    "request_reason": "Street Name Sign Damaged or Missing",
    "date_created": "2023-01-21T09:11:44.000",
    "date_modified": "2023-01-21T09:11:44.000",
    "request_status": "Pending",
    "responsible_agency": "Department of Public Works",
    "final_address": "8101 Aberdeen Rd",
    "address_councildis": "E",
    "status": "Pending",
    "rowid": "969181",
    "final_x": "3702605.22698",
    "final_y": "561323.91267",
    "longitude": "-90.00033328861402",
    "latitude": "30.036787627777265",
    "geocoded_column": {
      "latitude": "30.036787627777265",
      "longitude": "-90.00033328861402"
    }
  },
  {
    "service_request": "2023-969180",
    "request_type": "Roads/Drainage",
    "request_reason": "Accessibility Ramps, Curbs and Sidewalk Repair",
    "date_created": "2023-01-21T09:08:49.000",
    "date_modified": "2023-01-21T09:08:49.000",
    "request_status": "Pending",
    "responsible_agency": "Department of Public Works",
    "final_address": "8101 Aberdeen Rd",
    "address_councildis": "E",
    "status": "Pending",
    "rowid": "969180",
    "final_x": "3702605.22698",
    "final_y": "561323.91267",
    "longitude": "-90.00033328861402",
    "latitude": "30.036787627777265",
    "geocoded_column": {
      "latitude": "30.036787627777265",
      "longitude": "-90.00033328861402"
    }
  },
  {
    "service_request": "2023-969179",
    "request_type": "Trash/Recycling",
    "request_reason": "Missed Trash Pick-Up",
    "date_created": "2023-01-21T09:08:08.000",
    "date_modified": "2023-01-21T09:08:09.000",
    "request_status": "Pending",
    "responsible_agency": "Department of Sanitation",
    "final_address": "3321 Washington Ave",
    "address_councildis": "B",
    "status": "Assigned to Contractor",
    "contractor": "Richards Disposal",
    "rowid": "969179",
    "final_x": "3672515.68494",
    "final_y": "527746.402303",
    "longitude": "-90.09656822285201",
    "latitude": "29.945389260854853",
    "geocoded_column": {
      "latitude": "29.945389260854853",
      "longitude": "-90.09656822285201"
    }
  },
  {
    "service_request": "2023-969178",
    "request_type": "Abandoned Vehicles",
    "request_reason": "Abandoned/Junk Vehicles",
    "date_created": "2023-01-21T08:58:13.000",
    "date_modified": "2023-01-21T08:58:14.000",
    "request_status": "Pending",
    "responsible_agency": "Department of Public Works",
    "final_address": "HAYNE BLVD & PLACID ST",
    "address_councildis": "E",
    "status": "Pending",
    "rowid": "969178",
    "final_x": "3713662.9",
    "final_y": "569895.28",
    "longitude": "-89.9650656012334",
    "latitude": "30.05999706314367",
    "geocoded_column": {
      "latitude": "30.05999706314367",
      "longitude": "-89.9650656012334"
    }
  },
  {
    "service_request": "2023-969177",
    "request_type": "Property Maintenance",
    "request_reason": "Property Maintenance",
    "date_created": "2023-01-21T08:54:12.000",
    "date_modified": "2023-01-21T08:54:12.000",
    "request_status": "Pending",
    "responsible_agency": "Department of Code Enforcement",
    "final_address": "1765 Pace Blvd",
    "address_councildis": "C",
    "status": "Pending",
    "rowid": "969177",
    "final_x": "3694255.8289",
    "final_y": "523930.191932",
    "longitude": "-90.02806519575792",
    "latitude": "29.934232873626325",
    "geocoded_column": {
      "latitude": "29.934232873626325",
      "longitude": "-90.02806519575792"
    }
  },
  {
    "service_request": "2023-969176",
    "request_type": "Roads/Drainage",
    "request_reason": "Pothole",
    "date_created": "2023-01-21T08:44:49.000",
    "date_modified": "2023-01-21T08:44:49.000",
    "request_status": "Pending",
    "responsible_agency": "Department of Public Works",
    "final_address": "PROVIDENCE PL & PRESSBURG ST",
    "address_councildis": "D",
    "status": "Pending",
    "rowid": "969176",
    "final_x": "3688235.5",
    "final_y": "554955.08",
    "longitude": "-90.04597070725406",
    "latitude": "30.019727547452",
    "geocoded_column": {
      "latitude": "30.019727547452",
      "longitude": "-90.04597070725406"
    }
  },
  {
    "service_request": "2023-969175",
    "request_type": "Trash/Recycling",
    "request_reason": "Replace Trash Cart",
    "date_created": "2023-01-21T08:39:38.000",
    "date_modified": "2023-01-21T08:39:39.000",
    "request_status": "Pending",
    "responsible_agency": "Department of Sanitation",
    "final_address": "PROVIDENCE PL & PRESSBURG ST",
    "address_councildis": "D",
    "status": "Assigned to Contractor",
    "contractor": "IV Waste",
    "rowid": "969175",
    "final_x": "3688235.5",
    "final_y": "554955.08",
    "longitude": "-90.04597070725406",
    "latitude": "30.019727547452",
    "geocoded_column": {
      "latitude": "30.019727547452",
      "longitude": "-90.04597070725406"
    }
  },
  {
    "service_request": "2023-969174",
    "request_type": "Traffic Signals/Signs/Striping/Streetlights",
    "request_reason": "Street Name Sign Damaged or Missing",
    "date_created": "2023-01-21T08:39:00.000",
    "date_modified": "2023-01-21T08:39:00.000",
    "request_status": "Pending",
    "responsible_agency": "Department of Public Works",
    "final_address": "PROVIDENCE PL & PRESSBURG ST",
    "address_councildis": "D",
    "status": "Pending",
    "rowid": "969174",
    "final_x": "3688235.5",
    "final_y": "554955.08",
    "longitude": "-90.04597070725406",
    "latitude": "30.019727547452",
    "geocoded_column": {
      "latitude": "30.019727547452",
      "longitude": "-90.04597070725406"
    }
  },
  {
    "service_request": "2023-969173",
    "request_type": "Traffic Signals/Signs/Striping/Streetlights",
    "request_reason": "Street Name Sign Damaged or Missing",
    "date_created": "2023-01-21T08:38:11.000",
    "date_modified": "2023-01-21T08:38:12.000",
    "request_status": "Pending",
    "responsible_agency": "Department of Public Works",
    "final_address": "PRESSBURG ST & PRESS DR",
    "address_councildis": "D",
    "status": "Pending",
    "rowid": "969173",
    "final_x": "3688903.9",
    "final_y": "555036.88",
    "longitude": "-90.043855879105",
    "latitude": "30.01993180162799",
    "geocoded_column": {
      "latitude": "30.01993180162799",
      "longitude": "-90.043855879105"
    }
  },
  {
    "service_request": "2023-969172",
    "request_type": "Trash/Recycling",
    "request_reason": "Missed Trash Pick-Up",
    "date_created": "2023-01-21T08:34:26.000",
    "date_modified": "2023-01-21T08:34:27.000",
    "request_status": "Pending",
    "responsible_agency": "Department of Sanitation",
    "final_address": "5901 Stratford Pl",
    "address_councildis": "C",
    "status": "Assigned to Contractor",
    "contractor": "Richards Disposal",
    "rowid": "969172",
    "final_x": "3705508.45687",
    "final_y": "516123.4133",
    "longitude": "-89.99282963444712",
    "latitude": "29.912409691909474",
    "geocoded_column": {
      "latitude": "29.912409691909474",
      "longitude": "-89.99282963444712"
    }
  },
  {
    "service_request": "2023-969171",
    "request_type": "Mosquito, Termite & Rodent Control",
    "request_reason": "Non-Rodent Complaint (Mice, Possums, Snakes)",
    "date_created": "2023-01-21T08:34:21.000",
    "date_modified": "2023-01-21T08:34:21.000",
    "request_status": "Pending",
    "responsible_agency": "Mosquito, Termite & Rodent Control Board",
    "final_address": "3141 Burgundy St",
    "address_councildis": "C",
    "status": "Pending",
    "rowid": "969171",
    "final_x": "3689134.17993",
    "final_y": "535166.856518",
    "longitude": "-90.04383481202463",
    "latitude": "29.965289271445968",
    "geocoded_column": {
      "latitude": "29.965289271445968",
      "longitude": "-90.04383481202463"
    }
  },
  {
    "service_request": "2023-969170",
    "request_type": "Property Maintenance",
    "request_reason": "Property Maintenance",
    "date_created": "2023-01-21T08:13:52.000",
    "date_modified": "2023-01-21T08:13:53.000",
    "request_status": "Pending",
    "responsible_agency": "Department of Code Enforcement",
    "final_address": "2400 BLK Dumaine St",
    "address_councildis": "D",
    "status": "Pending",
    "rowid": "969170",
    "final_x": "3678100.76056",
    "final_y": "536796.067928",
    "longitude": "-90.07862147046484",
    "latitude": "29.970105851781945",
    "geocoded_column": {
      "latitude": "29.970105851781945",
      "longitude": "-90.07862147046484"
    }
  },
  {
    "service_request": "2023-969169",
    "request_type": "Trash/Recycling",
    "request_reason": "Damaged Caused By Contractor",
    "date_created": "2023-01-21T07:32:03.000",
    "date_modified": "2023-01-21T07:32:04.000",
    "request_status": "Pending",
    "responsible_agency": "Department of Sanitation",
    "final_address": "2425 Chelsea Dr",
    "address_councildis": "C",
    "status": "Assigned to Contractor",
    "contractor": "Richards Disposal",
    "rowid": "969169",
    "final_x": "3704693.93956",
    "final_y": "522522.929722",
    "longitude": "-89.99516456726809",
    "latitude": "29.930032321501926",
    "geocoded_column": {
      "latitude": "29.930032321501926",
      "longitude": "-89.99516456726809"
    }
  },
  {
    "service_request": "2023-969168",
    "request_type": "Trash/Recycling",
    "request_reason": "Request a Large Item Pick Up",
    "date_created": "2023-01-21T07:30:54.000",
    "date_modified": "2023-01-21T07:30:54.000",
    "request_status": "Pending",
    "responsible_agency": "Department of Sanitation",
    "final_address": "9037 Green St",
    "address_councildis": "A",
    "status": "Assigned to Contractor",
    "contractor": "Richards Disposal",
    "rowid": "969168",
    "final_x": "3660614.4905",
    "final_y": "532039.712067",
    "longitude": "-90.13400242875093",
    "latitude": "29.957542331551803",
    "geocoded_column": {
      "latitude": "29.957542331551803",
      "longitude": "-90.13400242875093"
    }
  },
  {
    "service_request": "2023-969167",
    "request_type": "Trash/Recycling",
    "request_reason": "Missed Trash Pick-Up",
    "date_created": "2023-01-21T07:28:15.000",
    "date_modified": "2023-01-21T07:28:16.000",
    "request_status": "Pending",
    "responsible_agency": "Department of Sanitation",
    "final_address": "219 Loyola Ave",
    "address_councildis": "B",
    "status": "Assigned to Contractor",
    "contractor": "Empire Services",
    "rowid": "969167",
    "final_x": "3679187.08405",
    "final_y": "531134.900674",
    "longitude": "-90.07538702704547",
    "latitude": "29.95450681241384",
    "geocoded_column": {
      "latitude": "29.95450681241384",
      "longitude": "-90.07538702704547"
    }
  },
  {
    "service_request": "2023-969166",
    "request_type": "Trash/Recycling",
    "request_reason": "MIssed Recycling Pick-Up",
    "date_created": "2023-01-21T07:01:52.000",
    "date_modified": "2023-01-21T07:01:53.000",
    "request_status": "Pending",
    "responsible_agency": "Department of Sanitation",
    "final_address": "1304 Lowerline St",
    "address_councildis": "A",
    "status": "Assigned to Contractor",
    "contractor": "Richards Disposal",
    "rowid": "969166",
    "final_x": "3663852.6544",
    "final_y": "527191.300863",
    "longitude": "-90.12393880712274",
    "latitude": "29.94411717352941",
    "geocoded_column": {
      "latitude": "29.94411717352941",
      "longitude": "-90.12393880712274"
    }
  },
  {
    "service_request": "2023-969165",
    "request_type": "Trash/Recycling",
    "request_reason": "Missed Trash Pick-Up",
    "date_created": "2023-01-21T06:37:10.000",
    "date_modified": "2023-01-21T06:37:11.000",
    "request_status": "Pending",
    "responsible_agency": "Department of Sanitation",
    "final_address": "525 Madison St",
    "address_councildis": "C",
    "status": "Assigned to Contractor",
    "contractor": "Empire Services",
    "rowid": "969165",
    "final_x": "3683351.15215",
    "final_y": "532619.923588",
    "longitude": "-90.06218652726542",
    "latitude": "29.95846376214642",
    "geocoded_column": {
      "latitude": "29.95846376214642",
      "longitude": "-90.06218652726542"
    }
  },
  {
    "service_request": "2023-969164",
    "request_type": "Abandoned Vehicles",
    "request_reason": "Abandoned/Junk Vehicles",
    "date_created": "2023-01-21T03:24:44.000",
    "date_modified": "2023-01-21T03:24:45.000",
    "request_status": "Pending",
    "responsible_agency": "Department of Public Works",
    "final_address": "MARIGNY ST & MEXICO ST",
    "address_councildis": "D",
    "status": "Pending",
    "rowid": "969164",
    "final_x": "3683822.5",
    "final_y": "556174.48",
    "longitude": "-90.0598715068219",
    "latitude": "30.0232160383869",
    "geocoded_column": {
      "latitude": "30.0232160383869",
      "longitude": "-90.0598715068219"
    }
  },
  {
    "service_request": "2023-969163",
    "request_type": "Trash/Recycling",
    "request_reason": "Missed Trash Pick-Up",
    "date_created": "2023-01-21T02:21:34.000",
    "date_modified": "2023-01-21T02:21:35.000",
    "request_status": "Pending",
    "responsible_agency": "Department of Sanitation",
    "final_address": "2015 Sixth St",
    "address_councildis": "B",
    "status": "Assigned to Contractor",
    "contractor": "Richards Disposal",
    "rowid": "969163",
    "final_x": "3674655.1611",
    "final_y": "523585.780283",
    "longitude": "-90.08995574861271",
    "latitude": "29.933885242539358",
    "geocoded_column": {
      "latitude": "29.933885242539358",
      "longitude": "-90.08995574861271"
    }
  },
  {
    "service_request": "2023-969162",
    "request_type": "Trash/Recycling",
    "request_reason": "Order Trash Cart",
    "date_created": "2023-01-21T01:53:04.000",
    "date_modified": "2023-01-21T01:53:05.000",
    "request_status": "Pending",
    "responsible_agency": "Department of Sanitation",
    "final_address": "1314 Pauline St",
    "address_councildis": "D",
    "status": "Assigned to Contractor",
    "contractor": "IV Waste",
    "rowid": "969162",
    "final_x": "3691394.50435",
    "final_y": "536335.275847",
    "longitude": "-90.03665509241793",
    "latitude": "29.968431876642164",
    "geocoded_column": {
      "latitude": "29.968431876642164",
      "longitude": "-90.03665509241793"
    }
  },
  {
    "service_request": "2023-969161",
    "request_type": "Abandoned Vehicles",
    "request_reason": "Abandoned/Junk Vehicles",
    "date_created": "2023-01-21T01:04:00.000",
    "date_modified": "2023-01-21T01:04:00.000",
    "request_status": "Pending",
    "responsible_agency": "Department of Public Works",
    "final_address": "WRIGHT RD & ROGER DR",
    "address_councildis": "E",
    "status": "Pending",
    "rowid": "969161",
    "final_x": "3712421.4",
    "final_y": "563647.28",
    "longitude": "-89.96922499532756",
    "latitude": "30.042858308373265",
    "geocoded_column": {
      "latitude": "30.042858308373265",
      "longitude": "-89.96922499532756"
    }
  },
  {
    "service_request": "2023-969160",
    "request_type": "Trash/Recycling",
    "request_reason": "Illegal Dumping",
    "date_created": "2023-01-21T00:52:58.000",
    "date_modified": "2023-01-21T00:52:58.000",
    "request_status": "Pending",
    "responsible_agency": "Department of Sanitation",
    "final_address": "WRIGHT RD & ROGER DR",
    "address_councildis": "E",
    "status": "Pending",
    "rowid": "969160",
    "final_x": "3712421.4",
    "final_y": "563647.28",
    "longitude": "-89.96922499532756",
    "latitude": "30.042858308373265",
    "geocoded_column": {
      "latitude": "30.042858308373265",
      "longitude": "-89.96922499532756"
    }
  },
  {
    "service_request": "2023-969159",
    "request_type": "Trash/Recycling",
    "request_reason": "MIssed Recycling Pick-Up",
    "date_created": "2023-01-20T23:35:49.000",
    "date_modified": "2023-01-20T23:35:50.000",
    "request_status": "Pending",
    "responsible_agency": "Department of Sanitation",
    "final_address": "6509 Maumus Ave",
    "address_councildis": "C",
    "status": "Assigned to Contractor",
    "contractor": "Richards Disposal",
    "rowid": "969159",
    "final_x": "3707906.6284",
    "final_y": "516627.742197",
    "longitude": "-89.98524168073136",
    "latitude": "29.913719059426814",
    "geocoded_column": {
      "latitude": "29.913719059426814",
      "longitude": "-89.98524168073136"
    }
  },
  {
    "service_request": "2023-969158",
    "request_type": "Health Related Request",
    "request_reason": "Noise Ordinance Complaint",
    "date_created": "2023-01-20T23:26:23.000",
    "date_modified": "2023-01-20T23:26:23.000",
    "request_status": "Pending",
    "responsible_agency": "Health Department",
    "final_address": "501 Peniston st New Orleans Louisiana ",
    "address_councildis": "B",
    "status": "Pending",
    "rowid": "969158",
    "final_x": "3673758.25627",
    "final_y": "517807.718518",
    "longitude": "-90.09298469874456",
    "latitude": "29.91802416242078",
    "geocoded_column": {
      "latitude": "29.91802416242078",
      "longitude": "-90.09298469874456"
    }
  },
  {
    "service_request": "2023-969157",
    "request_type": "Trash/Recycling",
    "request_reason": "Illegal Dumping",
    "date_created": "2023-01-20T23:24:31.000",
    "date_modified": "2023-01-20T23:24:31.000",
    "request_status": "Pending",
    "responsible_agency": "Department of Sanitation",
    "final_address": "820 OKeefe Ave",
    "address_councildis": "B",
    "status": "Pending",
    "rowid": "969157",
    "final_x": "3679218.58779",
    "final_y": "528079.521727",
    "longitude": "-90.0753934659625",
    "latitude": "29.946104593444822",
    "geocoded_column": {
      "latitude": "29.946104593444822",
      "longitude": "-90.0753934659625"
    }
  },
  {
    "service_request": "2023-969156",
    "request_type": "Trash/Recycling",
    "request_reason": "Missed Trash Pick-Up",
    "date_created": "2023-01-20T22:52:52.000",
    "date_modified": "2023-01-20T22:52:53.000",
    "request_status": "Pending",
    "responsible_agency": "Department of Sanitation",
    "final_address": "4300 Fontainebleau Dr",
    "address_councildis": "A",
    "status": "Assigned to Contractor",
    "contractor": "Richards Disposal",
    "rowid": "969156",
    "final_x": "3669425.71617",
    "final_y": "529312.520001",
    "longitude": "-90.10627131958229",
    "latitude": "29.949786917996718",
    "geocoded_column": {
      "latitude": "29.949786917996718",
      "longitude": "-90.10627131958229"
    }
  },
  {
    "service_request": "2023-969155",
    "request_type": "Trash/Recycling",
    "request_reason": "Request a Large Item Pick Up",
    "date_created": "2023-01-20T22:41:23.000",
    "date_modified": "2023-01-20T22:41:24.000",
    "request_status": "Pending",
    "responsible_agency": "Department of Sanitation",
    "final_address": "2718 Painters St",
    "address_councildis": "D",
    "status": "Assigned to Contractor",
    "contractor": "IV Waste",
    "rowid": "969155",
    "final_x": "3687006.80098",
    "final_y": "542942.573133",
    "longitude": "-90.0502779936753",
    "latitude": "29.986735414636556",
    "geocoded_column": {
      "latitude": "29.986735414636556",
      "longitude": "-90.0502779936753"
    }
  },
  {
    "service_request": "2023-969154",
    "request_type": "Trash/Recycling",
    "request_reason": "Order Recycling Cart",
    "date_created": "2023-01-20T22:34:00.000",
    "date_modified": "2023-01-20T22:34:00.000",
    "request_status": "Pending",
    "responsible_agency": "Department of Sanitation",
    "final_address": "8324 Belfast St",
    "address_councildis": "A",
    "status": "Pending",
    "rowid": "969154",
    "final_x": "3664896.42733",
    "final_y": "532949.099396",
    "longitude": "-90.12045088343926",
    "latitude": "29.959918919634397",
    "geocoded_column": {
      "latitude": "29.959918919634397",
      "longitude": "-90.12045088343926"
    }
  },
  {
    "service_request": "2023-969153",
    "request_type": "Trash/Recycling",
    "request_reason": "Request a Large Item Pick Up",
    "date_created": "2023-01-20T22:14:48.000",
    "date_modified": "2023-01-20T22:14:49.000",
    "request_status": "Pending",
    "responsible_agency": "Department of Sanitation",
    "final_address": "2214 Nashville Ave",
    "address_councildis": "A",
    "status": "Assigned to Contractor",
    "contractor": "Richards Disposal",
    "rowid": "969153",
    "final_x": "3666847.09101",
    "final_y": "524390.436924",
    "longitude": "-90.11457855611758",
    "latitude": "29.936328453890972",
    "geocoded_column": {
      "latitude": "29.936328453890972",
      "longitude": "-90.11457855611758"
    }
  },
  {
    "service_request": "2023-969152",
    "request_type": "Traffic Signals/Signs/Striping/Streetlights",
    "request_reason": "Street Light Outage/Malfunction",
    "date_created": "2023-01-20T21:46:23.000",
    "date_modified": "2023-01-20T21:46:24.000",
    "request_status": "Pending",
    "responsible_agency": "Department of Public Works",
    "final_address": "5301 Camp St, New Orleans, Louisiana, 70115",
    "address_councildis": "B",
    "status": "Assigned to Contractor",
    "contractor": "Legacy Professional Services",
    "rowid": "969152",
    "final_x": "3667506.73498",
    "final_y": "519063.007479",
    "longitude": "-90.11267520150629",
    "latitude": "29.921660406847174",
    "geocoded_column": {
      "latitude": "29.921660406847174",
      "longitude": "-90.11267520150629"
    }
  },
  {
    "service_request": "2023-969151",
    "request_type": "Trash/Recycling",
    "request_reason": "Request a Large Item Pick Up",
    "date_created": "2023-01-20T21:12:24.000",
    "date_modified": "2023-01-20T21:12:25.000",
    "request_status": "Pending",
    "responsible_agency": "Department of Sanitation",
    "final_address": "7008 Crowder Blvd",
    "address_councildis": "E",
    "status": "Assigned to Contractor",
    "contractor": "Waste Pro",
    "rowid": "969151",
    "final_x": "3704365.70206",
    "final_y": "559483.213853",
    "longitude": "-89.99483780424933",
    "latitude": "30.0316699962335",
    "geocoded_column": {
      "latitude": "30.0316699962335",
      "longitude": "-89.99483780424933"
    }
  },
  {
    "service_request": "2023-969150",
    "request_type": "Trash/Recycling",
    "request_reason": "Replace Trash Cart",
    "date_created": "2023-01-20T21:12:23.000",
    "date_modified": "2023-01-20T21:12:24.000",
    "request_status": "Pending",
    "responsible_agency": "Department of Sanitation",
    "final_address": "25408 Chef Menteur Hwy",
    "address_councildis": "E",
    "status": "Assigned to Contractor",
    "contractor": "Waste Pro",
    "rowid": "969150",
    "final_x": "3779922.03531",
    "final_y": "599213.241538",
    "longitude": "-89.75435388598062",
    "latitude": "30.138264925738085",
    "geocoded_column": {
      "latitude": "30.138264925738085",
      "longitude": "-89.75435388598062"
    }
  },
  {
    "service_request": "2023-969149",
    "request_type": "Roads/Drainage",
    "request_reason": "Damaged Sidewalk",
    "date_created": "2023-01-20T21:07:25.000",
    "date_modified": "2023-01-20T21:07:25.000",
    "request_status": "Pending",
    "responsible_agency": "Department of Public Works",
    "final_address": "6 W Blue Ridge Ct",
    "address_councildis": "E",
    "status": "Pending",
    "rowid": "969149",
    "final_x": "3714017.37183",
    "final_y": "567276.42986",
    "longitude": "-89.96404406896644",
    "latitude": "30.052784656711175",
    "geocoded_column": {
      "latitude": "30.052784656711175",
      "longitude": "-89.96404406896644"
    }
  },
  {
    "service_request": "2023-969148",
    "request_type": "Trash/Recycling",
    "request_reason": "Illegal Dumping",
    "date_created": "2023-01-20T21:03:16.000",
    "date_modified": "2023-01-20T21:03:16.000",
    "request_status": "Pending",
    "responsible_agency": "Department of Sanitation",
    "final_address": "6 W Blue Ridge Ct",
    "address_councildis": "E",
    "status": "Pending",
    "rowid": "969148",
    "final_x": "3714017.37183",
    "final_y": "567276.42986",
    "longitude": "-89.96404406896644",
    "latitude": "30.052784656711175",
    "geocoded_column": {
      "latitude": "30.052784656711175",
      "longitude": "-89.96404406896644"
    }
  },
  {
    "service_request": "2023-969147",
    "request_type": "Trash/Recycling",
    "request_reason": "Request a Large Item Pick Up",
    "date_created": "2023-01-20T21:01:28.000",
    "date_modified": "2023-01-21T10:53:42.000",
    "case_close_date": "2023-01-21T04:53:42.000",
    "request_status": "Closed",
    "responsible_agency": "Department of Sanitation",
    "final_address": "961 Germain St",
    "address_councildis": "A",
    "status": "Assigned to Contractor",
    "contractor": "IV Waste",
    "contractor_action": "Completed",
    "rowid": "969147",
    "final_x": "3670490.04187",
    "final_y": "547851.230418",
    "longitude": "-90.10228186318197",
    "latitude": "30.0007307262159",
    "geocoded_column": {
      "latitude": "30.0007307262159",
      "longitude": "-90.10228186318197"
    }
  },
  {
    "service_request": "2023-969146",
    "request_type": "Roads/Drainage",
    "request_reason": "Damaged Sidewalk",
    "date_created": "2023-01-20T20:42:28.000",
    "date_modified": "2023-01-20T20:42:28.000",
    "request_status": "Pending",
    "responsible_agency": "Department of Public Works",
    "final_address": "6 W Blue Ridge Ct",
    "address_councildis": "E",
    "status": "Pending",
    "rowid": "969146",
    "final_x": "3714017.37183",
    "final_y": "567276.42986",
    "longitude": "-89.96404406896644",
    "latitude": "30.052784656711175",
    "geocoded_column": {
      "latitude": "30.052784656711175",
      "longitude": "-89.96404406896644"
    }
  },
  {
    "service_request": "2023-969145",
    "request_type": "Trash/Recycling",
    "request_reason": "Illegal Dumping",
    "date_created": "2023-01-20T20:41:05.000",
    "date_modified": "2023-01-20T20:41:05.000",
    "request_status": "Pending",
    "responsible_agency": "Department of Sanitation",
    "final_address": "6 W Blue Ridge Ct",
    "address_councildis": "E",
    "status": "Pending",
    "rowid": "969145",
    "final_x": "3714017.37183",
    "final_y": "567276.42986",
    "longitude": "-89.96404406896644",
    "latitude": "30.052784656711175",
    "geocoded_column": {
      "latitude": "30.052784656711175",
      "longitude": "-89.96404406896644"
    }
  },
  {
    "service_request": "2023-969144",
    "request_type": "Roads/Drainage",
    "request_reason": "Damaged Sidewalk",
    "date_created": "2023-01-20T20:36:18.000",
    "date_modified": "2023-01-20T20:36:18.000",
    "request_status": "Pending",
    "responsible_agency": "Department of Public Works",
    "final_address": "13 W Blue Ridge Ct",
    "address_councildis": "E",
    "status": "Pending",
    "rowid": "969144",
    "final_x": "3713999.58463",
    "final_y": "567452.757668",
    "longitude": "-89.96409362893499",
    "latitude": "30.053270070539046",
    "geocoded_column": {
      "latitude": "30.053270070539046",
      "longitude": "-89.96409362893499"
    }
  },
  {
    "service_request": "2023-969143",
    "request_type": "Trash/Recycling",
    "request_reason": "Illegal Dumping",
    "date_created": "2023-01-20T20:33:04.000",
    "date_modified": "2023-01-20T20:33:04.000",
    "request_status": "Pending",
    "responsible_agency": "Department of Sanitation",
    "final_address": "1800 Seventh St",
    "address_councildis": "B",
    "status": "Pending",
    "rowid": "969143",
    "final_x": "3674788.70536",
    "final_y": "522713.111418",
    "longitude": "-90.08956405898013",
    "latitude": "29.93148170149192",
    "geocoded_column": {
      "latitude": "29.93148170149192",
      "longitude": "-90.08956405898013"
    }
  },
  {
    "service_request": "2023-969142",
    "request_type": "Trash/Recycling",
    "request_reason": "Illegal Dumping",
    "date_created": "2023-01-20T20:31:51.000",
    "date_modified": "2023-01-20T20:31:51.000",
    "request_status": "Pending",
    "responsible_agency": "Department of Sanitation",
    "final_address": "1825 Seventh St",
    "address_councildis": "B",
    "status": "Pending",
    "rowid": "969142",
    "final_x": "3674744.12705",
    "final_y": "522898.942779",
    "longitude": "-90.08969842039133",
    "latitude": "29.9319940078531",
    "geocoded_column": {
      "latitude": "29.9319940078531",
      "longitude": "-90.08969842039133"
    }
  },
  {
    "service_request": "2023-969141",
    "request_type": "Traffic Signals/Signs/Striping/Streetlights",
    "request_reason": "Street Light Outage/Malfunction",
    "date_created": "2023-01-20T20:30:29.000",
    "date_modified": "2023-01-21T09:06:28.000",
    "request_status": "Pending",
    "responsible_agency": "Department of Public Works",
    "final_address": "New Orleans, Louisiana",
    "address_councildis": "E",
    "status": "Assigned to Contractor",
    "contractor": "Legacy Professional Services",
    "rowid": "969141",
    "final_x": "3717902.9806",
    "final_y": "557224.959259",
    "longitude": "-89.95214584369951",
    "latitude": "30.025018945905458",
    "geocoded_column": {
      "latitude": "30.025018945905458",
      "longitude": "-89.95214584369951"
    }
  },
  {
    "service_request": "2023-969140",
    "request_type": "Roads/Drainage",
    "request_reason": "Accessibility Ramps, Curbs and Sidewalk Repair",
    "date_created": "2023-01-20T20:23:59.000",
    "date_modified": "2023-01-20T20:23:59.000",
    "request_status": "Pending",
    "responsible_agency": "Department of Public Works",
    "final_address": "13 W Blue Ridge Ct",
    "address_councildis": "E",
    "status": "Pending",
    "rowid": "969140",
    "final_x": "3713999.58463",
    "final_y": "567452.757668",
    "longitude": "-89.96409362893499",
    "latitude": "30.053270070539046",
    "geocoded_column": {
      "latitude": "30.053270070539046",
      "longitude": "-89.96409362893499"
    }
  },
  {
    "service_request": "2023-969139",
    "request_type": "Traffic Signals/Signs/Striping/Streetlights",
    "request_reason": "Street Light Outage/Malfunction",
    "date_created": "2023-01-20T20:23:19.000",
    "date_modified": "2023-01-20T20:23:20.000",
    "request_status": "Pending",
    "responsible_agency": "Department of Public Works",
    "final_address": "5801 Providence Pl",
    "address_councildis": "D",
    "status": "Assigned to Contractor",
    "contractor": "Legacy Professional Services",
    "rowid": "969139",
    "final_x": "3688330.1846",
    "final_y": "554628.985112",
    "longitude": "-90.04568311435452",
    "latitude": "30.01882798211947",
    "geocoded_column": {
      "latitude": "30.01882798211947",
      "longitude": "-90.04568311435452"
    }
  },