[
  {
    "service_request": "2022-912810",
    "request_type": "Roads/Drainage",
    "request_reason": "Street Flooding / Drainage",
    "date_created": "2022-08-24T00:14:09.000",
    "date_modified": "2022-08-24T00:14:10.000",
    "request_status": "Pending",
    "responsible_agency": "Department of Public Works",
    "final_address": "36TH ST & FLEUR DE LIS DR",
    "address_councildis": "A",
    "status": "Pending",
    "rowid": "912810",
    "final_x": "3665356.8",
    "final_y": "551917.08",
    "longitude": "-90.1183620171773",
    "latitude": "30.012061047584723",
    "geocoded_column": {
      "latitude": "30.012061047584723",
      "longitude": "-90.1183620171773"
    }
  },
  {
    "service_request": "2022-912809",
    "request_type": "Traffic Signals/Signs/Striping/Streetlights",
    "request_reason": "Street Light Outage/Malfunction",
    "date_created": "2022-08-24T00:04:51.000",
    "date_modified": "2022-08-24T00:06:27.000",
    "request_status": "Pending",
    "responsible_agency": "Department of Public Works",
    "final_address": "338 36Th St",
    "address_councildis": "A",
    "status": "Pending",
    "contractor": "Legacy Professional Services",
    "rowid": "912809",
    "final_x": "3665085.3552",
    "final_y": "551877.471382",
    "longitude": "-90.11922095778962",
    "latitude": "30.01196004896911",
    "geocoded_column": {
      "latitude": "30.01196004896911",
      "longitude": "-90.11922095778962"
    }
  },
  {
    "service_request": "2022-912808",
    "request_type": "Traffic Signals/Signs/Striping/Streetlights",
    "request_reason": "Street Light Outage/Malfunction",
    "date_created": "2022-08-23T23:50:18.000",
    "date_modified": "2022-08-23T23:50:18.000",
    "request_status": "Pending",
    "responsible_agency": "Department of Public Works",
    "final_address": "8517 Belfast St",
    "address_councildis": "A",
    "status": "Pending",
    "contractor": "Legacy Professional Services",
    "rowid": "912808",
    "final_x": "3664453.11866",
    "final_y": "533458.927364",
    "longitude": "-90.12183373897078",
    "latitude": "29.961333675035707",
    "geocoded_column": {
      "latitude": "29.961333675035707",
      "longitude": "-90.12183373897078"
    }
  },
  {
    "service_request": "2022-912807",
    "request_type": "Trash/Recycling",
    "request_reason": "Request a Large Item Pick Up",
    "date_created": "2022-08-23T23:37:36.000",
    "date_modified": "2022-08-23T23:37:36.000",
    "request_status": "Pending",
    "responsible_agency": "Department of Sanitation",
    "final_address": "1215 Josephine St",
    "address_councildis": "B",
    "status": "Assigned to Contractor",
    "contractor": "Richards Disposal",
    "rowid": "912807",
    "final_x": "3678874.94882",
    "final_y": "522754.195258",
    "longitude": "-90.07666285394889",
    "latitude": "29.93147207515156",
    "geocoded_column": {
      "latitude": "29.93147207515156",
      "longitude": "-90.07666285394889"
    }
  },
  {
    "service_request": "2022-912806",
    "request_type": "Roads/Drainage",
    "request_reason": "Road Shoulder Repair",
    "date_created": "2022-08-23T23:12:59.000",
    "date_modified": "2022-08-23T23:12:59.000",
    "request_status": "Pending",
    "responsible_agency": "Department of Public Works",
    "final_address": "2320 Madrid St",
    "address_councildis": "D",
    "status": "Pending",
    "rowid": "912806",
    "final_x": "3684440.29852",
    "final_y": "555345.746713",
    "longitude": "-90.05794854666149",
    "latitude": "30.02091843392504",
    "geocoded_column": {
      "latitude": "30.02091843392504",
      "longitude": "-90.05794854666149"
    }
  },
  {
    "service_request": "2022-912805",
    "request_type": "Trash/Recycling",
    "request_reason": "Illegal Dumping",
    "date_created": "2022-08-23T23:09:55.000",
    "date_modified": "2022-08-23T23:09:55.000",
    "request_status": "Pending",
    "responsible_agency": "Department of Sanitation",
    "final_address": "2306 Madrid St",
    "address_councildis": "D",
    "status": "Pending",
    "rowid": "912805",
    "final_x": "3684334.25327",
    "final_y": "555345.896217",
    "longitude": "-90.05828361325749",
    "latitude": "30.02092209009216",
    "geocoded_column": {
      "latitude": "30.02092209009216",
      "longitude": "-90.05828361325749"
    }
  },
  {
    "service_request": "2022-912804",
    "request_type": "Trash/Recycling",
    "request_reason": "Order Trash Cart",
    "date_created": "2022-08-23T23:08:17.000",
    "date_modified": "2022-08-23T23:08:17.000",
    "request_status": "Pending",
    "responsible_agency": "Department of Sanitation",
    "final_address": "3521 Encampment St",
    "address_councildis": "D",
    "status": "Assigned to Contractor",
    "contractor": "Metro Disposal",
    "rowid": "912804",
    "final_x": "3676710.91528",
    "final_y": "545597.368976",
    "longitude": "-90.08270737447916",
    "latitude": "29.9943481611808",
    "geocoded_column": {
      "latitude": "29.9943481611808",
      "longitude": "-90.08270737447916"
    }
  },
  {
    "service_request": "2022-912803",
    "request_type": "Roads/Drainage",
    "request_reason": "Accessibility Ramps, Curbs and Sidewalk Repair",
    "date_created": "2022-08-23T23:08:07.000",
    "date_modified": "2022-08-23T23:08:07.000",
    "request_status": "Pending",
    "responsible_agency": "Department of Public Works",
    "final_address": "6007 Mandeville St",
    "address_councildis": "D",
    "status": "Pending",
    "rowid": "912803",
    "final_x": "3684312.97941",
    "final_y": "555107.181401",
    "longitude": "-90.05835922515217",
    "latitude": "30.02026636313563",
    "geocoded_column": {
      "latitude": "30.02026636313563",
      "longitude": "-90.05835922515217"
    }
  },
  {
    "service_request": "2022-912802",
    "request_type": "Trash/Recycling",
    "request_reason": "Order Trash Cart",
    "date_created": "2022-08-23T23:00:55.000",
    "date_modified": "2022-08-23T23:00:56.000",
    "request_status": "Pending",
    "responsible_agency": "Department of Sanitation",
    "final_address": "1558 Shirley Dr",
    "address_councildis": "C",
    "status": "Assigned to Contractor",
    "contractor": "Richards Disposal",
    "rowid": "912802",
    "final_x": "3693131.10512",
    "final_y": "524891.26118",
    "longitude": "-90.03158142772573",
    "latitude": "29.93691066704312",
    "geocoded_column": {
      "latitude": "29.93691066704312",
      "longitude": "-90.03158142772573"
    }
  },
  {
    "service_request": "2022-912801",
    "request_type": "Trash/Recycling",
    "request_reason": "Request a Large Item Pick Up",
    "date_created": "2022-08-23T22:55:36.000",
    "date_modified": "2022-08-23T22:55:37.000",
    "request_status": "Pending",
    "responsible_agency": "Department of Sanitation",
    "final_address": "2335 Madrid St",
    "address_councildis": "D",
    "status": "Assigned to Contractor",
    "contractor": "Metro Disposal",
    "rowid": "912801",
    "final_x": "3684546.84649",
    "final_y": "555499.521817",
    "longitude": "-90.0576064767634",
    "latitude": "30.021337997449514",
    "geocoded_column": {
      "latitude": "30.021337997449514",
      "longitude": "-90.0576064767634"
    }
  },
  {
    "service_request": "2022-912800",
    "request_type": "Abandoned Vehicles",
    "request_reason": "Abandoned/Junk Vehicles",
    "date_created": "2022-08-23T22:53:19.000",
    "date_modified": "2022-08-23T22:53:19.000",
    "request_status": "Pending",
    "responsible_agency": "Department of Public Works",
    "final_address": "2320 Madrid St",
    "address_councildis": "D",
    "status": "Pending",
    "rowid": "912800",
    "final_x": "3684440.29852",
    "final_y": "555345.746713",
    "longitude": "-90.05794854666149",
    "latitude": "30.02091843392504",
    "geocoded_column": {
      "latitude": "30.02091843392504",
      "longitude": "-90.05794854666149"
    }
  },
  {
    "service_request": "2022-912799",
    "request_type": "Trash/Recycling",
    "request_reason": "Replace Trash Cart",
    "date_created": "2022-08-23T22:51:26.000",
    "date_modified": "2022-08-23T22:51:26.000",
    "request_status": "Pending",
    "responsible_agency": "Department of Sanitation",
    "final_address": "2318 Madrid St",
    "address_councildis": "D",
    "status": "Assigned to Contractor",
    "contractor": "Metro Disposal",
    "rowid": "912799",
    "final_x": "3684422.43772",
    "final_y": "555343.798297",
    "longitude": "-90.05800505006508",
    "latitude": "30.020913623116144",
    "geocoded_column": {
      "latitude": "30.020913623116144",
      "longitude": "-90.05800505006508"
    }
  },
  {
    "service_request": "2022-912798",
    "request_type": "Roads/Drainage",
    "request_reason": "Pothole",
    "date_created": "2022-08-23T22:47:36.000",
    "date_modified": "2022-08-23T22:47:36.000",
    "request_status": "Pending",
    "responsible_agency": "Department of Public Works",
    "final_address": "6122 Mandeville St",
    "address_councildis": "D",
    "status": "Pending",
    "rowid": "912798",
    "final_x": "3684128.79618",
    "final_y": "555570.047001",
    "longitude": "-90.0589249201974",
    "latitude": "30.021544706949843",
    "geocoded_column": {
      "latitude": "30.021544706949843",
      "longitude": "-90.0589249201974"
    }
  },
  {
    "service_request": "2022-912797",
    "request_type": "Trash/Recycling",
    "request_reason": "Illegal Dumping",
    "date_created": "2022-08-23T22:44:08.000",
    "date_modified": "2022-08-23T22:44:08.000",
    "request_status": "Pending",
    "responsible_agency": "Department of Sanitation",
    "final_address": "2257 Vienna St",
    "address_councildis": "D",
    "status": "Pending",
    "rowid": "912797",
    "final_x": "3684119.88546",
    "final_y": "555058.172057",
    "longitude": "-90.05897106362164",
    "latitude": "30.020137511787784",
    "geocoded_column": {
      "latitude": "30.020137511787784",
      "longitude": "-90.05897106362164"
    }
  },
  {
    "service_request": "2022-912796",
    "request_type": "Trash/Recycling",
    "request_reason": "Illegal Dumping",
    "date_created": "2022-08-23T22:41:48.000",
    "date_modified": "2022-08-23T22:41:48.000",
    "request_status": "Pending",
    "responsible_agency": "Department of Sanitation",
    "final_address": "2306 Madrid St",
    "address_councildis": "D",
    "status": "Pending",
    "rowid": "912796",
    "final_x": "3684334.25327",
    "final_y": "555345.896217",
    "longitude": "-90.05828361325749",
    "latitude": "30.02092209009216",
    "geocoded_column": {
      "latitude": "30.02092209009216",
      "longitude": "-90.05828361325749"
    }
  },
  {
    "service_request": "2022-912795",
    "request_type": "Roads/Drainage",
    "request_reason": "Pothole",
    "date_created": "2022-08-23T22:38:19.000",
    "date_modified": "2022-08-23T22:38:19.000",
    "request_status": "Pending",
    "responsible_agency": "Department of Public Works",
    "final_address": "2320 Madrid St",
    "address_councildis": "D",
    "status": "Pending",
    "rowid": "912795",
    "final_x": "3684440.29852",
    "final_y": "555345.746713",
    "longitude": "-90.05794854666149",
    "latitude": "30.02091843392504",
    "geocoded_column": {
      "latitude": "30.02091843392504",
      "longitude": "-90.05794854666149"
    }
  },
  {
    "service_request": "2022-912794",
    "request_type": "Trash/Recycling",
    "request_reason": "Request a Large Item Pick Up",
    "date_created": "2022-08-23T21:41:39.000",
    "date_modified": "2022-08-23T21:41:39.000",
    "request_status": "Pending",
    "responsible_agency": "Department of Sanitation",
    "final_address": "7425 Malvern Dr",
    "address_councildis": "E",
    "status": "Assigned to Contractor",
    "contractor": "Metro Disposal",
    "rowid": "912794",
    "final_x": "3702725.15249",
    "final_y": "561126.749342",
    "longitude": "-89.99996155161045",
    "latitude": "30.036241669094775",
    "geocoded_column": {
      "latitude": "30.036241669094775",
      "longitude": "-89.99996155161045"
    }
  },
  {
    "service_request": "2022-912793",
    "request_type": "Property Maintenance",
    "request_reason": "Property Maintenance",
    "date_created": "2022-08-23T21:29:27.000",
    "date_modified": "2022-08-23T21:29:27.000",
    "request_status": "Pending",
    "responsible_agency": "Department of Code Enforcement",
    "final_address": "6850 E Coronet Ct",
    "address_councildis": "E",
    "status": "Pending",
    "rowid": "912793",
    "final_x": "3703384.993",
    "final_y": "557567.012059",
    "longitude": "-89.99800743882494",
    "latitude": "30.026432648772193",
    "geocoded_column": {
      "latitude": "30.026432648772193",
      "longitude": "-89.99800743882494"
    }
  },
  {
    "service_request": "2022-912792",
    "request_type": "Traffic Signals/Signs/Striping/Streetlights",
    "request_reason": "Street Light Outage/Malfunction",
    "date_created": "2022-08-23T21:19:19.000",
    "date_modified": "2022-08-23T21:19:20.000",
    "request_status": "Pending",
    "responsible_agency": "Department of Public Works",
    "final_address": "6568 Milne Blvd",
    "address_councildis": "A",
    "status": "Pending",
    "contractor": "Legacy Professional Services",
    "rowid": "912792",
    "final_x": "3667309.58113",
    "final_y": "551399.942613",
    "longitude": "-90.11220973066722",
    "latitude": "30.010582022245945",
    "geocoded_column": {
      "latitude": "30.010582022245945",
      "longitude": "-90.11220973066722"
    }
  },
  {
    "service_request": "2022-912791",
    "request_type": "Trash/Recycling",
    "request_reason": "Repair Trash Cart",
    "date_created": "2022-08-23T21:14:49.000",
    "date_modified": "2022-08-23T21:14:49.000",
    "request_status": "Pending",
    "responsible_agency": "Department of Sanitation",
    "final_address": "3003 Pine St",
    "address_councildis": "B",
    "status": "Assigned to Contractor",
    "contractor": "Richards Disposal",
    "rowid": "912791",
    "final_x": "3667555.245",
    "final_y": "532077.748611",
    "longitude": "-90.11208421952237",
    "latitude": "29.95744533757146",
    "geocoded_column": {
      "latitude": "29.95744533757146",
      "longitude": "-90.11208421952237"
    }
  },
  {
    "service_request": "2022-912789",
    "request_type": "Trash/Recycling",
    "request_reason": "MIssed Recycling Pick-Up",
    "date_created": "2022-08-23T20:28:07.000",
    "date_modified": "2022-08-23T20:28:08.000",
    "request_status": "Pending",
    "responsible_agency": "Department of Sanitation",
    "final_address": "4011 DHemecourt St",
    "address_councildis": "A",
    "status": "Assigned to Contractor",
    "contractor": "Richards Disposal",
    "rowid": "912789",
    "final_x": "3670180.48948",
    "final_y": "536661.804807",
    "longitude": "-90.1036391146166",
    "latitude": "29.969972768916328",
    "geocoded_column": {
      "latitude": "29.969972768916328",
      "longitude": "-90.1036391146166"
    }
  },
  {
    "service_request": "2022-912788",
    "request_type": "Property Maintenance",
    "request_reason": "Property Maintenance",
    "date_created": "2022-08-23T20:10:52.000",
    "date_modified": "2022-08-23T20:10:52.000",
    "request_status": "Pending",
    "responsible_agency": "Department of Code Enforcement",
    "final_address": "HYMAN PL & ERICKSON AVE",
    "address_councildis": "C",
    "status": "Pending",
    "rowid": "912788",
    "final_x": "3700982.7",
    "final_y": "519525.98",
    "longitude": "-90.00698976903871",
    "latitude": "29.921910396679102",
    "geocoded_column": {
      "latitude": "29.921910396679102",
      "longitude": "-90.00698976903871"
    }
  },
  {
    "service_request": "2022-912787",
    "request_type": "Trash/Recycling",
    "request_reason": "Start Trash Service",
    "date_created": "2022-08-23T20:04:13.000",
    "date_modified": "2022-08-23T20:04:13.000",
    "request_status": "Pending",
    "responsible_agency": "Department of Sanitation",
    "final_address": "2112 Amelia St",
    "address_councildis": "B",
    "status": "Assigned to Contractor",
    "contractor": "Richards Disposal",
    "rowid": "912787",
    "final_x": "3672622.03048",
    "final_y": "523051.577531",
    "longitude": "-90.09639247114286",
    "latitude": "29.9324768643309",
    "geocoded_column": {
      "latitude": "29.9324768643309",
      "longitude": "-90.09639247114286"
    }
  },
  {
    "service_request": "2022-912786",
    "request_type": "Trash/Recycling",
    "request_reason": "MIssed Recycling Pick-Up",
    "date_created": "2022-08-23T19:53:59.000",
    "date_modified": "2022-08-23T19:54:00.000",
    "request_status": "Pending",
    "responsible_agency": "Department of Sanitation",
    "final_address": "8400 Pritchard Pl",
    "address_councildis": "A",
    "status": "Assigned to Contractor",
    "contractor": "Richards Disposal",
    "rowid": "912786",
    "final_x": "3665211.8704",
    "final_y": "533606.475909",
    "longitude": "-90.11943278798566",
    "latitude": "29.961717304688896",
    "geocoded_column": {
      "latitude": "29.961717304688896",
      "longitude": "-90.11943278798566"
    }
  },
  {
    "service_request": "2022-912785",
    "request_type": "Parks & Parkways",
    "request_reason": "Request Tree Service (Right of Way/Public Property)",
    "date_created": "2022-08-23T19:52:30.000",
    "date_modified": "2022-08-23T19:52:31.000",
    "request_status": "Pending",
    "responsible_agency": "Department of Parks & Parkway",
    "final_address": "GENTILLY BLVD & ST ROCH AVE",
    "address_councildis": "D",
    "status": "Pending",
    "rowid": "912785",
    "final_x": "3685430.95",
    "final_y": "548609.51",
    "longitude": "-90.05505582618933",
    "latitude": "30.002365887238685",
    "geocoded_column": {
      "latitude": "30.002365887238685",
      "longitude": "-90.05505582618933"
    }
  },
  {
    "service_request": "2022-912784",
    "request_type": "Trash/Recycling",
    "request_reason": "Request a Large Item Pick Up",
    "date_created": "2022-08-23T19:51:26.000",
    "date_modified": "2022-08-23T19:51:27.000",
    "request_status": "Pending",
    "responsible_agency": "Department of Sanitation",
    "final_address": "1502 Poland Ave",
    "address_councildis": "D",
    "status": "Assigned to Contractor",
    "contractor": "Metro Disposal",
    "rowid": "912784",
    "final_x": "3693352.57347",
    "final_y": "536568.067207",
    "longitude": "-90.03046308146065",
    "latitude": "29.96901089752048",
    "geocoded_column": {
      "latitude": "29.96901089752048",
      "longitude": "-90.03046308146065"
    }
  },
  {
    "service_request": "2022-912782",
    "request_type": "Roads/Drainage",
    "request_reason": "Pothole",
    "date_created": "2022-08-23T19:36:01.000",
    "date_modified": "2022-08-23T19:36:01.000",
    "request_status": "Pending",
    "responsible_agency": "Department of Public Works",
    "final_address": "8216 Sycamore St",
    "address_councildis": "A",
    "status": "Pending",
    "rowid": "912782",
    "final_x": "3663931.06176",
    "final_y": "531286.165122",
    "longitude": "-90.12355475128894",
    "latitude": "29.955374453815637",
    "geocoded_column": {
      "latitude": "29.955374453815637",
      "longitude": "-90.12355475128894"
    }
  },
  {
    "service_request": "2022-912781",
    "request_type": "Trash/Recycling",
    "request_reason": "MIssed Recycling Pick-Up",
    "date_created": "2022-08-23T19:35:29.000",
    "date_modified": "2022-08-23T19:35:30.000",
    "request_status": "Pending",
    "responsible_agency": "Department of Sanitation",
    "final_address": "9009 Heaton St",
    "address_councildis": "A",
    "status": "Assigned to Contractor",
    "contractor": "Richards Disposal",
    "rowid": "912781",
    "final_x": "3666957.57972",
    "final_y": "538813.395849",
    "longitude": "-90.11374509395326",
    "latitude": "29.975983636399985",
    "geocoded_column": {
      "latitude": "29.975983636399985",
      "longitude": "-90.11374509395326"
    }
  },
  {
    "service_request": "2022-912780",
    "request_type": "Roads/Drainage",
    "request_reason": "Pothole",
    "date_created": "2022-08-23T19:35:10.000",
    "date_modified": "2022-08-23T19:35:10.000",
    "request_status": "Pending",
    "responsible_agency": "Department of Public Works",
    "final_address": "2302 Joliet St",
    "address_councildis": "A",
    "status": "Pending",
    "rowid": "912780",
    "final_x": "3663503.62746",
    "final_y": "532243.279811",
    "longitude": "-90.1248725656379",
    "latitude": "29.95801861023591",
    "geocoded_column": {
      "latitude": "29.95801861023591",
      "longitude": "-90.1248725656379"
    }
  },
  {
    "service_request": "2022-912779",
    "request_type": "Property Maintenance",
    "request_reason": "Property Maintenance",
    "date_created": "2022-08-23T19:18:58.000",
    "date_modified": "2022-08-23T19:18:58.000",
    "request_status": "Pending",
    "responsible_agency": "Department of Code Enforcement",
    "final_address": "5224 Tchoupitoulas St",
    "address_councildis": "B",
    "status": "Pending",
    "rowid": "912779",
    "final_x": "3667772.06253",
    "final_y": "517149.884021",
    "longitude": "-90.11190204674669",
    "latitude": "29.91639214409823",
    "geocoded_column": {
      "latitude": "29.91639214409823",
      "longitude": "-90.11190204674669"
    }
  },
  {
    "service_request": "2022-912776",
    "request_type": "Trash/Recycling",
    "request_reason": "Request a Large Item Pick Up",
    "date_created": "2022-08-23T19:17:35.000",
    "date_modified": "2022-08-23T19:17:35.000",
    "request_status": "Pending",
    "responsible_agency": "Department of Sanitation",
    "final_address": "3141 St Philip St",
    "address_councildis": "A",
    "status": "Assigned to Contractor",
    "contractor": "Richards Disposal",
    "rowid": "912776",
    "final_x": "3675719.54421",
    "final_y": "539194.374602",
    "longitude": "-90.08605915716954",
    "latitude": "29.97677185812415",
    "geocoded_column": {
      "latitude": "29.97677185812415",
      "longitude": "-90.08605915716954"
    }
  },
  {
    "service_request": "2022-912775",
    "request_type": "Roads/Drainage",
    "request_reason": "Pothole",
    "date_created": "2022-08-23T19:17:03.000",
    "date_modified": "2022-08-23T19:17:03.000",
    "request_status": "Pending",
    "responsible_agency": "Department of Public Works",
    "final_address": "3122 Palmyra St",
    "address_councildis": "B",
    "status": "Pending",
    "rowid": "912775",
    "final_x": "3673412.12705",
    "final_y": "535519.042246",
    "longitude": "-90.09347231939647",
    "latitude": "29.966734799852716",
    "geocoded_column": {
      "latitude": "29.966734799852716",
      "longitude": "-90.09347231939647"
    }
  },
  {
    "service_request": "2022-912774",
    "request_type": "Trash/Recycling",
    "request_reason": "MIssed Recycling Pick-Up",
    "date_created": "2022-08-23T19:15:28.000",
    "date_modified": "2022-08-23T19:15:28.000",
    "request_status": "Pending",
    "responsible_agency": "Department of Sanitation",
    "final_address": "2420 Gravier St",
    "address_councildis": "B",
    "status": "Assigned to Contractor",
    "contractor": "Richards Disposal",
    "rowid": "912774",
    "final_x": "3675029.24789",
    "final_y": "532769.903172",
    "longitude": "-90.08845977373535",
    "latitude": "29.959127379731946",
    "geocoded_column": {
      "latitude": "29.959127379731946",
      "longitude": "-90.08845977373535"
    }
  },
  {
    "service_request": "2022-912773",
    "request_type": "Trash/Recycling",
    "request_reason": "Illegal Dumping",
    "date_created": "2022-08-23T19:03:06.000",
    "date_modified": "2022-08-23T19:03:06.000",
    "request_status": "Pending",
    "responsible_agency": "Department of Sanitation",
    "final_address": "2800 Banks St",
    "address_councildis": "B",
    "status": "Pending",
    "rowid": "912773",
    "final_x": "3674083.11752",
    "final_y": "534477.686021",
    "longitude": "-90.09138897541445",
    "latitude": "29.963851439977457",
    "geocoded_column": {
      "latitude": "29.963851439977457",
      "longitude": "-90.09138897541445"
    }
  },
  {
    "service_request": "2022-912772",
    "request_type": "Abandoned Vehicles",
    "request_reason": "Abandoned/Junk Vehicles",
    "date_created": "2022-08-23T18:50:06.000",
    "date_modified": "2022-08-23T18:50:06.000",
    "request_status": "Pending",
    "responsible_agency": "Department of Public Works",
    "final_address": "2731 Danneel St",
    "address_councildis": "B",
    "status": "Pending",
    "rowid": "912772",
    "final_x": "3675161.51221",
    "final_y": "523797.239867",
    "longitude": "-90.08834996505851",
    "latitude": "29.9344515696234",
    "geocoded_column": {
      "latitude": "29.9344515696234",
      "longitude": "-90.08834996505851"
    }
  },
  {
    "service_request": "2022-912771",
    "request_type": "Trash/Recycling",
    "request_reason": "Replace Trash Cart",
    "date_created": "2022-08-23T18:48:31.000",
    "date_modified": "2022-08-23T18:48:32.000",
    "request_status": "Pending",
    "responsible_agency": "Department of Sanitation",
    "final_address": "3306 Robert St",
    "address_councildis": "B",
    "status": "Assigned to Contractor",
    "contractor": "Richards Disposal",
    "rowid": "912771",
    "final_x": "3668845.2834",
    "final_y": "527020.837374",
    "longitude": "-90.10818138558541",
    "latitude": "29.943502614785217",
    "geocoded_column": {
      "latitude": "29.943502614785217",
      "longitude": "-90.10818138558541"
    }
  },
  {
    "service_request": "2022-912769",
    "request_type": "Parks & Parkways",
    "request_reason": "Request Tree Service (Right of Way/Public Property)",
    "date_created": "2022-08-23T18:35:18.000",
    "date_modified": "2022-08-23T18:35:19.000",
    "request_status": "Pending",
    "responsible_agency": "Department of Parks & Parkway",
    "final_address": "1824 Dante St",
    "address_councildis": "A",
    "status": "Pending",
    "rowid": "912769",
    "final_x": "3662966.02106",
    "final_y": "530618.785026",
    "longitude": "-90.1266242062028",
    "latitude": "29.9535673552825",
    "geocoded_column": {
      "latitude": "29.9535673552825",
      "longitude": "-90.1266242062028"
    }
  },
  {
    "service_request": "2022-912768",
    "request_type": "Traffic Signals/Signs/Striping/Streetlights",
    "request_reason": "Street Light Outage/Malfunction",
    "date_created": "2022-08-23T18:27:37.000",
    "date_modified": "2022-08-23T18:27:38.000",
    "request_status": "Pending",
    "responsible_agency": "Department of Public Works",
    "final_address": "BENSON ST & BILL ST",
    "address_councildis": "E",
    "status": "Pending",
    "contractor": "Legacy Professional Services",
    "rowid": "912768",
    "final_x": "3703992.5",
    "final_y": "563328.78",
    "longitude": "-89.99587528951638",
    "latitude": "30.042255775524723",
    "geocoded_column": {
      "latitude": "30.042255775524723",
      "longitude": "-89.99587528951638"
    }
  },
  {
    "service_request": "2022-912767",
    "request_type": "Property Maintenance",
    "request_reason": "Property Maintenance",
    "date_created": "2022-08-23T18:26:09.000",
    "date_modified": "2022-08-23T18:26:09.000",
    "request_status": "Pending",
    "responsible_agency": "Department of Code Enforcement",
    "final_address": "5703 Chartres St",
    "address_councildis": "E",
    "status": "Pending",
    "rowid": "912767",
    "final_x": "3697908.10794",
    "final_y": "531862.265155",
    "longitude": "-90.01624730090019",
    "latitude": "29.955928402053395",
    "geocoded_column": {
      "latitude": "29.955928402053395",
      "longitude": "-90.01624730090019"
    }
  },
  {
    "service_request": "2022-912766",
    "request_type": "Roads/Drainage",
    "request_reason": "Accessibility Ramps, Curbs and Sidewalk Repair",
    "date_created": "2022-08-23T18:13:24.000",
    "date_modified": "2022-08-23T18:13:24.000",
    "request_status": "Pending",
    "responsible_agency": "Department of Public Works",
    "final_address": "8123 Oak St",
    "address_councildis": "A",
    "status": "Pending",
    "rowid": "912766",
    "final_x": "3661828.92525",
    "final_y": "528544.344832",
    "longitude": "-90.13028346699865",
    "latitude": "29.947896189383744",
    "geocoded_column": {
      "latitude": "29.947896189383744",
      "longitude": "-90.13028346699865"
    }
  },
  {
    "service_request": "2022-912765",
    "request_type": "Trash/Recycling",
    "request_reason": "Request a Large Item Pick Up",
    "date_created": "2022-08-23T18:00:09.000",
    "date_modified": "2022-08-23T18:00:12.000",
    "request_status": "Pending",
    "responsible_agency": "Department of Sanitation",
    "final_address": "2316 Camp St",
    "address_councildis": "B",
    "status": "Assigned to Contractor",
    "contractor": "Richards Disposal",
    "rowid": "912765",
    "final_x": "3678203.65384",
    "final_y": "522012.930362",
    "longitude": "-90.0788076727196",
    "latitude": "29.929454065795714",
    "geocoded_column": {
      "latitude": "29.929454065795714",
      "longitude": "-90.0788076727196"
    }
  },
  {
    "service_request": "2022-912763",
    "request_type": "Trash/Recycling",
    "request_reason": "Repair Trash Cart",
    "date_created": "2022-08-23T17:55:27.000",
    "date_modified": "2022-08-23T17:55:28.000",
    "request_status": "Pending",
    "responsible_agency": "Department of Sanitation",
    "final_address": "405 Atlantic Ave",
    "address_councildis": "C",
    "status": "Assigned to Contractor",
    "contractor": "Richards Disposal",
    "rowid": "912763",
    "final_x": "3688780.19222",
    "final_y": "530235.335745",
    "longitude": "-90.04512776827875",
    "latitude": "29.951740246604743",
    "geocoded_column": {
      "latitude": "29.951740246604743",
      "longitude": "-90.04512776827875"
    }
  },
  {
    "service_request": "2022-912762",
    "request_type": "Trash/Recycling",
    "request_reason": "MIssed Recycling Pick-Up",
    "date_created": "2022-08-23T17:52:52.000",
    "date_modified": "2022-08-23T17:52:53.000",
    "request_status": "Pending",
    "responsible_agency": "Department of Sanitation",
    "final_address": "2814 Seine St",
    "address_councildis": "C",
    "status": "Assigned to Contractor",
    "contractor": "Richards Disposal",
    "rowid": "912762",
    "final_x": "3693417.14537",
    "final_y": "521015.798969",
    "longitude": "-90.03081746734189",
    "latitude": "29.926245526240336",
    "geocoded_column": {
      "latitude": "29.926245526240336",
      "longitude": "-90.03081746734189"
    }
  },
  {
    "service_request": "2022-912761",
    "request_type": "Traffic Signals/Signs/Striping/Streetlights",
    "request_reason": "Traffic Sign Missing/Damaged",
    "date_created": "2022-08-23T17:50:53.000",
    "date_modified": "2022-08-23T17:50:53.000",
    "request_status": "Pending",
    "responsible_agency": "Department of Public Works",
    "final_address": "EDINBURGH ST & LOWERLINE ST",
    "address_councildis": "B",
    "status": "Pending",
    "rowid": "912761",
    "final_x": "3668289.5",
    "final_y": "533693.18",
    "longitude": "-90.1097111805533",
    "latitude": "29.96186570244096",
    "geocoded_column": {
      "latitude": "29.96186570244096",
      "longitude": "-90.1097111805533"
    }
  },
  {
    "service_request": "2022-912760",
    "request_type": "Trash/Recycling",
    "request_reason": "Request a Large Item Pick Up",
    "date_created": "2022-08-23T17:50:49.000",
    "date_modified": "2022-08-23T17:50:50.000",
    "request_status": "Pending",
    "responsible_agency": "Department of Sanitation",
    "final_address": "5800 Tall Timbers Dr",
    "address_councildis": "C",
    "status": "Assigned to Contractor",
    "contractor": "Richards Disposal",
    "rowid": "912760",
    "final_x": "3705216.84043",
    "final_y": "514082.02917",
    "longitude": "-89.99382537095208",
    "latitude": "29.90680596284354",
    "geocoded_column": {
      "latitude": "29.90680596284354",
      "longitude": "-89.99382537095208"
    }
  },
  {
    "service_request": "2022-912759",
    "request_type": "Trash/Recycling",
    "request_reason": "MIssed Recycling Pick-Up",
    "date_created": "2022-08-23T17:26:38.000",
    "date_modified": "2022-08-23T17:26:39.000",
    "request_status": "Pending",
    "responsible_agency": "Department of Sanitation",
    "final_address": "221 S Solomon St",
    "address_councildis": "A",
    "status": "Assigned to Contractor",
    "contractor": "Richards Disposal",
    "rowid": "912759",
    "final_x": "3670188.28474",
    "final_y": "538266.980041",
    "longitude": "-90.10356009003696",
    "latitude": "29.97438623102531",
    "geocoded_column": {
      "latitude": "29.97438623102531",
      "longitude": "-90.10356009003696"
    }
  },
  {
    "service_request": "2022-912758",
    "request_type": "Trash/Recycling",
    "request_reason": "Request a Large Item Pick Up",
    "date_created": "2022-08-23T17:26:34.000",
    "date_modified": "2022-08-23T17:26:35.000",
    "request_status": "Pending",
    "responsible_agency": "Department of Sanitation",
    "final_address": "2903 Carondelet St",
    "address_councildis": "B",
    "status": "Assigned to Contractor",
    "contractor": "Richards Disposal",
    "rowid": "912758",
    "final_x": "3675221.34062",
    "final_y": "522573.384442",
    "longitude": "-90.08820307287161",
    "latitude": "29.931084577860485",
    "geocoded_column": {
      "latitude": "29.931084577860485",
      "longitude": "-90.08820307287161"
    }
  },
  {
    "service_request": "2022-912757",
    "request_type": "Trash/Recycling",
    "request_reason": "Replace Trash Cart",
    "date_created": "2022-08-23T17:17:35.000",
    "date_modified": "2022-08-23T17:17:36.000",
    "request_status": "Pending",
    "responsible_agency": "Department of Sanitation",
    "final_address": "5242 Coliseum St",
    "address_councildis": "B",
    "status": "Assigned to Contractor",
    "contractor": "Richards Disposal",
    "rowid": "912757",
    "final_x": "3667661.20621",
    "final_y": "519630.700088",
    "longitude": "-90.1121685030091",
    "latitude": "29.92321685671159",
    "geocoded_column": {
      "latitude": "29.92321685671159",
      "longitude": "-90.1121685030091"
    }
  },
  {
    "service_request": "2022-912756",
    "request_type": "Trash/Recycling",
    "request_reason": "MIssed Recycling Pick-Up",
    "date_created": "2022-08-23T17:11:36.000",
    "date_modified": "2022-08-23T17:11:37.000",
    "request_status": "Pending",
    "responsible_agency": "Department of Sanitation",
    "final_address": "935 Jackson Ave",
    "address_councildis": "B",
    "status": "Assigned to Contractor",
    "contractor": "Richards Disposal",
    "rowid": "912756",
    "final_x": "3679163.96111",
    "final_y": "521756.026746",
    "longitude": "-90.07578505981203",
    "latitude": "29.928718720106005",
    "geocoded_column": {
      "latitude": "29.928718720106005",
      "longitude": "-90.07578505981203"
    }
  },
  {
    "service_request": "2022-912755",
    "request_type": "Trash/Recycling",
    "request_reason": "Request a Large Item Pick Up",
    "date_created": "2022-08-23T17:08:18.000",
    "date_modified": "2022-08-23T17:08:19.000",
    "request_status": "Pending",
    "responsible_agency": "Department of Sanitation",
    "final_address": "3414 Lowerline St",
    "address_councildis": "B",
    "status": "Assigned to Contractor",
    "contractor": "Richards Disposal",
    "rowid": "912755",
    "final_x": "3668158.79988",
    "final_y": "533559.307589",
    "longitude": "-90.11012842508578",
    "latitude": "29.961501434674805",
    "geocoded_column": {
      "latitude": "29.961501434674805",
      "longitude": "-90.11012842508578"
    }
  },
  {
    "service_request": "2022-912754",
    "request_type": "Trash/Recycling",
    "request_reason": "Repair Trash Cart",
    "date_created": "2022-08-23T17:05:11.000",
    "date_modified": "2022-08-23T17:05:12.000",
    "request_status": "Pending",
    "responsible_agency": "Department of Sanitation",
    "final_address": "4209 Laurel St",
    "address_councildis": "B",
    "status": "Assigned to Contractor",
    "contractor": "Richards Disposal",
    "rowid": "912754",
    "final_x": "3671760.5755",
    "final_y": "518150.530422",
    "longitude": "-90.099278647915",
    "latitude": "29.919026095556966",
    "geocoded_column": {
      "latitude": "29.919026095556966",
      "longitude": "-90.099278647915"
    }
  },
  {
    "service_request": "2022-912753",
    "request_type": "Abandoned Vehicles",
    "request_reason": "Vehicle Blocking Your Driveway",
    "date_created": "2022-08-23T17:02:31.000",
    "date_modified": "2022-08-23T17:02:31.000",
    "request_status": "Pending",
    "responsible_agency": "Department of Public Works",
    "final_address": "7526 St Charles Ave",
    "address_councildis": "A",
    "status": "Pending",
    "rowid": "912753",
    "final_x": "3661951.06163",
    "final_y": "525482.669949",
    "longitude": "-90.12999935162773",
    "latitude": "29.93947403250148",
    "geocoded_column": {
      "latitude": "29.93947403250148",
      "longitude": "-90.12999935162773"
    }
  },
  {
    "service_request": "2022-912751",
    "request_type": "Trash/Recycling",
    "request_reason": "Order Recycling Cart",
    "date_created": "2022-08-23T16:48:12.000",
    "date_modified": "2022-08-23T16:48:12.000",
    "request_status": "Pending",
    "responsible_agency": "Department of Sanitation",
    "final_address": "2327 St Nick Dr",
    "address_councildis": "C",
    "status": "Pending",
    "rowid": "912751",
    "final_x": "3699556.44861",
    "final_y": "522453.04185",
    "longitude": "-90.0113852185369",
    "latitude": "29.930004129086132",
    "geocoded_column": {
      "latitude": "29.930004129086132",
      "longitude": "-90.0113852185369"
    }
  },
  {
    "service_request": "2022-912750",
    "request_type": "Trash/Recycling",
    "request_reason": "Illegal Dumping",
    "date_created": "2022-08-23T16:46:58.000",
    "date_modified": "2022-08-23T16:46:59.000",
    "request_status": "Pending",
    "responsible_agency": "Department of Code Enforcement",
    "final_address": "2112 St Claude Ave",
    "address_councildis": "C",
    "status": "Pending",
    "rowid": "912750",
    "final_x": "3684714.1005",
    "final_y": "536245.407623",
    "longitude": "-90.05775526104672",
    "latitude": "29.968390947851972",
    "geocoded_column": {
      "latitude": "29.968390947851972",
      "longitude": "-90.05775526104672"
    }
  },
  {
    "service_request": "2022-912749",
    "request_type": "Property Maintenance",
    "request_reason": "Property Maintenance",
    "date_created": "2022-08-23T16:42:53.000",
    "date_modified": "2022-08-23T16:42:53.000",
    "request_status": "Pending",
    "responsible_agency": "Department of Code Enforcement",
    "final_address": "1731 Monroe St",
    "address_councildis": "A",
    "status": "Pending",
    "rowid": "912749",
    "final_x": "3661746.34912",
    "final_y": "531244.539138",
    "longitude": "-90.13045469419014",
    "latitude": "29.955323239344295",
    "geocoded_column": {
      "latitude": "29.955323239344295",
      "longitude": "-90.13045469419014"
    }
  },
  {
    "service_request": "2022-912748",
    "request_type": "Property Maintenance",
    "request_reason": "Property Maintenance",
    "date_created": "2022-08-23T16:38:55.000",
    "date_modified": "2022-08-23T16:38:55.000",
    "request_status": "Pending",
    "responsible_agency": "Department of Code Enforcement",
    "final_address": "1720 Monroe St",
    "address_councildis": "A",
    "status": "Pending",
    "rowid": "912748",
    "final_x": "3661649.9369",
    "final_y": "531253.97485",
    "longitude": "-90.13075881762036",
    "latitude": "29.95535196713315",
    "geocoded_column": {
      "latitude": "29.95535196713315",
      "longitude": "-90.13075881762036"
    }
  },
  {
    "service_request": "2022-912747",
    "request_type": "Trash/Recycling",
    "request_reason": "Missed Trash Pick-Up",
    "date_created": "2022-08-23T16:38:29.000",
    "date_modified": "2022-08-23T17:01:30.000",
    "request_status": "Pending",
    "responsible_agency": "Department of Sanitation",
    "final_address": "New Orleans,LA",
    "address_councildis": "B",
    "status": "Assigned to Contractor",
    "contractor": "Richards Disposal",
    "rowid": "912747",
    "final_x": "3675921.44462",
    "final_y": "520124.58316",
    "longitude": "-90.08607708253852",
    "latitude": "29.924330230801118",
    "geocoded_column": {
      "latitude": "29.924330230801118",
      "longitude": "-90.08607708253852"
    }
  },
  {
    "service_request": "2022-912746",
    "request_type": "Property Maintenance",
    "request_reason": "Property Maintenance",
    "date_created": "2022-08-23T16:36:15.000",
    "date_modified": "2022-08-23T16:36:15.000",
    "request_status": "Pending",
    "responsible_agency": "Department of Code Enforcement",
    "final_address": "1719 Monroe St",
    "address_councildis": "A",
    "status": "Pending",
    "rowid": "912746",
    "final_x": "3661689.58291",
    "final_y": "531181.358274",
    "longitude": "-90.13063603607692",
    "latitude": "29.95515115082239",
    "geocoded_column": {
      "latitude": "29.95515115082239",
      "longitude": "-90.13063603607692"
    }
  },
  {
    "service_request": "2022-912744",
    "request_type": "Property Maintenance",
    "request_reason": "Property Maintenance",
    "date_created": "2022-08-23T16:31:57.000",
    "date_modified": "2022-08-23T16:31:57.000",
    "request_status": "Pending",
    "responsible_agency": "Department of Code Enforcement",
    "final_address": "13800 PierreS Ct",
    "address_councildis": "E",
    "status": "Pending",
    "rowid": "912744",
    "final_x": "3725286.63667",
    "final_y": "570327.752103",
    "longitude": "-89.92830733175902",
    "latitude": "30.06079940631201",
    "geocoded_column": {
      "latitude": "30.06079940631201",
      "longitude": "-89.92830733175902"
    }
  },
  {
    "service_request": "2022-912743",
    "request_type": "Trash/Recycling",
    "request_reason": "MIssed Recycling Pick-Up",
    "date_created": "2022-08-23T16:30:31.000",
    "date_modified": "2022-08-23T16:30:33.000",
    "request_status": "Pending",
    "responsible_agency": "Department of Sanitation",
    "final_address": "504 S Alexander St",
    "address_councildis": "A",
    "status": "Assigned to Contractor",
    "contractor": "Richards Disposal",
    "rowid": "912743",
    "final_x": "3669008.93767",
    "final_y": "537821.549065",
    "longitude": "-90.10729981214295",
    "latitude": "29.97319619614067",
    "geocoded_column": {
      "latitude": "29.97319619614067",
      "longitude": "-90.10729981214295"
    }
  },
  {
    "service_request": "2022-912742",
    "request_type": "Property Maintenance",
    "request_reason": "Property Maintenance",
    "date_created": "2022-08-23T16:26:37.000",
    "date_modified": "2022-08-23T16:26:37.000",
    "request_status": "Pending",
    "responsible_agency": "Department of Code Enforcement",
    "final_address": "5511 Bundy Rd",
    "address_councildis": "E",
    "status": "Pending",
    "rowid": "912742",
    "final_x": "3709476.08677",
    "final_y": "557830.180699",
    "longitude": "-89.97875062913505",
    "latitude": "30.026959674042576",
    "geocoded_column": {
      "latitude": "30.026959674042576",
      "longitude": "-89.97875062913505"
    }
  },
  {
    "service_request": "2022-912741",
    "request_type": "Traffic Signals/Signs/Striping/Streetlights",
    "request_reason": "Street Light Outage/Malfunction",
    "date_created": "2022-08-23T16:24:50.000",
    "date_modified": "2022-08-23T16:24:51.000",
    "request_status": "Pending",
    "responsible_agency": "Department of Public Works",
    "final_address": "6131 Craigie Rd",
    "address_councildis": "E",
    "status": "Pending",
    "contractor": "Legacy Professional Services",
    "rowid": "912741",
    "final_x": "3695927.05712",
    "final_y": "558904.968156",
    "longitude": "-90.02152514289642",
    "latitude": "30.030348385462304",
    "geocoded_column": {
      "latitude": "30.030348385462304",
      "longitude": "-90.02152514289642"
    }
  },
  {
    "service_request": "2022-912740",
    "request_type": "Property Maintenance",
    "request_reason": "Property Maintenance",
    "date_created": "2022-08-23T16:24:40.000",
    "date_modified": "2022-08-23T16:24:40.000",
    "request_status": "Pending",
    "responsible_agency": "Department of Code Enforcement",
    "final_address": "5507 Bundy Rd",
    "address_councildis": "E",
    "status": "Pending",
    "rowid": "912740",
    "final_x": "3709376.52088",
    "final_y": "558186.639899",
    "longitude": "-89.97905193195268",
    "latitude": "30.027943032798387",
    "geocoded_column": {
      "latitude": "30.027943032798387",
      "longitude": "-89.97905193195268"
    }
  },
  {
    "service_request": "2022-912739",
    "request_type": "Taxi Issues",
    "request_reason": "Taxi Complaint",
    "date_created": "2022-08-23T16:23:50.000",
    "date_modified": "2022-08-23T16:23:51.000",
    "request_status": "Pending",
    "responsible_agency": "Ground Transportation Bureau",
    "status": "Pending",
    "rowid": "912739",
    "longitude": "0.0",
    "latitude": "0.0",
    "geocoded_column": {
      "latitude": "0.0",
      "longitude": "0.0"
    }
  },
  {
    "service_request": "2022-912738",
    "request_type": "Property Maintenance",
    "request_reason": "Property Maintenance",
    "date_created": "2022-08-23T16:23:27.000",
    "date_modified": "2022-08-23T16:23:27.000",
    "request_status": "Pending",
    "responsible_agency": "Department of Code Enforcement",
    "final_address": "5529 Bundy Rd",
    "address_councildis": "E",
    "status": "Pending",
    "rowid": "912738",
    "final_x": "3709887.63198",
    "final_y": "558036.639899",
    "longitude": "-89.97744247903816",
    "latitude": "30.02751397178733",
    "geocoded_column": {
      "latitude": "30.02751397178733",
      "longitude": "-89.97744247903816"
    }
  },
  {
    "service_request": "2022-912737",
    "request_type": "Trash/Recycling",
    "request_reason": "Replace Trash Cart",
    "date_created": "2022-08-23T16:23:03.000",
    "date_modified": "2022-08-23T16:23:04.000",
    "request_status": "Pending",
    "responsible_agency": "Department of Sanitation",
    "final_address": "2601 Danneel St",
    "address_councildis": "B",
    "status": "Assigned to Contractor",
    "contractor": "Richards Disposal",
    "rowid": "912737",
    "final_x": "3675595.874",
    "final_y": "524082.656764",
    "longitude": "-90.08696889358153",
    "latitude": "29.935223388845415",
    "geocoded_column": {
      "latitude": "29.935223388845415",
      "longitude": "-90.08696889358153"
    }
  },
  {
    "service_request": "2022-912736",
    "request_type": "Property Maintenance",
    "request_reason": "Property Maintenance",
    "date_created": "2022-08-23T16:22:42.000",
    "date_modified": "2022-08-23T16:22:42.000",
    "request_status": "Pending",
    "responsible_agency": "Department of Code Enforcement",
    "final_address": "5533 Bundy Rd",
    "address_councildis": "E",
    "status": "Pending",
    "rowid": "912736",
    "final_x": "3709673.74309",
    "final_y": "557981.084379",
    "longitude": "-89.97812042068206",
    "latitude": "30.027368173467046",
    "geocoded_column": {
      "latitude": "30.027368173467046",
      "longitude": "-89.97812042068206"
    }
  },
  {
    "service_request": "2022-912735",
    "request_type": "Traffic Signals/Signs/Striping/Streetlights",
    "request_reason": "Street Light Outage/Malfunction",
    "date_created": "2022-08-23T16:19:29.000",
    "date_modified": "2022-08-23T16:19:29.000",
    "request_status": "Pending",
    "responsible_agency": "Department of Public Works",
    "final_address": "401 Vallette St",
    "address_councildis": "C",
    "status": "Pending",
    "contractor": "Legacy Professional Services",
    "rowid": "912735",
    "final_x": "3687518.54415",
    "final_y": "530319.365506",
    "longitude": "-90.04910846483817",
    "latitude": "29.952010240588407",
    "geocoded_column": {
      "latitude": "29.952010240588407",
      "longitude": "-90.04910846483817"
    }
  },
  {
    "service_request": "2022-912734",
    "request_type": "Roads/Drainage",
    "request_reason": "Catch Basin - Clogged",
    "date_created": "2022-08-23T16:18:55.000",
    "date_modified": "2022-08-23T16:18:55.000",
    "request_status": "Pending",
    "responsible_agency": "Department of Public Works",
    "final_address": "2736 Palmyra St",
    "address_councildis": "B",
    "status": "Pending",
    "rowid": "912734",
    "final_x": "3674548.05748",
    "final_y": "534618.990662",
    "longitude": "-90.08991589519147",
    "latitude": "29.964226115469565",
    "geocoded_column": {
      "latitude": "29.964226115469565",
      "longitude": "-90.08991589519147"
    }
  },
  {
    "service_request": "2022-912733",
    "request_type": "Property Maintenance",
    "request_reason": "Property Maintenance",
    "date_created": "2022-08-23T16:18:29.000",
    "date_modified": "2022-08-23T16:18:29.000",
    "request_status": "Pending",
    "responsible_agency": "Department of Code Enforcement",
    "final_address": "5529 Bundy Rd",
    "address_councildis": "E",
    "status": "Pending",
    "rowid": "912733",
    "final_x": "3709887.63198",
    "final_y": "558036.639899",
    "longitude": "-89.97744247903816",
    "latitude": "30.02751397178733",
    "geocoded_column": {
      "latitude": "30.02751397178733",
      "longitude": "-89.97744247903816"
    }
  },
  {
    "service_request": "2022-912732",
    "request_type": "Property Maintenance",
    "request_reason": "Property Maintenance",
    "date_created": "2022-08-23T16:16:06.000",
    "date_modified": "2022-08-23T16:16:06.000",
    "request_status": "Pending",
    "responsible_agency": "Department of Code Enforcement",
    "final_address": "5533 Bundy Rd",
    "address_councildis": "E",
    "status": "Pending",
    "rowid": "912732",
    "final_x": "3709673.74309",
    "final_y": "557981.084379",
    "longitude": "-89.97812042068206",
    "latitude": "30.027368173467046",
    "geocoded_column": {
      "latitude": "30.027368173467046",
      "longitude": "-89.97812042068206"
    }
  },
  {
    "service_request": "2022-912731",
    "request_type": "Property Maintenance",
    "request_reason": "Property Maintenance",
    "date_created": "2022-08-23T16:14:35.000",
    "date_modified": "2022-08-23T16:14:35.000",
    "request_status": "Pending",
    "responsible_agency": "Department of Code Enforcement",
    "final_address": "5543 Bundy Rd",
    "address_councildis": "E",
    "status": "Pending",
    "rowid": "912731",
    "final_x": "3709027.90974",
    "final_y": "557617.889947",
    "longitude": "-89.9801747335572",
    "latitude": "30.026390518302495",
    "geocoded_column": {
      "latitude": "30.026390518302495",
      "longitude": "-89.9801747335572"
    }
  },
  {
    "service_request": "2022-912730",
    "request_type": "Mosquito, Termite & Rodent Control",
    "request_reason": "Rodent Complaint (Rats)",
    "date_created": "2022-08-23T16:14:28.000",
    "date_modified": "2022-08-23T16:14:28.000",
    "request_status": "Pending",
    "responsible_agency": "Mosquito, Termite & Rodent Control Board",
    "final_address": "1316 Marigny St",
    "address_councildis": "C",
    "status": "Pending",
    "rowid": "912730",
    "final_x": "3685308.9062",
    "final_y": "537216.31732",
    "longitude": "-90.05584265498345",
    "latitude": "29.971042391497726",
    "geocoded_column": {
      "latitude": "29.971042391497726",
      "longitude": "-90.05584265498345"
    }
  },
  {
    "service_request": "2022-912729",
    "request_type": "Trash/Recycling",
    "request_reason": "Request a Large Item Pick Up",
    "date_created": "2022-08-23T16:13:52.000",
    "date_modified": "2022-08-23T16:13:52.000",
    "request_status": "Pending",
    "responsible_agency": "Department of Sanitation",
    "final_address": "4871 Lennox Blvd",
    "address_councildis": "C",
    "status": "Assigned to Contractor",
    "contractor": "Richards Disposal",
    "rowid": "912729",
    "final_x": "3700611.49943",
    "final_y": "512423.367793",
    "longitude": "-90.00842072149607",
    "latitude": "29.902392434840337",
    "geocoded_column": {
      "latitude": "29.902392434840337",
      "longitude": "-90.00842072149607"
    }
  },
  {
    "service_request": "2022-912728",
    "request_type": "Traffic Signals/Signs/Striping/Streetlights",
    "request_reason": "Street Light Outage/Malfunction",
    "date_created": "2022-08-23T16:09:05.000",
    "date_modified": "2022-08-23T16:09:06.000",
    "request_status": "Pending",
    "responsible_agency": "Department of Public Works",
    "final_address": "2324 N Robertson St",
    "address_councildis": "C",
    "status": "Pending",
    "contractor": "Legacy Professional Services",
    "rowid": "912728",
    "final_x": "3685855.4102",
    "final_y": "537817.851657",
    "longitude": "-90.0540955179075",
    "latitude": "29.97267963611057",
    "geocoded_column": {
      "latitude": "29.97267963611057",
      "longitude": "-90.0540955179075"
    }
  },
  {
    "service_request": "2022-912727",
    "request_type": "Trash/Recycling",
    "request_reason": "Missed Trash Pick-Up",
    "date_created": "2022-08-23T16:06:32.000",
    "date_modified": "2022-08-23T16:06:33.000",
    "request_status": "Pending",
    "responsible_agency": "Department of Sanitation",
    "final_address": "1823 Bodenger Blvd",
    "address_councildis": "C",
    "status": "Assigned to Contractor",
    "contractor": "Richards Disposal",
    "rowid": "912727",
    "final_x": "3688396.44387",
    "final_y": "525003.196285",
    "longitude": "-90.04652498870891",
    "latitude": "29.93736550323766",
    "geocoded_column": {
      "latitude": "29.93736550323766",
      "longitude": "-90.04652498870891"
    }
  },
  {
    "service_request": "2022-912726",
    "request_type": "Trash/Recycling",
    "request_reason": "Repair Trash Cart",
    "date_created": "2022-08-23T16:05:13.000",
    "date_modified": "2022-08-23T16:05:14.000",
    "request_status": "Pending",
    "responsible_agency": "Department of Sanitation",
    "final_address": "100 Duckhook Dr",
    "address_councildis": "A",
    "status": "Assigned to Contractor",
    "contractor": "Richards Disposal",
    "rowid": "912726",
    "final_x": "3667282.3026",
    "final_y": "539245.129738",
    "longitude": "-90.1127049964496",
    "latitude": "29.97716125224992",
    "geocoded_column": {
      "latitude": "29.97716125224992",
      "longitude": "-90.1127049964496"
    }
  },
  {
    "service_request": "2022-912725",
    "request_type": "Property Maintenance",
    "request_reason": "Property Maintenance",
    "date_created": "2022-08-23T16:04:26.000",
    "date_modified": "2022-08-23T16:04:26.000",
    "request_status": "Pending",
    "responsible_agency": "Department of Code Enforcement",
    "final_address": "5501 Bundy Rd",
    "address_councildis": "E",
    "status": "Pending",
    "rowid": "912725",
    "final_x": "3709937.84766",
    "final_y": "558061.934683",
    "longitude": "-89.97728285709977",
    "latitude": "30.027581888538652",
    "geocoded_column": {
      "latitude": "30.027581888538652",
      "longitude": "-89.97728285709977"
    }
  },
  {
    "service_request": "2022-912724",
    "request_type": "Trash/Recycling",
    "request_reason": "Replace Trash Cart",
    "date_created": "2022-08-23T16:03:19.000",
    "date_modified": "2022-08-23T16:03:20.000",
    "request_status": "Pending",
    "responsible_agency": "Department of Sanitation",
    "final_address": "729 Antonine St",
    "address_councildis": "B",
    "status": "Assigned to Contractor",
    "contractor": "Richards Disposal",
    "rowid": "912724",
    "final_x": "3674316.2914",
    "final_y": "518029.313782",
    "longitude": "-90.09121570128211",
    "latitude": "29.918616857066482",
    "geocoded_column": {
      "latitude": "29.918616857066482",
      "longitude": "-90.09121570128211"
    }
  },
  {
    "service_request": "2022-912723",
    "request_type": "Roads/Drainage",
    "request_reason": "Debris in Roadway",
    "date_created": "2022-08-23T16:03:12.000",
    "date_modified": "2022-08-23T16:03:12.000",
    "request_status": "Pending",
    "responsible_agency": "Department of Public Works",
    "final_address": "NORMAN C FRANCIS OVERPASS & PERDIDO ST",
    "address_councildis": "B",
    "status": "Pending",
    "rowid": "912723",
    "final_x": "3671292.31",
    "final_y": "534163.6",
    "longitude": "-90.10021277347082",
    "latitude": "29.96307068703632",
    "geocoded_column": {
      "latitude": "29.96307068703632",
      "longitude": "-90.10021277347082"
    }
  },
  {
    "service_request": "2022-912722",
    "request_type": "Trash/Recycling",
    "request_reason": "Illegal Dumping",
    "date_created": "2022-08-23T16:02:23.000",
    "date_modified": "2022-08-23T16:02:24.000",
    "request_status": "Pending",
    "responsible_agency": "Department of Sanitation",
    "final_address": "NORMAN C FRANCIS OVERPASS & PERDIDO ST",
    "address_councildis": "B",
    "status": "Pending",
    "rowid": "912722",
    "final_x": "3671292.31",
    "final_y": "534163.6",
    "longitude": "-90.10021277347082",
    "latitude": "29.96307068703632",
    "geocoded_column": {
      "latitude": "29.96307068703632",
      "longitude": "-90.10021277347082"
    }
  },
  {
    "service_request": "2022-912721",
    "request_type": "Trash/Recycling",
    "request_reason": "Replace Trash Cart",
    "date_created": "2022-08-23T15:59:13.000",
    "date_modified": "2022-08-23T15:59:14.000",
    "request_status": "Pending",
    "responsible_agency": "Department of Sanitation",
    "final_address": "2708 Carondelet St",
    "address_councildis": "B",
    "status": "Assigned to Contractor",
    "contractor": "Richards Disposal",
    "rowid": "912721",
    "final_x": "3675904.34491",
    "final_y": "522947.812411",
    "longitude": "-90.08603404972801",
    "latitude": "29.93209370747737",
    "geocoded_column": {
      "latitude": "29.93209370747737",
      "longitude": "-90.08603404972801"
    }
  },
  {
    "service_request": "2022-912720",
    "request_type": "Roads/Drainage",
    "request_reason": "Catch Basin - Clogged",
    "date_created": "2022-08-23T15:57:14.000",
    "date_modified": "2022-08-23T15:57:14.000",
    "request_status": "Pending",
    "responsible_agency": "Department of Public Works",
    "final_address": "2851 Baronne St",
    "address_councildis": "B",
    "status": "Pending",
    "rowid": "912720",
    "final_x": "3675153.7563",
    "final_y": "522949.933435",
    "longitude": "-90.08840351275896",
    "latitude": "29.932121984455666",
    "geocoded_column": {
      "latitude": "29.932121984455666",
      "longitude": "-90.08840351275896"
    }
  },
  {
    "service_request": "2022-912719",
    "request_type": "Roads/Drainage",
    "request_reason": "Catch Basin - Clogged",
    "date_created": "2022-08-23T15:55:48.000",
    "date_modified": "2022-08-23T15:55:48.000",
    "request_status": "Pending",
    "responsible_agency": "Department of Public Works",
    "final_address": "2710 Carondelet St",
    "address_councildis": "B",
    "status": "Pending",
    "rowid": "912719",
    "final_x": "3675884.93883",
    "final_y": "522934.581627",
    "longitude": "-90.08609576747973",
    "latitude": "29.932057907967767",
    "geocoded_column": {
      "latitude": "29.932057907967767",
      "longitude": "-90.08609576747973"
    }
  },
  {
    "service_request": "2022-912718",
    "request_type": "Trash/Recycling",
    "request_reason": "Order Trash Cart",
    "date_created": "2022-08-23T15:54:47.000",
    "date_modified": "2022-08-23T15:54:48.000",
    "request_status": "Pending",
    "responsible_agency": "Department of Sanitation",
    "final_address": "6330 Orleans Ave",
    "address_councildis": "A",
    "status": "Assigned to Contractor",
    "contractor": "Metro Disposal",
    "rowid": "912718",
    "final_x": "3671031.47284",
    "final_y": "549392.450707",
    "longitude": "-90.1005190557366",
    "latitude": "30.004952537669542",
    "geocoded_column": {
      "latitude": "30.004952537669542",
      "longitude": "-90.1005190557366"
    }
  },
  {
    "service_request": "2022-912717",
    "request_type": "Roads/Drainage",
    "request_reason": "Street Subsidence (Sinking)",
    "date_created": "2022-08-23T15:51:31.000",
    "date_modified": "2022-08-23T15:51:31.000",
    "request_status": "Pending",
    "responsible_agency": "Department of Public Works",
    "final_address": "1501 Dave Dixon Dr",
    "address_councildis": "B",
    "status": "Pending",
    "rowid": "912717",
    "final_x": "3677099.45326",
    "final_y": "529181.056768",
    "longitude": "-90.08204632448965",
    "latitude": "29.94919724817447",
    "geocoded_column": {
      "latitude": "29.94919724817447",
      "longitude": "-90.08204632448965"
    }
  },
  {
    "service_request": "2022-912716",
    "request_type": "Abandoned Vehicles",
    "request_reason": "Abandoned/Junk Vehicles",
    "date_created": "2022-08-23T15:50:49.000",
    "date_modified": "2022-08-23T15:50:49.000",
    "request_status": "Pending",
    "responsible_agency": "Department of Public Works",
    "final_address": "301 S Norman C Francis Prkwy",
    "address_councildis": "B",
    "status": "Pending",
    "rowid": "912716",
    "final_x": "3672584.49774",
    "final_y": "536160.659015",
    "longitude": "-90.09606409526579",
    "latitude": "29.96852362845213",
    "geocoded_column": {
      "latitude": "29.96852362845213",
      "longitude": "-90.09606409526579"
    }
  },
  {
    "service_request": "2022-912715",
    "request_type": "Trash/Recycling",
    "request_reason": "Missed Trash Pick-Up",
    "date_created": "2022-08-23T15:49:54.000",
    "date_modified": "2022-08-23T15:49:55.000",
    "request_status": "Pending",
    "responsible_agency": "Department of Sanitation",
    "final_address": "7011 Jeannette St, New Orleans, Louisiana, 70118",
    "address_councildis": "A",
    "status": "Assigned to Contractor",
    "contractor": "Richards Disposal",
    "rowid": "912715",
    "final_x": "3665142.10823",
    "final_y": "527160.246847",
    "longitude": "-90.11986866175788",
    "latitude": "29.94399429968434",
    "geocoded_column": {
      "latitude": "29.94399429968434",
      "longitude": "-90.11986866175788"
    }
  },
  {
    "service_request": "2022-912714",
    "request_type": "Property Maintenance",
    "request_reason": "Property Maintenance",
    "date_created": "2022-08-23T15:49:31.000",
    "date_modified": "2022-08-23T15:49:31.000",
    "request_status": "Pending",
    "responsible_agency": "Department of Code Enforcement",
    "final_address": "729 Jackson Ave",
    "address_councildis": "B",
    "status": "Pending",
    "rowid": "912714",
    "final_x": "3679635.15355",
    "final_y": "521140.794617",
    "longitude": "-90.07431894292597",
    "latitude": "29.927012805327145",
    "geocoded_column": {
      "latitude": "29.927012805327145",
      "longitude": "-90.07431894292597"
    }
  },
  {
    "service_request": "2022-912713",
    "request_type": "Trash/Recycling",
    "request_reason": "Missed Trash Pick-Up",
    "date_created": "2022-08-23T15:49:07.000",
    "date_modified": "2022-08-23T15:49:08.000",
    "request_status": "Pending",
    "responsible_agency": "Department of Sanitation",
    "final_address": "3915 Chestnut St",
    "address_councildis": "B",
    "status": "Assigned to Contractor",
    "contractor": "Richards Disposal",
    "rowid": "912713",
    "final_x": "3672752.805",
    "final_y": "519741.469688",
    "longitude": "-90.09609245941724",
    "latitude": "29.923371249886785",
    "geocoded_column": {
      "latitude": "29.923371249886785",
      "longitude": "-90.09609245941724"
    }
  },
  {
    "service_request": "2022-912712",
    "request_type": "Roads/Drainage",
    "request_reason": "Catch Basin - Clogged",
    "date_created": "2022-08-23T15:47:30.000",
    "date_modified": "2022-08-23T15:48:40.000",
    "request_status": "Pending",
    "responsible_agency": "Department of Public Works",
    "final_address": "711 N Solomon St",
    "address_councildis": "A",
    "status": "Pending",
    "rowid": "912712",
    "final_x": "3671897.2011",
    "final_y": "540506.527307",
    "longitude": "-90.09808666498013",
    "latitude": "29.980493683152837",
    "geocoded_column": {
      "latitude": "29.980493683152837",
      "longitude": "-90.09808666498013"
    }
  },
  {
    "service_request": "2022-912711",
    "request_type": "Roads/Drainage",
    "request_reason": "Catch Basin - Clogged",
    "date_created": "2022-08-23T15:45:35.000",
    "date_modified": "2022-08-23T15:45:35.000",
    "request_status": "Pending",
    "responsible_agency": "Department of Public Works",
    "final_address": "1246 Alabo St",
    "address_councildis": "E",
    "status": "Pending",
    "rowid": "912711",
    "final_x": "3699044.20061",
    "final_y": "534241.691525",
    "longitude": "-90.01257333236619",
    "latitude": "29.96243502252791",
    "geocoded_column": {
      "latitude": "29.96243502252791",
      "longitude": "-90.01257333236619"
    }
  },
  {
    "service_request": "2022-912710",
    "request_type": "Property Maintenance",
    "request_reason": "Property Maintenance",
    "date_created": "2022-08-23T15:45:03.000",
    "date_modified": "2022-08-23T15:45:03.000",
    "request_status": "Pending",
    "responsible_agency": "Department of Code Enforcement",
    "final_address": "6880 Parc Brittany Blvd",
    "address_councildis": "E",
    "status": "Pending",
    "rowid": "912710",
    "final_x": "3702661.06884",
    "final_y": "557779.036635",
    "longitude": "-90.00028714562029",
    "latitude": "30.02703881139196",
    "geocoded_column": {
      "latitude": "30.02703881139196",
      "longitude": "-90.00028714562029"
    }
  },
  {
    "service_request": "2022-912709",
    "request_type": "Property Maintenance",
    "request_reason": "Property Maintenance",
    "date_created": "2022-08-23T15:44:11.000",
    "date_modified": "2022-08-23T16:00:39.000",
    "request_status": "Pending",
    "responsible_agency": "Department of Code Enforcement",
    "final_address": "1246 Alabo St",
    "address_councildis": "E",
    "rowid": "912709",
    "final_x": "3699044.20061",
    "final_y": "534241.691525",
    "longitude": "-90.01257333236619",
    "latitude": "29.96243502252791",
    "geocoded_column": {
      "latitude": "29.96243502252791",
      "longitude": "-90.01257333236619"
    }
  },
  {
    "service_request": "2022-912708",
    "request_type": "Roads/Drainage",
    "request_reason": "Pothole",
    "date_created": "2022-08-23T15:42:36.000",
    "date_modified": "2022-08-23T15:44:05.000",
    "request_status": "Pending",
    "responsible_agency": "Department of Public Works",
    "final_address": "N ROBERTSON ST & ST BERNARD AVE",
    "address_councildis": "C",
    "status": "Pending",
    "rowid": "912708",
    "final_x": "3682396.99",
    "final_y": "537418.21",
    "longitude": "-90.06503180401904",
    "latitude": "29.9716864721633",
    "geocoded_column": {
      "latitude": "29.9716864721633",
      "longitude": "-90.06503180401904"
    }
  },
  {
    "service_request": "2022-912706",
    "request_type": "Traffic Signals/Signs/Striping/Streetlights",
    "request_reason": "Traffic Sign Missing/Damaged",
    "date_created": "2022-08-23T15:42:17.000",
    "date_modified": "2022-08-23T15:42:17.000",
    "request_status": "Pending",
    "responsible_agency": "Department of Public Works",
    "final_address": "725 Napoleon Ave",
    "address_councildis": "B",
    "status": "Pending",
    "rowid": "912706",
    "final_x": "3671210.86254",
    "final_y": "518268.895926",
    "longitude": "-90.10100979535594",
    "latitude": "29.91936783071306",
    "geocoded_column": {
      "latitude": "29.91936783071306",
      "longitude": "-90.10100979535594"
    }
  },
  {
    "service_request": "2022-912705",
    "request_type": "Traffic Signals/Signs/Striping/Streetlights",
    "request_reason": "Street Light Knocked Down/Leaning",
    "date_created": "2022-08-23T15:38:44.000",
    "date_modified": "2022-08-23T15:38:45.000",
    "request_status": "Pending",
    "responsible_agency": "Department of Public Works",
    "final_address": "CONSTANTINOPLE ST & S FRONT ST",
    "address_councildis": "B",
    "status": "Pending",
    "contractor": "Legacy Professional Services",
    "rowid": "912705",
    "final_x": "3672687.9",
    "final_y": "517363.98",
    "longitude": "-90.0963783566117",
    "latitude": "29.91683583796731",
    "geocoded_column": {
      "latitude": "29.91683583796731",
      "longitude": "-90.0963783566117"
    }
  },
  {
    "service_request": "2022-912704",
    "request_type": "Roads/Drainage",
    "request_reason": "Street Subsidence (Sinking)",
    "date_created": "2022-08-23T15:38:34.000",
    "date_modified": "2022-08-23T15:38:34.000",
    "request_status": "Pending",
    "responsible_agency": "Department of Public Works",
    "final_address": "7216 Zimple St",
    "address_councildis": "A",
    "status": "Pending",
    "rowid": "912704",
    "final_x": "3663804.21946",
    "final_y": "526256.17811",
    "longitude": "-90.12412288780554",
    "latitude": "29.941547290610224",
    "geocoded_column": {
      "latitude": "29.941547290610224",
      "longitude": "-90.12412288780554"
    }
  },
  {
    "service_request": "2022-912703",
    "request_type": "Trash/Recycling",
    "request_reason": "Order Trash Cart",
    "date_created": "2022-08-23T15:34:38.000",
    "date_modified": "2022-08-23T15:34:38.000",
    "request_status": "Pending",
    "responsible_agency": "Department of Sanitation",
    "final_address": "3633 Chestnut St",
    "address_councildis": "B",
    "status": "Assigned to Contractor",
    "contractor": "Richards Disposal",
    "rowid": "912703",
    "final_x": "3673579.85563",
    "final_y": "519921.726776",
    "longitude": "-90.09347561041082",
    "latitude": "29.923842317942185",
    "geocoded_column": {
      "latitude": "29.923842317942185",
      "longitude": "-90.09347561041082"
    }
  },
  {
    "service_request": "2022-912702",
    "request_type": "Trash/Recycling",
    "request_reason": "Order Recycling Cart",
    "date_created": "2022-08-23T15:31:14.000",
    "date_modified": "2022-08-23T15:31:14.000",
    "request_status": "Pending",
    "responsible_agency": "Department of Sanitation",
    "final_address": "3233 Chippewa St",
    "address_councildis": "B",
    "status": "Pending",
    "rowid": "912702",
    "final_x": "3676212.85973",
    "final_y": "518507.707703",
    "longitude": "-90.08521278004415",
    "latitude": "29.919875619115093",
    "geocoded_column": {
      "latitude": "29.919875619115093",
      "longitude": "-90.08521278004415"
    }
  },
  {
    "service_request": "2022-912701",
    "request_type": "Trash/Recycling",
    "request_reason": "Missed Trash Pick-Up",
    "date_created": "2022-08-23T15:27:22.000",
    "date_modified": "2022-08-23T15:27:23.000",
    "request_status": "Pending",
    "responsible_agency": "Department of Sanitation",
    "final_address": "2432 Bartholomew St, New Orleans, Louisiana, 70117",
    "address_councildis": "D",
    "status": "Assigned to Contractor",
    "contractor": "Metro Disposal",
    "rowid": "912701",
    "final_x": "3693035.21501",
    "final_y": "540452.326219",
    "longitude": "-90.03132593092674",
    "latitude": "29.979701144314724",
    "geocoded_column": {
      "latitude": "29.979701144314724",
      "longitude": "-90.03132593092674"
    }
  },
  {
    "service_request": "2022-912700",
    "request_type": "Trash/Recycling",
    "request_reason": "Illegal Dumping",
    "date_created": "2022-08-23T15:26:12.000",
    "date_modified": "2022-08-23T15:26:12.000",
    "request_status": "Pending",
    "responsible_agency": "Department of Sanitation",
    "final_address": "6839 Tara Ln",
    "address_councildis": "E",
    "status": "Pending",
    "rowid": "912700",
    "final_x": "3707281.21662",
    "final_y": "559522.619101",
    "longitude": "-89.98562324318297",
    "latitude": "30.03168437861475",
    "geocoded_column": {
      "latitude": "30.03168437861475",
      "longitude": "-89.98562324318297"
    }
  },
  {
    "service_request": "2022-912699",
    "request_type": "Roads/Drainage",
    "request_reason": "Damaged Sidewalk",
    "date_created": "2022-08-23T15:21:45.000",
    "date_modified": "2022-08-23T15:21:45.000",
    "request_status": "Pending",
    "responsible_agency": "Department of Public Works",
    "final_address": "3631 Elysian Fields Ave",
    "address_councildis": "D",
    "status": "Pending",
    "rowid": "912699",
    "final_x": "3684385.09282",
    "final_y": "546120.371472",
    "longitude": "-90.0584473039898",
    "latitude": "29.995553689470114",
    "geocoded_column": {
      "latitude": "29.995553689470114",
      "longitude": "-90.0584473039898"
    }
  },
  {
    "service_request": "2022-912698",
    "request_type": "Roads/Drainage",
    "request_reason": "Catch Basin - Clogged",
    "date_created": "2022-08-23T15:21:10.000",
    "date_modified": "2022-08-23T15:21:10.000",
    "request_status": "Pending",
    "responsible_agency": "Department of Public Works",
    "final_address": "8012 Panola St",
    "address_councildis": "A",
    "status": "Pending",
    "rowid": "912698",
    "final_x": "3664302.62477",
    "final_y": "530468.129538",
    "longitude": "-90.12240878314542",
    "latitude": "29.953114329355717",
    "geocoded_column": {
      "latitude": "29.953114329355717",
      "longitude": "-90.12240878314542"
    }
  },
  {
    "service_request": "2022-912697",
    "request_type": "Trash/Recycling",
    "request_reason": "Illegal Dumping",
    "date_created": "2022-08-23T15:21:03.000",
    "date_modified": "2022-08-23T15:21:03.000",
    "request_status": "Pending",
    "responsible_agency": "Department of Sanitation",
    "final_address": "6090 Bullard Ave",
    "address_councildis": "E",
    "status": "Pending",
    "rowid": "912697",
    "final_x": "3715239.41432",
    "final_y": "564292.826913",
    "longitude": "-89.96029457885659",
    "latitude": "30.044540755023633",
    "geocoded_column": {
      "latitude": "30.044540755023633",
      "longitude": "-89.96029457885659"
    }
  },
  {
    "service_request": "2022-912696",
    "request_type": "Roads/Drainage",
    "request_reason": "Pothole",
    "date_created": "2022-08-23T15:19:58.000",
    "date_modified": "2022-08-23T15:19:58.000",
    "request_status": "Pending",
    "responsible_agency": "Department of Public Works",
    "final_address": "8012 Panola St",
    "address_councildis": "A",
    "status": "Pending",
    "rowid": "912696",
    "final_x": "3664302.62477",
    "final_y": "530468.129538",
    "longitude": "-90.12240878314542",
    "latitude": "29.953114329355717",
    "geocoded_column": {
      "latitude": "29.953114329355717",
      "longitude": "-90.12240878314542"
    }
  },
  {
    "service_request": "2022-912695",
    "request_type": "Abandoned Vehicles",
    "request_reason": "Abandoned/Junk Vehicles",
    "date_created": "2022-08-23T15:19:47.000",
    "date_modified": "2022-08-23T15:49:10.000",
    "request_status": "Pending",
    "responsible_agency": "Department of Public Works",
    "final_address": "4000 S Saratoga St",
    "address_councildis": "B",
    "status": "Pending",
    "rowid": "912695",
    "final_x": "3672099.40878",
    "final_y": "522741.593658",
    "longitude": "-90.09805289500945",
    "latitude": "29.931640011234855",
    "geocoded_column": {
      "latitude": "29.931640011234855",
      "longitude": "-90.09805289500945"
    }
  },
  {
    "service_request": "2022-912694",
    "request_type": "Roads/Drainage",
    "request_reason": "Debris in Roadway",
    "date_created": "2022-08-23T15:19:46.000",
    "date_modified": "2022-08-23T15:19:46.000",
    "request_status": "Pending",
    "responsible_agency": "Department of Public Works",
    "final_address": "2435 Alvar St",
    "address_councildis": "D",
    "status": "Pending",
    "rowid": "912694",
    "final_x": "3692822.18755",
    "final_y": "540560.044683",
    "longitude": "-90.03199489142852",
    "latitude": "29.98000398560768",
    "geocoded_column": {
      "latitude": "29.98000398560768",
      "longitude": "-90.03199489142852"
    }
  },
  {
    "service_request": "2022-912693",
    "request_type": "Trash/Recycling",
    "request_reason": "Order Trash Cart",
    "date_created": "2022-08-23T15:17:50.000",
    "date_modified": "2022-08-23T15:17:50.000",
    "request_status": "Pending",
    "responsible_agency": "Department of Sanitation",
    "final_address": "4643 Charlmark Dr",
    "address_councildis": "E",
    "status": "Assigned to Contractor",
    "contractor": "Metro Disposal",
    "rowid": "912693",
    "final_x": "3711568.63262",
    "final_y": "555484.973401",
    "longitude": "-89.97222648334288",
    "latitude": "30.020443091424053",
    "geocoded_column": {
      "latitude": "30.020443091424053",
      "longitude": "-89.97222648334288"
    }
  },
  {
    "service_request": "2022-912692",
    "request_type": "Trash/Recycling",
    "request_reason": "Missed Trash Pick-Up",
    "date_created": "2022-08-23T15:17:05.000",
    "date_modified": "2022-08-23T15:17:05.000",
    "request_status": "Pending",
    "responsible_agency": "Department of Sanitation",
    "final_address": "1820 S Carrollton Ave",
    "address_councildis": "A",
    "status": "Assigned to Contractor",
    "contractor": "Richards Disposal",
    "rowid": "912692",
    "final_x": "3663475.70631",
    "final_y": "530065.458113",
    "longitude": "-90.12503325145126",
    "latitude": "29.95203111619384",
    "geocoded_column": {
      "latitude": "29.95203111619384",
      "longitude": "-90.12503325145126"
    }
  },
  {
    "service_request": "2022-912691",
    "request_type": "Trash/Recycling",
    "request_reason": "Missed Trash Pick-Up",
    "date_created": "2022-08-23T15:16:03.000",
    "date_modified": "2022-08-23T15:16:03.000",
    "request_status": "Pending",
    "responsible_agency": "Department of Sanitation",
    "final_address": "7318 Hickory St",
    "address_councildis": "A",
    "status": "Assigned to Contractor",
    "contractor": "Richards Disposal",
    "rowid": "912691",
    "final_x": "3664916.19802",
    "final_y": "528427.712448",
    "longitude": "-90.12053956994609",
    "latitude": "29.947485998676203",
    "geocoded_column": {
      "latitude": "29.947485998676203",
      "longitude": "-90.12053956994609"
    }
  },
  {
    "service_request": "2022-912690",
    "request_type": "Trash/Recycling",
    "request_reason": "Request a Large Item Pick Up",
    "date_created": "2022-08-23T15:14:59.000",
    "date_modified": "2022-08-23T15:15:00.000",
    "request_status": "Pending",
    "responsible_agency": "Department of Sanitation",
    "final_address": "808 Wilson Dr",
    "address_councildis": "A",
    "status": "Assigned to Contractor",
    "contractor": "Richards Disposal",
    "rowid": "912690",
    "final_x": "3674072.88379",
    "final_y": "539316.73473",
    "longitude": "-90.09125564552313",
    "latitude": "29.977157489567006",
    "geocoded_column": {
      "latitude": "29.977157489567006",
      "longitude": "-90.09125564552313"
    }
  },
  {
    "service_request": "2022-912689",
    "request_type": "Trash/Recycling",
    "request_reason": "Repair Trash Cart",
    "date_created": "2022-08-23T15:14:44.000",
    "date_modified": "2022-08-23T15:14:45.000",
    "request_status": "Pending",
    "responsible_agency": "Department of Sanitation",
    "final_address": "3132 General Ogden St",
    "address_councildis": "A",
    "status": "Assigned to Contractor",
    "contractor": "Richards Disposal",
    "rowid": "912689",
    "final_x": "3664630.46202",
    "final_y": "535566.285766",
    "longitude": "-90.12120332065376",
    "latitude": "29.9671230611165",
    "geocoded_column": {
      "latitude": "29.9671230611165",
      "longitude": "-90.12120332065376"
    }
  },
  {
    "service_request": "2022-912688",
    "request_type": "Trash/Recycling",
    "request_reason": "Repair Trash Cart",
    "date_created": "2022-08-23T15:14:15.000",
    "date_modified": "2022-08-23T15:14:16.000",
    "request_status": "Pending",
    "responsible_agency": "Department of Sanitation",
    "final_address": "3130 General Ogden St",
    "address_councildis": "A",
    "status": "Assigned to Contractor",
    "contractor": "Richards Disposal",
    "rowid": "912688",
    "final_x": "3664616.36922",
    "final_y": "535549.480518",
    "longitude": "-90.12124838741353",
    "latitude": "29.967077262141",
    "geocoded_column": {
      "latitude": "29.967077262141",
      "longitude": "-90.12124838741353"
    }
  },
  {
    "service_request": "2022-912687",
    "request_type": "Traffic Signals/Signs/Striping/Streetlights",
    "request_reason": "Street Light Outage/Malfunction",
    "date_created": "2022-08-23T15:10:08.000",
    "date_modified": "2022-08-23T15:10:09.000",
    "request_status": "Pending",
    "responsible_agency": "Department of Public Works",
    "final_address": "6130 Morrison Rd",
    "address_councildis": "D",
    "status": "Pending",
    "contractor": "Legacy Professional Services",
    "rowid": "912687",
    "final_x": "3696170.17507",
    "final_y": "557627.501915",
    "longitude": "-90.02080313222386",
    "latitude": "30.02682818577731",
    "geocoded_column": {
      "latitude": "30.02682818577731",
      "longitude": "-90.02080313222386"
    }
  },
  {
    "service_request": "2022-912686",
    "request_type": "Abandoned Vehicles",
    "request_reason": "Abandoned/Junk Vehicles",
    "date_created": "2022-08-23T15:09:57.000",
    "date_modified": "2022-08-23T15:09:57.000",
    "request_status": "Pending",
    "responsible_agency": "Department of Public Works",
    "final_address": "301 N Norman C Francis Prkwy",
    "address_councildis": "B",
    "status": "Pending",
    "rowid": "912686",
    "final_x": "3673614.82856",
    "final_y": "537594.122504",
    "longitude": "-90.09276123914566",
    "latitude": "29.97243453662993",
    "geocoded_column": {
      "latitude": "29.97243453662993",
      "longitude": "-90.09276123914566"
    }
  },
  {
    "service_request": "2022-912685",
    "request_type": "Trash/Recycling",
    "request_reason": "Repair Trash Cart",
    "date_created": "2022-08-23T15:08:50.000",
    "date_modified": "2022-08-23T15:08:55.000",
    "request_status": "Pending",
    "responsible_agency": "Department of Sanitation",
    "final_address": "1217 Foucher St",
    "address_councildis": "B",
    "status": "Assigned to Contractor",
    "contractor": "Richards Disposal",
    "rowid": "912685",
    "final_x": "3674050.86318",
    "final_y": "519817.288376",
    "longitude": "-90.09199237897313",
    "latitude": "29.923541123641915",
    "geocoded_column": {
      "latitude": "29.923541123641915",
      "longitude": "-90.09199237897313"
    }
  },
  {
    "service_request": "2022-912684",
    "request_type": "Roads/Drainage",
    "request_reason": "Damaged Sidewalk",
    "date_created": "2022-08-23T15:07:00.000",
    "date_modified": "2022-08-23T15:07:01.000",
    "request_status": "Pending",
    "responsible_agency": "Department of Public Works",
    "final_address": "5499 Canal Blvd",
    "address_councildis": "A",
    "status": "Pending",
    "rowid": "912684",
    "final_x": "3668291.97825",
    "final_y": "543812.221966",
    "longitude": "-90.10936202239893",
    "latitude": "29.989689593257804",
    "geocoded_column": {
      "latitude": "29.989689593257804",
      "longitude": "-90.10936202239893"
    }
  },
  {
    "service_request": "2022-912683",
    "request_type": "Trash/Recycling",
    "request_reason": "Request a Large Item Pick Up",
    "date_created": "2022-08-23T15:05:54.000",
    "date_modified": "2022-08-23T15:05:55.000",
    "request_status": "Pending",
    "responsible_agency": "Department of Sanitation",
    "final_address": "1512 General Pershing St",
    "address_councildis": "B",
    "status": "Assigned to Contractor",
    "contractor": "Richards Disposal",
    "rowid": "912683",
    "final_x": "3671215.61991",
    "final_y": "520705.571577",
    "longitude": "-90.10091205336771",
    "latitude": "29.92606777202637",
    "geocoded_column": {
      "latitude": "29.92606777202637",
      "longitude": "-90.10091205336771"
    }
  },
  {
    "service_request": "2022-912682",
    "request_type": "Property Maintenance",
    "request_reason": "Property Maintenance",
    "date_created": "2022-08-23T15:01:40.000",
    "date_modified": "2022-08-23T15:01:40.000",
    "request_status": "Pending",
    "responsible_agency": "Department of Code Enforcement",
    "final_address": "3418 Roger Williams St",
    "address_councildis": "D",
    "status": "Pending",
    "rowid": "912682",
    "final_x": "3676650.78862",
    "final_y": "543886.783374",
    "longitude": "-90.08295627180237",
    "latitude": "29.989646453113032",
    "geocoded_column": {
      "latitude": "29.989646453113032",
      "longitude": "-90.08295627180237"
    }
  },
  {
    "service_request": "2022-912681",
    "request_type": "Trash/Recycling",
    "request_reason": "MIssed Recycling Pick-Up",
    "date_created": "2022-08-23T15:01:15.000",
    "date_modified": "2022-08-23T15:01:16.000",
    "request_status": "Pending",
    "responsible_agency": "Department of Sanitation",
    "final_address": "2659 Iberville St",
    "address_councildis": "B",
    "status": "Assigned to Contractor",
    "contractor": "Richards Disposal",
    "rowid": "912681",
    "final_x": "3675732.35176",
    "final_y": "535453.225798",
    "longitude": "-90.08614731470516",
    "latitude": "29.966484589744436",
    "geocoded_column": {
      "latitude": "29.966484589744436",
      "longitude": "-90.08614731470516"
    }
  },
  {
    "service_request": "2022-912680",
    "request_type": "Traffic Signals/Signs/Striping/Streetlights",
    "request_reason": "Street Light Outage/Malfunction",
    "date_created": "2022-08-23T15:00:34.000",
    "date_modified": "2022-08-23T15:00:35.000",
    "request_status": "Pending",
    "responsible_agency": "Department of Public Works",
    "final_address": "3421 Humanity St",
    "address_councildis": "D",
    "status": "Pending",
    "contractor": "Legacy Professional Services",
    "rowid": "912680",
    "final_x": "3692512.31741",
    "final_y": "544427.646415",
    "longitude": "-90.03283494367159",
    "latitude": "29.99064817007148",
    "geocoded_column": {
      "latitude": "29.99064817007148",
      "longitude": "-90.03283494367159"
    }
  },
  {
    "service_request": "2022-912679",
    "request_type": "Trash/Recycling",
    "request_reason": "Replace Trash Cart",
    "date_created": "2022-08-23T14:59:11.000",
    "date_modified": "2022-08-23T14:59:12.000",
    "request_status": "Pending",
    "responsible_agency": "Department of Sanitation",
    "final_address": "7260 Voyageur Dr",
    "address_councildis": "E",
    "status": "Assigned to Contractor",
    "contractor": "Metro Disposal",
    "rowid": "912679",
    "final_x": "3726404.52569",
    "final_y": "569052.781734",
    "longitude": "-89.92482330551087",
    "latitude": "30.057256039490074",
    "geocoded_column": {
      "latitude": "30.057256039490074",
      "longitude": "-89.92482330551087"
    }
  },
  {
    "service_request": "2022-912678",
    "request_type": "Roads/Drainage",
    "request_reason": "Pothole",
    "date_created": "2022-08-23T14:58:38.000",
    "date_modified": "2022-08-23T14:58:39.000",
    "request_status": "Pending",
    "responsible_agency": "Department of Public Works",
    "final_address": "PIETY DR & PINEDA ST",
    "address_councildis": "D",
    "status": "Pending",
    "rowid": "912678",
    "final_x": "3691228.0",
    "final_y": "552599.98",
    "longitude": "-90.03659963163521",
    "latitude": "30.01315911411273",
    "geocoded_column": {
      "latitude": "30.01315911411273",
      "longitude": "-90.03659963163521"
    }
  },
  {
    "service_request": "2022-912676",
    "request_type": "Property Maintenance",
    "request_reason": "Property Maintenance",
    "date_created": "2022-08-23T14:52:20.000",
    "date_modified": "2022-08-23T14:52:20.000",
    "request_status": "Pending",
    "responsible_agency": "Department of Code Enforcement",
    "final_address": "5851 Read Blvd",
    "address_councildis": "E",
    "status": "Pending",
    "rowid": "912676",
    "final_x": "3710972.66885",
    "final_y": "561102.245214",
    "longitude": "-89.97389895558436",
    "latitude": "30.03590782320124",
    "geocoded_column": {
      "latitude": "30.03590782320124",
      "longitude": "-89.97389895558436"
    }
  },
  {
    "service_request": "2022-912675",
    "request_type": "Trash/Recycling",
    "request_reason": "Order Recycling Cart",
    "date_created": "2022-08-23T14:50:03.000",
    "date_modified": "2022-08-23T14:50:03.000",
    "request_status": "Pending",
    "responsible_agency": "Department of Sanitation",
    "final_address": "5816 Catina St",
    "address_councildis": "A",
    "status": "Pending",
    "rowid": "912675",
    "final_x": "3666652.02791",
    "final_y": "546360.22536",
    "longitude": "-90.11445657473794",
    "latitude": "29.996743797050858",
    "geocoded_column": {
      "latitude": "29.996743797050858",
      "longitude": "-90.11445657473794"
    }
  },
  {
    "service_request": "2022-912674",
    "request_type": "Trash/Recycling",
    "request_reason": "Illegal Dumping",
    "date_created": "2022-08-23T14:48:39.000",
    "date_modified": "2022-08-23T14:48:39.000",
    "request_status": "Pending",
    "responsible_agency": "Department of Sanitation",
    "final_address": "RANSOM ST & RAY AVE",
    "address_councildis": "E",
    "status": "Pending",
    "rowid": "912674",
    "final_x": "3698911.1",
    "final_y": "553011.78",
    "longitude": "-90.01231029080078",
    "latitude": "30.01405009368162",
    "geocoded_column": {
      "latitude": "30.01405009368162",
      "longitude": "-90.01231029080078"
    }
  },
  {
    "service_request": "2022-912673",
    "request_type": "Roads/Drainage",
    "request_reason": "Catch Basin - Clogged",
    "date_created": "2022-08-23T14:48:07.000",
    "date_modified": "2022-08-23T14:48:07.000",
    "request_status": "Pending",
    "responsible_agency": "Department of Public Works",
    "final_address": "2537 Jasmine St",
    "address_councildis": "D",
    "status": "Pending",
    "contractor": "Metro Disposal",
    "rowid": "912673",
    "final_x": "3686532.51279",
    "final_y": "548106.445138",
    "longitude": "-90.05159363824498",
    "latitude": "30.00094880507199",
    "geocoded_column": {
      "latitude": "30.00094880507199",
      "longitude": "-90.05159363824498"
    }
  },
  {
    "service_request": "2022-912672",
    "request_type": "Roads/Drainage",
    "request_reason": "Catch Basin - Clogged",
    "date_created": "2022-08-23T14:47:42.000",
    "date_modified": "2022-08-23T14:47:43.000",
    "request_status": "Pending",
    "responsible_agency": "Department of Public Works",
    "final_address": "2541 Jasmine St",
    "address_councildis": "D",
    "status": "Pending",
    "contractor": "Metro Disposal",
    "rowid": "912672",
    "final_x": "3686570.86697",
    "final_y": "548101.718418",
    "longitude": "-90.05147264168903",
    "latitude": "30.00093462856447",
    "geocoded_column": {
      "latitude": "30.00093462856447",
      "longitude": "-90.05147264168903"
    }
  },
  {
    "service_request": "2022-912671",
    "request_type": "Property Maintenance",
    "request_reason": "Property Maintenance",
    "date_created": "2022-08-23T14:47:23.000",
    "date_modified": "2022-08-23T14:47:23.000",
    "request_status": "Pending",
    "responsible_agency": "Department of Code Enforcement",
    "final_address": "3502 Roger Williams St",
    "address_councildis": "D",
    "status": "Pending",
    "rowid": "912671",
    "final_x": "3676250.54792",
    "final_y": "543896.900238",
    "longitude": "-90.08422017320487",
    "latitude": "29.989686274133977",
    "geocoded_column": {
      "latitude": "29.989686274133977",
      "longitude": "-90.08422017320487"
    }
  },
  {
    "service_request": "2022-912670",
    "request_type": "Trash/Recycling",
    "request_reason": "Repair Trash Cart",
    "date_created": "2022-08-23T14:46:43.000",
    "date_modified": "2022-08-23T14:46:44.000",
    "request_status": "Pending",
    "responsible_agency": "Department of Sanitation",
    "final_address": "2541 Jasmine St",
    "address_councildis": "D",
    "status": "Assigned to Contractor",
    "contractor": "Metro Disposal",
    "rowid": "912670",
    "final_x": "3686570.86697",
    "final_y": "548101.718418",
    "longitude": "-90.05147264168903",
    "latitude": "30.00093462856447",
    "geocoded_column": {
      "latitude": "30.00093462856447",
      "longitude": "-90.05147264168903"
    }
  },
  {
    "service_request": "2022-912669",
    "request_type": "Trash/Recycling",
    "request_reason": "Request a Large Item Pick Up",
    "date_created": "2022-08-23T14:44:04.000",
    "date_modified": "2022-08-23T14:44:05.000",
    "request_status": "Pending",
    "responsible_agency": "Department of Sanitation",
    "final_address": "2421 Alvar St",
    "address_councildis": "D",
    "status": "Assigned to Contractor",
    "contractor": "Metro Disposal",
    "rowid": "912669",
    "final_x": "3692799.67696",
    "final_y": "540433.645195",
    "longitude": "-90.03207052265036",
    "latitude": "29.979657135238593",
    "geocoded_column": {
      "latitude": "29.979657135238593",
      "longitude": "-90.03207052265036"
    }
  },
  {
    "service_request": "2022-912668",
    "request_type": "Traffic Signals/Signs/Striping/Streetlights",
    "request_reason": "Street Light Outage/Malfunction",
    "date_created": "2022-08-23T14:42:31.000",
    "date_modified": "2022-08-23T14:55:35.000",
    "request_status": "Pending",
    "responsible_agency": "Department of Public Works",
    "final_address": "5116 N Rocheblave St, New Orleans, Louisiana, 70117",
    "address_councildis": "E",
    "status": "Pending",
    "contractor": "Legacy Professional Services",
    "rowid": "912668",
    "final_x": "3697748.31459",
    "final_y": "538995.469898",
    "longitude": "-90.01649301459541",
    "latitude": "29.97554721842125",
    "geocoded_column": {
      "latitude": "29.97554721842125",
      "longitude": "-90.01649301459541"
    }
  },
  {
    "service_request": "2022-912667",
    "request_type": "Traffic Signals/Signs/Striping/Streetlights",
    "request_reason": "Street Light Outage/Malfunction",
    "date_created": "2022-08-23T14:40:02.000",
    "date_modified": "2022-08-23T14:40:03.000",
    "request_status": "Pending",
    "responsible_agency": "Department of Public Works",
    "final_address": "4408 S Tonti St",
    "address_councildis": "B",
    "status": "Pending",
    "contractor": "Legacy Professional Services",
    "rowid": "912667",
    "final_x": "3669962.42337",
    "final_y": "528094.124095",
    "longitude": "-90.10461793659108",
    "latitude": "29.946420912715674",
    "geocoded_column": {
      "latitude": "29.946420912715674",
      "longitude": "-90.10461793659108"
    }
  },
  {
    "service_request": "2022-912665",
    "request_type": "Property Maintenance",
    "request_reason": "Property Maintenance",
    "date_created": "2022-08-23T14:39:35.000",
    "date_modified": "2022-08-23T14:41:33.000",
    "case_close_date": "2022-07-12T19:00:00.000",
    "request_status": "Pending",
    "responsible_agency": "Department of Code Enforcement",
    "final_address": "ROBERT E LEE BLVD & PEOPLES AVE",
    "address_councildis": "D",
    "status": "Pending",
    "rowid": "912665",
    "final_x": "3687747.6",
    "final_y": "556048.88",
    "longitude": "-90.04747352425831",
    "latitude": "30.0227501546197",
    "geocoded_column": {
      "latitude": "30.0227501546197",
      "longitude": "-90.04747352425831"
    }
  },
  {
    "service_request": "2022-912664",
    "request_type": "Roads/Drainage",
    "request_reason": "Damaged Sidewalk",
    "date_created": "2022-08-23T14:38:37.000",
    "date_modified": "2022-08-23T14:38:37.000",
    "request_status": "Pending",
    "responsible_agency": "Department of Public Works",
    "final_address": "334 Carondelet St",
    "address_councildis": "B",
    "status": "Pending",
    "rowid": "912664",
    "final_x": "3680466.50722",
    "final_y": "529866.280065",
    "longitude": "-90.07139122788028",
    "latitude": "29.950979849726757",
    "geocoded_column": {
      "latitude": "29.950979849726757",
      "longitude": "-90.07139122788028"
    }
  },
  {
    "service_request": "2022-912662",
    "request_type": "Trash/Recycling",
    "request_reason": "Request a Large Item Pick Up",
    "date_created": "2022-08-23T14:32:23.000",
    "date_modified": "2022-08-23T14:32:24.000",
    "request_status": "Pending",
    "responsible_agency": "Department of Sanitation",
    "final_address": "2858 Magazine St",
    "address_councildis": "B",
    "status": "Assigned to Contractor",
    "contractor": "Richards Disposal",
    "rowid": "912662",
    "final_x": "3676678.48053",
    "final_y": "520519.29612",
    "longitude": "-90.08367379156977",
    "latitude": "29.925392883548568",
    "geocoded_column": {
      "latitude": "29.925392883548568",
      "longitude": "-90.08367379156977"
    }
  },
  {
    "service_request": "2022-912661",
    "request_type": "Roads/Drainage",
    "request_reason": "Pothole",
    "date_created": "2022-08-23T14:31:19.000",
    "date_modified": "2022-08-23T14:31:19.000",
    "request_status": "Pending",
    "responsible_agency": "Department of Public Works",
    "final_address": "2555 George Nick Connor Dr",
    "address_councildis": "D",
    "status": "Pending",
    "rowid": "912661",
    "final_x": "3681195.72872",
    "final_y": "541527.776076",
    "longitude": "-90.06868232403949",
    "latitude": "29.983022857131875",
    "geocoded_column": {
      "latitude": "29.983022857131875",
      "longitude": "-90.06868232403949"
    }
  },
  {
    "service_request": "2022-912660",
    "request_type": "Trash/Recycling",
    "request_reason": "Missed Trash Pick-Up",
    "date_created": "2022-08-23T14:31:17.000",
    "date_modified": "2022-08-23T14:31:18.000",
    "request_status": "Pending",
    "responsible_agency": "Department of Sanitation",
    "final_address": "2409 Bartholomew St",
    "address_councildis": "D",
    "status": "Assigned to Contractor",
    "contractor": "Metro Disposal",
    "rowid": "912660",
    "final_x": "3693082.58518",
    "final_y": "540283.274379",
    "longitude": "-90.03118238504256",
    "latitude": "29.979234832215305",
    "geocoded_column": {
      "latitude": "29.979234832215305",
      "longitude": "-90.03118238504256"
    }
  },