[
  {
    "service_request": "2024-1061695",
    "request_type": "Traffic Signals/Signs/Striping/Streetlights",
    "request_reason": "Traffic Sign Missing/Damaged",
    "date_created": "2024-01-16T11:11:13.000",
    "date_modified": "2024-01-16T11:11:13.000",
    "request_status": "Pending",
    "responsible_agency": "Department of Public Works",
    "final_address": "CARONDELET ST & FELICITY ST",
    "address_councildis": "B",
    "status": "Pending",
    "rowid": "1061695",
    "final_x": "3678213.1",
    "final_y": "524846.98",
    "longitude": "-90.07867989120157",
    "latitude": "29.937246488169748",
    "geocoded_column": {
      "latitude": "29.937246488169748",
      "longitude": "-90.07867989120157"
    }
  },
  {
    "service_request": "2024-1061694",
    "request_type": "Abandoned Vehicles",
    "request_reason": "Abandoned/Junk Vehicles",
    "date_created": "2024-01-16T11:06:50.000",
    "date_modified": "2024-01-16T11:14:18.000",
    "request_status": "Pending",
    "responsible_agency": "Department of Public Works",
    "final_address": "3303 Carondelet St",
    "address_councildis": "B",
    "status": "Pending",
    "rowid": "1061694",
    "final_x": "3674329.47195",
    "final_y": "522107.112378",
    "longitude": "-90.0910345471102",
    "latitude": "29.92982909902912",
    "geocoded_column": {
      "latitude": "29.92982909902912",
      "longitude": "-90.0910345471102"
    }
  },
  {
    "service_request": "2024-1061693",
    "request_type": "Trash/Recycling",
    "request_reason": "Illegal Dumping",
    "date_created": "2024-01-16T11:06:08.000",
    "date_modified": "2024-01-16T11:06:08.000",
    "request_status": "Pending",
    "responsible_agency": "Department of Sanitation",
    "final_address": "3000 BLK Almonaster Ave",
    "address_councildis": "D",
    "status": "Pending",
    "rowid": "1061693",
    "final_x": "3689308.68007",
    "final_y": "545338.689622",
    "longitude": "-90.04292200150729",
    "latitude": "29.99325280002058",
    "geocoded_column": {
      "latitude": "29.99325280002058",
      "longitude": "-90.04292200150729"
    }
  },
  {
    "service_request": "2024-1061692",
    "request_type": "Trash/Recycling",
    "request_reason": "Missed Trash Pick-Up",
    "date_created": "2024-01-16T11:05:54.000",
    "date_modified": "2024-01-16T11:05:55.000",
    "request_status": "Pending",
    "responsible_agency": "Department of Sanitation",
    "final_address": "1939 Touro St",
    "address_councildis": "D",
    "status": "Assigned to Contractor",
    "contractor": "IV Waste",
    "rowid": "1061692",
    "final_x": "3684008.5741",
    "final_y": "539529.91873",
    "longitude": "-90.05986806445215",
    "latitude": "29.977443787590435",
    "geocoded_column": {
      "latitude": "29.977443787590435",
      "longitude": "-90.05986806445215"
    }
  },
  {
    "service_request": "2024-1061691",
    "request_type": "Trash/Recycling",
    "request_reason": "Illegal Dumping",
    "date_created": "2024-01-16T11:04:01.000",
    "date_modified": "2024-01-16T11:04:01.000",
    "request_status": "Pending",
    "responsible_agency": "Department of Sanitation",
    "final_address": "4200 Industrial Prkwy",
    "address_councildis": "E",
    "status": "Pending",
    "rowid": "1061691",
    "final_x": "3735337.55322",
    "final_y": "562747.940704",
    "longitude": "-89.8968375798273",
    "latitude": "30.03961546010538",
    "geocoded_column": {
      "latitude": "30.03961546010538",
      "longitude": "-89.8968375798273"
    }
  },
  {
    "service_request": "2024-1061690",
    "request_type": "Roads/Drainage",
    "request_reason": "Pothole",
    "date_created": "2024-01-16T10:57:37.000",
    "date_modified": "2024-01-16T10:57:37.000",
    "request_status": "Pending",
    "responsible_agency": "Department of Public Works",
    "final_address": "4000 Eagle St",
    "address_councildis": "A",
    "status": "Pending",
    "rowid": "1061690",
    "final_x": "3666814.96225",
    "final_y": "537643.26036",
    "longitude": "-90.11423484176213",
    "latitude": "29.972770328214484",
    "geocoded_column": {
      "latitude": "29.972770328214484",
      "longitude": "-90.11423484176213"
    }
  },
  {
    "service_request": "2024-1061689",
    "request_type": "Roads/Drainage",
    "request_reason": "Pothole",
    "date_created": "2024-01-16T10:54:24.000",
    "date_modified": "2024-01-16T10:54:25.000",
    "request_status": "Pending",
    "responsible_agency": "Department of Public Works",
    "final_address": "3000 BLK N Johnson St",
    "address_councildis": "D",
    "status": "Pending",
    "rowid": "1061689",
    "final_x": "3689431.97149",
    "final_y": "539484.288273",
    "longitude": "-90.0427408381298",
    "latitude": "29.97715147118872",
    "geocoded_column": {
      "latitude": "29.97715147118872",
      "longitude": "-90.0427408381298"
    }
  },
  {
    "service_request": "2024-1061688",
    "request_type": "Trash/Recycling",
    "request_reason": "Repair Trash Cart",
    "date_created": "2024-01-16T10:51:28.000",
    "date_modified": "2024-01-16T10:51:29.000",
    "request_status": "Pending",
    "responsible_agency": "Department of Sanitation",
    "final_address": "3731 Herschel St",
    "address_councildis": "C",
    "status": "Assigned to Contractor",
    "contractor": "Richards Disposal",
    "rowid": "1061688",
    "final_x": "3697545.93181",
    "final_y": "521035.706681",
    "longitude": "-90.01778341904757",
    "latitude": "29.926170568882753",
    "geocoded_column": {
      "latitude": "29.926170568882753",
      "longitude": "-90.01778341904757"
    }
  },
  {
    "service_request": "2024-1061687",
    "request_type": "Trash/Recycling",
    "request_reason": "Repair Trash Cart",
    "date_created": "2024-01-16T10:45:21.000",
    "date_modified": "2024-01-16T10:45:22.000",
    "request_status": "Pending",
    "responsible_agency": "Department of Sanitation",
    "final_address": "5513 S Saratoga St",
    "address_councildis": "A",
    "status": "Assigned to Contractor",
    "contractor": "Richards Disposal",
    "rowid": "1061687",
    "final_x": "3667164.30913",
    "final_y": "522752.502778",
    "longitude": "-90.11363212769817",
    "latitude": "29.931815376642223",
    "geocoded_column": {
      "latitude": "29.931815376642223",
      "longitude": "-90.11363212769817"
    }
  },
  {
    "service_request": "2024-1061686",
    "request_type": "Trash/Recycling",
    "request_reason": "Request a Large Item Pick Up",
    "date_created": "2024-01-16T10:44:49.000",
    "date_modified": "2024-01-16T10:44:50.000",
    "request_status": "Pending",
    "responsible_agency": "Department of Sanitation",
    "final_address": "5010 Constance St",
    "address_councildis": "B",
    "status": "Assigned to Contractor",
    "contractor": "Richards Disposal",
    "rowid": "1061686",
    "final_x": "3668528.86842",
    "final_y": "518180.822262",
    "longitude": "-90.10947849856062",
    "latitude": "29.919204695724737",
    "geocoded_column": {
      "latitude": "29.919204695724737",
      "longitude": "-90.10947849856062"
    }
  },
  {
    "service_request": "2024-1061685",
    "request_type": "Trash/Recycling",
    "request_reason": "Request a Large Item Pick Up",
    "date_created": "2024-01-16T10:42:27.000",
    "date_modified": "2024-01-16T10:42:29.000",
    "request_status": "Pending",
    "responsible_agency": "Department of Sanitation",
    "final_address": "116 Elmira Ave",
    "address_councildis": "C",
    "status": "Assigned to Contractor",
    "contractor": "Richards Disposal",
    "rowid": "1061685",
    "final_x": "3688310.15017",
    "final_y": "531252.800706",
    "longitude": "-90.04657585420118",
    "latitude": "29.954552447317553",
    "geocoded_column": {
      "latitude": "29.954552447317553",
      "longitude": "-90.04657585420118"
    }
  },
  {
    "service_request": "2024-1061684",
    "request_type": "Traffic Signals/Signs/Striping/Streetlights",
    "request_reason": "Traffic Sign Missing/Damaged",
    "date_created": "2024-01-16T10:41:29.000",
    "date_modified": "2024-01-16T10:41:30.000",
    "request_status": "Pending",
    "responsible_agency": "Department of Public Works",
    "final_address": "N ANTHONY ST & BIENVILLE ST",
    "address_councildis": "A",
    "status": "Pending",
    "rowid": "1061684",
    "final_x": "3668990.74",
    "final_y": "540905.97",
    "longitude": "-90.10725305042268",
    "latitude": "29.981677848449532",
    "geocoded_column": {
      "latitude": "29.981677848449532",
      "longitude": "-90.10725305042268"
    }
  },
  {
    "service_request": "2024-1061683",
    "request_type": "Trash/Recycling",
    "request_reason": "Request a Large Item Pick Up",
    "date_created": "2024-01-16T10:38:49.000",
    "date_modified": "2024-01-16T10:38:50.000",
    "request_status": "Pending",
    "responsible_agency": "Department of Sanitation",
    "final_address": "11325 Curran Rd",
    "address_councildis": "E",
    "status": "Assigned to Contractor",
    "contractor": "Waste Pro",
    "rowid": "1061683",
    "final_x": "3711257.37259",
    "final_y": "566686.607075",
    "longitude": "-89.9727897048572",
    "latitude": "30.05125328291266",
    "geocoded_column": {
      "latitude": "30.05125328291266",
      "longitude": "-89.9727897048572"
    }
  },
  {
    "service_request": "2024-1061682",
    "request_type": "Abandoned Vehicles",
    "request_reason": "Abandoned/Junk Vehicles",
    "date_created": "2024-01-16T10:35:48.000",
    "date_modified": "2024-01-16T10:35:48.000",
    "request_status": "Pending",
    "responsible_agency": "Department of Public Works",
    "final_address": "2806 Clara St",
    "address_councildis": "B",
    "status": "Pending",
    "rowid": "1061682",
    "final_x": "3673520.434",
    "final_y": "525971.800765",
    "longitude": "-90.09345653107786",
    "latitude": "29.940479830410595",
    "geocoded_column": {
      "latitude": "29.940479830410595",
      "longitude": "-90.09345653107786"
    }
  },
  {
    "service_request": "2024-1061681",
    "request_type": "Property Maintenance",
    "request_reason": "Property Maintenance",
    "date_created": "2024-01-16T10:30:21.000",
    "date_modified": "2024-01-16T10:30:21.000",
    "request_status": "Pending",
    "responsible_agency": "Department of Code Enforcement",
    "final_address": "8017 Cohn St",
    "address_councildis": "A",
    "status": "Pending",
    "rowid": "1061681",
    "final_x": "3663911.28371",
    "final_y": "529981.331393",
    "longitude": "-90.1236607006869",
    "latitude": "29.951787157930315",
    "geocoded_column": {
      "latitude": "29.951787157930315",
      "longitude": "-90.1236607006869"
    }
  },
  {
    "service_request": "2024-1061680",
    "request_type": "Trash/Recycling",
    "request_reason": "Request a Large Item Pick Up",
    "date_created": "2024-01-16T10:12:27.000",
    "date_modified": "2024-01-16T10:12:28.000",
    "request_status": "Pending",
    "responsible_agency": "Department of Sanitation",
    "final_address": "2429 Hyman Pl",
    "address_councildis": "C",
    "status": "Assigned to Contractor",
    "contractor": "Richards Disposal",
    "rowid": "1061680",
    "final_x": "3701021.60522",
    "final_y": "522098.906618",
    "longitude": "-90.00677293700672",
    "latitude": "29.92898381972668",
    "geocoded_column": {
      "latitude": "29.92898381972668",
      "longitude": "-90.00677293700672"
    }
  },
  {
    "service_request": "2024-1061679",
    "request_type": "Trash/Recycling",
    "request_reason": "Request a Large Item Pick Up",
    "date_created": "2024-01-16T10:11:30.000",
    "date_modified": "2024-01-16T10:11:31.000",
    "request_status": "Pending",
    "responsible_agency": "Department of Sanitation",
    "final_address": "1025 Lowerline St",
    "address_councildis": "A",
    "status": "Assigned to Contractor",
    "contractor": "Richards Disposal",
    "rowid": "1061679",
    "final_x": "3663434.85709",
    "final_y": "526389.723966",
    "longitude": "-90.12528459840273",
    "latitude": "29.941925211869098",
    "geocoded_column": {
      "latitude": "29.941925211869098",
      "longitude": "-90.12528459840273"
    }
  },
  {
    "service_request": "2024-1061678",
    "request_type": "Safety & Permits",
    "request_reason": "Safety & Permits Request (Cyber Incident Back Up)",
    "date_created": "2024-01-16T10:10:51.000",
    "date_modified": "2024-01-16T10:10:51.000",
    "request_status": "Pending",
    "responsible_agency": "Safety and Permits",
    "final_address": "4501 Camp St",
    "address_councildis": "B",
    "status": "Pending",
    "rowid": "1061678",
    "final_x": "3670575.07534",
    "final_y": "519160.215351",
    "longitude": "-90.10298645161019",
    "latitude": "29.921837462659674",
    "geocoded_column": {
      "latitude": "29.921837462659674",
      "longitude": "-90.10298645161019"
    }
  },
  {
    "service_request": "2024-1061677",
    "request_type": "Trash/Recycling",
    "request_reason": "Request a Large Item Pick Up",
    "date_created": "2024-01-16T10:10:20.000",
    "date_modified": "2024-01-16T10:10:20.000",
    "request_status": "Pending",
    "responsible_agency": "Department of Sanitation",
    "final_address": "9 S Oak Ridge Ct",
    "address_councildis": "E",
    "status": "Assigned to Contractor",
    "contractor": "Waste Pro",
    "rowid": "1061677",
    "final_x": "3713456.48555",
    "final_y": "567532.660708",
    "longitude": "-89.96580718938178",
    "latitude": "30.05350760462894",
    "geocoded_column": {
      "latitude": "30.05350760462894",
      "longitude": "-89.96580718938178"
    }
  },
  {
    "service_request": "2024-1061676",
    "request_type": "Trash/Recycling",
    "request_reason": "Missed Trash Pick-Up",
    "date_created": "2024-01-16T10:08:17.000",
    "date_modified": "2024-01-16T10:08:18.000",
    "request_status": "Pending",
    "responsible_agency": "Department of Sanitation",
    "final_address": "219 Alix St",
    "address_councildis": "C",
    "status": "Assigned to Contractor",
    "contractor": "Richards Disposal",
    "rowid": "1061676",
    "final_x": "3686282.46268",
    "final_y": "529811.327233",
    "longitude": "-90.05302934416983",
    "latitude": "29.950651343798125",
    "geocoded_column": {
      "latitude": "29.950651343798125",
      "longitude": "-90.05302934416983"
    }
  },
  {
    "service_request": "2024-1061675",
    "request_type": "Trash/Recycling",
    "request_reason": "Request a Large Item Pick Up",
    "date_created": "2024-01-16T10:05:47.000",
    "date_modified": "2024-01-16T10:05:48.000",
    "request_status": "Pending",
    "responsible_agency": "Department of Sanitation",
    "final_address": "1468 Allen Toussaint Blvd",
    "address_councildis": "D",
    "status": "Assigned to Contractor",
    "contractor": "IV Waste",
    "rowid": "1061675",
    "final_x": "3678210.83598",
    "final_y": "555196.459737",
    "longitude": "-90.07763702525575",
    "latitude": "30.020697130389383",
    "geocoded_column": {
      "latitude": "30.020697130389383",
      "longitude": "-90.07763702525575"
    }
  },
  {
    "service_request": "2024-1061674",
    "request_type": "Trash/Recycling",
    "request_reason": "Illegal Dumping",
    "date_created": "2024-01-16T10:03:30.000",
    "date_modified": "2024-01-16T10:03:30.000",
    "request_status": "Pending",
    "responsible_agency": "Department of Sanitation",
    "final_address": "LAW ST & SPAIN ST",
    "address_councildis": "D",
    "status": "Pending",
    "rowid": "1061674",
    "final_x": "3685695.1",
    "final_y": "541915.68",
    "longitude": "-90.05445736341345",
    "latitude": "29.983952143505352",
    "geocoded_column": {
      "latitude": "29.983952143505352",
      "longitude": "-90.05445736341345"
    }
  },
  {
    "service_request": "2024-1061673",
    "request_type": "Trash/Recycling",
    "request_reason": "Repair Trash Cart",
    "date_created": "2024-01-16T10:01:34.000",
    "date_modified": "2024-01-16T10:01:35.000",
    "request_status": "Pending",
    "responsible_agency": "Department of Sanitation",
    "final_address": "351 Abalon Ct",
    "address_councildis": "C",
    "status": "Assigned to Contractor",
    "contractor": "Richards Disposal",
    "rowid": "1061673",
    "final_x": "3689334.29321",
    "final_y": "530340.756226",
    "longitude": "-90.04337444081811",
    "latitude": "29.952012976109636",
    "geocoded_column": {
      "latitude": "29.952012976109636",
      "longitude": "-90.04337444081811"
    }
  },
  {
    "service_request": "2024-1061672",
    "request_type": "Abandoned Vehicles",
    "request_reason": "Abandoned/Junk Vehicles",
    "date_created": "2024-01-16T10:01:13.000",
    "date_modified": "2024-01-16T10:01:13.000",
    "request_status": "Pending",
    "responsible_agency": "Department of Public Works",
    "final_address": "2700 BLK New Orleans St",
    "address_councildis": "D",
    "status": "Pending",
    "rowid": "1061672",
    "final_x": "3681891.86551",
    "final_y": "542538.896009",
    "longitude": "-90.06644826001335",
    "latitude": "29.985781937773673",
    "geocoded_column": {
      "latitude": "29.985781937773673",
      "longitude": "-90.06644826001335"
    }
  },
  {
    "service_request": "2024-1061671",
    "request_type": "Trash/Recycling",
    "request_reason": "Repair Trash Cart",
    "date_created": "2024-01-16T09:57:19.000",
    "date_modified": "2024-01-16T09:57:20.000",
    "request_status": "Pending",
    "responsible_agency": "Department of Sanitation",
    "final_address": "2555 Valence St",
    "address_councildis": "B",
    "status": "Assigned to Contractor",
    "contractor": "Richards Disposal",
    "rowid": "1061671",
    "final_x": "3669444.10522",
    "final_y": "524212.497788",
    "longitude": "-90.10638568645555",
    "latitude": "29.935762969597278",
    "geocoded_column": {
      "latitude": "29.935762969597278",
      "longitude": "-90.10638568645555"
    }
  },
  {
    "service_request": "2024-1061670",
    "request_type": "Trash/Recycling",
    "request_reason": "Repair Trash Cart",
    "date_created": "2024-01-16T09:56:54.000",
    "date_modified": "2024-01-16T09:56:55.000",
    "request_status": "Pending",
    "responsible_agency": "Department of Sanitation",
    "final_address": "2435 Wisteria St",
    "address_councildis": "D",
    "status": "Assigned to Contractor",
    "contractor": "IV Waste",
    "rowid": "1061670",
    "final_x": "3685879.99305",
    "final_y": "548332.123858",
    "longitude": "-90.0536470331392",
    "latitude": "30.001589393816296",
    "geocoded_column": {
      "latitude": "30.001589393816296",
      "longitude": "-90.0536470331392"
    }
  },
  {
    "service_request": "2024-1061669",
    "request_type": "Traffic Signals/Signs/Striping/Streetlights",
    "request_reason": "Additional signage",
    "date_created": "2024-01-16T09:55:23.000",
    "date_modified": "2024-01-16T09:55:23.000",
    "request_status": "Pending",
    "responsible_agency": "Department of Public Works",
    "final_address": "100 BLK S Lopez St",
    "address_councildis": "B",
    "status": "Pending",
    "rowid": "1061669",
    "final_x": "3673734.88018",
    "final_y": "536048.532349",
    "longitude": "-90.09243495630483",
    "latitude": "29.96818111228877",
    "geocoded_column": {
      "latitude": "29.96818111228877",
      "longitude": "-90.09243495630483"
    }
  },
  {
    "service_request": "2024-1061668",
    "request_type": "Trash/Recycling",
    "request_reason": "Repair Trash Cart",
    "date_created": "2024-01-16T09:55:17.000",
    "date_modified": "2024-01-16T09:55:18.000",
    "request_status": "Pending",
    "responsible_agency": "Department of Sanitation",
    "final_address": "2606 Milan St",
    "address_councildis": "B",
    "status": "Assigned to Contractor",
    "contractor": "Richards Disposal",
    "rowid": "1061668",
    "final_x": "3671197.81934",
    "final_y": "524507.890492",
    "longitude": "-90.10083913939732",
    "latitude": "29.93652345283118",
    "geocoded_column": {
      "latitude": "29.93652345283118",
      "longitude": "-90.10083913939732"
    }
  },
  {
    "service_request": "2024-1061667",
    "request_type": "Trash/Recycling",
    "request_reason": "Repair Trash Cart",
    "date_created": "2024-01-16T09:54:03.000",
    "date_modified": "2024-01-16T09:54:33.000",
    "request_status": "Pending",
    "responsible_agency": "Department of Sanitation",
    "final_address": "2606 Milan St",
    "address_councildis": "B",
    "status": "Assigned to Contractor",
    "contractor": "Richards Disposal",
    "rowid": "1061667",
    "final_x": "3671197.81934",
    "final_y": "524507.890492",
    "longitude": "-90.10083913939732",
    "latitude": "29.93652345283118",
    "geocoded_column": {
      "latitude": "29.93652345283118",
      "longitude": "-90.10083913939732"
    }
  },
  {
    "service_request": "2024-1061666",
    "request_type": "Trash/Recycling",
    "request_reason": "Order Recycling Cart",
    "date_created": "2024-01-16T09:51:57.000",
    "date_modified": "2024-01-16T09:51:57.000",
    "request_status": "Pending",
    "responsible_agency": "Department of Sanitation",
    "final_address": "1210 N Rocheblave St",
    "address_councildis": "D",
    "status": "Pending",
    "rowid": "1061666",
    "final_x": "3678743.72686",
    "final_y": "537868.011529",
    "longitude": "-90.07655378617233",
    "latitude": "29.97303395412618",
    "geocoded_column": {
      "latitude": "29.97303395412618",
      "longitude": "-90.07655378617233"
    }
  },
  {
    "service_request": "2024-1061665",
    "request_type": "Trash/Recycling",
    "request_reason": "Request a Large Item Pick Up",
    "date_created": "2024-01-16T09:51:04.000",
    "date_modified": "2024-01-16T09:51:05.000",
    "request_status": "Pending",
    "responsible_agency": "Department of Sanitation",
    "final_address": "240 Pacific Ave",
    "address_councildis": "C",
    "status": "Assigned to Contractor",
    "contractor": "Richards Disposal",
    "rowid": "1061665",
    "final_x": "3688588.22991",
    "final_y": "530817.07405",
    "longitude": "-90.04571325027493",
    "latitude": "29.95334575958422",
    "geocoded_column": {
      "latitude": "29.95334575958422",
      "longitude": "-90.04571325027493"
    }
  },
  {
    "service_request": "2024-1061664",
    "request_type": "Trash/Recycling",
    "request_reason": "Order Recycling Cart",
    "date_created": "2024-01-16T09:49:16.000",
    "date_modified": "2024-01-16T09:49:17.000",
    "request_status": "Pending",
    "responsible_agency": "Department of Sanitation",
    "final_address": "3040 Behrman Hwy",
    "address_councildis": "C",
    "status": "Pending",
    "rowid": "1061664",
    "final_x": "3694257.76502",
    "final_y": "519490.460791",
    "longitude": "-90.0282187267708",
    "latitude": "29.92202506075665",
    "geocoded_column": {
      "latitude": "29.92202506075665",
      "longitude": "-90.0282187267708"
    }
  },
  {
    "service_request": "2024-1061663",
    "request_type": "Abandoned Vehicles",
    "request_reason": "Abandoned/Junk Vehicles",
    "date_created": "2024-01-16T09:45:43.000",
    "date_modified": "2024-01-16T09:45:43.000",
    "request_status": "Pending",
    "responsible_agency": "Department of Public Works",
    "final_address": "1050 Carondelet St",
    "address_councildis": "B",
    "status": "Pending",
    "rowid": "1061663",
    "final_x": "3679592.05083",
    "final_y": "526940.231038",
    "longitude": "-90.07425384147878",
    "latitude": "29.942960644914375",
    "geocoded_column": {
      "latitude": "29.942960644914375",
      "longitude": "-90.07425384147878"
    }
  },
  {
    "service_request": "2024-1061662",
    "request_type": "Abandoned Vehicles",
    "request_reason": "Abandoned/Junk Vehicles",
    "date_created": "2024-01-16T09:40:24.000",
    "date_modified": "2024-01-16T09:40:25.000",
    "request_status": "Pending",
    "responsible_agency": "Department of Public Works",
    "final_address": "2128 Painters St",
    "address_councildis": "D",
    "status": "Pending",
    "rowid": "1061662",
    "final_x": "3687213.15183",
    "final_y": "540424.004363",
    "longitude": "-90.04971532719655",
    "latitude": "29.979803889287087",
    "geocoded_column": {
      "latitude": "29.979803889287087",
      "longitude": "-90.04971532719655"
    }
  },
  {
    "service_request": "2024-1061661",
    "request_type": "Trash/Recycling",
    "request_reason": "Repair Trash Cart",
    "date_created": "2024-01-16T09:37:16.000",
    "date_modified": "2024-01-16T09:37:18.000",
    "request_status": "Pending",
    "responsible_agency": "Department of Sanitation",
    "final_address": "11 N Lark St",
    "address_councildis": "D",
    "status": "Assigned to Contractor",
    "contractor": "IV Waste",
    "rowid": "1061661",
    "final_x": "3675168.38145",
    "final_y": "556415.86185",
    "longitude": "-90.08720839196646",
    "latitude": "30.02414137151268",
    "geocoded_column": {
      "latitude": "30.02414137151268",
      "longitude": "-90.08720839196646"
    }
  },
  {
    "service_request": "2024-1061660",
    "request_type": "Traffic Signals/Signs/Striping/Streetlights",
    "request_reason": "Street Light Knocked Down/Leaning",
    "date_created": "2024-01-16T09:37:00.000",
    "date_modified": "2024-01-16T09:37:01.000",
    "request_status": "Pending",
    "responsible_agency": "Department of Public Works",
    "final_address": "835 Julia St",
    "address_councildis": "B",
    "status": "Pending",
    "contractor": "Legacy Professional Services",
    "rowid": "1061660",
    "final_x": "3679723.8436",
    "final_y": "528227.776256",
    "longitude": "-90.07379305504593",
    "latitude": "29.946496982187416",
    "geocoded_column": {
      "latitude": "29.946496982187416",
      "longitude": "-90.07379305504593"
    }
  },
  {
    "service_request": "2024-1061659",
    "request_type": "Trash/Recycling",
    "request_reason": "Missed Trash Pick-Up",
    "date_created": "2024-01-16T09:31:40.000",
    "date_modified": "2024-01-16T09:43:01.000",
    "case_close_date": "2024-01-16T03:43:01.000",
    "request_status": "Closed",
    "responsible_agency": "Department of Sanitation",
    "final_address": "5108 Pauline Dr",
    "address_councildis": "D",
    "status": "Invalid Request",
    "contractor": "IV Waste",
    "contractor_action": "Invalid Pick-Up",
    "rowid": "1061659",
    "final_x": "3692438.87389",
    "final_y": "552861.441495",
    "longitude": "-90.0327645566834",
    "latitude": "30.013840301257122",
    "geocoded_column": {
      "latitude": "30.013840301257122",
      "longitude": "-90.0327645566834"
    }
  },
  {
    "service_request": "2024-1061658",
    "request_type": "Trash/Recycling",
    "request_reason": "Request a Large Item Pick Up",
    "date_created": "2024-01-16T09:28:51.000",
    "date_modified": "2024-01-16T09:29:13.000",
    "request_status": "Pending",
    "responsible_agency": "Department of Sanitation",
    "final_address": "7653 Mackenzie St",
    "address_councildis": "E",
    "status": "Assigned to Contractor",
    "contractor": "Waste Pro",
    "rowid": "1061658",
    "final_x": "3710985.74693",
    "final_y": "566203.238435",
    "longitude": "-89.97366634469799",
    "latitude": "30.04993308020475",
    "geocoded_column": {
      "latitude": "30.04993308020475",
      "longitude": "-89.97366634469799"
    }
  },
  {
    "service_request": "2024-1061657",
    "request_type": "Trash/Recycling",
    "request_reason": "Request a Large Item Pick Up",
    "date_created": "2024-01-16T09:22:34.000",
    "date_modified": "2024-01-16T09:22:35.000",
    "request_status": "Pending",
    "responsible_agency": "Department of Sanitation",
    "final_address": "9310 Hayne Blvd",
    "address_councildis": "E",
    "status": "Assigned to Contractor",
    "contractor": "Waste Pro",
    "rowid": "1061657",
    "final_x": "3705555.61521",
    "final_y": "564630.089633",
    "longitude": "-89.99088709768064",
    "latitude": "30.045783600497586",
    "geocoded_column": {
      "latitude": "30.045783600497586",
      "longitude": "-89.99088709768064"
    }
  },
  {
    "service_request": "2024-1061656",
    "request_type": "Trash/Recycling",
    "request_reason": "Dead Animal Pick Up",
    "date_created": "2024-01-16T09:21:34.000",
    "date_modified": "2024-01-16T09:21:35.000",
    "request_status": "Pending",
    "responsible_agency": "Department of Sanitation",
    "final_address": "1759 Rousselin Dr",
    "address_councildis": "D",
    "status": "Assigned to Contractor",
    "contractor": "IV Waste",
    "rowid": "1061656",
    "final_x": "3680037.43253",
    "final_y": "540998.914763",
    "longitude": "-90.07235919710514",
    "latitude": "29.98160377345451",
    "geocoded_column": {
      "latitude": "29.98160377345451",
      "longitude": "-90.07235919710514"
    }
  },
  {
    "service_request": "2024-1061655",
    "request_type": "Parks & Parkways",
    "request_reason": "Request Tree Service (Right of Way/Public Property)",
    "date_created": "2024-01-16T09:21:09.000",
    "date_modified": "2024-01-16T09:21:09.000",
    "request_status": "Pending",
    "responsible_agency": "Department of Parks & Parkway",
    "final_address": "1126 Elysian Fields Ave",
    "address_councildis": "C",
    "status": "Pending",
    "rowid": "1061655",
    "final_x": "3684887.63247",
    "final_y": "536517.645959",
    "longitude": "-90.05719766467327",
    "latitude": "29.96913419585603",
    "geocoded_column": {
      "latitude": "29.96913419585603",
      "longitude": "-90.05719766467327"
    }
  },
  {
    "service_request": "2024-1061654",
    "request_type": "Trash/Recycling",
    "request_reason": "Request a Large Item Pick Up",
    "date_created": "2024-01-16T09:14:22.000",
    "date_modified": "2024-01-16T09:14:23.000",
    "request_status": "Pending",
    "responsible_agency": "Department of Sanitation",
    "final_address": "916 Whitney Ave",
    "address_councildis": "C",
    "status": "Assigned to Contractor",
    "contractor": "Richards Disposal",
    "rowid": "1061654",
    "final_x": "3690255.15446",
    "final_y": "528084.409727",
    "longitude": "-90.04054718524343",
    "latitude": "29.945780261964885",
    "geocoded_column": {
      "latitude": "29.945780261964885",
      "longitude": "-90.04054718524343"
    }
  },
  {
    "service_request": "2024-1061653",
    "request_type": "Trash/Recycling",
    "request_reason": "Order Trash Cart",
    "date_created": "2024-01-16T09:12:55.000",
    "date_modified": "2024-01-16T09:12:56.000",
    "request_status": "Pending",
    "responsible_agency": "Department of Sanitation",
    "final_address": "2608 Magazine St",
    "address_councildis": "B",
    "status": "Assigned to Contractor",
    "contractor": "Richards Disposal",
    "rowid": "1061653",
    "final_x": "3677509.55906",
    "final_y": "521067.282617",
    "longitude": "-90.0810314294309",
    "latitude": "29.926874719772883",
    "geocoded_column": {
      "latitude": "29.926874719772883",
      "longitude": "-90.0810314294309"
    }
  },
  {
    "service_request": "2024-1061652",
    "request_type": "Traffic Signals/Signs/Striping/Streetlights",
    "request_reason": "Street Light Outage/Malfunction",
    "date_created": "2024-01-16T09:12:05.000",
    "date_modified": "2024-01-16T09:12:07.000",
    "request_status": "Pending",
    "responsible_agency": "Department of Public Works",
    "final_address": "220 Hay Pl",
    "address_councildis": "A",
    "status": "Assigned to Contractor",
    "contractor": "Legacy Professional Services",
    "rowid": "1061652",
    "final_x": "3665941.35181",
    "final_y": "554126.601368",
    "longitude": "-90.11644102184513",
    "latitude": "30.018119400853024",
    "geocoded_column": {
      "latitude": "30.018119400853024",
      "longitude": "-90.11644102184513"
    }
  },
  {
    "service_request": "2024-1061651",
    "request_type": "Traffic Signals/Signs/Striping/Streetlights",
    "request_reason": "Street Light Outage/Malfunction",
    "date_created": "2024-01-16T09:10:12.000",
    "date_modified": "2024-01-16T09:10:13.000",
    "request_status": "Pending",
    "responsible_agency": "Department of Public Works",
    "final_address": "1040 Elysian Fields Ave",
    "address_councildis": "C",
    "status": "Assigned to Contractor",
    "contractor": "Legacy Professional Services",
    "rowid": "1061651",
    "final_x": "3684923.12911",
    "final_y": "536254.812935",
    "longitude": "-90.05709480899299",
    "latitude": "29.968410409205195",
    "geocoded_column": {
      "latitude": "29.968410409205195",
      "longitude": "-90.05709480899299"
    }
  },
  {
    "service_request": "2024-1061650",
    "request_type": "Trash/Recycling",
    "request_reason": "Request a Large Item Pick Up",
    "date_created": "2024-01-16T09:09:48.000",
    "date_modified": "2024-01-16T09:11:25.000",
    "request_status": "Pending",
    "responsible_agency": "Department of Sanitation",
    "final_address": "315 N Bernadotte St",
    "address_councildis": "A",
    "status": "Assigned to Contractor",
    "contractor": "Richards Disposal",
    "rowid": "1061650",
    "final_x": "3669346.87566",
    "final_y": "540857.626891",
    "longitude": "-90.1061298391489",
    "latitude": "29.9815344382555",
    "geocoded_column": {
      "latitude": "29.9815344382555",
      "longitude": "-90.1061298391489"
    }
  },
  {
    "service_request": "2024-1061649",
    "request_type": "Trash/Recycling",
    "request_reason": "Request a Large Item Pick Up",
    "date_created": "2024-01-16T09:07:47.000",
    "date_modified": "2024-01-16T09:07:48.000",
    "request_status": "Pending",
    "responsible_agency": "Department of Sanitation",
    "final_address": "1927 Fats Domino Ave",
    "address_councildis": "E",
    "status": "Assigned to Contractor",
    "contractor": "Waste Pro",
    "rowid": "1061649",
    "final_x": "3698984.51652",
    "final_y": "536945.684232",
    "longitude": "-90.01266338875695",
    "latitude": "29.969871925482003",
    "geocoded_column": {
      "latitude": "29.969871925482003",
      "longitude": "-90.01266338875695"
    }
  },
  {
    "service_request": "2024-1061648",
    "request_type": "Roads/Drainage",
    "request_reason": "Debris in Roadway",
    "date_created": "2024-01-16T09:06:54.000",
    "date_modified": "2024-01-16T09:06:55.000",
    "request_status": "Pending",
    "responsible_agency": "Department of Public Works",
    "final_address": "500 BLK Canal St",
    "address_councildis": "B",
    "status": "Pending",
    "rowid": "1061648",
    "final_x": "3681516.2662",
    "final_y": "530374.623094",
    "longitude": "-90.0680588954157",
    "latitude": "29.952345790118095",
    "geocoded_column": {
      "latitude": "29.952345790118095",
      "longitude": "-90.0680588954157"
    }
  },
  {
    "service_request": "2024-1061647",
    "request_type": "Trash/Recycling",
    "request_reason": "Request a Large Item Pick Up",
    "date_created": "2024-01-16T09:04:01.000",
    "date_modified": "2024-01-16T09:04:02.000",
    "request_status": "Pending",
    "responsible_agency": "Department of Sanitation",
    "final_address": "5670 Evelyn Ct",
    "address_councildis": "A",
    "status": "Assigned to Contractor",
    "contractor": "IV Waste",
    "rowid": "1061647",
    "final_x": "3664359.02887",
    "final_y": "545574.132368",
    "longitude": "-90.12172632346184",
    "latitude": "29.99464917844701",
    "geocoded_column": {
      "latitude": "29.99464917844701",
      "longitude": "-90.12172632346184"
    }
  },
  {
    "service_request": "2024-1061646",
    "request_type": "Traffic Signals/Signs/Striping/Streetlights",
    "request_reason": "Street Light Outage/Malfunction",
    "date_created": "2024-01-16T09:03:14.000",
    "date_modified": "2024-01-16T09:03:15.000",
    "request_status": "Pending",
    "responsible_agency": "Department of Public Works",
    "final_address": "POYDRAS ST & POYDRAS PLZ",
    "address_councildis": "B",
    "status": "Assigned to Contractor",
    "contractor": "Legacy Professional Services",
    "rowid": "1061646",
    "final_x": "3678514.7",
    "final_y": "529962.38",
    "longitude": "-90.07755072915593",
    "latitude": "29.95130305407884",
    "geocoded_column": {
      "latitude": "29.95130305407884",
      "longitude": "-90.07755072915593"
    }
  },
  {
    "service_request": "2024-1061645",
    "request_type": "Parks & Parkways",
    "request_reason": "Request Tree Service (Right of Way/Public Property)",
    "date_created": "2024-01-16T09:03:13.000",
    "date_modified": "2024-01-16T09:03:15.000",
    "request_status": "Pending",
    "responsible_agency": "Department of Parks & Parkway",
    "final_address": "CLARA ST & POYDRAS ST & POYDRAS EXIT",
    "address_councildis": "B",
    "status": "Pending",
    "rowid": "1061645",
    "final_x": "3677274.3",
    "final_y": "530546.58",
    "longitude": "-90.08144715009757",
    "latitude": "29.952946729855867",
    "geocoded_column": {
      "latitude": "29.952946729855867",
      "longitude": "-90.08144715009757"
    }
  },
  {
    "service_request": "2024-1061644",
    "request_type": "Trash/Recycling",
    "request_reason": "Missed Trash Pick-Up",
    "date_created": "2024-01-16T09:03:03.000",
    "date_modified": "2024-01-16T09:23:18.000",
    "case_close_date": "2024-01-16T03:23:18.000",
    "request_status": "Closed",
    "responsible_agency": "Department of Sanitation",
    "final_address": "3434 Parkview Pl",
    "address_councildis": "A",
    "status": "Invalid Request",
    "contractor": "IV Waste",
    "contractor_action": "Invalid Pick-Up",
    "rowid": "1061644",
    "final_x": "3675567.30574",
    "final_y": "543273.91227",
    "longitude": "-90.08639976237332",
    "latitude": "29.987993735947004",
    "geocoded_column": {
      "latitude": "29.987993735947004",
      "longitude": "-90.08639976237332"
    }
  },
  {
    "service_request": "2024-1061643",
    "request_type": "Trash/Recycling",
    "request_reason": "Missed Trash Pick-Up",
    "date_created": "2024-01-16T08:59:45.000",
    "date_modified": "2024-01-16T09:03:45.000",
    "case_close_date": "2024-01-16T03:03:45.000",
    "request_status": "Closed",
    "responsible_agency": "Department of Sanitation",
    "final_address": "7741 Sandpiper Dr",
    "address_councildis": "E",
    "status": "Invalid Request",
    "contractor": "Waste Pro",
    "rowid": "1061643",
    "final_x": "3715660.49164",
    "final_y": "570144.469159",
    "longitude": "-89.95874193787441",
    "latitude": "30.060616490890748",
    "geocoded_column": {
      "latitude": "30.060616490890748",
      "longitude": "-89.95874193787441"
    }
  },
  {
    "service_request": "2024-1061642",
    "request_type": "Trash/Recycling",
    "request_reason": "Request a Large Item Pick Up",
    "date_created": "2024-01-16T08:57:26.000",
    "date_modified": "2024-01-16T08:57:27.000",
    "request_status": "Pending",
    "responsible_agency": "Department of Sanitation",
    "final_address": "1823 Jena St",
    "address_councildis": "B",
    "status": "Assigned to Contractor",
    "contractor": "Richards Disposal",
    "rowid": "1061642",
    "final_x": "3670442.32705",
    "final_y": "521753.279034",
    "longitude": "-90.10331761761675",
    "latitude": "29.92897147976895",
    "geocoded_column": {
      "latitude": "29.92897147976895",
      "longitude": "-90.10331761761675"
    }
  },
  {
    "service_request": "2024-1061641",
    "request_type": "Roads/Drainage",
    "request_reason": "Pothole",
    "date_created": "2024-01-16T08:46:33.000",
    "date_modified": "2024-01-16T08:46:34.000",
    "request_status": "Pending",
    "responsible_agency": "Department of Public Works",
    "final_address": "CANAL ST & S RAMPART ST",
    "address_councildis": "B",
    "status": "Pending",
    "rowid": "1061641",
    "final_x": "3679972.7",
    "final_y": "531544.98",
    "longitude": "-90.07289211617753",
    "latitude": "29.955610653469453",
    "geocoded_column": {
      "latitude": "29.955610653469453",
      "longitude": "-90.07289211617753"
    }
  },
  {
    "service_request": "2024-1061640",
    "request_type": "Trash/Recycling",
    "request_reason": "Missed Trash Pick-Up",
    "date_created": "2024-01-16T08:34:17.000",
    "date_modified": "2024-01-16T08:34:18.000",
    "request_status": "Pending",
    "responsible_agency": "Department of Sanitation",
    "final_address": "7838 Sand St",
    "address_councildis": "E",
    "status": "Assigned to Contractor",
    "contractor": "Waste Pro",
    "rowid": "1061640",
    "final_x": "3720133.64665",
    "final_y": "574229.075882",
    "longitude": "-89.94444611668145",
    "latitude": "30.071699134399008",
    "geocoded_column": {
      "latitude": "30.071699134399008",
      "longitude": "-89.94444611668145"
    }
  },
  {
    "service_request": "2024-1061639",
    "request_type": "Trash/Recycling",
    "request_reason": "Request a Large Item Pick Up",
    "date_created": "2024-01-16T08:30:44.000",
    "date_modified": "2024-01-16T08:30:45.000",
    "request_status": "Pending",
    "responsible_agency": "Department of Sanitation",
    "final_address": "7231 Ridgefield Dr",
    "address_councildis": "E",
    "status": "Assigned to Contractor",
    "contractor": "Waste Pro",
    "rowid": "1061639",
    "final_x": "3718839.14834",
    "final_y": "570456.635559",
    "longitude": "-89.94868250354513",
    "latitude": "30.061369586278303",
    "geocoded_column": {
      "latitude": "30.061369586278303",
      "longitude": "-89.94868250354513"
    }
  },
  {
    "service_request": "2024-1061638",
    "request_type": "Traffic Signals/Signs/Striping/Streetlights",
    "request_reason": "Street Light Outage/Malfunction",
    "date_created": "2024-01-16T08:21:06.000",
    "date_modified": "2024-01-16T08:21:07.000",
    "request_status": "Pending",
    "responsible_agency": "Department of Public Works",
    "final_address": "3700 BLK Willow St",
    "address_councildis": "B",
    "status": "Assigned to Contractor",
    "contractor": "Legacy Professional Services",
    "rowid": "1061638",
    "final_x": "3671785.23546",
    "final_y": "525602.484672",
    "longitude": "-90.0989474120677",
    "latitude": "29.939515845073213",
    "geocoded_column": {
      "latitude": "29.939515845073213",
      "longitude": "-90.0989474120677"
    }
  },
  {
    "service_request": "2024-1061637",
    "request_type": "Trash/Recycling",
    "request_reason": "Order Recycling Cart",
    "date_created": "2024-01-16T07:51:25.000",
    "date_modified": "2024-01-16T07:51:25.000",
    "request_status": "Pending",
    "responsible_agency": "Department of Sanitation",
    "final_address": "1023 Opelousas Ave",
    "address_councildis": "C",
    "status": "Pending",
    "rowid": "1061637",
    "final_x": "3688667.31439",
    "final_y": "529005.576704",
    "longitude": "-90.04552782210325",
    "latitude": "29.948362320024085",
    "geocoded_column": {
      "latitude": "29.948362320024085",
      "longitude": "-90.04552782210325"
    }
  },
  {
    "service_request": "2024-1061636",
    "request_type": "Property Maintenance",
    "request_reason": "Property Maintenance",
    "date_created": "2024-01-16T06:26:00.000",
    "date_modified": "2024-01-16T06:26:00.000",
    "request_status": "Pending",
    "responsible_agency": "Department of Code Enforcement",
    "final_address": "1315 Foucher St",
    "address_councildis": "B",
    "status": "Pending",
    "rowid": "1061636",
    "final_x": "3673940.36635",
    "final_y": "520153.185464",
    "longitude": "-90.09232969341609",
    "latitude": "29.924468023825387",
    "geocoded_column": {
      "latitude": "29.924468023825387",
      "longitude": "-90.09232969341609"
    }
  },
  {
    "service_request": "2024-1061635",
    "request_type": "Roads/Drainage",
    "request_reason": "Street Flooding / Drainage",
    "date_created": "2024-01-16T06:10:18.000",
    "date_modified": "2024-01-16T06:10:18.000",
    "request_status": "Pending",
    "responsible_agency": "Department of Public Works",
    "final_address": "900 BLK Saint Ferdinand St",
    "address_councildis": "C",
    "status": "Pending",
    "rowid": "1061635",
    "final_x": "3687561.18783",
    "final_y": "535707.725288",
    "longitude": "-90.04878308141697",
    "latitude": "29.966825052948025",
    "geocoded_column": {
      "latitude": "29.966825052948025",
      "longitude": "-90.04878308141697"
    }
  },
  {
    "service_request": "2024-1061634",
    "request_type": "Trash/Recycling",
    "request_reason": "Missed Trash Pick-Up",
    "date_created": "2024-01-16T05:30:48.000",
    "date_modified": "2024-01-16T06:39:40.000",
    "case_close_date": "2024-01-16T00:39:40.000",
    "request_status": "Closed",
    "responsible_agency": "Department of Sanitation",
    "final_address": "6234 Caldwell Dr",
    "address_councildis": "D",
    "status": "Invalid Request",
    "contractor": "IV Waste",
    "contractor_action": "Invalid Request",
    "rowid": "1061634",
    "final_x": "3679368.20923",
    "final_y": "556204.452122",
    "longitude": "-90.07394506247122",
    "latitude": "30.023433816487472",
    "geocoded_column": {
      "latitude": "30.023433816487472",
      "longitude": "-90.07394506247122"
    }
  },
  {
    "service_request": "2024-1061633",
    "request_type": "Trash/Recycling",
    "request_reason": "Missed Trash Pick-Up",
    "date_created": "2024-01-16T05:27:53.000",
    "date_modified": "2024-01-16T06:40:19.000",
    "case_close_date": "2024-01-16T00:40:19.000",
    "request_status": "Closed",
    "responsible_agency": "Department of Sanitation",
    "final_address": "6234 Caldwell Dr",
    "address_councildis": "D",
    "status": "Duplicate Request",
    "contractor": "IV Waste",
    "contractor_action": "duplicate",
    "rowid": "1061633",
    "final_x": "3679368.20923",
    "final_y": "556204.452122",
    "longitude": "-90.07394506247122",
    "latitude": "30.023433816487472",
    "geocoded_column": {
      "latitude": "30.023433816487472",
      "longitude": "-90.07394506247122"
    }
  },
  {
    "service_request": "2024-1061632",
    "request_type": "Roads/Drainage",
    "request_reason": "Pothole",
    "date_created": "2024-01-16T02:01:26.000",
    "date_modified": "2024-01-16T02:01:26.000",
    "request_status": "Pending",
    "responsible_agency": "Department of Public Works",
    "final_address": "1503 Napoleon Ave",
    "address_councildis": "B",
    "status": "Pending",
    "rowid": "1061632",
    "final_x": "3670967.88622",
    "final_y": "520626.232376",
    "longitude": "-90.10169677051358",
    "latitude": "29.925856938828442",
    "geocoded_column": {
      "latitude": "29.925856938828442",
      "longitude": "-90.10169677051358"
    }
  },
  {
    "service_request": "2024-1061631",
    "request_type": "Property Maintenance",
    "request_reason": "Property Maintenance",
    "date_created": "2024-01-16T01:24:37.000",
    "date_modified": "2024-01-16T01:24:37.000",
    "request_status": "Pending",
    "responsible_agency": "Department of Code Enforcement",
    "final_address": "3540 St Charles Ave",
    "address_councildis": "B",
    "status": "Pending",
    "rowid": "1061631",
    "final_x": "3673655.19713",
    "final_y": "521142.298041",
    "longitude": "-90.09319608433562",
    "latitude": "29.927196254695108",
    "geocoded_column": {
      "latitude": "29.927196254695108",
      "longitude": "-90.09319608433562"
    }
  },
  {
    "service_request": "2024-1061630",
    "request_type": "Abandoned Vehicles",
    "request_reason": "Abandoned/Junk Vehicles",
    "date_created": "2024-01-16T00:01:19.000",
    "date_modified": "2024-01-16T00:01:19.000",
    "request_status": "Pending",
    "responsible_agency": "Department of Public Works",
    "final_address": "1517 Burdette St",
    "address_councildis": "A",
    "status": "Pending",
    "rowid": "1061630",
    "final_x": "3663641.11776",
    "final_y": "528480.493696",
    "longitude": "-90.12456375167949",
    "latitude": "29.94766817768686",
    "geocoded_column": {
      "latitude": "29.94766817768686",
      "longitude": "-90.12456375167949"
    }
  },
  {
    "service_request": "2024-1061629",
    "request_type": "Roads/Drainage",
    "request_reason": "Road Shoulder Repair",
    "date_created": "2024-01-15T23:15:06.000",
    "date_modified": "2024-01-15T23:15:06.000",
    "request_status": "Pending",
    "responsible_agency": "Department of Public Works",
    "final_address": "1300 General Taylor St",
    "address_councildis": "B",
    "status": "Pending",
    "rowid": "1061629",
    "final_x": "3672762.11304",
    "final_y": "520298.263352",
    "longitude": "-90.09604409876785",
    "latitude": "29.924901977789897",
    "geocoded_column": {
      "latitude": "29.924901977789897",
      "longitude": "-90.09604409876785"
    }
  },
  {
    "service_request": "2024-1061628",
    "request_type": "Trash/Recycling",
    "request_reason": "Illegal Dumping",
    "date_created": "2024-01-15T23:12:15.000",
    "date_modified": "2024-01-15T23:12:15.000",
    "request_status": "Pending",
    "responsible_agency": "Department of Sanitation",
    "final_address": "LAKESHORE DR & LEON C SIMON DR",
    "address_councildis": "D",
    "status": "Pending",
    "rowid": "1061628",
    "final_x": "3691375.2",
    "final_y": "559280.58",
    "longitude": "-90.0358955638959",
    "latitude": "30.031523677820775",
    "geocoded_column": {
      "latitude": "30.031523677820775",
      "longitude": "-90.0358955638959"
    }
  },
  {
    "service_request": "2024-1061627",
    "request_type": "Roads/Drainage",
    "request_reason": "Street Flooding / Drainage",
    "date_created": "2024-01-15T23:07:48.000",
    "date_modified": "2024-01-15T23:07:48.000",
    "request_status": "Pending",
    "responsible_agency": "Department of Public Works",
    "final_address": "8023 Panola St",
    "address_councildis": "A",
    "status": "Pending",
    "rowid": "1061627",
    "final_x": "3664332.32167",
    "final_y": "530547.14349",
    "longitude": "-90.12231237601021",
    "latitude": "29.953330729130233",
    "geocoded_column": {
      "latitude": "29.953330729130233",
      "longitude": "-90.12231237601021"
    }
  },
  {
    "service_request": "2024-1061626",
    "request_type": "Trash/Recycling",
    "request_reason": "MIssed Recycling Pick-Up",
    "date_created": "2024-01-15T23:06:47.000",
    "date_modified": "2024-01-15T23:06:48.000",
    "request_status": "Pending",
    "responsible_agency": "Department of Sanitation",
    "final_address": "3103 Banks St",
    "address_councildis": "B",
    "status": "Assigned to Contractor",
    "contractor": "Richards Disposal",
    "rowid": "1061626",
    "final_x": "3673350.72456",
    "final_y": "535185.996422",
    "longitude": "-90.09367760722988",
    "latitude": "29.96582086266371",
    "geocoded_column": {
      "latitude": "29.96582086266371",
      "longitude": "-90.09367760722988"
    }
  },
  {
    "service_request": "2024-1061625",
    "request_type": "Parks & Parkways",
    "request_reason": "Request Grass Cutting Service (City Owned Property)",
    "date_created": "2024-01-15T22:45:52.000",
    "date_modified": "2024-01-15T22:45:52.000",
    "request_status": "Pending",
    "responsible_agency": "Department of Parks & Parkway",
    "final_address": "2901 Leon C Simon Dr",
    "address_councildis": "D",
    "status": "Pending",
    "rowid": "1061625",
    "final_x": "3689200.0422",
    "final_y": "558937.249116",
    "longitude": "-90.04278136410075",
    "latitude": "30.030647189520923",
    "geocoded_column": {
      "latitude": "30.030647189520923",
      "longitude": "-90.04278136410075"
    }
  },
  {
    "service_request": "2024-1061624",
    "request_type": "Property Maintenance",
    "request_reason": "Property Maintenance",
    "date_created": "2024-01-15T22:24:00.000",
    "date_modified": "2024-01-15T22:24:00.000",
    "request_status": "Pending",
    "responsible_agency": "Department of Code Enforcement",
    "final_address": "10 Westlake Dr",
    "address_councildis": "E",
    "status": "Pending",
    "rowid": "1061624",
    "final_x": "3699275.71101",
    "final_y": "556625.392282",
    "longitude": "-90.0110265570635",
    "latitude": "30.023974589778998",
    "geocoded_column": {
      "latitude": "30.023974589778998",
      "longitude": "-90.0110265570635"
    }
  },
  {
    "service_request": "2024-1061623",
    "request_type": "Roads/Drainage",
    "request_reason": "Pothole",
    "date_created": "2024-01-15T21:55:53.000",
    "date_modified": "2024-01-15T21:55:53.000",
    "request_status": "Pending",
    "responsible_agency": "Department of Public Works",
    "final_address": "5921 Coliseum St",
    "address_councildis": "A",
    "status": "Pending",
    "rowid": "1061623",
    "final_x": "3665303.22644",
    "final_y": "520189.895096",
    "longitude": "-90.11959307956585",
    "latitude": "29.924823355758967",
    "geocoded_column": {
      "latitude": "29.924823355758967",
      "longitude": "-90.11959307956585"
    }
  },
  {
    "service_request": "2024-1061622",
    "request_type": "Roads/Drainage",
    "request_reason": "Pothole",
    "date_created": "2024-01-15T21:51:53.000",
    "date_modified": "2024-01-15T21:51:53.000",
    "request_status": "Pending",
    "responsible_agency": "Department of Public Works",
    "final_address": "6031 Pitt St",
    "address_councildis": "A",
    "status": "Pending",
    "rowid": "1061622",
    "final_x": "3665074.90548",
    "final_y": "521345.766329",
    "longitude": "-90.12027518893876",
    "latitude": "29.928008285877205",
    "geocoded_column": {
      "latitude": "29.928008285877205",
      "longitude": "-90.12027518893876"
    }
  },
  {
    "service_request": "2024-1061621",
    "request_type": "Traffic Signals/Signs/Striping/Streetlights",
    "request_reason": "Traffic Sign Missing/Damaged",
    "date_created": "2024-01-15T21:01:22.000",
    "date_modified": "2024-01-16T09:05:31.000",
    "case_close_date": "2024-01-16T03:05:31.000",
    "request_status": "Closed",
    "responsible_agency": "Department of Public Works",
    "final_address": "6900 BLK Cove Dr",
    "address_councildis": "E",
    "status": "Referred to External Agency",
    "rowid": "1061621",
    "final_x": "3700329.86243",
    "final_y": "558426.932474",
    "longitude": "-90.00762980207536",
    "latitude": "30.02889464127872",
    "geocoded_column": {
      "latitude": "30.02889464127872",
      "longitude": "-90.00762980207536"
    }
  },
  {
    "service_request": "2024-1061620",
    "request_type": "Trash/Recycling",
    "request_reason": "Replace Trash Cart",
    "date_created": "2024-01-15T20:55:03.000",
    "date_modified": "2024-01-15T20:55:04.000",
    "request_status": "Pending",
    "responsible_agency": "Department of Sanitation",
    "final_address": "2631 General Taylor St",
    "address_councildis": "B",
    "status": "Assigned to Contractor",
    "contractor": "Richards Disposal",
    "rowid": "1061620",
    "final_x": "3671817.57569",
    "final_y": "524786.006332",
    "longitude": "-90.09887308035695",
    "latitude": "29.937269836699905",
    "geocoded_column": {
      "latitude": "29.937269836699905",
      "longitude": "-90.09887308035695"
    }
  },
  {
    "service_request": "2024-1061619",
    "request_type": "Trash/Recycling",
    "request_reason": "Replace Trash Cart",
    "date_created": "2024-01-15T20:03:24.000",
    "date_modified": "2024-01-15T20:03:26.000",
    "request_status": "Pending",
    "responsible_agency": "Department of Sanitation",
    "final_address": "4767 Franklin Ave",
    "address_councildis": "D",
    "status": "Assigned to Contractor",
    "contractor": "IV Waste",
    "rowid": "1061619",
    "final_x": "3686886.279",
    "final_y": "550808.562389",
    "longitude": "-90.05038048912343",
    "latitude": "30.008367759613805",
    "geocoded_column": {
      "latitude": "30.008367759613805",
      "longitude": "-90.05038048912343"
    }
  },
  {
    "service_request": "2024-1061618",
    "request_type": "Traffic Signals/Signs/Striping/Streetlights",
    "request_reason": "Street Light Outage/Malfunction",
    "date_created": "2024-01-15T20:01:54.000",
    "date_modified": "2024-01-15T20:01:55.000",
    "request_status": "Pending",
    "responsible_agency": "Department of Public Works",
    "final_address": "325 Polk St",
    "address_councildis": "A",
    "status": "Assigned to Contractor",
    "contractor": "Legacy Professional Services",
    "rowid": "1061618",
    "final_x": "3667295.1426",
    "final_y": "547451.521617",
    "longitude": "-90.11238827014232",
    "latitude": "29.999725659537958",
    "geocoded_column": {
      "latitude": "29.999725659537958",
      "longitude": "-90.11238827014232"
    }
  },
  {
    "service_request": "2024-1061617",
    "request_type": "Abandoned Vehicles",
    "request_reason": "Abandoned/Junk Vehicles",
    "date_created": "2024-01-15T19:39:25.000",
    "date_modified": "2024-01-15T19:39:25.000",
    "request_status": "Pending",
    "responsible_agency": "Department of Public Works",
    "final_address": "0 BLK Cypress Point Ct",
    "address_councildis": "E",
    "status": "Pending",
    "rowid": "1061617",
    "final_x": "3719849.26236",
    "final_y": "563249.100652",
    "longitude": "-89.94576547267701",
    "latitude": "30.041518243642397",
    "geocoded_column": {
      "latitude": "30.041518243642397",
      "longitude": "-89.94576547267701"
    }
  },
  {
    "service_request": "2024-1061616",
    "request_type": "Trash/Recycling",
    "request_reason": "Repair Trash Cart",
    "date_created": "2024-01-15T19:19:04.000",
    "date_modified": "2024-01-15T19:19:06.000",
    "request_status": "Pending",
    "responsible_agency": "Department of Sanitation",
    "final_address": "4305 Cartier Ave",
    "address_councildis": "D",
    "status": "Assigned to Contractor",
    "contractor": "IV Waste",
    "rowid": "1061616",
    "final_x": "3678070.93058",
    "final_y": "548150.586834",
    "longitude": "-90.0783229248563",
    "latitude": "30.00132772298828",
    "geocoded_column": {
      "latitude": "30.00132772298828",
      "longitude": "-90.0783229248563"
    }
  },
  {
    "service_request": "2024-1061615",
    "request_type": "Trash/Recycling",
    "request_reason": "Order Trash Cart",
    "date_created": "2024-01-15T19:17:49.000",
    "date_modified": "2024-01-15T19:17:51.000",
    "request_status": "Pending",
    "responsible_agency": "Department of Sanitation",
    "final_address": "425 Turquoise St",
    "address_councildis": "D",
    "status": "Assigned to Contractor",
    "contractor": "IV Waste",
    "rowid": "1061615",
    "final_x": "3668038.25133",
    "final_y": "555439.773721",
    "longitude": "-90.10977128290492",
    "latitude": "30.02166876029977",
    "geocoded_column": {
      "latitude": "30.02166876029977",
      "longitude": "-90.10977128290492"
    }
  },
  {
    "service_request": "2024-1061614",
    "request_type": "Trash/Recycling",
    "request_reason": "Replace Recycling Cart",
    "date_created": "2024-01-15T19:14:05.000",
    "date_modified": "2024-01-15T19:14:05.000",
    "request_status": "Pending",
    "responsible_agency": "Department of Sanitation",
    "final_address": "5177 Kim Dr",
    "address_councildis": "E",
    "status": "Pending",
    "rowid": "1061614",
    "final_x": "3727920.49619",
    "final_y": "564208.977505",
    "longitude": "-89.92022042313113",
    "latitude": "30.043886288907846",
    "geocoded_column": {
      "latitude": "30.043886288907846",
      "longitude": "-89.92022042313113"
    }
  },
  {
    "service_request": "2024-1061613",
    "request_type": "Trash/Recycling",
    "request_reason": "Replace Recycling Cart",
    "date_created": "2024-01-15T19:12:16.000",
    "date_modified": "2024-01-15T19:12:16.000",
    "request_status": "Pending",
    "responsible_agency": "Department of Sanitation",
    "final_address": "425 Turquoise St",
    "address_councildis": "D",
    "status": "Pending",
    "rowid": "1061613",
    "final_x": "3668038.25133",
    "final_y": "555439.773721",
    "longitude": "-90.10977128290492",
    "latitude": "30.02166876029977",
    "geocoded_column": {
      "latitude": "30.02166876029977",
      "longitude": "-90.10977128290492"
    }
  },
  {
    "service_request": "2024-1061612",
    "request_type": "Mosquito, Termite & Rodent Control",
    "request_reason": "Mosquito Complaint",
    "date_created": "2024-01-15T18:17:28.000",
    "date_modified": "2024-01-15T18:17:28.000",
    "request_status": "Pending",
    "responsible_agency": "Mosquito, Termite & Rodent Control Board",
    "final_address": "10 Honeysuckle Ln",
    "address_councildis": "E",
    "status": "Pending",
    "rowid": "1061612",
    "final_x": "3713069.50405",
    "final_y": "568171.674789",
    "longitude": "-89.96700624180168",
    "latitude": "30.055277325665152",
    "geocoded_column": {
      "latitude": "30.055277325665152",
      "longitude": "-89.96700624180168"
    }
  },
  {
    "service_request": "2024-1061611",
    "request_type": "Trash/Recycling",
    "request_reason": "Request a Large Item Pick Up",
    "date_created": "2024-01-15T17:57:00.000",
    "date_modified": "2024-01-15T17:57:01.000",
    "request_status": "Pending",
    "responsible_agency": "Department of Sanitation",
    "final_address": "1808 Nunez St",
    "address_councildis": "C",
    "status": "Assigned to Contractor",
    "contractor": "Richards Disposal",
    "rowid": "1061611",
    "final_x": "3687274.65193",
    "final_y": "524779.665276",
    "longitude": "-90.05007445491319",
    "latitude": "29.936785460973063",
    "geocoded_column": {
      "latitude": "29.936785460973063",
      "longitude": "-90.05007445491319"
    }
  },
  {
    "service_request": "2024-1061609",
    "request_type": "Traffic Signals/Signs/Striping/Streetlights",
    "request_reason": "Street Light Outage/Malfunction",
    "date_created": "2024-01-15T17:40:54.000",
    "date_modified": "2024-01-15T17:40:55.000",
    "request_status": "Pending",
    "responsible_agency": "Department of Public Works",
    "final_address": "32 Arbor Ln",
    "address_councildis": "C",
    "status": "Assigned to Contractor",
    "contractor": "Legacy Professional Services",
    "rowid": "1061609",
    "final_x": "3717118.32383",
    "final_y": "518197.354486",
    "longitude": "-89.95610743810425",
    "latitude": "29.917733722366208",
    "geocoded_column": {
      "latitude": "29.917733722366208",
      "longitude": "-89.95610743810425"
    }
  },
  {
    "service_request": "2024-1061608",
    "request_type": "Roads/Drainage",
    "request_reason": "Damaged Sidewalk",
    "date_created": "2024-01-15T17:28:18.000",
    "date_modified": "2024-01-15T17:28:18.000",
    "request_status": "Pending",
    "responsible_agency": "Department of Public Works",
    "final_address": "6022 Patton St",
    "address_councildis": "A",
    "status": "Pending",
    "rowid": "1061608",
    "final_x": "3664290.79616",
    "final_y": "518536.705719",
    "longitude": "-90.12284413185468",
    "latitude": "29.920307051556183",
    "geocoded_column": {
      "latitude": "29.920307051556183",
      "longitude": "-90.12284413185468"
    }
  },
  {
    "service_request": "2024-1061607",
    "request_type": "Trash/Recycling",
    "request_reason": "Replace Recycling Cart",
    "date_created": "2024-01-15T17:12:48.000",
    "date_modified": "2024-01-15T17:12:48.000",
    "request_status": "Pending",
    "responsible_agency": "Department of Sanitation",
    "final_address": "6022 Patton St",
    "address_councildis": "A",
    "status": "Pending",
    "rowid": "1061607",
    "final_x": "3664290.79616",
    "final_y": "518536.705719",
    "longitude": "-90.12284413185468",
    "latitude": "29.920307051556183",
    "geocoded_column": {
      "latitude": "29.920307051556183",
      "longitude": "-90.12284413185468"
    }
  },
  {
    "service_request": "2024-1061606",
    "request_type": "Trash/Recycling",
    "request_reason": "Replace Trash Cart",
    "date_created": "2024-01-15T17:09:10.000",
    "date_modified": "2024-01-15T17:09:11.000",
    "request_status": "Pending",
    "responsible_agency": "Department of Sanitation",
    "final_address": "6022 Patton St",
    "address_councildis": "A",
    "status": "Assigned to Contractor",
    "contractor": "Richards Disposal",
    "rowid": "1061606",
    "final_x": "3664290.79616",
    "final_y": "518536.705719",
    "longitude": "-90.12284413185468",
    "latitude": "29.920307051556183",
    "geocoded_column": {
      "latitude": "29.920307051556183",
      "longitude": "-90.12284413185468"
    }
  },
  {
    "service_request": "2024-1061605",
    "request_type": "Trash/Recycling",
    "request_reason": "Replace Trash Cart",
    "date_created": "2024-01-15T16:56:14.000",
    "date_modified": "2024-01-15T16:56:15.000",
    "request_status": "Pending",
    "responsible_agency": "Department of Sanitation",
    "final_address": "227 Audubon St",
    "address_councildis": "A",
    "status": "Assigned to Contractor",
    "contractor": "Richards Disposal",
    "rowid": "1061605",
    "final_x": "3661206.0279",
    "final_y": "521466.324217",
    "longitude": "-90.1324844237531",
    "latitude": "29.928451837702216",
    "geocoded_column": {
      "latitude": "29.928451837702216",
      "longitude": "-90.1324844237531"
    }
  },
  {
    "service_request": "2024-1061604",
    "request_type": "Tax and Revenue",
    "request_reason": "General Tax Question",
    "date_created": "2024-01-15T16:40:02.000",
    "date_modified": "2024-01-15T16:40:02.000",
    "request_status": "Pending",
    "responsible_agency": "Bureau of Revenue",
    "final_address": "5902 General Meyer Ave",
    "address_councildis": "C",
    "status": "Pending",
    "rowid": "1061604",
    "final_x": "3705898.00747",
    "final_y": "521491.687545",
    "longitude": "-89.99140168161405",
    "latitude": "29.9271580466843",
    "geocoded_column": {
      "latitude": "29.9271580466843",
      "longitude": "-89.99140168161405"
    }
  },
  {
    "service_request": "2024-1061603",
    "request_type": "Abandoned Vehicles",
    "request_reason": "Abandoned/Junk Vehicles",
    "date_created": "2024-01-15T16:33:59.000",
    "date_modified": "2024-01-15T16:33:59.000",
    "request_status": "Pending",
    "responsible_agency": "Department of Public Works",
    "final_address": "6105 Chartres St",
    "address_councildis": "E",
    "status": "Pending",
    "rowid": "1061603",
    "final_x": "3698864.32234",
    "final_y": "531554.231747",
    "longitude": "-90.01323913124682",
    "latitude": "29.95505116251518",
    "geocoded_column": {
      "latitude": "29.95505116251518",
      "longitude": "-90.01323913124682"
    }
  },
  {
    "service_request": "2024-1061602",
    "request_type": "Abandoned Vehicles",
    "request_reason": "Abandoned/Junk Vehicles",
    "date_created": "2024-01-15T16:24:50.000",
    "date_modified": "2024-01-15T16:24:50.000",
    "request_status": "Pending",
    "responsible_agency": "Department of Public Works",
    "final_address": "6105 Chartres St",
    "address_councildis": "E",
    "status": "Pending",
    "rowid": "1061602",
    "final_x": "3698864.32234",
    "final_y": "531554.231747",
    "longitude": "-90.01323913124682",
    "latitude": "29.95505116251518",
    "geocoded_column": {
      "latitude": "29.95505116251518",
      "longitude": "-90.01323913124682"
    }
  },
  {
    "service_request": "2024-1061601",
    "request_type": "Roads/Drainage",
    "request_reason": "Pothole",
    "date_created": "2024-01-15T16:18:21.000",
    "date_modified": "2024-01-15T16:18:21.000",
    "request_status": "Pending",
    "responsible_agency": "Department of Public Works",
    "final_address": "4216 Chestnut St",
    "address_councildis": "B",
    "status": "Pending",
    "rowid": "1061601",
    "final_x": "3671574.31393",
    "final_y": "519539.203703",
    "longitude": "-90.09981939416457",
    "latitude": "29.922850019854593",
    "geocoded_column": {
      "latitude": "29.922850019854593",
      "longitude": "-90.09981939416457"
    }
  },
  {
    "service_request": "2024-1061600",
    "request_type": "Traffic Signals/Signs/Striping/Streetlights",
    "request_reason": "Street Light Knocked Down/Leaning",
    "date_created": "2024-01-15T16:08:47.000",
    "date_modified": "2024-01-15T16:08:48.000",
    "request_status": "Pending",
    "responsible_agency": "Department of Public Works",
    "final_address": "815 Baronne St",
    "address_councildis": "B",
    "status": "Pending",
    "contractor": "Legacy Professional Services",
    "rowid": "1061600",
    "final_x": "3679532.94907",
    "final_y": "528097.815615",
    "longitude": "-90.07440028513275",
    "latitude": "29.946145402253663",
    "geocoded_column": {
      "latitude": "29.946145402253663",
      "longitude": "-90.07440028513275"
    }
  },
  {
    "service_request": "2024-1061599",
    "request_type": "Trash/Recycling",
    "request_reason": "Replace Trash Cart",
    "date_created": "2024-01-15T16:08:17.000",
    "date_modified": "2024-01-15T16:08:18.000",
    "request_status": "Pending",
    "responsible_agency": "Department of Sanitation",
    "final_address": "823 Poland Ave",
    "address_councildis": "C",
    "status": "Assigned to Contractor",
    "contractor": "IV Waste",
    "rowid": "1061599",
    "final_x": "3692858.51459",
    "final_y": "534029.366277",
    "longitude": "-90.03211439177622",
    "latitude": "29.962045802525804",
    "geocoded_column": {
      "latitude": "29.962045802525804",
      "longitude": "-90.03211439177622"
    }
  },
  {
    "service_request": "2024-1061598",
    "request_type": "Trash/Recycling",
    "request_reason": "Replace Trash Cart",
    "date_created": "2024-01-15T15:58:50.000",
    "date_modified": "2024-01-15T15:58:51.000",
    "request_status": "Pending",
    "responsible_agency": "Department of Sanitation",
    "final_address": "3805 Octavia St",
    "address_councildis": "A",
    "status": "Assigned to Contractor",
    "contractor": "Richards Disposal",
    "rowid": "1061598",
    "final_x": "3668826.2827",
    "final_y": "529392.729665",
    "longitude": "-90.1081613042878",
    "latitude": "29.950025105536138",
    "geocoded_column": {
      "latitude": "29.950025105536138",
      "longitude": "-90.1081613042878"
    }
  },
  {
    "service_request": "2024-1061597",
    "request_type": "Roads/Drainage",
    "request_reason": "Catch Basin - Clogged",
    "date_created": "2024-01-15T15:55:47.000",
    "date_modified": "2024-01-15T15:55:47.000",
    "request_status": "Pending",
    "responsible_agency": "Department of Public Works",
    "final_address": "2542 Mistletoe St",
    "address_councildis": "A",
    "status": "Pending",
    "rowid": "1061597",
    "final_x": "3662437.36647",
    "final_y": "534717.008838",
    "longitude": "-90.12815737716123",
    "latitude": "29.96485143691225",
    "geocoded_column": {
      "latitude": "29.96485143691225",
      "longitude": "-90.12815737716123"
    }
  },
  {
    "service_request": "2024-1061596",
    "request_type": "Trash/Recycling",
    "request_reason": "Request a Large Item Pick Up",
    "date_created": "2024-01-15T15:54:05.000",
    "date_modified": "2024-01-15T15:54:06.000",
    "request_status": "Pending",
    "responsible_agency": "Department of Sanitation",
    "final_address": "11316 Prentiss Ave",
    "address_councildis": "E",
    "status": "Assigned to Contractor",
    "contractor": "Waste Pro",
    "rowid": "1061596",
    "final_x": "3717169.67295",
    "final_y": "556677.585818",
    "longitude": "-89.95448376478822",
    "latitude": "30.02353817133616",
    "geocoded_column": {
      "latitude": "30.02353817133616",
      "longitude": "-89.95448376478822"
    }
  },
  {
    "service_request": "2024-1061593",
    "request_type": "Trash/Recycling",
    "request_reason": "Request a Large Item Pick Up",
    "date_created": "2024-01-15T15:10:25.000",
    "date_modified": "2024-01-15T15:10:26.000",
    "request_status": "Pending",
    "responsible_agency": "Department of Sanitation",
    "final_address": "7500 BLK Saint Charles Ave",
    "address_councildis": "A",
    "status": "Assigned to Contractor",
    "contractor": "Richards Disposal",
    "rowid": "1061593",
    "final_x": "3662032.68541",
    "final_y": "525529.891641",
    "longitude": "-90.12974008718899",
    "latitude": "29.93960151992267",
    "geocoded_column": {
      "latitude": "29.93960151992267",
      "longitude": "-90.12974008718899"
    }
  },
  {
    "service_request": "2024-1061592",
    "request_type": "Roads/Drainage",
    "request_reason": "Pothole",
    "date_created": "2024-01-15T15:01:31.000",
    "date_modified": "2024-01-15T15:01:31.000",
    "request_status": "Pending",
    "responsible_agency": "Department of Public Works",
    "final_address": "1312 Milan St",
    "address_councildis": "B",
    "status": "Pending",
    "rowid": "1061592",
    "final_x": "3671625.82823",
    "final_y": "520286.919608",
    "longitude": "-90.09963137110304",
    "latitude": "29.92490447494246",
    "geocoded_column": {
      "latitude": "29.92490447494246",
      "longitude": "-90.09963137110304"
    }
  },
  {
    "service_request": "2024-1061591",
    "request_type": "Mosquito, Termite & Rodent Control",
    "request_reason": "Rodent Complaint (Rats)",
    "date_created": "2024-01-15T14:58:22.000",
    "date_modified": "2024-01-15T14:58:22.000",
    "request_status": "Pending",
    "responsible_agency": "Mosquito, Termite & Rodent Control Board",
    "final_address": "337 Exchange Pl",
    "address_councildis": "C",
    "status": "Pending",
    "rowid": "1061591",
    "final_x": "3681965.99004",
    "final_y": "531423.180547",
    "longitude": "-90.06660227378936",
    "latitude": "29.955215305365556",
    "geocoded_column": {
      "latitude": "29.955215305365556",
      "longitude": "-90.06660227378936"
    }
  },
  {
    "service_request": "2024-1061590",
    "request_type": "Trash/Recycling",
    "request_reason": "Missed Trash Pick-Up",
    "date_created": "2024-01-15T14:43:14.000",
    "date_modified": "2024-01-15T14:43:15.000",
    "request_status": "Pending",
    "responsible_agency": "Department of Sanitation",
    "final_address": "7637 Tricia Ct",
    "address_councildis": "E",
    "status": "Assigned to Contractor",
    "contractor": "Waste Pro",
    "rowid": "1061590",
    "final_x": "3717727.86815",
    "final_y": "571159.18788",
    "longitude": "-89.95216844155685",
    "latitude": "30.06333818976537",
    "geocoded_column": {
      "latitude": "30.06333818976537",
      "longitude": "-89.95216844155685"
    }
  },
  {
    "service_request": "2024-1061589",
    "request_type": "Traffic Signals/Signs/Striping/Streetlights",
    "request_reason": "Street Light Outage/Malfunction",
    "date_created": "2024-01-15T14:29:47.000",
    "date_modified": "2024-01-15T14:29:48.000",
    "request_status": "Pending",
    "responsible_agency": "Department of Public Works",
    "final_address": "DESOTO ST & N LOPEZ ST",
    "address_councildis": "A",
    "status": "Assigned to Contractor",
    "contractor": "Legacy Professional Services",
    "rowid": "1061589",
    "final_x": "3676414.6",
    "final_y": "539829.98",
    "longitude": "-90.08384206110324",
    "latitude": "29.978498732840315",
    "geocoded_column": {
      "latitude": "29.978498732840315",
      "longitude": "-90.08384206110324"
    }
  },
  {
    "service_request": "2024-1061588",
    "request_type": "Roads/Drainage",
    "request_reason": "Street Subsidence (Sinking)",
    "date_created": "2024-01-15T14:26:27.000",
    "date_modified": "2024-01-15T14:26:27.000",
    "request_status": "Pending",
    "responsible_agency": "Department of Public Works",
    "final_address": "2900 BLK Kabel Dr",
    "address_councildis": "C",
    "status": "Pending",
    "rowid": "1061588",
    "final_x": "3700618.04427",
    "final_y": "519868.772058",
    "longitude": "-90.00812831122819",
    "latitude": "29.92286455848899",
    "geocoded_column": {
      "latitude": "29.92286455848899",
      "longitude": "-90.00812831122819"
    }
  },
  {
    "service_request": "2024-1061587",
    "request_type": "Safety & Permits",
    "request_reason": "Healthy Homes",
    "date_created": "2024-01-15T14:10:43.000",
    "date_modified": "2024-01-15T14:10:43.000",
    "request_status": "Pending",
    "responsible_agency": "Safety and Permits",
    "final_address": "8422 Nelson St",
    "address_councildis": "A",
    "status": "Pending",
    "rowid": "1061587",
    "final_x": "3664141.70189",
    "final_y": "532574.069636",
    "longitude": "-90.12284666166863",
    "latitude": "29.95890965524143",
    "geocoded_column": {
      "latitude": "29.95890965524143",
      "longitude": "-90.12284666166863"
    }
  },
  {
    "service_request": "2024-1061586",
    "request_type": "Property Maintenance",
    "request_reason": "Property Maintenance",
    "date_created": "2024-01-15T14:09:40.000",
    "date_modified": "2024-01-15T14:09:40.000",
    "request_status": "Pending",
    "responsible_agency": "Department of Code Enforcement",
    "final_address": "8422 Nelson St",
    "address_councildis": "A",
    "status": "Pending",
    "rowid": "1061586",
    "final_x": "3664141.70189",
    "final_y": "532574.069636",
    "longitude": "-90.12284666166863",
    "latitude": "29.95890965524143",
    "geocoded_column": {
      "latitude": "29.95890965524143",
      "longitude": "-90.12284666166863"
    }
  },
  {
    "service_request": "2024-1061585",
    "request_type": "Trash/Recycling",
    "request_reason": "Request a Large Item Pick Up",
    "date_created": "2024-01-15T14:09:28.000",
    "date_modified": "2024-01-16T09:34:32.000",
    "case_close_date": "2024-01-16T03:34:32.000",
    "request_status": "Closed",
    "responsible_agency": "Department of Sanitation",
    "final_address": "25 Spanish Fort Blvd",
    "address_councildis": "D",
    "status": "Assigned to Contractor",
    "contractor": "IV Waste",
    "contractor_action": "Completed",
    "rowid": "1061585",
    "final_x": "3674120.83841",
    "final_y": "554948.776152",
    "longitude": "-90.09056871607055",
    "latitude": "30.020138697463544",
    "geocoded_column": {
      "latitude": "30.020138697463544",
      "longitude": "-90.09056871607055"
    }
  },
  {
    "service_request": "2024-1061584",
    "request_type": "Mosquito, Termite & Rodent Control",
    "request_reason": "Non-Rodent Complaint (Mice, Possums, Snakes)",
    "date_created": "2024-01-15T13:57:47.000",
    "date_modified": "2024-01-15T13:57:47.000",
    "request_status": "Pending",
    "responsible_agency": "Mosquito, Termite & Rodent Control Board",
    "final_address": "1611 S Lopez St",
    "address_councildis": "B",
    "status": "Pending",
    "rowid": "1061584",
    "final_x": "3670055.03854",
    "final_y": "530822.963586",
    "longitude": "-90.10423309730992",
    "latitude": "29.953921596183527",
    "geocoded_column": {
      "latitude": "29.953921596183527",
      "longitude": "-90.10423309730992"
    }
  },
  {
    "service_request": "2024-1061583",
    "request_type": "Roads/Drainage",
    "request_reason": "Pothole",
    "date_created": "2024-01-15T13:45:24.000",
    "date_modified": "2024-01-15T13:45:24.000",
    "request_status": "Pending",
    "responsible_agency": "Department of Public Works",
    "final_address": "5900 BLK West End Blvd",
    "address_councildis": "A",
    "status": "Pending",
    "rowid": "1061583",
    "final_x": "3666447.2048",
    "final_y": "547418.968926",
    "longitude": "-90.11506804311729",
    "latitude": "29.999660967119656",
    "geocoded_column": {
      "latitude": "29.999660967119656",
      "longitude": "-90.11506804311729"
    }
  },
  {
    "service_request": "2024-1061582",
    "request_type": "Trash/Recycling",
    "request_reason": "Request a Large Item Pick Up",
    "date_created": "2024-01-15T13:25:31.000",
    "date_modified": "2024-01-15T13:25:32.000",
    "request_status": "Pending",
    "responsible_agency": "Department of Sanitation",
    "final_address": "East Oak Ridge Court & South Oak Ridge Court",
    "address_councildis": "E",
    "status": "Assigned to Contractor",
    "contractor": "Waste Pro",
    "rowid": "1061582",
    "final_x": "3713906.73445",
    "final_y": "567922.828645",
    "longitude": "-89.96436934987393",
    "latitude": "30.054565623839885",
    "geocoded_column": {
      "latitude": "30.054565623839885",
      "longitude": "-89.96436934987393"
    }
  },
  {
    "service_request": "2024-1061581",
    "request_type": "Trash/Recycling",
    "request_reason": "Missed Trash Pick-Up",
    "date_created": "2024-01-15T13:21:05.000",
    "date_modified": "2024-01-16T10:56:09.000",
    "case_close_date": "2024-01-16T04:56:09.000",
    "request_status": "Closed",
    "responsible_agency": "Department of Sanitation",
    "final_address": "5530 New England Dr",
    "address_councildis": "E",
    "status": "Invalid Request",
    "contractor": "Waste Pro",
    "contractor_action": "Invalid Request",
    "rowid": "1061581",
    "final_x": "3723625.88582",
    "final_y": "563753.894689",
    "longitude": "-89.93381065186179",
    "latitude": "30.042779928847647",
    "geocoded_column": {
      "latitude": "30.042779928847647",
      "longitude": "-89.93381065186179"
    }
  },
  {
    "service_request": "2024-1061580",
    "request_type": "Trash/Recycling",
    "request_reason": "Missed Trash Pick-Up",
    "date_created": "2024-01-15T13:17:38.000",
    "date_modified": "2024-01-15T13:18:07.000",
    "request_status": "Pending",
    "responsible_agency": "Department of Sanitation",
    "final_address": "4321 Trieste St",
    "address_councildis": "E",
    "status": "Assigned to Contractor",
    "contractor": "Waste Pro",
    "rowid": "1061580",
    "final_x": "3760220.06697",
    "final_y": "573504.147946",
    "longitude": "-89.81775378901686",
    "latitude": "30.06830896010249",
    "geocoded_column": {
      "latitude": "30.06830896010249",
      "longitude": "-89.81775378901686"
    }
  },
  {
    "service_request": "2024-1061579",
    "request_type": "Trash/Recycling",
    "request_reason": "Request a Large Item Pick Up",
    "date_created": "2024-01-15T13:01:23.000",
    "date_modified": "2024-01-15T13:01:24.000",
    "request_status": "Pending",
    "responsible_agency": "Department of Sanitation",
    "final_address": "3340 Bell St",
    "address_councildis": "A",
    "status": "Assigned to Contractor",
    "contractor": "Richards Disposal",
    "rowid": "1061579",
    "final_x": "3675241.91227",
    "final_y": "539718.049546",
    "longitude": "-90.08754968834869",
    "latitude": "29.97822607203641",
    "geocoded_column": {
      "latitude": "29.97822607203641",
      "longitude": "-90.08754968834869"
    }
  },
  {
    "service_request": "2024-1061578",
    "request_type": "Roads/Drainage",
    "request_reason": "Catch Basin - Clogged",
    "date_created": "2024-01-15T12:59:21.000",
    "date_modified": "2024-01-15T12:59:21.000",
    "request_status": "Pending",
    "responsible_agency": "Department of Public Works",
    "final_address": "5734 Pratt Dr",
    "address_councildis": "D",
    "status": "Pending",
    "rowid": "1061578",
    "final_x": "3680169.2589",
    "final_y": "553887.551191",
    "longitude": "-90.07149453414924",
    "latitude": "30.017038950585974",
    "geocoded_column": {
      "latitude": "30.017038950585974",
      "longitude": "-90.07149453414924"
    }
  },
  {
    "service_request": "2024-1061577",
    "request_type": "Trash/Recycling",
    "request_reason": "Request a Large Item Pick Up",
    "date_created": "2024-01-15T12:59:05.000",
    "date_modified": "2024-01-15T15:40:30.000",
    "case_close_date": "2024-01-15T09:40:30.000",
    "request_status": "Closed",
    "responsible_agency": "Department of Sanitation",
    "final_address": "4507 Bienville Ave",
    "address_councildis": "A",
    "status": "Resolved",
    "contractor": "Richards Disposal",
    "rowid": "1061577",
    "final_x": "3670161.34753",
    "final_y": "540119.012299",
    "longitude": "-90.1035823893728",
    "latitude": "29.979479488408757",
    "geocoded_column": {
      "latitude": "29.979479488408757",
      "longitude": "-90.1035823893728"
    }
  },
  {
    "service_request": "2024-1061576",
    "request_type": "Trash/Recycling",
    "request_reason": "Illegal Dumping",
    "date_created": "2024-01-15T12:43:38.000",
    "date_modified": "2024-01-15T12:43:38.000",
    "request_status": "Pending",
    "responsible_agency": "Department of Sanitation",
    "final_address": "11901 N Interstate 10 Service Rd",
    "address_councildis": "E",
    "status": "Pending",
    "rowid": "1061576",
    "final_x": "3714440.52075",
    "final_y": "564945.708642",
    "longitude": "-89.96279474150609",
    "latitude": "30.04636221272858",
    "geocoded_column": {
      "latitude": "30.04636221272858",
      "longitude": "-89.96279474150609"
    }
  },
  {
    "service_request": "2024-1061575",
    "request_type": "Trash/Recycling",
    "request_reason": "Missed Trash Pick-Up",
    "date_created": "2024-01-15T12:40:19.000",
    "date_modified": "2024-01-15T12:40:20.000",
    "request_status": "Pending",
    "responsible_agency": "Department of Sanitation",
    "final_address": "4531 Martin St",
    "address_councildis": "E",
    "status": "Assigned to Contractor",
    "contractor": "Waste Pro",
    "rowid": "1061575",
    "final_x": "3784788.67359",
    "final_y": "608378.382218",
    "longitude": "-89.73855563527093",
    "latitude": "30.1632789332878",
    "geocoded_column": {
      "latitude": "30.1632789332878",
      "longitude": "-89.73855563527093"
    }
  },
  {
    "service_request": "2024-1061574",
    "request_type": "Trash/Recycling",
    "request_reason": "Request a Large Item Pick Up",
    "date_created": "2024-01-15T12:34:18.000",
    "date_modified": "2024-01-15T12:34:20.000",
    "request_status": "Pending",
    "responsible_agency": "Department of Sanitation",
    "final_address": "1910 Eagle St",
    "address_councildis": "A",
    "status": "Assigned to Contractor",
    "contractor": "Richards Disposal",
    "rowid": "1061574",
    "final_x": "3661814.2743",
    "final_y": "531960.804163",
    "longitude": "-90.13021646258352",
    "latitude": "29.9572907757137",
    "geocoded_column": {
      "latitude": "29.9572907757137",
      "longitude": "-90.13021646258352"
    }
  },
  {
    "service_request": "2024-1061573",
    "request_type": "Trash/Recycling",
    "request_reason": "Request a Large Item Pick Up",
    "date_created": "2024-01-15T12:13:36.000",
    "date_modified": "2024-01-15T12:13:37.000",
    "request_status": "Pending",
    "responsible_agency": "Department of Sanitation",
    "final_address": "415 Wagner St",
    "address_councildis": "C",
    "status": "Assigned to Contractor",
    "contractor": "Richards Disposal",
    "rowid": "1061573",
    "final_x": "3690547.66864",
    "final_y": "530093.611329",
    "longitude": "-90.03955199638636",
    "latitude": "29.951295797151836",
    "geocoded_column": {
      "latitude": "29.951295797151836",
      "longitude": "-90.03955199638636"
    }
  },
  {
    "service_request": "2024-1061572",
    "request_type": "Trash/Recycling",
    "request_reason": "Request a Large Item Pick Up",
    "date_created": "2024-01-15T12:12:52.000",
    "date_modified": "2024-01-15T12:12:53.000",
    "request_status": "Pending",
    "responsible_agency": "Department of Sanitation",
    "final_address": "415 Wagner St",
    "address_councildis": "C",
    "status": "Assigned to Contractor",
    "contractor": "Richards Disposal",
    "rowid": "1061572",
    "final_x": "3690547.66864",
    "final_y": "530093.611329",
    "longitude": "-90.03955199638636",
    "latitude": "29.951295797151836",
    "geocoded_column": {
      "latitude": "29.951295797151836",
      "longitude": "-90.03955199638636"
    }
  },
  {
    "service_request": "2024-1061571",
    "request_type": "Trash/Recycling",
    "request_reason": "Order Recycling Cart",
    "date_created": "2024-01-15T12:08:57.000",
    "date_modified": "2024-01-15T12:08:57.000",
    "request_status": "Pending",
    "responsible_agency": "Department of Sanitation",
    "final_address": "1816 St Andrew St Apt 2B",
    "address_councildis": "B",
    "status": "Pending",
    "rowid": "1061571",
    "final_x": "3677447.52571",
    "final_y": "524936.667196",
    "longitude": "-90.08109376402462",
    "latitude": "29.937516126078556",
    "geocoded_column": {
      "latitude": "29.937516126078556",
      "longitude": "-90.08109376402462"
    }
  },
  {
    "service_request": "2024-1061570",
    "request_type": "Trash/Recycling",
    "request_reason": "Order Recycling Cart",
    "date_created": "2024-01-15T12:07:51.000",
    "date_modified": "2024-01-15T12:07:51.000",
    "request_status": "Pending",
    "responsible_agency": "Department of Sanitation",
    "final_address": "1816 St Andrew St Apt 2A",
    "address_councildis": "B",
    "status": "Pending",
    "rowid": "1061570",
    "final_x": "3677438.48699",
    "final_y": "524930.745277",
    "longitude": "-90.08112250423659",
    "latitude": "29.93750011435933",
    "geocoded_column": {
      "latitude": "29.93750011435933",
      "longitude": "-90.08112250423659"
    }
  },
  {
    "service_request": "2024-1061569",
    "request_type": "Trash/Recycling",
    "request_reason": "Request a Large Item Pick Up",
    "date_created": "2024-01-15T12:07:01.000",
    "date_modified": "2024-01-15T12:07:03.000",
    "request_status": "Pending",
    "responsible_agency": "Department of Sanitation",
    "final_address": "0 BLK Hawk St",
    "address_councildis": "D",
    "status": "Assigned to Contractor",
    "contractor": "IV Waste",
    "rowid": "1061569",
    "final_x": "3672402.70273",
    "final_y": "555625.19792",
    "longitude": "-90.09597441758773",
    "latitude": "30.02204974156378",
    "geocoded_column": {
      "latitude": "30.02204974156378",
      "longitude": "-90.09597441758773"
    }
  },
  {
    "service_request": "2024-1061568",
    "request_type": "Trash/Recycling",
    "request_reason": "Replace Trash Cart",
    "date_created": "2024-01-15T12:06:44.000",
    "date_modified": "2024-01-15T12:06:45.000",
    "request_status": "Pending",
    "responsible_agency": "Department of Sanitation",
    "final_address": "1611 Delachaise St",
    "address_councildis": "B",
    "status": "Assigned to Contractor",
    "contractor": "Richards Disposal",
    "rowid": "1061568",
    "final_x": "3673801.11668",
    "final_y": "521550.837689",
    "longitude": "-90.09272148959516",
    "latitude": "29.928315263703094",
    "geocoded_column": {
      "latitude": "29.928315263703094",
      "longitude": "-90.09272148959516"
    }
  },
  {
    "service_request": "2024-1061567",
    "request_type": "Trash/Recycling",
    "request_reason": "Illegal Dumping",
    "date_created": "2024-01-15T12:00:01.000",
    "date_modified": "2024-01-15T12:00:01.000",
    "request_status": "Pending",
    "responsible_agency": "Department of Sanitation",
    "final_address": "3101 Broadway St",
    "address_councildis": "B",
    "status": "Pending",
    "rowid": "1061567",
    "final_x": "3667954.99853",
    "final_y": "532151.770755",
    "longitude": "-90.11081941912093",
    "latitude": "29.957637152812094",
    "geocoded_column": {
      "latitude": "29.957637152812094",
      "longitude": "-90.11081941912093"
    }
  },
  {
    "service_request": "2024-1061566",
    "request_type": "Trash/Recycling",
    "request_reason": "Replace Trash Cart",
    "date_created": "2024-01-15T11:45:15.000",
    "date_modified": "2024-01-15T11:46:33.000",
    "request_status": "Pending",
    "responsible_agency": "Department of Sanitation",
    "final_address": "2407 Joseph St",
    "address_councildis": "A",
    "status": "Assigned to Contractor",
    "contractor": "Richards Disposal",
    "rowid": "1061566",
    "final_x": "3667483.0754",
    "final_y": "524897.935356",
    "longitude": "-90.112553655288",
    "latitude": "29.937705296252975",
    "geocoded_column": {
      "latitude": "29.937705296252975",
      "longitude": "-90.112553655288"
    }
  },
  {
    "service_request": "2024-1061565",
    "request_type": "Trash/Recycling",
    "request_reason": "Request a Large Item Pick Up",
    "date_created": "2024-01-15T11:36:53.000",
    "date_modified": "2024-01-15T11:36:54.000",
    "request_status": "Pending",
    "responsible_agency": "Department of Sanitation",
    "final_address": "4000 BLK Constance St",
    "address_councildis": "B",
    "status": "Assigned to Contractor",
    "contractor": "Richards Disposal",
    "rowid": "1061565",
    "final_x": "3672379.78283",
    "final_y": "518542.944657",
    "longitude": "-90.09731076303386",
    "latitude": "29.920086758276746",
    "geocoded_column": {
      "latitude": "29.920086758276746",
      "longitude": "-90.09731076303386"
    }
  },
  {
    "service_request": "2024-1061564",
    "request_type": "Abandoned Vehicles",
    "request_reason": "Vehicle Blocking Your Driveway",
    "date_created": "2024-01-15T11:21:36.000",
    "date_modified": "2024-01-15T11:21:36.000",
    "request_status": "Pending",
    "responsible_agency": "Department of Public Works",
    "final_address": "2846 Baronne St",
    "address_councildis": "B",
    "status": "Pending",
    "rowid": "1061564",
    "final_x": "3675209.39963",
    "final_y": "522906.447675",
    "longitude": "-90.08822934381892",
    "latitude": "29.932000750315385",
    "geocoded_column": {
      "latitude": "29.932000750315385",
      "longitude": "-90.08822934381892"
    }
  },
  {
    "service_request": "2024-1061563",
    "request_type": "Trash/Recycling",
    "request_reason": "Request a Large Item Pick Up",
    "date_created": "2024-01-15T11:15:42.000",
    "date_modified": "2024-01-15T11:15:43.000",
    "request_status": "Pending",
    "responsible_agency": "Department of Sanitation",
    "final_address": "5863 Marcia Ave",
    "address_councildis": "A",
    "status": "Assigned to Contractor",
    "contractor": "IV Waste",
    "rowid": "1061563",
    "final_x": "3664879.04589",
    "final_y": "546819.179089",
    "longitude": "-90.12004200074693",
    "latitude": "29.99805750177402",
    "geocoded_column": {
      "latitude": "29.99805750177402",
      "longitude": "-90.12004200074693"
    }
  },
  {
    "service_request": "2024-1061562",
    "request_type": "Trash/Recycling",
    "request_reason": "Order Recycling Cart",
    "date_created": "2024-01-15T11:12:01.000",
    "date_modified": "2024-01-15T11:12:01.000",
    "request_status": "Pending",
    "responsible_agency": "Department of Sanitation",
    "final_address": "7814 Sun St",
    "address_councildis": "E",
    "status": "Pending",
    "rowid": "1061562",
    "final_x": "3720454.05362",
    "final_y": "574255.23153",
    "longitude": "-89.94343221773862",
    "latitude": "30.071760368855518",
    "geocoded_column": {
      "latitude": "30.071760368855518",
      "longitude": "-89.94343221773862"
    }
  },
  {
    "service_request": "2024-1061561",
    "request_type": "Trash/Recycling",
    "request_reason": "Repair Recycling Cart",
    "date_created": "2024-01-15T11:11:22.000",
    "date_modified": "2024-01-15T11:11:22.000",
    "request_status": "Pending",
    "responsible_agency": "Department of Sanitation",
    "final_address": "5447 Marcia Ave",
    "address_councildis": "A",
    "status": "Pending",
    "rowid": "1061561",
    "final_x": "3664902.34554",
    "final_y": "544022.095246",
    "longitude": "-90.12006195661223",
    "latitude": "29.99036579645197",
    "geocoded_column": {
      "latitude": "29.99036579645197",
      "longitude": "-90.12006195661223"
    }
  },
  {
    "service_request": "2024-1061560",
    "request_type": "Trash/Recycling",
    "request_reason": "Request a Large Item Pick Up",
    "date_created": "2024-01-15T11:10:33.000",
    "date_modified": "2024-01-15T11:10:35.000",
    "request_status": "Pending",
    "responsible_agency": "Department of Sanitation",
    "final_address": "11900 BLK Lakeland Ct",
    "address_councildis": "E",
    "status": "Assigned to Contractor",
    "contractor": "Waste Pro",
    "rowid": "1061560",
    "final_x": "3712430.06723",
    "final_y": "568578.181201",
    "longitude": "-89.96901205394124",
    "latitude": "30.056416001864623",
    "geocoded_column": {
      "latitude": "30.056416001864623",
      "longitude": "-89.96901205394124"
    }
  },
  {
    "service_request": "2024-1061559",
    "request_type": "Trash/Recycling",
    "request_reason": "Request a Large Item Pick Up",
    "date_created": "2024-01-15T11:10:23.000",
    "date_modified": "2024-01-15T11:10:24.000",
    "request_status": "Pending",
    "responsible_agency": "Department of Sanitation",
    "final_address": "1600 BLK Charlton Dr",
    "address_councildis": "D",
    "status": "Assigned to Contractor",
    "contractor": "IV Waste",
    "rowid": "1061559",
    "final_x": "3679614.50556",
    "final_y": "550726.177535",
    "longitude": "-90.07335716212606",
    "latitude": "30.00836309993222",
    "geocoded_column": {
      "latitude": "30.00836309993222",
      "longitude": "-90.07335716212606"
    }
  },
  {
    "service_request": "2024-1061558",
    "request_type": "Trash/Recycling",
    "request_reason": "Request a Large Item Pick Up",
    "date_created": "2024-01-15T11:08:04.000",
    "date_modified": "2024-01-15T11:08:05.000",
    "request_status": "Pending",
    "responsible_agency": "Department of Sanitation",
    "final_address": "1727 Laharpe St",
    "address_councildis": "D",
    "status": "Assigned to Contractor",
    "contractor": "IV Waste",
    "rowid": "1061558",
    "final_x": "3681498.70504",
    "final_y": "537870.748425",
    "longitude": "-90.06785293863872",
    "latitude": "29.972958105349967",
    "geocoded_column": {
      "latitude": "29.972958105349967",
      "longitude": "-90.06785293863872"
    }
  },
  {
    "service_request": "2024-1061557",
    "request_type": "Trash/Recycling",
    "request_reason": "Replace Trash Cart",
    "date_created": "2024-01-15T11:07:48.000",
    "date_modified": "2024-01-15T11:07:49.000",
    "request_status": "Pending",
    "responsible_agency": "Department of Sanitation",
    "final_address": "2321 Iberville St",
    "address_councildis": "B",
    "status": "Assigned to Contractor",
    "contractor": "Richards Disposal",
    "rowid": "1061557",
    "final_x": "3676853.06184",
    "final_y": "534577.025925",
    "longitude": "-90.08263832596718",
    "latitude": "29.964041748276486",
    "geocoded_column": {
      "latitude": "29.964041748276486",
      "longitude": "-90.08263832596718"
    }
  },
  {
    "service_request": "2024-1061555",
    "request_type": "Abandoned Vehicles",
    "request_reason": "Abandoned/Junk Vehicles",
    "date_created": "2024-01-15T10:54:01.000",
    "date_modified": "2024-01-15T10:54:01.000",
    "request_status": "Pending",
    "responsible_agency": "Department of Public Works",
    "final_address": "4117 Perrier St",
    "address_councildis": "B",
    "status": "Pending",
    "rowid": "1061555",
    "final_x": "3671867.25467",
    "final_y": "520200.862968",
    "longitude": "-90.09887219190891",
    "latitude": "29.924660697019053",
    "geocoded_column": {
      "latitude": "29.924660697019053",
      "longitude": "-90.09887219190891"
    }
  },