[
  {
    "service_request": "2026-1259871",
    "request_type": "General Services",
    "request_reason": "General Service Request",
    "date_created": "2026-02-21T23:41:38.000",
    "date_modified": "2026-02-21T23:41:40.000",
    "request_status": "Pending",
    "responsible_agency": "Orleans Parish Communication District",
    "final_address": "1135 Decatur St",
    "address_councildis": "C",
    "status": "Pending",
    "rowid": "1259871",
    "final_x": "3684203.83746",
    "final_y": "533403.752772",
    "longitude": "-90.05946646141463",
    "latitude": "29.960592986138046",
    "geocoded_column": {
      "latitude": "29.960592986138046",
      "longitude": "-90.05946646141463"
    }
  },
  {
    "service_request": "2026-1259870",
    "request_type": "Roads and Streets",
    "request_reason": "Abandoned Service Cut",
    "date_created": "2026-02-21T21:56:02.000",
    "date_modified": "2026-02-21T21:56:04.000",
    "request_status": "Pending",
    "responsible_agency": "Department of Public Works",
    "final_address": "2934 New Orleans St",
    "address_councildis": "D",
    "status": "Pending",
    "rowid": "1259870",
    "final_x": "3681788.00488",
    "final_y": "543370.526606",
    "longitude": "-90.06674727788155",
    "latitude": "29.988071786437764",
    "geocoded_column": {
      "latitude": "29.988071786437764",
      "longitude": "-90.06674727788155"
    }
  },
  {
    "service_request": "2026-1259869",
    "request_type": "Trash/Recycling",
    "request_reason": "Missed Trash Pick-Up",
    "date_created": "2026-02-21T21:44:42.000",
    "date_modified": "2026-02-21T21:44:46.000",
    "request_status": "Pending",
    "responsible_agency": "Department of Sanitation",
    "final_address": "1749 Coliseum St",
    "address_councildis": "B",
    "status": "Assigned to Contractor",
    "contractor": "IV Waste",
    "rowid": "1259869",
    "final_x": "3679453.41224",
    "final_y": "524128.750844",
    "longitude": "-90.0747890533511",
    "latitude": "29.93523419366514",
    "geocoded_column": {
      "latitude": "29.93523419366514",
      "longitude": "-90.0747890533511"
    }
  },
  {
    "service_request": "2026-1259868",
    "request_type": "Trash/Recycling",
    "request_reason": "Order Trash Cart",
    "date_created": "2026-02-21T21:29:25.000",
    "date_modified": "2026-02-21T21:29:28.000",
    "request_status": "Pending",
    "responsible_agency": "Department of Sanitation",
    "final_address": "2226 Constance St",
    "address_councildis": "B",
    "status": "Assigned to Contractor",
    "contractor": "IV Waste",
    "rowid": "1259868",
    "final_x": "3678908.8964",
    "final_y": "521617.609593",
    "longitude": "-90.07659503878438",
    "latitude": "29.92834581290346",
    "geocoded_column": {
      "latitude": "29.92834581290346",
      "longitude": "-90.07659503878438"
    }
  },
  {
    "service_request": "2026-1259867",
    "request_type": "Trash/Recycling",
    "request_reason": "Order Recycling Cart",
    "date_created": "2026-02-21T21:20:45.000",
    "date_modified": "2026-02-21T21:20:48.000",
    "request_status": "Pending",
    "responsible_agency": "Department of Sanitation",
    "final_address": "3606 St Ferdinand St",
    "address_councildis": "D",
    "status": "Pending",
    "rowid": "1259867",
    "final_x": "3689927.78678",
    "final_y": "546278.027792",
    "longitude": "-90.04093288462806",
    "latitude": "29.99581645453658",
    "geocoded_column": {
      "latitude": "29.99581645453658",
      "longitude": "-90.04093288462806"
    }
  },
  {
    "service_request": "2026-1259866",
    "request_type": "Streetlights",
    "request_reason": "Streetlight Outage/Malfunction",
    "date_created": "2026-02-21T20:59:04.000",
    "date_modified": "2026-02-21T20:59:05.000",
    "request_status": "Pending",
    "responsible_agency": "Department of Public Works",
    "final_address": "1105 N White St",
    "address_councildis": "A",
    "status": "Pending",
    "rowid": "1259866",
    "final_x": "3677172.76552",
    "final_y": "538857.788361",
    "longitude": "-90.08148104019814",
    "latitude": "29.975802785744516",
    "geocoded_column": {
      "latitude": "29.975802785744516",
      "longitude": "-90.08148104019814"
    }
  },
  {
    "service_request": "2026-1259865",
    "request_type": "Streetlights",
    "request_reason": "Streetlight Outage/Malfunction",
    "date_created": "2026-02-21T20:57:52.000",
    "date_modified": "2026-02-21T20:57:55.000",
    "request_status": "Pending",
    "responsible_agency": "Department of Public Works",
    "final_address": "727 S Broad St",
    "address_councildis": "B",
    "status": "Pending",
    "rowid": "1259865",
    "final_x": "3673680.99496",
    "final_y": "533085.409412",
    "longitude": "-90.09270644590943",
    "latitude": "29.96003512409825",
    "geocoded_column": {
      "latitude": "29.96003512409825",
      "longitude": "-90.09270644590943"
    }
  },
  {
    "service_request": "2026-1259864",
    "request_type": "Property Maintenance",
    "request_reason": "Property Maintenance",
    "date_created": "2026-02-21T20:37:30.000",
    "date_modified": "2026-02-21T20:37:33.000",
    "request_status": "Pending",
    "responsible_agency": "Department of Code Enforcement",
    "final_address": "522 S Scott St",
    "address_councildis": "B",
    "status": "Pending",
    "rowid": "1259864",
    "final_x": "3670724.14254",
    "final_y": "536373.783431",
    "longitude": "-90.1019319758035",
    "latitude": "29.969164753046392",
    "geocoded_column": {
      "latitude": "29.969164753046392",
      "longitude": "-90.1019319758035"
    }
  },
  {
    "service_request": "2026-1259863",
    "request_type": "Trash/Recycling",
    "request_reason": "Repair Trash Cart",
    "date_created": "2026-02-21T20:19:36.000",
    "date_modified": "2026-02-21T20:19:39.000",
    "request_status": "Pending",
    "responsible_agency": "Department of Sanitation",
    "final_address": "2424 Short St",
    "address_councildis": "A",
    "status": "Assigned to Contractor",
    "contractor": "IV Waste",
    "rowid": "1259863",
    "final_x": "3665330.73709",
    "final_y": "531454.212291",
    "longitude": "-90.11912944484438",
    "latitude": "29.955795820590712",
    "geocoded_column": {
      "latitude": "29.955795820590712",
      "longitude": "-90.11912944484438"
    }
  },
  {
    "service_request": "2026-1259862",
    "request_type": "Healthy Homes",
    "request_reason": "Healthy Homes",
    "date_created": "2026-02-21T19:48:29.000",
    "date_modified": "2026-02-21T19:48:31.000",
    "request_status": "Pending",
    "responsible_agency": "Department of Code Enforcement",
    "final_address": "915 N Miro St",
    "address_councildis": "D",
    "status": "Pending",
    "rowid": "1259862",
    "final_x": "3678574.0797",
    "final_y": "536615.829575",
    "longitude": "-90.07713292027616",
    "latitude": "29.96959599826951",
    "geocoded_column": {
      "latitude": "29.96959599826951",
      "longitude": "-90.07713292027616"
    }
  },
  {
    "service_request": "2026-1259861",
    "request_type": "Trash/Recycling",
    "request_reason": "Request a Large Item Pick Up",
    "date_created": "2026-02-21T19:01:32.000",
    "date_modified": "2026-02-21T19:01:34.000",
    "request_status": "Pending",
    "responsible_agency": "Department of Sanitation",
    "final_address": "2811 Aubry St",
    "address_councildis": "D",
    "status": "Assigned to Contractor",
    "contractor": "IV Waste",
    "rowid": "1259861",
    "final_x": "3679125.39816",
    "final_y": "541578.21998",
    "longitude": "-90.07521973693319",
    "latitude": "29.983224227421406",
    "geocoded_column": {
      "latitude": "29.983224227421406",
      "longitude": "-90.07521973693319"
    }
  },
  {
    "service_request": "2026-1259860",
    "request_type": "Abandoned Vehicles",
    "request_reason": "Abandoned/Junk Vehicles",
    "date_created": "2026-02-21T19:00:35.000",
    "date_modified": "2026-02-21T19:00:37.000",
    "request_status": "Pending",
    "responsible_agency": "Department of Public Works",
    "final_address": "2117 Toledano St",
    "address_councildis": "B",
    "status": "Pending",
    "rowid": "1259860",
    "final_x": "3673818.1364",
    "final_y": "523505.267387",
    "longitude": "-90.09260095551818",
    "latitude": "29.93368880624505",
    "geocoded_column": {
      "latitude": "29.93368880624505",
      "longitude": "-90.09260095551818"
    }
  },
  {
    "service_request": "2026-1259859",
    "request_type": "Property Maintenance",
    "request_reason": "Property Maintenance",
    "date_created": "2026-02-21T18:59:56.000",
    "date_modified": "2026-02-21T18:59:57.000",
    "request_status": "Pending",
    "responsible_agency": "Department of Code Enforcement",
    "final_address": "1924 Jackson Ave",
    "address_councildis": "B",
    "status": "Pending",
    "rowid": "1259859",
    "final_x": "3676647.0555",
    "final_y": "524885.743228",
    "longitude": "-90.08362266079419",
    "latitude": "29.937400131707694",
    "geocoded_column": {
      "latitude": "29.937400131707694",
      "longitude": "-90.08362266079419"
    }
  },
  {
    "service_request": "2026-1259858",
    "request_type": "Safety & Permits",
    "request_reason": "Licenses & Permits",
    "date_created": "2026-02-21T18:56:47.000",
    "date_modified": "2026-02-21T18:56:49.000",
    "request_status": "Pending",
    "responsible_agency": "Safety and Permits",
    "final_address": "2023 Jackson Ave",
    "address_councildis": "B",
    "status": "Pending",
    "rowid": "1259858",
    "final_x": "3676561.07221",
    "final_y": "525146.780669",
    "longitude": "-90.08388512975664",
    "latitude": "29.938120477265237",
    "geocoded_column": {
      "latitude": "29.938120477265237",
      "longitude": "-90.08388512975664"
    }
  },
  {
    "service_request": "2026-1259857",
    "request_type": "Property Maintenance",
    "request_reason": "Property Maintenance",
    "date_created": "2026-02-21T18:55:05.000",
    "date_modified": "2026-02-21T18:55:08.000",
    "request_status": "Pending",
    "responsible_agency": "Department of Code Enforcement",
    "final_address": "1908 Jackson Ave",
    "address_councildis": "B",
    "status": "Pending",
    "rowid": "1259857",
    "final_x": "3676722.31413",
    "final_y": "524795.251708",
    "longitude": "-90.0833881804848",
    "latitude": "29.937149052566713",
    "geocoded_column": {
      "latitude": "29.937149052566713",
      "longitude": "-90.0833881804848"
    }
  },
  {
    "service_request": "2026-1259856",
    "request_type": "Streetlights",
    "request_reason": "Streetlight Outage/Malfunction",
    "date_created": "2026-02-21T18:44:14.000",
    "date_modified": "2026-02-21T18:44:16.000",
    "request_status": "Pending",
    "responsible_agency": "Department of Public Works",
    "final_address": "9509 Stroelitz St",
    "address_councildis": "A",
    "status": "Pending",
    "rowid": "1259856",
    "final_x": "3664273.06541",
    "final_y": "538350.129225",
    "longitude": "-90.1222390662529",
    "latitude": "29.974788100059342",
    "geocoded_column": {
      "latitude": "29.974788100059342",
      "longitude": "-90.1222390662529"
    }
  },
  {
    "service_request": "2026-1259855",
    "request_type": "Street and Traffic Signs",
    "request_reason": "Additional Signage Request",
    "date_created": "2026-02-21T18:22:57.000",
    "date_modified": "2026-02-21T18:23:00.000",
    "request_status": "Pending",
    "responsible_agency": "Department of Public Works",
    "final_address": "23 Fontainebleau Dr",
    "address_councildis": "A",
    "status": "Pending",
    "rowid": "1259855",
    "final_x": "3665902.38285",
    "final_y": "531691.954947",
    "longitude": "-90.11731641395382",
    "latitude": "29.956432866743118",
    "geocoded_column": {
      "latitude": "29.956432866743118",
      "longitude": "-90.11731641395382"
    }
  },
  {
    "service_request": "2026-1259854",
    "request_type": "Trash/Recycling",
    "request_reason": "Replace Trash Cart",
    "date_created": "2026-02-21T18:16:11.000",
    "date_modified": "2026-02-21T18:16:13.000",
    "request_status": "Pending",
    "responsible_agency": "Department of Sanitation",
    "final_address": "2811 Hyman Pl",
    "address_councildis": "C",
    "status": "Assigned to Contractor",
    "contractor": "Richards Disposal",
    "rowid": "1259854",
    "final_x": "3700963.48733",
    "final_y": "520806.602809",
    "longitude": "-90.00700362372628",
    "latitude": "29.92543228038209",
    "geocoded_column": {
      "latitude": "29.92543228038209",
      "longitude": "-90.00700362372628"
    }
  },
  {
    "service_request": "2026-1259853",
    "request_type": "Trash/Recycling",
    "request_reason": "Request a Large Item Pick Up",
    "date_created": "2026-02-21T18:11:27.000",
    "date_modified": "2026-02-21T18:11:29.000",
    "request_status": "Pending",
    "responsible_agency": "Department of Sanitation",
    "final_address": "426 Elmira Ave",
    "address_councildis": "C",
    "status": "Assigned to Contractor",
    "contractor": "Richards Disposal",
    "rowid": "1259853",
    "final_x": "3688272.08265",
    "final_y": "530096.833153",
    "longitude": "-90.04673704096317",
    "latitude": "29.951375109402175",
    "geocoded_column": {
      "latitude": "29.951375109402175",
      "longitude": "-90.04673704096317"
    }
  },
  {
    "service_request": "2026-1259852",
    "request_type": "Street and Traffic Signs",
    "request_reason": "Stop Sign Missing or Damaged",
    "date_created": "2026-02-21T18:08:38.000",
    "date_modified": "2026-02-21T18:08:40.000",
    "request_status": "Pending",
    "responsible_agency": "Department of Public Works",
    "final_address": "4943 Michoud Blvd",
    "address_councildis": "E",
    "status": "Pending",
    "rowid": "1259852",
    "final_x": "3725023.23865",
    "final_y": "561449.183902",
    "longitude": "-89.92948375578219",
    "latitude": "30.03639592323206",
    "geocoded_column": {
      "latitude": "30.03639592323206",
      "longitude": "-89.92948375578219"
    }
  },
  {
    "service_request": "2026-1259851",
    "request_type": "Trash/Recycling",
    "request_reason": "Request a Large Item Pick Up",
    "date_created": "2026-02-21T18:08:35.000",
    "date_modified": "2026-02-21T18:08:37.000",
    "request_status": "Pending",
    "responsible_agency": "Department of Sanitation",
    "final_address": "428 Elmira Ave",
    "address_councildis": "C",
    "status": "Assigned to Contractor",
    "contractor": "Richards Disposal",
    "rowid": "1259851",
    "final_x": "3688271.45193",
    "final_y": "530084.211777",
    "longitude": "-90.04673947993655",
    "latitude": "29.951340424423066",
    "geocoded_column": {
      "latitude": "29.951340424423066",
      "longitude": "-90.04673947993655"
    }
  },
  {
    "service_request": "2026-1259850",
    "request_type": "Streetlights",
    "request_reason": "Streetlight Outage/Malfunction",
    "date_created": "2026-02-21T18:02:40.000",
    "date_modified": "2026-02-21T18:02:41.000",
    "request_status": "Pending",
    "responsible_agency": "Department of Public Works",
    "final_address": "6 Shepard Ct",
    "address_councildis": "C",
    "status": "Pending",
    "rowid": "1259850",
    "final_x": "3692519.11113",
    "final_y": "524424.446972",
    "longitude": "-90.03353023442467",
    "latitude": "29.9356461905722",
    "geocoded_column": {
      "latitude": "29.9356461905722",
      "longitude": "-90.03353023442467"
    }
  },
  {
    "service_request": "2026-1259849",
    "request_type": "Trash/Recycling",
    "request_reason": "Missed Trash Pick-Up",
    "date_created": "2026-02-21T17:59:29.000",
    "date_modified": "2026-02-21T17:59:32.000",
    "request_status": "Pending",
    "responsible_agency": "Department of Sanitation",
    "final_address": "2001 Marengo St",
    "address_councildis": "B",
    "status": "Assigned to Contractor",
    "contractor": "IV Waste",
    "rowid": "1259849",
    "final_x": "3671868.31207",
    "final_y": "522455.364602",
    "longitude": "-90.09879217782198",
    "latitude": "29.930859821902562",
    "geocoded_column": {
      "latitude": "29.930859821902562",
      "longitude": "-90.09879217782198"
    }
  },
  {
    "service_request": "2026-1259848",
    "request_type": "Property Maintenance",
    "request_reason": "Property Maintenance",
    "date_created": "2026-02-21T17:10:17.000",
    "date_modified": "2026-02-21T17:10:18.000",
    "request_status": "Pending",
    "responsible_agency": "Department of Code Enforcement",
    "final_address": "835 St Louis St Unit G",
    "address_councildis": "C",
    "status": "Pending",
    "rowid": "1259848",
    "final_x": "3681635.51381",
    "final_y": "532337.569347",
    "longitude": "-90.067613901274",
    "latitude": "29.95773960561701",
    "geocoded_column": {
      "latitude": "29.95773960561701",
      "longitude": "-90.067613901274"
    }
  },
  {
    "service_request": "2026-1259846",
    "request_type": "Street and Traffic Signs",
    "request_reason": "One Way Sign Missing or Damaged",
    "date_created": "2026-02-21T16:49:55.000",
    "date_modified": "2026-02-21T16:49:56.000",
    "request_status": "Pending",
    "responsible_agency": "Department of Public Works",
    "final_address": "LA SALLE ST & 4TH ST",
    "address_councildis": "B",
    "status": "Pending",
    "rowid": "1259846",
    "final_x": "3674624.6",
    "final_y": "525077.48",
    "longitude": "-90.09000112970865",
    "latitude": "29.937987842224885",
    "geocoded_column": {
      "latitude": "29.937987842224885",
      "longitude": "-90.09000112970865"
    }
  },
  {
    "service_request": "2026-1259845",
    "request_type": "Street and Traffic Signs",
    "request_reason": "Street Name Sign Damaged or Missing",
    "date_created": "2026-02-21T16:49:25.000",
    "date_modified": "2026-02-21T16:49:26.000",
    "request_status": "Pending",
    "responsible_agency": "Department of Public Works",
    "final_address": "TCHOUPITOULAS ST & GIROD ST",
    "address_councildis": "B",
    "status": "Pending",
    "rowid": "1259845",
    "final_x": "3681756.1",
    "final_y": "528248.18",
    "longitude": "-90.06737579295026",
    "latitude": "29.94649150400661",
    "geocoded_column": {
      "latitude": "29.94649150400661",
      "longitude": "-90.06737579295026"
    }
  },
  {
    "service_request": "2026-1259844",
    "request_type": "Street and Traffic Signs",
    "request_reason": "One Way Sign Missing or Damaged",
    "date_created": "2026-02-21T16:48:31.000",
    "date_modified": "2026-02-21T16:48:33.000",
    "request_status": "Pending",
    "responsible_agency": "Department of Public Works",
    "final_address": "TCHOUPITOULAS ST & GIROD ST",
    "address_councildis": "B",
    "status": "Pending",
    "rowid": "1259844",
    "final_x": "3681756.1",
    "final_y": "528248.18",
    "longitude": "-90.06737579295026",
    "latitude": "29.94649150400661",
    "geocoded_column": {
      "latitude": "29.94649150400661",
      "longitude": "-90.06737579295026"
    }
  },
  {
    "service_request": "2026-1259843",
    "request_type": "Taxi Issues",
    "request_reason": "Taxi Lost & Found Item",
    "date_created": "2026-02-21T16:26:29.000",
    "date_modified": "2026-02-21T16:26:33.000",
    "request_status": "Pending",
    "responsible_agency": "Department of Public Works",
    "final_address": "1901 Delachaise St",
    "address_councildis": "B",
    "status": "Pending",
    "rowid": "1259843",
    "final_x": "3673409.4459",
    "final_y": "522459.790522",
    "longitude": "-90.09392687357536",
    "latitude": "29.93082624525498",
    "geocoded_column": {
      "latitude": "29.93082624525498",
      "longitude": "-90.09392687357536"
    }
  },
  {
    "service_request": "2026-1259842",
    "request_type": "Trash/Recycling",
    "request_reason": "Request a Large Item Pick Up",
    "date_created": "2026-02-21T15:51:55.000",
    "date_modified": "2026-02-21T15:51:58.000",
    "request_status": "Pending",
    "responsible_agency": "Department of Sanitation",
    "final_address": "6415 Perlita Dr",
    "address_councildis": "D",
    "status": "Assigned to Contractor",
    "contractor": "IV Waste",
    "rowid": "1259842",
    "final_x": "3677796.31419",
    "final_y": "556742.833754",
    "longitude": "-90.07889330034071",
    "latitude": "30.024961580586684",
    "geocoded_column": {
      "latitude": "30.024961580586684",
      "longitude": "-90.07889330034071"
    }
  },
  {
    "service_request": "2026-1259841",
    "request_type": "Property Maintenance",
    "request_reason": "Property Maintenance",
    "date_created": "2026-02-21T15:41:42.000",
    "date_modified": "2026-02-21T15:41:43.000",
    "request_status": "Pending",
    "responsible_agency": "Department of Code Enforcement",
    "final_address": "2007 Seventh St",
    "address_councildis": "B",
    "status": "Pending",
    "rowid": "1259841",
    "final_x": "3674443.61953",
    "final_y": "523361.798203",
    "longitude": "-90.0906312458112",
    "latitude": "29.93327567475967",
    "geocoded_column": {
      "latitude": "29.93327567475967",
      "longitude": "-90.0906312458112"
    }
  },
  {
    "service_request": "2026-1259840",
    "request_type": "Health Related Request",
    "request_reason": "Noise Ordinance Complaint",
    "date_created": "2026-02-21T15:32:13.000",
    "date_modified": "2026-02-21T15:32:16.000",
    "request_status": "Pending",
    "responsible_agency": "Health Department",
    "final_address": "5130 Arts St, New Orleans, Louisiana, 70122",
    "address_councildis": "D",
    "status": "Pending",
    "rowid": "1259840",
    "final_x": "3685736.10473",
    "final_y": "551777.650581",
    "longitude": "-90.05398005928335",
    "latitude": "30.011067758595686",
    "geocoded_column": {
      "latitude": "30.011067758595686",
      "longitude": "-90.05398005928335"
    }
  },
  {
    "service_request": "2026-1259839",
    "request_type": "Trash/Recycling",
    "request_reason": "Order Recycling Cart",
    "date_created": "2026-02-21T15:26:31.000",
    "date_modified": "2026-02-21T15:26:32.000",
    "request_status": "Pending",
    "responsible_agency": "Department of Sanitation",
    "final_address": "2708 Burgundy St",
    "address_councildis": "C",
    "status": "Pending",
    "rowid": "1259839",
    "final_x": "3687294.19804",
    "final_y": "535548.698182",
    "longitude": "-90.04963185896253",
    "latitude": "29.966396011094172",
    "geocoded_column": {
      "latitude": "29.966396011094172",
      "longitude": "-90.04963185896253"
    }
  },
  {
    "service_request": "2026-1259838",
    "request_type": "Trash/Recycling",
    "request_reason": "Order Trash Cart",
    "date_created": "2026-02-21T15:25:28.000",
    "date_modified": "2026-02-21T15:25:29.000",
    "request_status": "Pending",
    "responsible_agency": "Department of Sanitation",
    "final_address": "2708 Burgundy St",
    "address_councildis": "C",
    "status": "Assigned to Contractor",
    "contractor": "IV Waste",
    "rowid": "1259838",
    "final_x": "3687294.19804",
    "final_y": "535548.698182",
    "longitude": "-90.04963185896253",
    "latitude": "29.966396011094172",
    "geocoded_column": {
      "latitude": "29.966396011094172",
      "longitude": "-90.04963185896253"
    }
  },
  {
    "service_request": "2026-1259837",
    "request_type": "Health Related Request",
    "request_reason": "Noise Ordinance Complaint",
    "date_created": "2026-02-21T15:21:34.000",
    "date_modified": "2026-02-21T15:21:36.000",
    "request_status": "Pending",
    "responsible_agency": "Health Department",
    "final_address": "5130 Arts St, New Orleans, Louisiana, 70122",
    "address_councildis": "D",
    "status": "Pending",
    "rowid": "1259837",
    "final_x": "3685736.10473",
    "final_y": "551777.650581",
    "longitude": "-90.05398005928335",
    "latitude": "30.011067758595686",
    "geocoded_column": {
      "latitude": "30.011067758595686",
      "longitude": "-90.05398005928335"
    }
  },
  {
    "service_request": "2026-1259836",
    "request_type": "General Services",
    "request_reason": "General Service Request",
    "date_created": "2026-02-21T15:18:33.000",
    "date_modified": "2026-02-21T15:18:36.000",
    "request_status": "Pending",
    "responsible_agency": "Orleans Parish Communication District",
    "final_address": "3007 Audubon St",
    "address_councildis": "B",
    "status": "Pending",
    "rowid": "1259836",
    "final_x": "3667990.9314",
    "final_y": "531698.041283",
    "longitude": "-90.11072124065271",
    "latitude": "29.956388491640435",
    "geocoded_column": {
      "latitude": "29.956388491640435",
      "longitude": "-90.11072124065271"
    }
  },
  {
    "service_request": "2026-1259835",
    "request_type": "Safety & Permits",
    "request_reason": "Licenses & Permits",
    "date_created": "2026-02-21T15:08:56.000",
    "date_modified": "2026-02-21T15:08:58.000",
    "request_status": "Pending",
    "responsible_agency": "Safety and Permits",
    "final_address": "2300 Memorial Park Dr",
    "address_councildis": "C",
    "status": "Pending",
    "rowid": "1259835",
    "final_x": "3691902.50025",
    "final_y": "522038.835386",
    "longitude": "-90.03556217483661",
    "latitude": "29.929105786555084",
    "geocoded_column": {
      "latitude": "29.929105786555084",
      "longitude": "-90.03556217483661"
    }
  },
  {
    "service_request": "2026-1259834",
    "request_type": "Trash/Recycling",
    "request_reason": "Missed Trash Pick-Up",
    "date_created": "2026-02-21T14:55:28.000",
    "date_modified": "2026-02-21T14:55:30.000",
    "request_status": "Pending",
    "responsible_agency": "Department of Sanitation",
    "final_address": "1616 Charlton Dr",
    "address_councildis": "D",
    "status": "Assigned to Contractor",
    "contractor": "IV Waste",
    "rowid": "1259834",
    "final_x": "3679897.72072",
    "final_y": "550664.678292",
    "longitude": "-90.07246453481575",
    "latitude": "30.008185432966",
    "geocoded_column": {
      "latitude": "30.008185432966",
      "longitude": "-90.07246453481575"
    }
  },
  {
    "service_request": "2026-1259833",
    "request_type": "Trash/Recycling",
    "request_reason": "Request a Large Item Pick Up",
    "date_created": "2026-02-21T14:47:30.000",
    "date_modified": "2026-02-21T14:47:32.000",
    "request_status": "Pending",
    "responsible_agency": "Department of Sanitation",
    "final_address": "7531 Spring Lake Dr",
    "address_councildis": "E",
    "status": "Assigned to Contractor",
    "contractor": "Waste Pro",
    "rowid": "1259833",
    "final_x": "3701189.70737",
    "final_y": "559426.178973",
    "longitude": "-90.00487613348527",
    "latitude": "30.031614800726356",
    "geocoded_column": {
      "latitude": "30.031614800726356",
      "longitude": "-90.00487613348527"
    }
  },
  {
    "service_request": "2026-1259832",
    "request_type": "Property Maintenance",
    "request_reason": "Property Maintenance",
    "date_created": "2026-02-21T13:42:13.000",
    "date_modified": "2026-02-21T13:42:15.000",
    "request_status": "Pending",
    "responsible_agency": "Department of Code Enforcement",
    "final_address": "6224 Paris Ave",
    "address_councildis": "D",
    "status": "Pending",
    "rowid": "1259832",
    "final_x": "3678771.9636",
    "final_y": "555836.251993",
    "longitude": "-90.07584184231561",
    "latitude": "30.022439406098542",
    "geocoded_column": {
      "latitude": "30.022439406098542",
      "longitude": "-90.07584184231561"
    }
  },
  {
    "service_request": "2026-1259830",
    "request_type": "Trash/Recycling",
    "request_reason": "Request a Large Item Pick Up",
    "date_created": "2026-02-21T13:18:36.000",
    "date_modified": "2026-02-21T13:18:37.000",
    "request_status": "Pending",
    "responsible_agency": "Department of Sanitation",
    "final_address": "4127 Orleans Ave",
    "address_councildis": "A",
    "status": "Assigned to Contractor",
    "contractor": "IV Waste",
    "rowid": "1259830",
    "final_x": "3672476.12916",
    "final_y": "540436.942859",
    "longitude": "-90.09626052968329",
    "latitude": "29.980285176381592",
    "geocoded_column": {
      "latitude": "29.980285176381592",
      "longitude": "-90.09626052968329"
    }
  },
  {
    "service_request": "2026-1259829",
    "request_type": "Trash/Recycling",
    "request_reason": "Request a Large Item Pick Up",
    "date_created": "2026-02-21T13:16:39.000",
    "date_modified": "2026-02-21T13:16:42.000",
    "request_status": "Pending",
    "responsible_agency": "Department of Sanitation",
    "final_address": "3709 Alfred St",
    "address_councildis": "D",
    "status": "Assigned to Contractor",
    "contractor": "IV Waste",
    "rowid": "1259829",
    "final_x": "3677835.65051",
    "final_y": "545817.01",
    "longitude": "-90.07914688672952",
    "latitude": "29.994918294389137",
    "geocoded_column": {
      "latitude": "29.994918294389137",
      "longitude": "-90.07914688672952"
    }
  },
  {
    "service_request": "2026-1259828",
    "request_type": "Abandoned Vehicles",
    "request_reason": "Abandoned/Junk Vehicles",
    "date_created": "2026-02-21T13:05:52.000",
    "date_modified": "2026-02-21T13:05:53.000",
    "request_status": "Pending",
    "responsible_agency": "Department of Public Works",
    "final_address": "5968 Canal Blvd",
    "address_councildis": "A",
    "status": "Pending",
    "rowid": "1259828",
    "final_x": "3668304.72474",
    "final_y": "547187.967761",
    "longitude": "-90.10920784398623",
    "latitude": "29.998971359447086",
    "geocoded_column": {
      "latitude": "29.998971359447086",
      "longitude": "-90.10920784398623"
    }
  },
  {
    "service_request": "2026-1259827",
    "request_type": "Trash/Recycling",
    "request_reason": "Repair Trash Cart",
    "date_created": "2026-02-21T13:05:34.000",
    "date_modified": "2026-02-21T13:05:36.000",
    "request_status": "Pending",
    "responsible_agency": "Department of Sanitation",
    "final_address": "2721 Loyola Ave, New Orleans, Louisiana, 70113",
    "address_councildis": "B",
    "status": "Assigned to Contractor",
    "contractor": "IV Waste",
    "rowid": "1259827",
    "final_x": "3674824.49966",
    "final_y": "524410.17702",
    "longitude": "-90.08939289944816",
    "latitude": "29.936147011224193",
    "geocoded_column": {
      "latitude": "29.936147011224193",
      "longitude": "-90.08939289944816"
    }
  },
  {
    "service_request": "2026-1259826",
    "request_type": "Trash/Recycling",
    "request_reason": "Request a Large Item Pick Up",
    "date_created": "2026-02-21T13:05:02.000",
    "date_modified": "2026-02-21T13:05:04.000",
    "request_status": "Pending",
    "responsible_agency": "Department of Sanitation",
    "final_address": "3700 Orleans Ave",
    "address_councildis": "A",
    "status": "Assigned to Contractor",
    "contractor": "IV Waste",
    "rowid": "1259826",
    "final_x": "3673513.17089",
    "final_y": "539031.870922",
    "longitude": "-90.09303314266045",
    "latitude": "29.976390882081823",
    "geocoded_column": {
      "latitude": "29.976390882081823",
      "longitude": "-90.09303314266045"
    }
  },
  {
    "service_request": "2026-1259825",
    "request_type": "Trash/Recycling",
    "request_reason": "Repair Trash Cart",
    "date_created": "2026-02-21T12:53:56.000",
    "date_modified": "2026-02-21T12:53:57.000",
    "request_status": "Pending",
    "responsible_agency": "Department of Sanitation",
    "final_address": "2135 Columbus St",
    "address_councildis": "D",
    "status": "Assigned to Contractor",
    "contractor": "IV Waste",
    "rowid": "1259825",
    "final_x": "3680131.74133",
    "final_y": "538472.444937",
    "longitude": "-90.07214915639105",
    "latitude": "29.974654003623222",
    "geocoded_column": {
      "latitude": "29.974654003623222",
      "longitude": "-90.07214915639105"
    }
  },
  {
    "service_request": "2026-1259824",
    "request_type": "Trash/Recycling",
    "request_reason": "Repair Recycling Cart",
    "date_created": "2026-02-21T12:53:06.000",
    "date_modified": "2026-02-21T12:53:07.000",
    "request_status": "Pending",
    "responsible_agency": "Department of Sanitation",
    "final_address": "5308 Douglass St",
    "address_councildis": "E",
    "status": "Pending",
    "rowid": "1259824",
    "final_x": "3696306.09667",
    "final_y": "531847.039171",
    "longitude": "-90.02130642132083",
    "latitude": "29.955937071780358",
    "geocoded_column": {
      "latitude": "29.955937071780358",
      "longitude": "-90.02130642132083"
    }
  },
  {
    "service_request": "2026-1259823",
    "request_type": "Trash/Recycling",
    "request_reason": "Missed Trash Pick-Up",
    "date_created": "2026-02-21T12:50:56.000",
    "date_modified": "2026-02-21T12:50:58.000",
    "request_status": "Pending",
    "responsible_agency": "Department of Sanitation",
    "final_address": "7122 Tudor Ct",
    "address_councildis": "E",
    "status": "Assigned to Contractor",
    "contractor": "Waste Pro",
    "rowid": "1259823",
    "final_x": "3703682.5953",
    "final_y": "559676.621981",
    "longitude": "-89.9969893127179",
    "latitude": "30.032223716386827",
    "geocoded_column": {
      "latitude": "30.032223716386827",
      "longitude": "-89.9969893127179"
    }
  },
  {
    "service_request": "2026-1259822",
    "request_type": "Trash/Recycling",
    "request_reason": "Request a Large Item Pick Up",
    "date_created": "2026-02-21T12:40:41.000",
    "date_modified": "2026-02-21T12:40:43.000",
    "request_status": "Pending",
    "responsible_agency": "Department of Sanitation",
    "final_address": "627 Seguin St",
    "address_councildis": "C",
    "status": "Assigned to Contractor",
    "contractor": "Richards Disposal",
    "rowid": "1259822",
    "final_x": "3686755.43542",
    "final_y": "529442.464385",
    "longitude": "-90.05154897108422",
    "latitude": "29.94962255714438",
    "geocoded_column": {
      "latitude": "29.94962255714438",
      "longitude": "-90.05154897108422"
    }
  },
  {
    "service_request": "2026-1259821",
    "request_type": "Abandoned Vehicles",
    "request_reason": "Abandoned/Junk Vehicles",
    "date_created": "2026-02-21T12:35:12.000",
    "date_modified": "2026-02-21T12:35:15.000",
    "request_status": "Pending",
    "responsible_agency": "Department of Public Works",
    "final_address": "4019 Tchoupitoulas St",
    "address_councildis": "B",
    "status": "Pending",
    "rowid": "1259821",
    "final_x": "3672484.01217",
    "final_y": "517633.019062",
    "longitude": "-90.09701275038604",
    "latitude": "29.91758166043092",
    "geocoded_column": {
      "latitude": "29.91758166043092",
      "longitude": "-90.09701275038604"
    }
  },
  {
    "service_request": "2026-1259820",
    "request_type": "General Services",
    "request_reason": "General Service Request",
    "date_created": "2026-02-21T12:25:31.000",
    "date_modified": "2026-02-21T12:25:33.000",
    "request_status": "Pending",
    "responsible_agency": "Orleans Parish Communication District",
    "final_address": "5727 Burgundy St",
    "address_councildis": "E",
    "status": "Pending",
    "rowid": "1259820",
    "final_x": "3698371.75037",
    "final_y": "532873.8281",
    "longitude": "-90.01474653032675",
    "latitude": "29.95869517987095",
    "geocoded_column": {
      "latitude": "29.95869517987095",
      "longitude": "-90.01474653032675"
    }
  },
  {
    "service_request": "2026-1259819",
    "request_type": "Trash/Recycling",
    "request_reason": "Request a Large Item Pick Up",
    "date_created": "2026-02-21T12:25:10.000",
    "date_modified": "2026-02-21T12:25:13.000",
    "request_status": "Pending",
    "responsible_agency": "Department of Sanitation",
    "final_address": "4705 Marjorie Ln",
    "address_councildis": "D",
    "status": "Assigned to Contractor",
    "contractor": "IV Waste",
    "rowid": "1259819",
    "final_x": "3678510.14229",
    "final_y": "549851.494228",
    "longitude": "-90.07687649444797",
    "latitude": "30.005991378079525",
    "geocoded_column": {
      "latitude": "30.005991378079525",
      "longitude": "-90.07687649444797"
    }
  },
  {
    "service_request": "2026-1259818",
    "request_type": "Trash/Recycling",
    "request_reason": "Missed Trash Pick-Up",
    "date_created": "2026-02-21T12:20:09.000",
    "date_modified": "2026-02-21T12:22:19.000",
    "case_close_date": "2026-02-21T06:22:18.000",
    "request_status": "Closed",
    "responsible_agency": "Department of Sanitation",
    "final_address": "0 BLK Architect St",
    "address_councildis": "C",
    "status": "Invalid Request",
    "contractor": "IV Waste",
    "contractor_action": "Invalid Request",
    "rowid": "1259818",
    "final_x": "3687142.46885",
    "final_y": "534686.498656",
    "longitude": "-90.05014150821198",
    "latitude": "29.964029935213947",
    "geocoded_column": {
      "latitude": "29.964029935213947",
      "longitude": "-90.05014150821198"
    }
  },
  {
    "service_request": "2026-1259817",
    "request_type": "Trash/Recycling",
    "request_reason": "MIssed Recycling Pick-Up",
    "date_created": "2026-02-21T12:13:13.000",
    "date_modified": "2026-02-21T12:20:25.000",
    "case_close_date": "2026-02-21T06:20:24.000",
    "request_status": "Closed",
    "responsible_agency": "Department of Sanitation",
    "final_address": "0 BLK Agriculture Pl",
    "address_councildis": "D",
    "status": "Invalid Request",
    "contractor": "IV Waste",
    "contractor_action": "Invalid Request",
    "rowid": "1259817",
    "final_x": "3689891.40135",
    "final_y": "543419.290574",
    "longitude": "-90.04114966127275",
    "latitude": "29.987957086684915",
    "geocoded_column": {
      "latitude": "29.987957086684915",
      "longitude": "-90.04114966127275"
    }
  },
  {
    "service_request": "2026-1259816",
    "request_type": "Trash/Recycling",
    "request_reason": "MIssed Recycling Pick-Up",
    "date_created": "2026-02-21T12:07:51.000",
    "date_modified": "2026-02-21T12:10:16.000",
    "case_close_date": "2026-02-21T06:10:16.000",
    "request_status": "Closed",
    "responsible_agency": "Department of Sanitation",
    "final_address": "1709 Prytania St",
    "address_councildis": "B",
    "status": "Invalid Request",
    "contractor": "IV Waste",
    "contractor_action": "Invalid Request",
    "rowid": "1259816",
    "final_x": "3679224.59707",
    "final_y": "524657.101948",
    "longitude": "-90.07549311217129",
    "latitude": "29.936693893441053",
    "geocoded_column": {
      "latitude": "29.936693893441053",
      "longitude": "-90.07549311217129"
    }
  },
  {
    "service_request": "2026-1259815",
    "request_type": "Trash/Recycling",
    "request_reason": "Missed Trash Pick-Up",
    "date_created": "2026-02-21T12:06:02.000",
    "date_modified": "2026-02-21T12:09:18.000",
    "case_close_date": "2026-02-21T06:09:17.000",
    "request_status": "Closed",
    "responsible_agency": "Department of Sanitation",
    "final_address": "1709 Prytania St",
    "address_councildis": "B",
    "status": "Invalid Request",
    "contractor": "IV Waste",
    "contractor_action": "Invalid Request",
    "rowid": "1259815",
    "final_x": "3679224.59707",
    "final_y": "524657.101948",
    "longitude": "-90.07549311217129",
    "latitude": "29.936693893441053",
    "geocoded_column": {
      "latitude": "29.936693893441053",
      "longitude": "-90.07549311217129"
    }
  },
  {
    "service_request": "2026-1259814",
    "request_type": "Trash/Recycling",
    "request_reason": "Replace Trash Cart",
    "date_created": "2026-02-21T12:05:58.000",
    "date_modified": "2026-02-21T12:06:00.000",
    "request_status": "Pending",
    "responsible_agency": "Department of Sanitation",
    "final_address": "1514 Broadway St",
    "address_councildis": "A",
    "status": "Assigned to Contractor",
    "contractor": "IV Waste",
    "rowid": "1259814",
    "final_x": "3664793.38592",
    "final_y": "527538.975167",
    "longitude": "-90.12095702720347",
    "latitude": "29.945045830908683",
    "geocoded_column": {
      "latitude": "29.945045830908683",
      "longitude": "-90.12095702720347"
    }
  },
  {
    "service_request": "2026-1259813",
    "request_type": "Trash/Recycling",
    "request_reason": "Request a Large Item Pick Up",
    "date_created": "2026-02-21T12:00:47.000",
    "date_modified": "2026-02-21T12:00:50.000",
    "request_status": "Pending",
    "responsible_agency": "Department of Sanitation",
    "final_address": "8332 Apple St",
    "address_councildis": "A",
    "status": "Assigned to Contractor",
    "contractor": "IV Waste",
    "rowid": "1259813",
    "final_x": "3664587.69024",
    "final_y": "532753.128644",
    "longitude": "-90.12143235654561",
    "latitude": "29.959389046436602",
    "geocoded_column": {
      "latitude": "29.959389046436602",
      "longitude": "-90.12143235654561"
    }
  },
  {
    "service_request": "2026-1259812",
    "request_type": "Trash/Recycling",
    "request_reason": "MIssed Recycling Pick-Up",
    "date_created": "2026-02-21T11:50:51.000",
    "date_modified": "2026-02-21T12:06:45.000",
    "case_close_date": "2026-02-21T06:06:43.000",
    "request_status": "Closed",
    "responsible_agency": "Department of Sanitation",
    "final_address": "2530 Philip St",
    "address_councildis": "B",
    "status": "Invalid Request",
    "contractor": "IV Waste",
    "contractor_action": "Invalid Request",
    "rowid": "1259812",
    "final_x": "3675159.13889",
    "final_y": "526287.249214",
    "longitude": "-90.088272041672",
    "latitude": "29.94129835150488",
    "geocoded_column": {
      "latitude": "29.94129835150488",
      "longitude": "-90.088272041672"
    }
  },
  {
    "service_request": "2026-1259811",
    "request_type": "Property Maintenance",
    "request_reason": "Property Maintenance",
    "date_created": "2026-02-21T11:47:55.000",
    "date_modified": "2026-02-21T11:47:58.000",
    "request_status": "Pending",
    "responsible_agency": "Department of Code Enforcement",
    "final_address": "5030 Constance St Apt 5",
    "address_councildis": "B",
    "status": "Pending",
    "rowid": "1259811",
    "final_x": "3668395.33825",
    "final_y": "518125.63935",
    "longitude": "-90.10990184663332",
    "latitude": "29.919056881054704",
    "geocoded_column": {
      "latitude": "29.919056881054704",
      "longitude": "-90.10990184663332"
    }
  },
  {
    "service_request": "2026-1259810",
    "request_type": "Trash/Recycling",
    "request_reason": "Replace Trash Cart",
    "date_created": "2026-02-21T11:45:30.000",
    "date_modified": "2026-02-21T11:45:32.000",
    "request_status": "Pending",
    "responsible_agency": "Department of Sanitation",
    "final_address": "4609 Erickson Ave",
    "address_councildis": "C",
    "status": "Assigned to Contractor",
    "contractor": "Richards Disposal",
    "rowid": "1259810",
    "final_x": "3701895.73572",
    "final_y": "519435.283319",
    "longitude": "-90.0041110423734",
    "latitude": "29.92163192014776",
    "geocoded_column": {
      "latitude": "29.92163192014776",
      "longitude": "-90.0041110423734"
    }
  },
  {
    "service_request": "2026-1259809",
    "request_type": "Trash/Recycling",
    "request_reason": "Illegal Dumping",
    "date_created": "2026-02-21T11:40:54.000",
    "date_modified": "2026-02-21T11:40:57.000",
    "request_status": "Pending",
    "responsible_agency": "Department of Sanitation",
    "final_address": "1001 S Broad St",
    "address_councildis": "B",
    "status": "Pending",
    "rowid": "1259809",
    "final_x": "3672665.86548",
    "final_y": "531542.978307",
    "longitude": "-90.0959646086739",
    "latitude": "29.955824134332325",
    "geocoded_column": {
      "latitude": "29.955824134332325",
      "longitude": "-90.0959646086739"
    }
  },
  {
    "service_request": "2026-1259808",
    "request_type": "Trash/Recycling",
    "request_reason": "Request a Large Item Pick Up",
    "date_created": "2026-02-21T11:35:32.000",
    "date_modified": "2026-02-21T11:35:35.000",
    "request_status": "Pending",
    "responsible_agency": "Department of Sanitation",
    "final_address": "4877 Laurel St",
    "address_councildis": "B",
    "status": "Assigned to Contractor",
    "contractor": "IV Waste",
    "rowid": "1259808",
    "final_x": "3669019.95425",
    "final_y": "517892.334326",
    "longitude": "-90.10793812367308",
    "latitude": "29.91839701307734",
    "geocoded_column": {
      "latitude": "29.91839701307734",
      "longitude": "-90.10793812367308"
    }
  },
  {
    "service_request": "2026-1259807",
    "request_type": "Trash/Recycling",
    "request_reason": "Order Recycling Cart",
    "date_created": "2026-02-21T11:21:53.000",
    "date_modified": "2026-02-21T11:21:54.000",
    "request_status": "Pending",
    "responsible_agency": "Department of Sanitation",
    "final_address": "2508 Cambronne St",
    "address_councildis": "A",
    "status": "Pending",
    "rowid": "1259807",
    "final_x": "3664358.27303",
    "final_y": "532662.895492",
    "longitude": "-90.12215981675588",
    "latitude": "29.959147604624253",
    "geocoded_column": {
      "latitude": "29.959147604624253",
      "longitude": "-90.12215981675588"
    }
  },
  {
    "service_request": "2026-1259806",
    "request_type": "Trash/Recycling",
    "request_reason": "Request a Large Item Pick Up",
    "date_created": "2026-02-21T11:21:48.000",
    "date_modified": "2026-02-21T11:21:50.000",
    "request_status": "Pending",
    "responsible_agency": "Department of Sanitation",
    "final_address": "4701 Viola St",
    "address_councildis": "E",
    "status": "Assigned to Contractor",
    "contractor": "Waste Pro",
    "rowid": "1259806",
    "final_x": "3704051.17246",
    "final_y": "554937.395864",
    "longitude": "-89.99599938313024",
    "latitude": "30.019180856422736",
    "geocoded_column": {
      "latitude": "30.019180856422736",
      "longitude": "-89.99599938313024"
    }
  },
  {
    "service_request": "2026-1259805",
    "request_type": "Trash/Recycling",
    "request_reason": "Missed Trash Pick-Up",
    "date_created": "2026-02-21T11:18:24.000",
    "date_modified": "2026-02-21T11:18:28.000",
    "request_status": "Pending",
    "responsible_agency": "Department of Sanitation",
    "final_address": "5971 Winchester Park Dr, New Orleans, Louisiana, 70128",
    "address_councildis": "E",
    "status": "Assigned to Contractor",
    "contractor": "Waste Pro",
    "rowid": "1259805",
    "final_x": "3714468.942",
    "final_y": "563208.655264",
    "longitude": "-89.96277058325147",
    "latitude": "30.041585084795532",
    "geocoded_column": {
      "latitude": "30.041585084795532",
      "longitude": "-89.96277058325147"
    }
  },
  {
    "service_request": "2026-1259804",
    "request_type": "Trash/Recycling",
    "request_reason": "Missed Trash Pick-Up",
    "date_created": "2026-02-21T11:00:13.000",
    "date_modified": "2026-02-21T11:12:05.000",
    "case_close_date": "2026-02-21T05:12:04.000",
    "request_status": "Closed",
    "responsible_agency": "Department of Sanitation",
    "final_address": "1422 Melpomene St",
    "address_councildis": "B",
    "status": "Invalid Request",
    "contractor": "IV Waste",
    "contractor_action": "Invalid Request",
    "rowid": "1259804",
    "final_x": "3679828.56482",
    "final_y": "525085.630077",
    "longitude": "-90.07357148522154",
    "latitude": "29.937853959829017",
    "geocoded_column": {
      "latitude": "29.937853959829017",
      "longitude": "-90.07357148522154"
    }
  },
  {
    "service_request": "2026-1259803",
    "request_type": "Trash/Recycling",
    "request_reason": "Repair Recycling Cart",
    "date_created": "2026-02-21T10:58:00.000",
    "date_modified": "2026-02-21T10:58:04.000",
    "request_status": "Pending",
    "responsible_agency": "Department of Sanitation",
    "final_address": "2452 N Prieur St",
    "address_councildis": "D",
    "status": "Pending",
    "rowid": "1259803",
    "final_x": "3686745.44386",
    "final_y": "539368.491786",
    "longitude": "-90.05122983882066",
    "latitude": "29.976916000148442",
    "geocoded_column": {
      "latitude": "29.976916000148442",
      "longitude": "-90.05122983882066"
    }
  },
  {
    "service_request": "2026-1259802",
    "request_type": "Parks & Parkways",
    "request_reason": "Park Maintenance/Clean Up",
    "date_created": "2026-02-21T10:46:49.000",
    "date_modified": "2026-02-21T10:46:51.000",
    "request_status": "Pending",
    "responsible_agency": "Department of Parks & Parkway",
    "final_address": "4400 S Claiborne Ave",
    "address_councildis": "B",
    "status": "Pending",
    "rowid": "1259802",
    "final_x": "3670231.31655",
    "final_y": "525685.574333",
    "longitude": "-90.10385054127941",
    "latitude": "29.939790252726013",
    "geocoded_column": {
      "latitude": "29.939790252726013",
      "longitude": "-90.10385054127941"
    }
  },
  {
    "service_request": "2026-1259801",
    "request_type": "Trash/Recycling",
    "request_reason": "Replace Recycling Cart",
    "date_created": "2026-02-21T10:45:35.000",
    "date_modified": "2026-02-21T10:45:37.000",
    "request_status": "Pending",
    "responsible_agency": "Department of Sanitation",
    "final_address": "415 S Pierce St",
    "address_councildis": "A",
    "status": "Pending",
    "rowid": "1259801",
    "final_x": "3670604.79271",
    "final_y": "536981.098312",
    "longitude": "-90.10228828654182",
    "latitude": "29.970838191295744",
    "geocoded_column": {
      "latitude": "29.970838191295744",
      "longitude": "-90.10228828654182"
    }
  },
  {
    "service_request": "2026-1259800",
    "request_type": "Streetlights",
    "request_reason": "Streetlight Outage/Malfunction",
    "date_created": "2026-02-21T10:38:58.000",
    "date_modified": "2026-02-21T10:39:01.000",
    "request_status": "Pending",
    "responsible_agency": "Department of Public Works",
    "final_address": "3527 Carondelet St",
    "address_councildis": "B",
    "status": "Pending",
    "rowid": "1259800",
    "final_x": "3673433.98331",
    "final_y": "521721.799418",
    "longitude": "-90.09387461309655",
    "latitude": "29.928796278154742",
    "geocoded_column": {
      "latitude": "29.928796278154742",
      "longitude": "-90.09387461309655"
    }
  },
  {
    "service_request": "2026-1259799",
    "request_type": "Trash/Recycling",
    "request_reason": "Missed Trash Pick-Up",
    "date_created": "2026-02-21T10:17:31.000",
    "date_modified": "2026-02-21T10:43:30.000",
    "case_close_date": "2026-02-21T04:43:30.000",
    "request_status": "Closed",
    "responsible_agency": "Department of Sanitation",
    "final_address": "1516 Camp St",
    "address_councildis": "B",
    "status": "Invalid Request",
    "contractor": "IV Waste",
    "contractor_action": "Invalid Request",
    "rowid": "1259799",
    "final_x": "3679806.64111",
    "final_y": "523760.020859",
    "longitude": "-90.07368670736403",
    "latitude": "29.93420963516469",
    "geocoded_column": {
      "latitude": "29.93420963516469",
      "longitude": "-90.07368670736403"
    }
  },
  {
    "service_request": "2026-1259798",
    "request_type": "Trash/Recycling",
    "request_reason": "Damaged Caused By Contractor",
    "date_created": "2026-02-21T10:11:46.000",
    "date_modified": "2026-02-21T10:11:49.000",
    "request_status": "Pending",
    "responsible_agency": "Department of Sanitation",
    "final_address": "1037 Allen Toussaint Blvd",
    "address_councildis": "D",
    "status": "Assigned to Contractor",
    "contractor": "IV Waste",
    "rowid": "1259798",
    "final_x": "3673226.12635",
    "final_y": "554457.090904",
    "longitude": "-90.09341254217539",
    "latitude": "30.018813391253786",
    "geocoded_column": {
      "latitude": "30.018813391253786",
      "longitude": "-90.09341254217539"
    }
  },
  {
    "service_request": "2026-1259797",
    "request_type": "Trash/Recycling",
    "request_reason": "Order Trash Cart",
    "date_created": "2026-02-21T10:02:39.000",
    "date_modified": "2026-02-21T10:02:43.000",
    "request_status": "Pending",
    "responsible_agency": "Department of Sanitation",
    "final_address": "5939 Constance St",
    "address_councildis": "A",
    "status": "Assigned to Contractor",
    "contractor": "IV Waste",
    "rowid": "1259797",
    "final_x": "3664846.10919",
    "final_y": "518860.614199",
    "longitude": "-90.12108044700538",
    "latitude": "29.92118155610203",
    "geocoded_column": {
      "latitude": "29.92118155610203",
      "longitude": "-90.12108044700538"
    }
  },
  {
    "service_request": "2026-1259796",
    "request_type": "Trash/Recycling",
    "request_reason": "Missed Trash Pick-Up",
    "date_created": "2026-02-21T09:44:43.000",
    "date_modified": "2026-02-21T10:18:20.000",
    "case_close_date": "2026-02-21T04:18:20.000",
    "request_status": "Closed",
    "responsible_agency": "Department of Sanitation",
    "final_address": "3401 Annunciation St",
    "address_councildis": "B",
    "status": "Invalid Request",
    "contractor": "IV Waste",
    "contractor_action": "Invalid Request",
    "rowid": "1259796",
    "final_x": "3675348.05326",
    "final_y": "518605.898231",
    "longitude": "-90.08793918760863",
    "latitude": "29.920171485210638",
    "geocoded_column": {
      "latitude": "29.920171485210638",
      "longitude": "-90.08793918760863"
    }
  },
  {
    "service_request": "2026-1259795",
    "request_type": "Trash/Recycling",
    "request_reason": "Replace Trash Cart",
    "date_created": "2026-02-21T09:41:50.000",
    "date_modified": "2026-02-21T09:41:52.000",
    "request_status": "Pending",
    "responsible_agency": "Department of Sanitation",
    "final_address": "2840 Constance St",
    "address_councildis": "B",
    "status": "Assigned to Contractor",
    "contractor": "IV Waste",
    "rowid": "1259795",
    "final_x": "3676995.40571",
    "final_y": "520281.37132",
    "longitude": "-90.0826815546257",
    "latitude": "29.92472915966431",
    "geocoded_column": {
      "latitude": "29.92472915966431",
      "longitude": "-90.0826815546257"
    }
  },
  {
    "service_request": "2026-1259794",
    "request_type": "Trash/Recycling",
    "request_reason": "Missed Trash Pick-Up",
    "date_created": "2026-02-21T09:29:35.000",
    "date_modified": "2026-02-21T10:16:44.000",
    "case_close_date": "2026-02-21T04:16:43.000",
    "request_status": "Closed",
    "responsible_agency": "Department of Sanitation",
    "final_address": "2128 St Andrew St",
    "address_councildis": "B",
    "status": "Invalid Request",
    "contractor": "IV Waste",
    "contractor_action": "Invalid Request",
    "rowid": "1259794",
    "final_x": "3676851.91688",
    "final_y": "525814.340861",
    "longitude": "-90.08294390778713",
    "latitude": "29.939947324561064",
    "geocoded_column": {
      "latitude": "29.939947324561064",
      "longitude": "-90.08294390778713"
    }
  },
  {
    "service_request": "2026-1259793",
    "request_type": "Trash/Recycling",
    "request_reason": "Order Second Trash Cart",
    "date_created": "2026-02-21T09:22:08.000",
    "date_modified": "2026-02-21T09:22:10.000",
    "request_status": "Pending",
    "responsible_agency": "Department of Sanitation",
    "final_address": "2805 General Pershing St",
    "address_councildis": "B",
    "status": "Assigned to Contractor",
    "contractor": "IV Waste",
    "rowid": "1259793",
    "final_x": "3670869.13844",
    "final_y": "525205.923453",
    "longitude": "-90.10185311638969",
    "latitude": "29.93845253465303",
    "geocoded_column": {
      "latitude": "29.93845253465303",
      "longitude": "-90.10185311638969"
    }
  },
  {
    "service_request": "2026-1259792",
    "request_type": "Trash/Recycling",
    "request_reason": "Order Second Trash Cart",
    "date_created": "2026-02-21T09:16:44.000",
    "date_modified": "2026-02-21T09:16:45.000",
    "request_status": "Pending",
    "responsible_agency": "Department of Sanitation",
    "final_address": "6911 Foch Rd",
    "address_councildis": "D",
    "status": "Assigned to Contractor",
    "contractor": "Waste Pro",
    "rowid": "1259792",
    "final_x": "3696730.83792",
    "final_y": "556434.358362",
    "longitude": "-90.01907474768522",
    "latitude": "30.023529824684957",
    "geocoded_column": {
      "latitude": "30.023529824684957",
      "longitude": "-90.01907474768522"
    }
  },
  {
    "service_request": "2026-1259791",
    "request_type": "Trash/Recycling",
    "request_reason": "Replace Trash Cart",
    "date_created": "2026-02-21T08:56:04.000",
    "date_modified": "2026-02-21T08:56:05.000",
    "request_status": "Pending",
    "responsible_agency": "Department of Sanitation",
    "final_address": "3326 Grand-Route St John St",
    "address_councildis": "A",
    "status": "Assigned to Contractor",
    "contractor": "IV Waste",
    "rowid": "1259791",
    "final_x": "3675581.43342",
    "final_y": "540263.481099",
    "longitude": "-90.08645861174939",
    "latitude": "29.979715667202473",
    "geocoded_column": {
      "latitude": "29.979715667202473",
      "longitude": "-90.08645861174939"
    }
  },
  {
    "service_request": "2026-1259790",
    "request_type": "Trash/Recycling",
    "request_reason": "Missed Trash Pick-Up",
    "date_created": "2026-02-21T08:54:25.000",
    "date_modified": "2026-02-21T09:28:05.000",
    "case_close_date": "2026-02-21T03:28:04.000",
    "request_status": "Closed",
    "responsible_agency": "Department of Sanitation",
    "final_address": "1319 Pauline St",
    "address_councildis": "D",
    "status": "Invalid Request",
    "contractor": "IV Waste",
    "contractor_action": "Invalid Request",
    "rowid": "1259790",
    "final_x": "3691473.10704",
    "final_y": "536338.081607",
    "longitude": "-90.03640676189542",
    "latitude": "29.96843714544395",
    "geocoded_column": {
      "latitude": "29.96843714544395",
      "longitude": "-90.03640676189542"
    }
  },
  {
    "service_request": "2026-1259789",
    "request_type": "Property Maintenance",
    "request_reason": "Property Maintenance",
    "date_created": "2026-02-21T08:53:18.000",
    "date_modified": "2026-02-21T08:53:19.000",
    "request_status": "Pending",
    "responsible_agency": "Department of Code Enforcement",
    "final_address": "6607 Bellaire Dr",
    "address_councildis": "A",
    "status": "Pending",
    "rowid": "1259789",
    "final_x": "3664594.50951",
    "final_y": "552035.225814",
    "longitude": "-90.12076648151658",
    "latitude": "30.012408110240898",
    "geocoded_column": {
      "latitude": "30.012408110240898",
      "longitude": "-90.12076648151658"
    }
  },
  {
    "service_request": "2026-1259788",
    "request_type": "Parks & Parkways",
    "request_reason": "Request Tree Service (Right of Way/Public Property)",
    "date_created": "2026-02-21T08:49:24.000",
    "date_modified": "2026-02-21T08:49:26.000",
    "request_status": "Pending",
    "responsible_agency": "Department of Parks & Parkway",
    "final_address": "3326 Prytania St",
    "address_councildis": "B",
    "status": "Pending",
    "rowid": "1259788",
    "final_x": "3674596.27009",
    "final_y": "521049.547257",
    "longitude": "-90.09022852955073",
    "latitude": "29.92691318049125",
    "geocoded_column": {
      "latitude": "29.92691318049125",
      "longitude": "-90.09022852955073"
    }
  },
  {
    "service_request": "2026-1259787",
    "request_type": "Roads and Streets",
    "request_reason": "Pothole",
    "date_created": "2026-02-21T08:42:25.000",
    "date_modified": "2026-02-21T08:42:27.000",
    "request_status": "Pending",
    "responsible_agency": "Department of Public Works",
    "final_address": "7310 Zimple St",
    "address_councildis": "A",
    "status": "Pending",
    "rowid": "1259787",
    "final_x": "3663619.11072",
    "final_y": "526387.838334",
    "longitude": "-90.12470293100033",
    "latitude": "29.941914684270483",
    "geocoded_column": {
      "latitude": "29.941914684270483",
      "longitude": "-90.12470293100033"
    }
  },
  {
    "service_request": "2026-1259786",
    "request_type": "Property Maintenance",
    "request_reason": "Property Maintenance",
    "date_created": "2026-02-21T08:35:04.000",
    "date_modified": "2026-02-21T08:35:05.000",
    "request_status": "Pending",
    "responsible_agency": "Department of Code Enforcement",
    "final_address": "1906 First St",
    "address_councildis": "B",
    "status": "Pending",
    "rowid": "1259786",
    "final_x": "3676283.05685",
    "final_y": "524166.680508",
    "longitude": "-90.08479656600818",
    "latitude": "29.93543385582142",
    "geocoded_column": {
      "latitude": "29.93543385582142",
      "longitude": "-90.08479656600818"
    }
  },
  {
    "service_request": "2026-1259785",
    "request_type": "Trash/Recycling",
    "request_reason": "Missed Trash Pick-Up",
    "date_created": "2026-02-21T08:32:50.000",
    "date_modified": "2026-02-21T08:41:36.000",
    "case_close_date": "2026-02-21T02:41:35.000",
    "request_status": "Closed",
    "responsible_agency": "Department of Sanitation",
    "final_address": "3016 S Saratoga St",
    "address_councildis": "B",
    "status": "Invalid Request",
    "contractor": "IV Waste",
    "contractor_action": "Invalid Request",
    "rowid": "1259785",
    "final_x": "3674168.29934",
    "final_y": "523477.914683",
    "longitude": "-90.0914964427856",
    "latitude": "29.933603164852798",
    "geocoded_column": {
      "latitude": "29.933603164852798",
      "longitude": "-90.0914964427856"
    }
  },
  {
    "service_request": "2026-1259784",
    "request_type": "General Services",
    "request_reason": "General Service Request",
    "date_created": "2026-02-21T07:28:44.000",
    "date_modified": "2026-02-21T07:28:45.000",
    "request_status": "Pending",
    "responsible_agency": "Orleans Parish Communication District",
    "final_address": "5725 General Diaz St",
    "address_councildis": "A",
    "status": "Pending",
    "rowid": "1259784",
    "final_x": "3669398.32666",
    "final_y": "545538.721616",
    "longitude": "-90.10580894181041",
    "latitude": "29.99440433255263",
    "geocoded_column": {
      "latitude": "29.99440433255263",
      "longitude": "-90.10580894181041"
    }
  },
  {
    "service_request": "2026-1259783",
    "request_type": "Trash/Recycling",
    "request_reason": "Missed Trash Pick-Up",
    "date_created": "2026-02-21T07:24:54.000",
    "date_modified": "2026-02-21T08:19:35.000",
    "case_close_date": "2026-02-21T02:19:34.000",
    "request_status": "Closed",
    "responsible_agency": "Department of Sanitation",
    "final_address": "2208 Joseph St",
    "address_councildis": "A",
    "status": "Invalid Request",
    "contractor": "IV Waste",
    "contractor_action": "Invalid Request",
    "rowid": "1259783",
    "final_x": "3667211.58138",
    "final_y": "524221.846524",
    "longitude": "-90.11343351014973",
    "latitude": "29.935854219165854",
    "geocoded_column": {
      "latitude": "29.935854219165854",
      "longitude": "-90.11343351014973"
    }
  },
  {
    "service_request": "2026-1259782",
    "request_type": "Trash/Recycling",
    "request_reason": "Order Recycling Cart",
    "date_created": "2026-02-21T07:06:03.000",
    "date_modified": "2026-02-21T07:06:06.000",
    "request_status": "Pending",
    "responsible_agency": "Department of Sanitation",
    "final_address": "3308 Upperline St",
    "address_councildis": "B",
    "status": "Pending",
    "rowid": "1259782",
    "final_x": "3669180.2635",
    "final_y": "527107.292287",
    "longitude": "-90.10712084191879",
    "latitude": "29.943730485102144",
    "geocoded_column": {
      "latitude": "29.943730485102144",
      "longitude": "-90.10712084191879"
    }
  },
  {
    "service_request": "2026-1259781",
    "request_type": "Trash/Recycling",
    "request_reason": "Missed Trash Pick-Up",
    "date_created": "2026-02-21T02:26:55.000",
    "date_modified": "2026-02-21T06:30:28.000",
    "case_close_date": "2026-02-21T00:30:26.000",
    "request_status": "Closed",
    "responsible_agency": "Department of Sanitation",
    "final_address": "5119 Cunningham Ct",
    "address_councildis": "D",
    "status": "Invalid Request",
    "contractor": "IV Waste",
    "contractor_action": "Invalid Request",
    "rowid": "1259781",
    "final_x": "3691010.4351",
    "final_y": "552720.888918",
    "longitude": "-90.03728269708498",
    "latitude": "30.01349833705154",
    "geocoded_column": {
      "latitude": "30.01349833705154",
      "longitude": "-90.03728269708498"
    }
  },
  {
    "service_request": "2026-1259780",
    "request_type": "Trash/Recycling",
    "request_reason": "Missed Trash Pick-Up",
    "date_created": "2026-02-20T22:45:31.000",
    "date_modified": "2026-02-21T08:39:21.000",
    "case_close_date": "2026-02-21T02:39:19.000",
    "request_status": "Closed",
    "responsible_agency": "Department of Sanitation",
    "final_address": "2631 Mendez St",
    "address_councildis": "D",
    "status": "Invalid Request",
    "contractor": "IV Waste",
    "contractor_action": "Invalid Request",
    "rowid": "1259780",
    "final_x": "3686851.41417",
    "final_y": "553701.632535",
    "longitude": "-90.05038830018631",
    "latitude": "30.016323714823717",
    "geocoded_column": {
      "latitude": "30.016323714823717",
      "longitude": "-90.05038830018631"
    }
  },
  {
    "service_request": "2026-1259779",
    "request_type": "Property Maintenance",
    "request_reason": "Property Maintenance",
    "date_created": "2026-02-20T21:40:18.000",
    "date_modified": "2026-02-20T21:40:21.000",
    "request_status": "Pending",
    "responsible_agency": "Department of Code Enforcement",
    "final_address": "2651 Lavender St",
    "address_councildis": "D",
    "status": "Pending",
    "rowid": "1259779",
    "final_x": "3687534.85398",
    "final_y": "547047.672337",
    "longitude": "-90.04846467726723",
    "latitude": "29.998006695320353",
    "geocoded_column": {
      "latitude": "29.998006695320353",
      "longitude": "-90.04846467726723"
    }
  },
  {
    "service_request": "2026-1259778",
    "request_type": "Trash/Recycling",
    "request_reason": "Replace Trash Cart",
    "date_created": "2026-02-20T21:16:13.000",
    "date_modified": "2026-02-20T21:16:15.000",
    "request_status": "Pending",
    "responsible_agency": "Department of Sanitation",
    "final_address": "3311 Octavia St",
    "address_councildis": "A",
    "status": "Assigned to Contractor",
    "contractor": "IV Waste",
    "rowid": "1259778",
    "final_x": "3668470.02906",
    "final_y": "527769.967295",
    "longitude": "-90.10934089988201",
    "latitude": "29.945573506311465",
    "geocoded_column": {
      "latitude": "29.945573506311465",
      "longitude": "-90.10934089988201"
    }
  },
  {
    "service_request": "2026-1259777",
    "request_type": "Streetlights",
    "request_reason": "Streetlight Outage/Malfunction",
    "date_created": "2026-02-20T21:09:56.000",
    "date_modified": "2026-02-20T21:09:58.000",
    "request_status": "Pending",
    "responsible_agency": "Department of Public Works",
    "final_address": "1300 Nunez St",
    "address_councildis": "C",
    "status": "Pending",
    "rowid": "1259777",
    "final_x": "3687142.36751",
    "final_y": "526706.129598",
    "longitude": "-90.05042398741486",
    "latitude": "29.9420866600612",
    "geocoded_column": {
      "latitude": "29.9420866600612",
      "longitude": "-90.05042398741486"
    }
  },
  {
    "service_request": "2026-1259776",
    "request_type": "Streetlights",
    "request_reason": "Streetlight Outage/Malfunction",
    "date_created": "2026-02-20T21:07:02.000",
    "date_modified": "2026-02-20T21:07:04.000",
    "request_status": "Pending",
    "responsible_agency": "Department of Public Works",
    "final_address": "1300 Nunez St",
    "address_councildis": "C",
    "status": "Pending",
    "rowid": "1259776",
    "final_x": "3687142.36751",
    "final_y": "526706.129598",
    "longitude": "-90.05042398741486",
    "latitude": "29.9420866600612",
    "geocoded_column": {
      "latitude": "29.9420866600612",
      "longitude": "-90.05042398741486"
    }
  },
  {
    "service_request": "2026-1259775",
    "request_type": "Streetlights",
    "request_reason": "Streetlight Outage/Malfunction",
    "date_created": "2026-02-20T21:01:40.000",
    "date_modified": "2026-02-20T21:01:41.000",
    "request_status": "Pending",
    "responsible_agency": "Department of Public Works",
    "final_address": "703 Red Allen Way",
    "address_councildis": "C",
    "status": "Pending",
    "rowid": "1259775",
    "final_x": "3687544.40124",
    "final_y": "528705.213952",
    "longitude": "-90.04908394425158",
    "latitude": "29.94757107898805",
    "geocoded_column": {
      "latitude": "29.94757107898805",
      "longitude": "-90.04908394425158"
    }
  },
  {
    "service_request": "2026-1259774",
    "request_type": "Trash/Recycling",
    "request_reason": "Missed Trash Pick-Up",
    "date_created": "2026-02-20T20:37:45.000",
    "date_modified": "2026-02-21T06:31:40.000",
    "case_close_date": "2026-02-21T00:31:39.000",
    "request_status": "Closed",
    "responsible_agency": "Department of Sanitation",
    "final_address": "924 Euterpe St",
    "address_councildis": "B",
    "status": "Invalid Request",
    "contractor": "IV Waste",
    "contractor_action": "Invalid Request",
    "rowid": "1259774",
    "final_x": "3680864.90549",
    "final_y": "524031.428156",
    "longitude": "-90.07033635952219",
    "latitude": "29.934923884146972",
    "geocoded_column": {
      "latitude": "29.934923884146972",
      "longitude": "-90.07033635952219"
    }
  },
  {
    "service_request": "2026-1259773",
    "request_type": "Trash/Recycling",
    "request_reason": "Request a Large Item Pick Up",
    "date_created": "2026-02-20T20:08:47.000",
    "date_modified": "2026-02-20T20:08:48.000",
    "request_status": "Pending",
    "responsible_agency": "Department of Sanitation",
    "final_address": "1234 Simon Bolivar Ave",
    "address_councildis": "B",
    "status": "Assigned to Contractor",
    "contractor": "IV Waste",
    "rowid": "1259773",
    "final_x": "3677747.10862",
    "final_y": "527280.282431",
    "longitude": "-90.08006703271779",
    "latitude": "29.943951287813185",
    "geocoded_column": {
      "latitude": "29.943951287813185",
      "longitude": "-90.08006703271779"
    }
  },
  {
    "service_request": "2026-1259772",
    "request_type": "Trash/Recycling",
    "request_reason": "Request a Large Item Pick Up",
    "date_created": "2026-02-20T20:05:45.000",
    "date_modified": "2026-02-20T20:05:47.000",
    "request_status": "Pending",
    "responsible_agency": "Department of Sanitation",
    "final_address": "5122 Perrier St",
    "address_councildis": "B",
    "status": "Assigned to Contractor",
    "contractor": "IV Waste",
    "rowid": "1259772",
    "final_x": "3668191.2697",
    "final_y": "519869.413112",
    "longitude": "-90.11048724741414",
    "latitude": "29.923857698216857",
    "geocoded_column": {
      "latitude": "29.923857698216857",
      "longitude": "-90.11048724741414"
    }
  },
  {
    "service_request": "2026-1259771",
    "request_type": "Streetlights",
    "request_reason": "Streetlight Outage/Malfunction",
    "date_created": "2026-02-20T19:32:54.000",
    "date_modified": "2026-02-20T19:32:56.000",
    "request_status": "Pending",
    "responsible_agency": "Department of Public Works",
    "final_address": "22 Petit Bayou Ln",
    "address_councildis": "E",
    "status": "Pending",
    "rowid": "1259771",
    "final_x": "3724750.24992",
    "final_y": "564143.147105",
    "longitude": "-89.93024219504005",
    "latitude": "30.04381240362955",
    "geocoded_column": {
      "latitude": "30.04381240362955",
      "longitude": "-89.93024219504005"
    }
  },
  {
    "service_request": "2026-1259770",
    "request_type": "Trash/Recycling",
    "request_reason": "Order Second Trash Cart",
    "date_created": "2026-02-20T19:13:05.000",
    "date_modified": "2026-02-20T19:13:08.000",
    "request_status": "Pending",
    "responsible_agency": "Department of Sanitation",
    "final_address": "2628 Myrtle St",
    "address_councildis": "D",
    "status": "Assigned to Contractor",
    "contractor": "IV Waste",
    "rowid": "1259770",
    "final_x": "3687427.97686",
    "final_y": "546044.378704",
    "longitude": "-90.04883782876455",
    "latitude": "29.99525129444941",
    "geocoded_column": {
      "latitude": "29.99525129444941",
      "longitude": "-90.04883782876455"
    }
  },
  {
    "service_request": "2026-1259769",
    "request_type": "Trash/Recycling",
    "request_reason": "Order Trash Cart",
    "date_created": "2026-02-20T18:54:35.000",
    "date_modified": "2026-02-20T18:54:37.000",
    "request_status": "Pending",
    "responsible_agency": "Department of Sanitation",
    "final_address": "7943 Read Blvd",
    "address_councildis": "E",
    "status": "Assigned to Contractor",
    "contractor": "Waste Pro",
    "rowid": "1259769",
    "final_x": "3707995.88708",
    "final_y": "565719.736994",
    "longitude": "-89.98313410967519",
    "latitude": "30.048700857318323",
    "geocoded_column": {
      "latitude": "30.048700857318323",
      "longitude": "-89.98313410967519"
    }
  },
  {
    "service_request": "2026-1259768",
    "request_type": "Property Maintenance",
    "request_reason": "Property Maintenance",
    "date_created": "2026-02-20T18:52:59.000",
    "date_modified": "2026-02-20T18:53:00.000",
    "request_status": "Pending",
    "responsible_agency": "Department of Code Enforcement",
    "final_address": "4302 S Miro St",
    "address_councildis": "B",
    "status": "Pending",
    "rowid": "1259768",
    "final_x": "3670517.29121",
    "final_y": "527808.814847",
    "longitude": "-90.10287569197149",
    "latitude": "29.945620033232718",
    "geocoded_column": {
      "latitude": "29.945620033232718",
      "longitude": "-90.10287569197149"
    }
  },
  {
    "service_request": "2026-1259767",
    "request_type": "Trash/Recycling",
    "request_reason": "Repair Trash Cart",
    "date_created": "2026-02-20T18:47:44.000",
    "date_modified": "2026-02-20T18:47:46.000",
    "request_status": "Pending",
    "responsible_agency": "Department of Sanitation",
    "final_address": "5106 Camp St",
    "address_councildis": "B",
    "status": "Assigned to Contractor",
    "contractor": "IV Waste",
    "rowid": "1259767",
    "final_x": "3668282.34983",
    "final_y": "518885.066679",
    "longitude": "-90.11023290676435",
    "latitude": "29.921148383571936",
    "geocoded_column": {
      "latitude": "29.921148383571936",
      "longitude": "-90.11023290676435"
    }
  },
  {
    "service_request": "2026-1259766",
    "request_type": "Trash/Recycling",
    "request_reason": "Missed Trash Pick-Up",
    "date_created": "2026-02-20T18:43:13.000",
    "date_modified": "2026-02-21T06:31:02.000",
    "case_close_date": "2026-02-21T00:31:01.000",
    "request_status": "Closed",
    "responsible_agency": "Department of Sanitation",
    "final_address": "1012 Seventh St",
    "address_councildis": "B",
    "status": "Invalid Request",
    "contractor": "IV Waste",
    "contractor_action": "Invalid Request",
    "rowid": "1259766",
    "final_x": "3676502.47035",
    "final_y": "520093.918008",
    "longitude": "-90.08424403900712",
    "latitude": "29.92422850841469",
    "geocoded_column": {
      "latitude": "29.92422850841469",
      "longitude": "-90.08424403900712"
    }
  },
  {
    "service_request": "2026-1259765",
    "request_type": "Trash/Recycling",
    "request_reason": "Repair Trash Cart",
    "date_created": "2026-02-20T18:43:03.000",
    "date_modified": "2026-02-20T18:43:05.000",
    "request_status": "Pending",
    "responsible_agency": "Department of Sanitation",
    "final_address": "5104 Camp St",
    "address_councildis": "B",
    "status": "Assigned to Contractor",
    "contractor": "IV Waste",
    "rowid": "1259765",
    "final_x": "3668282.34983",
    "final_y": "518885.066679",
    "longitude": "-90.11023290676435",
    "latitude": "29.921148383571936",
    "geocoded_column": {
      "latitude": "29.921148383571936",
      "longitude": "-90.11023290676435"
    }
  },
  {
    "service_request": "2026-1259764",
    "request_type": "Property Maintenance",
    "request_reason": "Property Maintenance",
    "date_created": "2026-02-20T18:35:20.000",
    "date_modified": "2026-02-20T18:35:22.000",
    "request_status": "Pending",
    "responsible_agency": "Department of Code Enforcement",
    "final_address": "5672 Rosemary Pl",
    "address_councildis": "A",
    "status": "Pending",
    "rowid": "1259764",
    "final_x": "3667130.47092",
    "final_y": "545366.638416",
    "longitude": "-90.11297862186501",
    "latitude": "29.99399777124545",
    "geocoded_column": {
      "latitude": "29.99399777124545",
      "longitude": "-90.11297862186501"
    }
  },
  {
    "service_request": "2026-1259763",
    "request_type": "Streetlights",
    "request_reason": "Streetlight Outage/Malfunction",
    "date_created": "2026-02-20T18:29:42.000",
    "date_modified": "2026-02-20T18:29:44.000",
    "request_status": "Pending",
    "responsible_agency": "Department of Public Works",
    "final_address": "5616 Rosemary Pl",
    "address_councildis": "A",
    "status": "Pending",
    "rowid": "1259763",
    "final_x": "3667070.36205",
    "final_y": "544880.200079",
    "longitude": "-90.11318486037625",
    "latitude": "29.992661992463216",
    "geocoded_column": {
      "latitude": "29.992661992463216",
      "longitude": "-90.11318486037625"
    }
  },
  {
    "service_request": "2026-1259762",
    "request_type": "Roads and Streets",
    "request_reason": "Abandoned Service Cut",
    "date_created": "2026-02-20T18:27:34.000",
    "date_modified": "2026-02-20T18:27:35.000",
    "request_status": "Pending",
    "responsible_agency": "Department of Public Works",
    "final_address": "1003 Opelousas Ave",
    "address_councildis": "C",
    "status": "Pending",
    "rowid": "1259762",
    "final_x": "3688518.5471",
    "final_y": "529015.083328",
    "longitude": "-90.04599720349043",
    "latitude": "29.94839305655533",
    "geocoded_column": {
      "latitude": "29.94839305655533",
      "longitude": "-90.04599720349043"
    }
  },
  {
    "service_request": "2026-1259761",
    "request_type": "Trash/Recycling",
    "request_reason": "Request a Large Item Pick Up",
    "date_created": "2026-02-20T18:26:48.000",
    "date_modified": "2026-02-20T18:26:55.000",
    "request_status": "Pending",
    "responsible_agency": "Department of Sanitation",
    "final_address": "0 BLK Honeysuckle Ln",
    "address_councildis": "E",
    "status": "Assigned to Contractor",
    "contractor": "Waste Pro",
    "rowid": "1259761",
    "final_x": "3713029.28421",
    "final_y": "568315.456989",
    "longitude": "-89.9671279486569",
    "latitude": "30.055673986523324",
    "geocoded_column": {
      "latitude": "30.055673986523324",
      "longitude": "-89.9671279486569"
    }
  },
  {
    "service_request": "2026-1259760",
    "request_type": "Trash/Recycling",
    "request_reason": "Request a Large Item Pick Up",
    "date_created": "2026-02-20T18:26:11.000",
    "date_modified": "2026-02-20T18:26:13.000",
    "request_status": "Pending",
    "responsible_agency": "Department of Sanitation",
    "final_address": "7610 Pineridge St",
    "address_councildis": "E",
    "status": "Assigned to Contractor",
    "contractor": "Waste Pro",
    "rowid": "1259760",
    "final_x": "3718951.50866",
    "final_y": "571954.691944",
    "longitude": "-89.94827009836149",
    "latitude": "30.065484880980627",
    "geocoded_column": {
      "latitude": "30.065484880980627",
      "longitude": "-89.94827009836149"
    }
  },
  {
    "service_request": "2026-1259759",
    "request_type": "Health Related Request",
    "request_reason": "Noise Ordinance Complaint",
    "date_created": "2026-02-20T18:25:17.000",
    "date_modified": "2026-02-20T18:25:19.000",
    "request_status": "Pending",
    "responsible_agency": "Health Department",
    "final_address": "1821 S Rampart St, New Orleans, Louisiana, 70113",
    "address_councildis": "B",
    "status": "Pending",
    "rowid": "1259759",
    "final_x": "3677153.12482",
    "final_y": "525641.227325",
    "longitude": "-90.08199891778776",
    "latitude": "29.939462278034057",
    "geocoded_column": {
      "latitude": "29.939462278034057",
      "longitude": "-90.08199891778776"
    }
  },
  {
    "service_request": "2026-1259758",
    "request_type": "Streetlights",
    "request_reason": "Streetlight Outage/Malfunction",
    "date_created": "2026-02-20T18:23:35.000",
    "date_modified": "2026-02-20T18:23:37.000",
    "request_status": "Pending",
    "responsible_agency": "Department of Public Works",
    "final_address": "2358 Annunciation St",
    "address_councildis": "B",
    "status": "Pending",
    "rowid": "1259758",
    "final_x": "3678813.79918",
    "final_y": "520625.096824",
    "longitude": "-90.07692959458491",
    "latitude": "29.925619594197943",
    "geocoded_column": {
      "latitude": "29.925619594197943",
      "longitude": "-90.07692959458491"
    }
  },
  {
    "service_request": "2026-1259757",
    "request_type": "Property Maintenance",
    "request_reason": "Property Maintenance",
    "date_created": "2026-02-20T18:20:31.000",
    "date_modified": "2026-02-20T18:20:32.000",
    "request_status": "Pending",
    "responsible_agency": "Department of Code Enforcement",
    "final_address": "13552 Chef Menteur Hwy",
    "address_councildis": "E",
    "status": "Pending",
    "rowid": "1259757",
    "final_x": "3726825.33881",
    "final_y": "559823.768925",
    "longitude": "-89.92385202745204",
    "latitude": "30.03186587029276",
    "geocoded_column": {
      "latitude": "30.03186587029276",
      "longitude": "-89.92385202745204"
    }
  },
  {
    "service_request": "2026-1259756",
    "request_type": "Roads and Streets",
    "request_reason": "Pothole",
    "date_created": "2026-02-20T18:20:09.000",
    "date_modified": "2026-02-20T18:20:13.000",
    "request_status": "Pending",
    "responsible_agency": "Department of Public Works",
    "final_address": "5618 Rosemary Pl",
    "address_councildis": "A",
    "status": "Pending",
    "rowid": "1259756",
    "final_x": "3667084.38605",
    "final_y": "544913.741647",
    "longitude": "-90.11313943270619",
    "latitude": "29.99275380967612",
    "geocoded_column": {
      "latitude": "29.99275380967612",
      "longitude": "-90.11313943270619"
    }
  },
  {
    "service_request": "2026-1259755",
    "request_type": "Safety & Permits",
    "request_reason": "Zoning Enforcement",
    "date_created": "2026-02-20T18:14:15.000",
    "date_modified": "2026-02-20T18:14:18.000",
    "request_status": "Pending",
    "responsible_agency": "Safety and Permits",
    "final_address": "5615 Rosemary Pl",
    "address_councildis": "A",
    "status": "Pending",
    "rowid": "1259755",
    "final_x": "3667206.76801",
    "final_y": "544831.838095",
    "longitude": "-90.11275560477091",
    "latitude": "29.99252501892636",
    "geocoded_column": {
      "latitude": "29.99252501892636",
      "longitude": "-90.11275560477091"
    }
  },
  {
    "service_request": "2026-1259754",
    "request_type": "Trash/Recycling",
    "request_reason": "Replace Trash Cart",
    "date_created": "2026-02-20T17:57:19.000",
    "date_modified": "2026-02-20T17:57:20.000",
    "request_status": "Pending",
    "responsible_agency": "Department of Sanitation",
    "final_address": "1992 N Dorgenois St",
    "address_councildis": "D",
    "status": "Assigned to Contractor",
    "contractor": "IV Waste",
    "rowid": "1259754",
    "final_x": "3682261.62485",
    "final_y": "541234.85838",
    "longitude": "-90.0653259206139",
    "latitude": "29.982185045677888",
    "geocoded_column": {
      "latitude": "29.982185045677888",
      "longitude": "-90.0653259206139"
    }
  },
  {
    "service_request": "2026-1259753",
    "request_type": "Trash/Recycling",
    "request_reason": "Replace Trash Cart",
    "date_created": "2026-02-20T17:50:30.000",
    "date_modified": "2026-02-20T17:50:33.000",
    "request_status": "Pending",
    "responsible_agency": "Department of Sanitation",
    "final_address": "13217 Willowbrook Dr",
    "address_councildis": "E",
    "status": "Assigned to Contractor",
    "contractor": "Waste Pro",
    "rowid": "1259753",
    "final_x": "3726646.00729",
    "final_y": "564026.474273",
    "longitude": "-89.92425539935944",
    "latitude": "30.043427636920008",
    "geocoded_column": {
      "latitude": "30.043427636920008",
      "longitude": "-89.92425539935944"
    }
  },
  {
    "service_request": "2026-1259752",
    "request_type": "Trash/Recycling",
    "request_reason": "Missed Trash Pick-Up",
    "date_created": "2026-02-20T17:42:06.000",
    "date_modified": "2026-02-20T17:42:08.000",
    "request_status": "Pending",
    "responsible_agency": "Department of Sanitation",
    "final_address": "6045 Erin Dr",
    "address_councildis": "E",
    "status": "Assigned to Contractor",
    "contractor": "Waste Pro",
    "rowid": "1259752",
    "final_x": "3695665.83754",
    "final_y": "558519.980828",
    "longitude": "-90.02236451402956",
    "latitude": "30.029298037692257",
    "geocoded_column": {
      "latitude": "30.029298037692257",
      "longitude": "-90.02236451402956"
    }
  },
  {
    "service_request": "2026-1259751",
    "request_type": "Streetlights",
    "request_reason": "Streetlight Outage/Malfunction",
    "date_created": "2026-02-20T17:37:12.000",
    "date_modified": "2026-02-20T17:37:15.000",
    "request_status": "Pending",
    "responsible_agency": "Department of Public Works",
    "final_address": "2112 Delachaise St",
    "address_councildis": "B",
    "status": "Pending",
    "rowid": "1259751",
    "final_x": "3673042.68564",
    "final_y": "523128.982075",
    "longitude": "-90.09506185676771",
    "latitude": "29.93267720883131",
    "geocoded_column": {
      "latitude": "29.93267720883131",
      "longitude": "-90.09506185676771"
    }
  },
  {
    "service_request": "2026-1259750",
    "request_type": "Trash/Recycling",
    "request_reason": "Damaged Caused By Contractor",
    "date_created": "2026-02-20T17:34:06.000",
    "date_modified": "2026-02-20T17:34:07.000",
    "request_status": "Pending",
    "responsible_agency": "Department of Sanitation",
    "final_address": "5519 S Saratoga St",
    "address_councildis": "A",
    "status": "Assigned to Contractor",
    "contractor": "IV Waste",
    "rowid": "1259750",
    "final_x": "3667131.53153",
    "final_y": "522775.958266",
    "longitude": "-90.11373481524551",
    "latitude": "29.93188083109774",
    "geocoded_column": {
      "latitude": "29.93188083109774",
      "longitude": "-90.11373481524551"
    }
  },
  {
    "service_request": "2026-1259749",
    "request_type": "Property Maintenance",
    "request_reason": "Property Maintenance",
    "date_created": "2026-02-20T17:34:04.000",
    "date_modified": "2026-02-20T17:34:06.000",
    "request_status": "Pending",
    "responsible_agency": "Department of Code Enforcement",
    "final_address": "3820 Mistletoe St",
    "address_councildis": "A",
    "status": "Pending",
    "rowid": "1259749",
    "final_x": "3665363.23783",
    "final_y": "537980.017033",
    "longitude": "-90.11880840429131",
    "latitude": "29.97373868669494",
    "geocoded_column": {
      "latitude": "29.97373868669494",
      "longitude": "-90.11880840429131"
    }
  },
  {
    "service_request": "2026-1259748",
    "request_type": "Trash/Recycling",
    "request_reason": "Order Second Trash Cart",
    "date_created": "2026-02-20T17:22:48.000",
    "date_modified": "2026-02-20T17:22:50.000",
    "request_status": "Pending",
    "responsible_agency": "Department of Sanitation",
    "final_address": "5815 Sutton Pl",
    "address_councildis": "C",
    "status": "Assigned to Contractor",
    "contractor": "Richards Disposal",
    "rowid": "1259748",
    "final_x": "3705369.62231",
    "final_y": "518630.926327",
    "longitude": "-89.99317526575108",
    "latitude": "29.919308952679504",
    "geocoded_column": {
      "latitude": "29.919308952679504",
      "longitude": "-89.99317526575108"
    }
  },
  {
    "service_request": "2026-1259747",
    "request_type": "Trash/Recycling",
    "request_reason": "Order Second Trash Cart",
    "date_created": "2026-02-20T17:15:34.000",
    "date_modified": "2026-02-20T17:15:37.000",
    "request_status": "Pending",
    "responsible_agency": "Department of Sanitation",
    "final_address": "3321 Newton St",
    "address_councildis": "C",
    "status": "Assigned to Contractor",
    "contractor": "Richards Disposal",
    "rowid": "1259747",
    "final_x": "3696587.31376",
    "final_y": "527709.535551",
    "longitude": "-90.02056812028265",
    "latitude": "29.94455152773683",
    "geocoded_column": {
      "latitude": "29.94455152773683",
      "longitude": "-90.02056812028265"
    }
  },
  {
    "service_request": "2026-1259746",
    "request_type": "Trash/Recycling",
    "request_reason": "Request a Large Item Pick Up",
    "date_created": "2026-02-20T17:11:06.000",
    "date_modified": "2026-02-20T17:11:07.000",
    "request_status": "Pending",
    "responsible_agency": "Department of Sanitation",
    "final_address": "4118 N Rampart St",
    "address_councildis": "C",
    "status": "Assigned to Contractor",
    "contractor": "IV Waste",
    "rowid": "1259746",
    "final_x": "3692147.36829",
    "final_y": "534710.98279",
    "longitude": "-90.03433567275646",
    "latitude": "29.96394219517621",
    "geocoded_column": {
      "latitude": "29.96394219517621",
      "longitude": "-90.03433567275646"
    }
  },
  {
    "service_request": "2026-1259745",
    "request_type": "Abandoned Vehicles",
    "request_reason": "Abandoned/Junk Vehicles",
    "date_created": "2026-02-20T16:56:17.000",
    "date_modified": "2026-02-20T16:56:19.000",
    "request_status": "Pending",
    "responsible_agency": "Department of Public Works",
    "final_address": "1 Vienna St",
    "address_councildis": "D",
    "status": "Pending",
    "rowid": "1259745",
    "final_x": "3684121.9958",
    "final_y": "554906.396376",
    "longitude": "-90.05896972915433",
    "latitude": "30.01972011994158",
    "geocoded_column": {
      "latitude": "30.01972011994158",
      "longitude": "-90.05896972915433"
    }
  },
  {
    "service_request": "2026-1259744",
    "request_type": "Trash/Recycling",
    "request_reason": "Repair Trash Cart",
    "date_created": "2026-02-20T16:48:56.000",
    "date_modified": "2026-02-20T16:48:57.000",
    "request_status": "Pending",
    "responsible_agency": "Department of Sanitation",
    "final_address": "4960 Desire Dr",
    "address_councildis": "D",
    "status": "Assigned to Contractor",
    "contractor": "IV Waste",
    "rowid": "1259744",
    "final_x": "3691466.60054",
    "final_y": "552337.536278",
    "longitude": "-90.03585517342968",
    "latitude": "30.012430064448974",
    "geocoded_column": {
      "latitude": "30.012430064448974",
      "longitude": "-90.03585517342968"
    }
  },
  {
    "service_request": "2026-1259743",
    "request_type": "Trash/Recycling",
    "request_reason": "Request a Large Item Pick Up",
    "date_created": "2026-02-20T16:35:18.000",
    "date_modified": "2026-02-20T16:35:19.000",
    "request_status": "Pending",
    "responsible_agency": "Department of Sanitation",
    "final_address": "14575 Beekman Rd",
    "address_councildis": "E",
    "status": "Assigned to Contractor",
    "contractor": "Waste Pro",
    "rowid": "1259743",
    "final_x": "3721127.23679",
    "final_y": "573100.187113",
    "longitude": "-89.94134845520738",
    "latitude": "30.068562016212294",
    "geocoded_column": {
      "latitude": "30.068562016212294",
      "longitude": "-89.94134845520738"
    }
  },
  {
    "service_request": "2026-1259742",
    "request_type": "Health Related Request",
    "request_reason": "Homeless Encampment Complaint",
    "date_created": "2026-02-20T16:35:11.000",
    "date_modified": "2026-02-20T16:35:12.000",
    "request_status": "Pending",
    "responsible_agency": "Office Of Homeless Services And Strategy",
    "final_address": "1314 Clouet St",
    "address_councildis": "C",
    "status": "Pending",
    "rowid": "1259742",
    "final_x": "3689188.51375",
    "final_y": "536874.568776",
    "longitude": "-90.04360252827671",
    "latitude": "29.969983200542778",
    "geocoded_column": {
      "latitude": "29.969983200542778",
      "longitude": "-90.04360252827671"
    }
  },
  {
    "service_request": "2026-1259741",
    "request_type": "Streetlights",
    "request_reason": "Streetlight Outage/Malfunction",
    "date_created": "2026-02-20T16:32:44.000",
    "date_modified": "2026-02-20T16:32:46.000",
    "request_status": "Pending",
    "responsible_agency": "Department of Public Works",
    "final_address": "4774 Marque Dr",
    "address_councildis": "E",
    "status": "Pending",
    "rowid": "1259741",
    "final_x": "3709994.71582",
    "final_y": "555953.337433",
    "longitude": "-89.9771820191202",
    "latitude": "30.021782222738164",
    "geocoded_column": {
      "latitude": "30.021782222738164",
      "longitude": "-89.9771820191202"
    }
  },
  {
    "service_request": "2026-1259740",
    "request_type": "Trash/Recycling",
    "request_reason": "Request a Large Item Pick Up",
    "date_created": "2026-02-20T16:26:25.000",
    "date_modified": "2026-02-20T16:26:28.000",
    "request_status": "Pending",
    "responsible_agency": "Department of Sanitation",
    "final_address": "3800 Red Oak Ct",
    "address_councildis": "C",
    "status": "Assigned to Contractor",
    "contractor": "Richards Disposal",
    "rowid": "1259740",
    "final_x": "3703459.98334",
    "final_y": "513804.14917",
    "longitude": "-89.99938035577918",
    "latitude": "29.906098243201306",
    "geocoded_column": {
      "latitude": "29.906098243201306",
      "longitude": "-89.99938035577918"
    }
  },
  {
    "service_request": "2026-1259739",
    "request_type": "Trash/Recycling",
    "request_reason": "Order Recycling Cart",
    "date_created": "2026-02-20T16:24:07.000",
    "date_modified": "2026-02-20T16:24:09.000",
    "request_status": "Pending",
    "responsible_agency": "Department of Sanitation",
    "final_address": "1035 St Roch Ave Apt 101",
    "address_councildis": "C",
    "status": "Pending",
    "rowid": "1259739",
    "final_x": "3686527.08713",
    "final_y": "536343.126727",
    "longitude": "-90.05202632423794",
    "latitude": "29.968604021543698",
    "geocoded_column": {
      "latitude": "29.968604021543698",
      "longitude": "-90.05202632423794"
    }
  },
  {
    "service_request": "2026-1259738",
    "request_type": "Trash/Recycling",
    "request_reason": "Repair Trash Cart",
    "date_created": "2026-02-20T16:24:03.000",
    "date_modified": "2026-02-20T16:24:23.000",
    "request_status": "Pending",
    "responsible_agency": "Department of Sanitation",
    "final_address": "708 Opelousas Ave",
    "address_councildis": "C",
    "status": "Assigned to Contractor",
    "contractor": "Richards Disposal",
    "rowid": "1259738",
    "final_x": "3687591.3007",
    "final_y": "529191.32928",
    "longitude": "-90.04891866004225",
    "latitude": "29.948906284720604",
    "geocoded_column": {
      "latitude": "29.948906284720604",
      "longitude": "-90.04891866004225"
    }
  },
  {
    "service_request": "2026-1259737",
    "request_type": "Trash/Recycling",
    "request_reason": "Order Recycling Cart",
    "date_created": "2026-02-20T16:21:58.000",
    "date_modified": "2026-02-20T16:22:00.000",
    "request_status": "Pending",
    "responsible_agency": "Department of Sanitation",
    "final_address": "2420 St Claude Ave",
    "address_councildis": "C",
    "status": "Pending",
    "rowid": "1259737",
    "final_x": "3686686.49839",
    "final_y": "536401.831559",
    "longitude": "-90.05152082197952",
    "latitude": "29.96876053693562",
    "geocoded_column": {
      "latitude": "29.96876053693562",
      "longitude": "-90.05152082197952"
    }
  },
  {
    "service_request": "2026-1259736",
    "request_type": "Roads and Streets",
    "request_reason": "Sidewalk Damaged or Missing",
    "date_created": "2026-02-20T16:21:38.000",
    "date_modified": "2026-02-20T16:21:39.000",
    "request_status": "Pending",
    "responsible_agency": "Department of Public Works",
    "final_address": "2524 Magazine St",
    "address_councildis": "B",
    "status": "Pending",
    "rowid": "1259736",
    "final_x": "3677664.61947",
    "final_y": "521152.921401",
    "longitude": "-90.08053898892129",
    "latitude": "29.927105537862456",
    "geocoded_column": {
      "latitude": "29.927105537862456",
      "longitude": "-90.08053898892129"
    }
  },
  {
    "service_request": "2026-1259735",
    "request_type": "Abandoned Vehicles",
    "request_reason": "Abandoned/Junk Vehicles",
    "date_created": "2026-02-20T16:20:00.000",
    "date_modified": "2026-02-20T16:20:02.000",
    "request_status": "Pending",
    "responsible_agency": "Department of Public Works",
    "final_address": "1206 Feliciana St",
    "address_councildis": "C",
    "status": "Pending",
    "rowid": "1259735",
    "final_x": "3688803.43177",
    "final_y": "536519.211591",
    "longitude": "-90.04483127124172",
    "latitude": "29.969018005367978",
    "geocoded_column": {
      "latitude": "29.969018005367978",
      "longitude": "-90.04483127124172"
    }
  },
  {
    "service_request": "2026-1259734",
    "request_type": "Streetlights",
    "request_reason": "Streetlight Outage/Malfunction",
    "date_created": "2026-02-20T16:19:45.000",
    "date_modified": "2026-02-20T16:19:47.000",
    "request_status": "Pending",
    "responsible_agency": "Department of Public Works",
    "final_address": "231 Basin St",
    "address_councildis": "C",
    "status": "Pending",
    "rowid": "1259734",
    "final_x": "3680106.85007",
    "final_y": "532344.310595",
    "longitude": "-90.07244074387266",
    "latitude": "29.957804483849348",
    "geocoded_column": {
      "latitude": "29.957804483849348",
      "longitude": "-90.07244074387266"
    }
  },
  {
    "service_request": "2026-1259733",
    "request_type": "Trash/Recycling",
    "request_reason": "MIssed Recycling Pick-Up",
    "date_created": "2026-02-20T16:18:06.000",
    "date_modified": "2026-02-20T16:20:46.000",
    "case_close_date": "2026-02-20T10:20:45.000",
    "request_status": "Closed",
    "responsible_agency": "Department of Sanitation",
    "final_address": "2701 Magazine St",
    "address_councildis": "B",
    "status": "Invalid Request",
    "contractor": "IV Waste",
    "contractor_action": "Invalid Request",
    "rowid": "1259733",
    "final_x": "3677260.51387",
    "final_y": "521024.913913",
    "longitude": "-90.0818190602655",
    "latitude": "29.926765701433922",
    "geocoded_column": {
      "latitude": "29.926765701433922",
      "longitude": "-90.0818190602655"
    }
  },