[
  {
    "service_request": "2025-1203569",
    "request_type": "Tax and Revenue",
    "request_reason": "Occupational License Tax",
    "date_created": "2025-06-23T23:01:28.000",
    "date_modified": "2025-06-23T23:01:29.000",
    "request_status": "Pending",
    "responsible_agency": "Bureau of Revenue",
    "final_address": "1723 General De Gaulle Dr",
    "address_councildis": "C",
    "status": "Pending",
    "rowid": "1203569",
    "final_x": "3690417.13795",
    "final_y": "522480.26137",
    "longitude": "-90.0402354322304",
    "latitude": "29.9303657336621",
    "geocoded_column": {
      "latitude": "29.9303657336621",
      "longitude": "-90.0402354322304"
    }
  },
  {
    "service_request": "2025-1203568",
    "request_type": "Safety & Permits",
    "request_reason": "Licenses & Permits",
    "date_created": "2025-06-23T22:58:37.000",
    "date_modified": "2025-06-23T22:58:39.000",
    "request_status": "Pending",
    "responsible_agency": "Safety and Permits",
    "final_address": "1723 General De Gaulle Dr",
    "address_councildis": "C",
    "status": "Pending",
    "rowid": "1203568",
    "final_x": "3690417.13795",
    "final_y": "522480.26137",
    "longitude": "-90.0402354322304",
    "latitude": "29.9303657336621",
    "geocoded_column": {
      "latitude": "29.9303657336621",
      "longitude": "-90.0402354322304"
    }
  },
  {
    "service_request": "2025-1203567",
    "request_type": "Safety & Permits",
    "request_reason": "Licenses & Permits",
    "date_created": "2025-06-23T22:57:04.000",
    "date_modified": "2025-06-23T22:57:06.000",
    "request_status": "Pending",
    "responsible_agency": "Safety and Permits",
    "final_address": "1723 General De Gaulle Dr",
    "address_councildis": "C",
    "status": "Pending",
    "rowid": "1203567",
    "final_x": "3690417.13795",
    "final_y": "522480.26137",
    "longitude": "-90.0402354322304",
    "latitude": "29.9303657336621",
    "geocoded_column": {
      "latitude": "29.9303657336621",
      "longitude": "-90.0402354322304"
    }
  },
  {
    "service_request": "2025-1203566",
    "request_type": "Safety & Permits",
    "request_reason": "Licenses & Permits",
    "date_created": "2025-06-23T22:54:58.000",
    "date_modified": "2025-06-23T22:55:00.000",
    "request_status": "Pending",
    "responsible_agency": "Safety and Permits",
    "final_address": "1723 General De Gaulle Dr",
    "address_councildis": "C",
    "status": "Pending",
    "rowid": "1203566",
    "final_x": "3690417.13795",
    "final_y": "522480.26137",
    "longitude": "-90.0402354322304",
    "latitude": "29.9303657336621",
    "geocoded_column": {
      "latitude": "29.9303657336621",
      "longitude": "-90.0402354322304"
    }
  },
  {
    "service_request": "2025-1203565",
    "request_type": "Trash/Recycling",
    "request_reason": "Repair Recycling Cart",
    "date_created": "2025-06-23T22:29:42.000",
    "date_modified": "2025-06-23T22:29:45.000",
    "request_status": "Pending",
    "responsible_agency": "Department of Sanitation",
    "final_address": "8101 Aberdeen Rd",
    "address_councildis": "E",
    "status": "Pending",
    "rowid": "1203565",
    "final_x": "3702605.22698",
    "final_y": "561323.91267",
    "longitude": "-90.00033328861402",
    "latitude": "30.036787627777265",
    "geocoded_column": {
      "latitude": "30.036787627777265",
      "longitude": "-90.00033328861402"
    }
  },
  {
    "service_request": "2025-1203564",
    "request_type": "Drainage",
    "request_reason": "Catch Basin Clogged",
    "date_created": "2025-06-23T22:23:19.000",
    "date_modified": "2025-06-23T22:23:21.000",
    "request_status": "Pending",
    "responsible_agency": "Sewerage & Water Board",
    "final_address": "810 Hagan St",
    "address_councildis": "A",
    "status": "Pending",
    "rowid": "1203564",
    "final_x": "3674981.66702",
    "final_y": "538828.655625",
    "longitude": "-90.08840215687268",
    "latitude": "29.975788320455532",
    "geocoded_column": {
      "latitude": "29.975788320455532",
      "longitude": "-90.08840215687268"
    }
  },
  {
    "service_request": "2025-1203563",
    "request_type": "Drainage",
    "request_reason": "Catch Basin Clogged",
    "date_created": "2025-06-23T22:22:14.000",
    "date_modified": "2025-06-23T22:22:17.000",
    "request_status": "Pending",
    "responsible_agency": "Sewerage & Water Board",
    "final_address": "3301 Dumaine St",
    "address_councildis": "A",
    "status": "Pending",
    "rowid": "1203563",
    "final_x": "3675124.85422",
    "final_y": "539136.420554",
    "longitude": "-90.08793936615008",
    "latitude": "29.976630290371617",
    "geocoded_column": {
      "latitude": "29.976630290371617",
      "longitude": "-90.08793936615008"
    }
  },
  {
    "service_request": "2025-1203562",
    "request_type": "Trash/Recycling",
    "request_reason": "Replace Trash Cart",
    "date_created": "2025-06-23T22:15:56.000",
    "date_modified": "2025-06-23T22:15:58.000",
    "request_status": "Pending",
    "responsible_agency": "Department of Sanitation",
    "final_address": "810 Hagan St",
    "address_councildis": "A",
    "status": "Assigned to Contractor",
    "contractor": "IV Waste",
    "rowid": "1203562",
    "final_x": "3674981.66702",
    "final_y": "538828.655625",
    "longitude": "-90.08840215687268",
    "latitude": "29.975788320455532",
    "geocoded_column": {
      "latitude": "29.975788320455532",
      "longitude": "-90.08840215687268"
    }
  },
  {
    "service_request": "2025-1203561",
    "request_type": "Streetlights",
    "request_reason": "Streetlight Outage/Malfunction",
    "date_created": "2025-06-23T22:13:28.000",
    "date_modified": "2025-06-23T22:13:30.000",
    "request_status": "Pending",
    "responsible_agency": "Department of Public Works",
    "final_address": "1308 Nashville Ave",
    "address_councildis": "A",
    "status": "Pending",
    "contractor": "Legacy Professional Services",
    "rowid": "1203561",
    "final_x": "3665848.89184",
    "final_y": "520788.315385",
    "longitude": "-90.11785054900655",
    "latitude": "29.926452918523008",
    "geocoded_column": {
      "latitude": "29.926452918523008",
      "longitude": "-90.11785054900655"
    }
  },
  {
    "service_request": "2025-1203560",
    "request_type": "Streetlights",
    "request_reason": "Streetlight Outage/Malfunction",
    "date_created": "2025-06-23T21:42:38.000",
    "date_modified": "2025-06-23T21:42:40.000",
    "request_status": "Pending",
    "responsible_agency": "Department of Public Works",
    "final_address": "932 Harrison Ave",
    "address_councildis": "A",
    "status": "Pending",
    "contractor": "Legacy Professional Services",
    "rowid": "1203560",
    "final_x": "3670225.90574",
    "final_y": "549040.399251",
    "longitude": "-90.10307595606615",
    "latitude": "30.0040083261583",
    "geocoded_column": {
      "latitude": "30.0040083261583",
      "longitude": "-90.10307595606615"
    }
  },
  {
    "service_request": "2025-1203559",
    "request_type": "Streetlights",
    "request_reason": "Streetlight Outage/Malfunction",
    "date_created": "2025-06-23T21:41:40.000",
    "date_modified": "2025-06-23T21:41:42.000",
    "request_status": "Pending",
    "responsible_agency": "Department of Public Works",
    "final_address": "932 Harrison Ave",
    "address_councildis": "A",
    "status": "Pending",
    "contractor": "Legacy Professional Services",
    "rowid": "1203559",
    "final_x": "3670225.90574",
    "final_y": "549040.399251",
    "longitude": "-90.10307595606615",
    "latitude": "30.0040083261583",
    "geocoded_column": {
      "latitude": "30.0040083261583",
      "longitude": "-90.10307595606615"
    }
  },
  {
    "service_request": "2025-1203558",
    "request_type": "Streetlights",
    "request_reason": "Streetlight Outage/Malfunction",
    "date_created": "2025-06-23T21:40:19.000",
    "date_modified": "2025-06-23T21:40:21.000",
    "request_status": "Pending",
    "responsible_agency": "Department of Public Works",
    "final_address": "908 Harrison Ave",
    "address_councildis": "A",
    "status": "Pending",
    "contractor": "Legacy Professional Services",
    "rowid": "1203558",
    "final_x": "3670106.13639",
    "final_y": "548991.765843",
    "longitude": "-90.10345597860912",
    "latitude": "30.003878136580354",
    "geocoded_column": {
      "latitude": "30.003878136580354",
      "longitude": "-90.10345597860912"
    }
  },
  {
    "service_request": "2025-1203557",
    "request_type": "Streetlights",
    "request_reason": "Streetlight Outage/Malfunction",
    "date_created": "2025-06-23T21:38:47.000",
    "date_modified": "2025-06-23T21:38:55.000",
    "request_status": "Pending",
    "responsible_agency": "Department of Public Works",
    "final_address": "888 Harrison Ave",
    "address_councildis": "A",
    "status": "Pending",
    "contractor": "Legacy Professional Services",
    "rowid": "1203557",
    "final_x": "3669932.72058",
    "final_y": "549019.836627",
    "longitude": "-90.10400287899766",
    "latitude": "30.003960438330868",
    "geocoded_column": {
      "latitude": "30.003960438330868",
      "longitude": "-90.10400287899766"
    }
  },
  {
    "service_request": "2025-1203556",
    "request_type": "Streetlights",
    "request_reason": "Streetlight Outage/Malfunction",
    "date_created": "2025-06-23T21:37:50.000",
    "date_modified": "2025-06-23T21:37:54.000",
    "request_status": "Pending",
    "responsible_agency": "Department of Public Works",
    "final_address": "888 Harrison Ave",
    "address_councildis": "A",
    "status": "Pending",
    "contractor": "Legacy Professional Services",
    "rowid": "1203556",
    "final_x": "3669932.72058",
    "final_y": "549019.836627",
    "longitude": "-90.10400287899766",
    "latitude": "30.003960438330868",
    "geocoded_column": {
      "latitude": "30.003960438330868",
      "longitude": "-90.10400287899766"
    }
  },
  {
    "service_request": "2025-1203555",
    "request_type": "Streetlights",
    "request_reason": "Streetlight Outage/Malfunction",
    "date_created": "2025-06-23T21:35:50.000",
    "date_modified": "2025-06-23T21:35:51.000",
    "request_status": "Pending",
    "responsible_agency": "Department of Public Works",
    "final_address": "851 Harrison Ave",
    "address_councildis": "A",
    "status": "Pending",
    "contractor": "Legacy Professional Services",
    "rowid": "1203555",
    "final_x": "3669786.86702",
    "final_y": "549319.015827",
    "longitude": "-90.10445352052868",
    "latitude": "30.004787378537902",
    "geocoded_column": {
      "latitude": "30.004787378537902",
      "longitude": "-90.10445352052868"
    }
  },
  {
    "service_request": "2025-1203554",
    "request_type": "Streetlights",
    "request_reason": "Streetlight Outage/Malfunction",
    "date_created": "2025-06-23T21:34:51.000",
    "date_modified": "2025-06-23T21:34:52.000",
    "request_status": "Pending",
    "responsible_agency": "Department of Public Works",
    "final_address": "851 Harrison Ave",
    "address_councildis": "A",
    "status": "Pending",
    "contractor": "Legacy Professional Services",
    "rowid": "1203554",
    "final_x": "3669786.86702",
    "final_y": "549319.015827",
    "longitude": "-90.10445352052868",
    "latitude": "30.004787378537902",
    "geocoded_column": {
      "latitude": "30.004787378537902",
      "longitude": "-90.10445352052868"
    }
  },
  {
    "service_request": "2025-1203553",
    "request_type": "Property Maintenance",
    "request_reason": "Property Maintenance",
    "date_created": "2025-06-23T21:34:50.000",
    "date_modified": "2025-06-23T21:34:51.000",
    "request_status": "Pending",
    "responsible_agency": "Department of Code Enforcement",
    "final_address": "2002 Mazant St",
    "address_councildis": "D",
    "status": "Pending",
    "rowid": "1203553",
    "final_x": "3692920.10992",
    "final_y": "538662.824457",
    "longitude": "-90.03175367963084",
    "latitude": "29.974784249722322",
    "geocoded_column": {
      "latitude": "29.974784249722322",
      "longitude": "-90.03175367963084"
    }
  },
  {
    "service_request": "2025-1203552",
    "request_type": "Streetlights",
    "request_reason": "Streetlight Outage/Malfunction",
    "date_created": "2025-06-23T21:32:37.000",
    "date_modified": "2025-06-23T21:32:38.000",
    "request_status": "Pending",
    "responsible_agency": "Department of Public Works",
    "final_address": "826 Harrison Ave Ste A",
    "address_councildis": "A",
    "status": "Pending",
    "contractor": "Legacy Professional Services",
    "rowid": "1203552",
    "final_x": "3669619.3778",
    "final_y": "549094.351827",
    "longitude": "-90.10499026267702",
    "latitude": "30.00417456900778",
    "geocoded_column": {
      "latitude": "30.00417456900778",
      "longitude": "-90.10499026267702"
    }
  },
  {
    "service_request": "2025-1203551",
    "request_type": "Streetlights",
    "request_reason": "Streetlight Outage/Malfunction",
    "date_created": "2025-06-23T21:31:28.000",
    "date_modified": "2025-06-23T21:31:29.000",
    "request_status": "Pending",
    "responsible_agency": "Department of Public Works",
    "final_address": "800 Harrison Ave",
    "address_councildis": "A",
    "status": "Pending",
    "contractor": "Legacy Professional Services",
    "rowid": "1203551",
    "final_x": "3669440.34254",
    "final_y": "549079.068371",
    "longitude": "-90.10555638646417",
    "latitude": "30.004137820908213",
    "geocoded_column": {
      "latitude": "30.004137820908213",
      "longitude": "-90.10555638646417"
    }
  },
  {
    "service_request": "2025-1203550",
    "request_type": "Streetlights",
    "request_reason": "Streetlight Outage/Malfunction",
    "date_created": "2025-06-23T21:29:40.000",
    "date_modified": "2025-06-23T21:29:41.000",
    "request_status": "Pending",
    "responsible_agency": "Department of Public Works",
    "final_address": "778 Harrison Ave",
    "address_councildis": "A",
    "status": "Pending",
    "contractor": "Legacy Professional Services",
    "rowid": "1203550",
    "final_x": "3669310.58234",
    "final_y": "549131.517267",
    "longitude": "-90.10596454862177",
    "latitude": "30.004285859527208",
    "geocoded_column": {
      "latitude": "30.004285859527208",
      "longitude": "-90.10596454862177"
    }
  },
  {
    "service_request": "2025-1203549",
    "request_type": "Streetlights",
    "request_reason": "Streetlight Outage/Malfunction",
    "date_created": "2025-06-23T21:27:55.000",
    "date_modified": "2025-06-23T21:27:56.000",
    "request_status": "Pending",
    "responsible_agency": "Department of Public Works",
    "final_address": "775 Harrison Ave",
    "address_councildis": "A",
    "status": "Pending",
    "contractor": "Legacy Professional Services",
    "rowid": "1203549",
    "final_x": "3669142.44615",
    "final_y": "549354.159059",
    "longitude": "-90.10648819254023",
    "latitude": "30.004902997837632",
    "geocoded_column": {
      "latitude": "30.004902997837632",
      "longitude": "-90.10648819254023"
    }
  },
  {
    "service_request": "2025-1203548",
    "request_type": "Streetlights",
    "request_reason": "Streetlight Outage/Malfunction",
    "date_created": "2025-06-23T21:25:35.000",
    "date_modified": "2025-06-23T21:25:36.000",
    "request_status": "Pending",
    "responsible_agency": "Department of Public Works",
    "final_address": "6301 Canal Blvd",
    "address_councildis": "A",
    "status": "Pending",
    "contractor": "Legacy Professional Services",
    "rowid": "1203548",
    "final_x": "3668805.38932",
    "final_y": "549369.744083",
    "longitude": "-90.10755250041724",
    "latitude": "30.004955769971186",
    "geocoded_column": {
      "latitude": "30.004955769971186",
      "longitude": "-90.10755250041724"
    }
  },
  {
    "service_request": "2025-1203547",
    "request_type": "Streetlights",
    "request_reason": "Streetlight Outage/Malfunction",
    "date_created": "2025-06-23T21:23:57.000",
    "date_modified": "2025-06-23T21:23:59.000",
    "request_status": "Pending",
    "responsible_agency": "Department of Public Works",
    "final_address": "6301 Canal Blvd",
    "address_councildis": "A",
    "status": "Pending",
    "contractor": "Legacy Professional Services",
    "rowid": "1203547",
    "final_x": "3668805.38932",
    "final_y": "549369.744083",
    "longitude": "-90.10755250041724",
    "latitude": "30.004955769971186",
    "geocoded_column": {
      "latitude": "30.004955769971186",
      "longitude": "-90.10755250041724"
    }
  },
  {
    "service_request": "2025-1203546",
    "request_type": "Trash/Recycling",
    "request_reason": "Illegal Dumping",
    "date_created": "2025-06-23T21:19:57.000",
    "date_modified": "2025-06-23T21:20:00.000",
    "request_status": "Pending",
    "responsible_agency": "Department of Sanitation",
    "final_address": "5501 Bentley Dr",
    "address_councildis": "E",
    "status": "Pending",
    "rowid": "1203546",
    "final_x": "3704084.09342",
    "final_y": "556411.936346",
    "longitude": "-89.99584098209388",
    "latitude": "30.023234217732483",
    "geocoded_column": {
      "latitude": "30.023234217732483",
      "longitude": "-89.99584098209388"
    }
  },
  {
    "service_request": "2025-1203545",
    "request_type": "Trash/Recycling",
    "request_reason": "Request a Large Item Pick Up",
    "date_created": "2025-06-23T21:14:38.000",
    "date_modified": "2025-06-23T21:14:39.000",
    "request_status": "Pending",
    "responsible_agency": "Department of Sanitation",
    "final_address": "5213 Wentworth Dr",
    "address_councildis": "E",
    "status": "Assigned to Contractor",
    "contractor": "Waste Pro",
    "rowid": "1203545",
    "final_x": "3704656.58442",
    "final_y": "557039.441242",
    "longitude": "-89.9940088723753",
    "latitude": "30.024941226477935",
    "geocoded_column": {
      "latitude": "30.024941226477935",
      "longitude": "-89.9940088723753"
    }
  },
  {
    "service_request": "2025-1203544",
    "request_type": "Streetlights",
    "request_reason": "Streetlight Outage/Malfunction",
    "date_created": "2025-06-23T21:09:59.000",
    "date_modified": "2025-06-23T21:10:01.000",
    "request_status": "Pending",
    "responsible_agency": "Department of Public Works",
    "final_address": "Frontage Place & Rosemary Place",
    "address_councildis": "A",
    "status": "Pending",
    "contractor": "Legacy Professional Services",
    "rowid": "1203544",
    "final_x": "3667307.61466",
    "final_y": "545774.721744",
    "longitude": "-90.11240531231748",
    "latitude": "29.99511467164278",
    "geocoded_column": {
      "latitude": "29.99511467164278",
      "longitude": "-90.11240531231748"
    }
  },
  {
    "service_request": "2025-1203543",
    "request_type": "Trash/Recycling",
    "request_reason": "Missed Trash Pick-Up",
    "date_created": "2025-06-23T21:05:06.000",
    "date_modified": "2025-06-23T21:05:08.000",
    "request_status": "Pending",
    "responsible_agency": "Department of Sanitation",
    "final_address": "2021 St Charles Ave",
    "address_councildis": "B",
    "status": "Assigned to Contractor",
    "contractor": "IV Waste",
    "rowid": "1203543",
    "final_x": "3678008.43637",
    "final_y": "524094.308796",
    "longitude": "-90.07935203224021",
    "latitude": "29.93518305034545",
    "geocoded_column": {
      "latitude": "29.93518305034545",
      "longitude": "-90.07935203224021"
    }
  },
  {
    "service_request": "2025-1203542",
    "request_type": "Roads and Streets",
    "request_reason": "Push-up/Pavement Expansion",
    "date_created": "2025-06-23T21:03:50.000",
    "date_modified": "2025-06-23T21:03:52.000",
    "request_status": "Pending",
    "responsible_agency": "Department of Public Works",
    "final_address": "2800 BLK Napoleon Ave",
    "address_councildis": "B",
    "status": "Pending",
    "rowid": "1203542",
    "final_x": "3670372.25371",
    "final_y": "525254.094621",
    "longitude": "-90.10342020327907",
    "latitude": "29.938599664271788",
    "geocoded_column": {
      "latitude": "29.938599664271788",
      "longitude": "-90.10342020327907"
    }
  },
  {
    "service_request": "2025-1203541",
    "request_type": "Trash/Recycling",
    "request_reason": "Request a Large Item Pick Up",
    "date_created": "2025-06-23T20:54:27.000",
    "date_modified": "2025-06-23T20:54:30.000",
    "request_status": "Pending",
    "responsible_agency": "Department of Sanitation",
    "final_address": "2517 N Rampart St",
    "address_councildis": "C",
    "status": "Assigned to Contractor",
    "contractor": "IV Waste",
    "rowid": "1203541",
    "final_x": "3686664.951",
    "final_y": "536103.264455",
    "longitude": "-90.05159941693151",
    "latitude": "29.967940244197255",
    "geocoded_column": {
      "latitude": "29.967940244197255",
      "longitude": "-90.05159941693151"
    }
  },
  {
    "service_request": "2025-1203540",
    "request_type": "Trash/Recycling",
    "request_reason": "Replace Recycling Cart",
    "date_created": "2025-06-23T20:47:36.000",
    "date_modified": "2025-06-23T20:47:37.000",
    "request_status": "Pending",
    "responsible_agency": "Department of Sanitation",
    "final_address": "315 Bermuda St",
    "address_councildis": "C",
    "status": "Pending",
    "rowid": "1203540",
    "final_x": "3686336.46281",
    "final_y": "530659.154498",
    "longitude": "-90.05282892371683",
    "latitude": "29.952980919859105",
    "geocoded_column": {
      "latitude": "29.952980919859105",
      "longitude": "-90.05282892371683"
    }
  },
  {
    "service_request": "2025-1203539",
    "request_type": "Trash/Recycling",
    "request_reason": "Request a Large Item Pick Up",
    "date_created": "2025-06-23T20:32:47.000",
    "date_modified": "2025-06-23T20:32:49.000",
    "request_status": "Pending",
    "responsible_agency": "Department of Sanitation",
    "final_address": "1220 Joliet St",
    "address_councildis": "A",
    "status": "Assigned to Contractor",
    "contractor": "IV Waste",
    "rowid": "1203539",
    "final_x": "3661002.43578",
    "final_y": "529493.895553",
    "longitude": "-90.13286162784152",
    "latitude": "29.95053098453264",
    "geocoded_column": {
      "latitude": "29.95053098453264",
      "longitude": "-90.13286162784152"
    }
  },
  {
    "service_request": "2025-1203538",
    "request_type": "Roads and Streets",
    "request_reason": "Ditch and Culvert Maintenance",
    "date_created": "2025-06-23T20:28:49.000",
    "date_modified": "2025-06-23T20:28:51.000",
    "request_status": "Pending",
    "responsible_agency": "Department of Public Works",
    "final_address": "3737 Clara Street",
    "address_councildis": "B",
    "status": "Pending",
    "rowid": "1203538",
    "final_x": "3671820.8939",
    "final_y": "525308.608253",
    "longitude": "-90.09884482921171",
    "latitude": "29.938706724100378",
    "geocoded_column": {
      "latitude": "29.938706724100378",
      "longitude": "-90.09884482921171"
    }
  },
  {
    "service_request": "2025-1203537",
    "request_type": "Abandoned Vehicles",
    "request_reason": "Abandoned/Junk Vehicles",
    "date_created": "2025-06-23T20:24:39.000",
    "date_modified": "2025-06-23T20:24:41.000",
    "request_status": "Pending",
    "responsible_agency": "Department of Public Works",
    "final_address": "1800 Canal St",
    "address_councildis": "B",
    "status": "Pending",
    "rowid": "1203537",
    "final_x": "3677999.75579",
    "final_y": "532962.26458",
    "longitude": "-90.07907298562958",
    "latitude": "29.959567236027155",
    "geocoded_column": {
      "latitude": "29.959567236027155",
      "longitude": "-90.07907298562958"
    }
  },
  {
    "service_request": "2025-1203536",
    "request_type": "Trash/Recycling",
    "request_reason": "Return Recycling Cart",
    "date_created": "2025-06-23T20:16:35.000",
    "date_modified": "2025-06-23T20:16:37.000",
    "request_status": "Pending",
    "responsible_agency": "Department of Sanitation",
    "final_address": "7911 Lehigh St",
    "address_councildis": "E",
    "status": "Pending",
    "rowid": "1203536",
    "final_x": "3709970.17745",
    "final_y": "566691.618147",
    "longitude": "-89.97685788050138",
    "latitude": "30.051309023175314",
    "geocoded_column": {
      "latitude": "30.051309023175314",
      "longitude": "-89.97685788050138"
    }
  },
  {
    "service_request": "2025-1203535",
    "request_type": "Trash/Recycling",
    "request_reason": "Request a Large Item Pick Up",
    "date_created": "2025-06-23T20:15:34.000",
    "date_modified": "2025-06-23T20:15:35.000",
    "request_status": "Pending",
    "responsible_agency": "Department of Sanitation",
    "final_address": "1032 Frenchmen St",
    "address_councildis": "C",
    "status": "Assigned to Contractor",
    "contractor": "IV Waste",
    "rowid": "1203535",
    "final_x": "3684567.53551",
    "final_y": "536174.899591",
    "longitude": "-90.05822059744753",
    "latitude": "29.96820156072392",
    "geocoded_column": {
      "latitude": "29.96820156072392",
      "longitude": "-90.05822059744753"
    }
  },
  {
    "service_request": "2025-1203534",
    "request_type": "Property Maintenance",
    "request_reason": "Property Maintenance",
    "date_created": "2025-06-23T20:15:21.000",
    "date_modified": "2025-06-23T20:15:23.000",
    "request_status": "Pending",
    "responsible_agency": "Department of Code Enforcement",
    "final_address": "1616 S Gayoso St",
    "address_councildis": "B",
    "status": "Pending",
    "rowid": "1203534",
    "final_x": "3670622.59943",
    "final_y": "530437.881922",
    "longitude": "-90.10245402977579",
    "latitude": "29.952845996205077",
    "geocoded_column": {
      "latitude": "29.952845996205077",
      "longitude": "-90.10245402977579"
    }
  },
  {
    "service_request": "2025-1203533",
    "request_type": "Trash/Recycling",
    "request_reason": "Order Recycling Cart",
    "date_created": "2025-06-23T20:13:30.000",
    "date_modified": "2025-06-23T20:13:31.000",
    "request_status": "Pending",
    "responsible_agency": "Department of Sanitation",
    "final_address": "8817 Birch St",
    "address_councildis": "A",
    "status": "Pending",
    "rowid": "1203533",
    "final_x": "3660987.9849",
    "final_y": "531217.879106",
    "longitude": "-90.13285022604379",
    "latitude": "29.955271801560283",
    "geocoded_column": {
      "latitude": "29.955271801560283",
      "longitude": "-90.13285022604379"
    }
  },
  {
    "service_request": "2025-1203532",
    "request_type": "Trash/Recycling",
    "request_reason": "Order Second Trash Cart",
    "date_created": "2025-06-23T20:08:20.000",
    "date_modified": "2025-06-23T20:08:21.000",
    "request_status": "Pending",
    "responsible_agency": "Department of Sanitation",
    "final_address": "4601 S Galvez St",
    "address_councildis": "B",
    "status": "Assigned to Contractor",
    "contractor": "IV Waste",
    "rowid": "1203532",
    "final_x": "3669385.34746",
    "final_y": "527509.803391",
    "longitude": "-90.10645972796786",
    "latitude": "29.94483122361329",
    "geocoded_column": {
      "latitude": "29.94483122361329",
      "longitude": "-90.10645972796786"
    }
  },
  {
    "service_request": "2025-1203531",
    "request_type": "General Services",
    "request_reason": "General Service Request",
    "date_created": "2025-06-23T19:57:41.000",
    "date_modified": "2025-06-23T19:57:43.000",
    "request_status": "Pending",
    "responsible_agency": "Orleans Parish Communication District",
    "final_address": "New Orleans,LA",
    "status": "Pending",
    "rowid": "1203531",
    "longitude": "0.0",
    "latitude": "0.0",
    "geocoded_column": {
      "latitude": "0.0",
      "longitude": "0.0"
    }
  },
  {
    "service_request": "2025-1203530",
    "request_type": "Trash/Recycling",
    "request_reason": "Return Trash Cart",
    "date_created": "2025-06-23T19:55:50.000",
    "date_modified": "2025-06-23T19:55:52.000",
    "request_status": "Pending",
    "responsible_agency": "Department of Sanitation",
    "final_address": "533 Philip St",
    "address_councildis": "B",
    "status": "Assigned to Contractor",
    "contractor": "IV Waste",
    "rowid": "1203530",
    "final_x": "3679773.70146",
    "final_y": "520290.95852",
    "longitude": "-90.07391106976867",
    "latitude": "29.924671847040774",
    "geocoded_column": {
      "latitude": "29.924671847040774",
      "longitude": "-90.07391106976867"
    }
  },
  {
    "service_request": "2025-1203529",
    "request_type": "Healthy Homes",
    "request_reason": "Healthy Homes",
    "date_created": "2025-06-23T19:48:26.000",
    "date_modified": "2025-06-23T19:48:27.000",
    "request_status": "Pending",
    "responsible_agency": "Department of Code Enforcement",
    "final_address": "0 BLK New Orleans-Hammond Hwy",
    "address_councildis": "A",
    "status": "Pending",
    "rowid": "1203529",
    "final_x": "3666653.9803",
    "final_y": "554765.136976",
    "longitude": "-90.1141679099044",
    "latitude": "30.019854319421437",
    "geocoded_column": {
      "latitude": "30.019854319421437",
      "longitude": "-90.1141679099044"
    }
  },
  {
    "service_request": "2025-1203528",
    "request_type": "Property Maintenance",
    "request_reason": "Property Maintenance",
    "date_created": "2025-06-23T19:48:25.000",
    "date_modified": "2025-06-23T19:48:26.000",
    "request_status": "Pending",
    "responsible_agency": "Department of Code Enforcement",
    "final_address": "5707 Willow St",
    "address_councildis": "A",
    "status": "Pending",
    "rowid": "1203528",
    "final_x": "3667503.34887",
    "final_y": "525488.772221",
    "longitude": "-90.11246977565567",
    "latitude": "29.93932931393179",
    "geocoded_column": {
      "latitude": "29.93932931393179",
      "longitude": "-90.11246977565567"
    }
  },
  {
    "service_request": "2025-1203527",
    "request_type": "Streetlights",
    "request_reason": "Streetlight Outage/Malfunction",
    "date_created": "2025-06-23T19:43:40.000",
    "date_modified": "2025-06-23T19:43:42.000",
    "request_status": "Pending",
    "responsible_agency": "Department of Public Works",
    "final_address": "10311 Castlewood Dr",
    "address_councildis": "E",
    "status": "Pending",
    "contractor": "Legacy Professional Services",
    "rowid": "1203527",
    "final_x": "3709327.80389",
    "final_y": "564764.228066",
    "longitude": "-89.97896019991921",
    "latitude": "30.0460303704159",
    "geocoded_column": {
      "latitude": "30.0460303704159",
      "longitude": "-89.97896019991921"
    }
  },
  {
    "service_request": "2025-1203526",
    "request_type": "Abandoned Vehicles",
    "request_reason": "Abandoned/Junk Vehicles",
    "date_created": "2025-06-23T19:35:02.000",
    "date_modified": "2025-06-23T19:35:03.000",
    "request_status": "Pending",
    "responsible_agency": "Department of Public Works",
    "final_address": "1800 Canal St",
    "address_councildis": "B",
    "status": "Pending",
    "rowid": "1203526",
    "final_x": "3677999.75579",
    "final_y": "532962.26458",
    "longitude": "-90.07907298562958",
    "latitude": "29.959567236027155",
    "geocoded_column": {
      "latitude": "29.959567236027155",
      "longitude": "-90.07907298562958"
    }
  },
  {
    "service_request": "2025-1203525",
    "request_type": "Abandoned Vehicles",
    "request_reason": "Abandoned/Junk Vehicles",
    "date_created": "2025-06-23T19:33:22.000",
    "date_modified": "2025-06-23T19:33:24.000",
    "request_status": "Pending",
    "responsible_agency": "Department of Public Works",
    "final_address": "1800 Canal St",
    "address_councildis": "B",
    "status": "Pending",
    "rowid": "1203525",
    "final_x": "3677999.75579",
    "final_y": "532962.26458",
    "longitude": "-90.07907298562958",
    "latitude": "29.959567236027155",
    "geocoded_column": {
      "latitude": "29.959567236027155",
      "longitude": "-90.07907298562958"
    }
  },
  {
    "service_request": "2025-1203524",
    "request_type": "Drainage",
    "request_reason": "Street Flooding",
    "date_created": "2025-06-23T19:25:52.000",
    "date_modified": "2025-06-23T19:25:54.000",
    "request_status": "Pending",
    "responsible_agency": "Sewerage & Water Board",
    "final_address": "835 Olga St",
    "address_councildis": "A",
    "status": "Pending",
    "rowid": "1203524",
    "final_x": "3673300.89588",
    "final_y": "540089.353163",
    "longitude": "-90.09366743898387",
    "latitude": "29.97930491387052",
    "geocoded_column": {
      "latitude": "29.97930491387052",
      "longitude": "-90.09366743898387"
    }
  },
  {
    "service_request": "2025-1203523",
    "request_type": "Drainage",
    "request_reason": "Street Flooding",
    "date_created": "2025-06-23T19:22:55.000",
    "date_modified": "2025-06-23T19:22:57.000",
    "request_status": "Pending",
    "responsible_agency": "Sewerage & Water Board",
    "final_address": "835 Olga St",
    "address_councildis": "A",
    "status": "Pending",
    "rowid": "1203523",
    "final_x": "3673300.89588",
    "final_y": "540089.353163",
    "longitude": "-90.09366743898387",
    "latitude": "29.97930491387052",
    "geocoded_column": {
      "latitude": "29.97930491387052",
      "longitude": "-90.09366743898387"
    }
  },
  {
    "service_request": "2025-1203522",
    "request_type": "Trash/Recycling",
    "request_reason": "Damaged Caused By Contractor",
    "date_created": "2025-06-23T19:07:31.000",
    "date_modified": "2025-06-23T19:07:32.000",
    "request_status": "Pending",
    "responsible_agency": "Department of Sanitation",
    "final_address": "0 BLK Ani St",
    "address_councildis": "D",
    "status": "Assigned to Contractor",
    "contractor": "IV Waste",
    "rowid": "1203522",
    "final_x": "3672561.96849",
    "final_y": "554474.005997",
    "longitude": "-90.0955104718156",
    "latitude": "30.01887964634331",
    "geocoded_column": {
      "latitude": "30.01887964634331",
      "longitude": "-90.0955104718156"
    }
  },
  {
    "service_request": "2025-1203521",
    "request_type": "Trash/Recycling",
    "request_reason": "Request a Large Item Pick Up",
    "date_created": "2025-06-23T19:03:14.000",
    "date_modified": "2025-06-23T19:03:16.000",
    "request_status": "Pending",
    "responsible_agency": "Department of Sanitation",
    "final_address": "1909 Mazant St",
    "address_councildis": "D",
    "status": "Assigned to Contractor",
    "contractor": "IV Waste",
    "rowid": "1203521",
    "final_x": "3692915.02192",
    "final_y": "538305.073097",
    "longitude": "-90.03178258280438",
    "latitude": "29.973800719803027",
    "geocoded_column": {
      "latitude": "29.973800719803027",
      "longitude": "-90.03178258280438"
    }
  },
  {
    "service_request": "2025-1203520",
    "request_type": "Trash/Recycling",
    "request_reason": "Missed Trash Pick-Up",
    "date_created": "2025-06-23T18:53:46.000",
    "date_modified": "2025-06-23T18:53:48.000",
    "request_status": "Pending",
    "responsible_agency": "Department of Sanitation",
    "final_address": "3440 Caesar Dr",
    "address_councildis": "C",
    "status": "Assigned to Contractor",
    "contractor": "Richards Disposal",
    "rowid": "1203520",
    "final_x": "3696843.87363",
    "final_y": "524172.087804",
    "longitude": "-90.01988611422229",
    "latitude": "29.934816686413196",
    "geocoded_column": {
      "latitude": "29.934816686413196",
      "longitude": "-90.01988611422229"
    }
  },
  {
    "service_request": "2025-1203519",
    "request_type": "Trash/Recycling",
    "request_reason": "Request a Large Item Pick Up",
    "date_created": "2025-06-23T18:47:23.000",
    "date_modified": "2025-06-23T18:47:25.000",
    "request_status": "Pending",
    "responsible_agency": "Department of Sanitation",
    "final_address": "7560 Pebble Dr",
    "address_councildis": "E",
    "status": "Assigned to Contractor",
    "contractor": "Waste Pro",
    "rowid": "1203519",
    "final_x": "3715306.16658",
    "final_y": "568589.826597",
    "longitude": "-89.95992083726348",
    "latitude": "30.056353547980383",
    "geocoded_column": {
      "latitude": "30.056353547980383",
      "longitude": "-89.95992083726348"
    }
  },
  {
    "service_request": "2025-1203518",
    "request_type": "Roads and Streets",
    "request_reason": "Street Subsidence (Sinking)",
    "date_created": "2025-06-23T18:43:18.000",
    "date_modified": "2025-06-23T18:43:21.000",
    "request_status": "Pending",
    "responsible_agency": "Department of Public Works",
    "final_address": "5135 Canal Blvd",
    "address_councildis": "A",
    "status": "Pending",
    "rowid": "1203518",
    "final_x": "3668064.12852",
    "final_y": "541617.541708",
    "longitude": "-90.11015574166689",
    "latitude": "29.98366165987784",
    "geocoded_column": {
      "latitude": "29.98366165987784",
      "longitude": "-90.11015574166689"
    }
  },
  {
    "service_request": "2025-1203517",
    "request_type": "Trash/Recycling",
    "request_reason": "Request a Large Item Pick Up",
    "date_created": "2025-06-23T18:33:26.000",
    "date_modified": "2025-06-23T18:33:28.000",
    "request_status": "Pending",
    "responsible_agency": "Department of Sanitation",
    "final_address": "44 Marywood Ct",
    "address_councildis": "E",
    "status": "Assigned to Contractor",
    "contractor": "Waste Pro",
    "rowid": "1203517",
    "final_x": "3712233.94373",
    "final_y": "567025.747748",
    "longitude": "-89.96969035871096",
    "latitude": "30.052153862366005",
    "geocoded_column": {
      "latitude": "30.052153862366005",
      "longitude": "-89.96969035871096"
    }
  },
  {
    "service_request": "2025-1203516",
    "request_type": "Trash/Recycling",
    "request_reason": "Order Recycling Cart",
    "date_created": "2025-06-23T18:25:54.000",
    "date_modified": "2025-06-23T18:25:56.000",
    "request_status": "Pending",
    "responsible_agency": "Department of Sanitation",
    "final_address": "1233 Fern St",
    "address_councildis": "A",
    "status": "Pending",
    "rowid": "1203516",
    "final_x": "3662738.96365",
    "final_y": "528012.627967",
    "longitude": "-90.12742776672536",
    "latitude": "29.94640783468398",
    "geocoded_column": {
      "latitude": "29.94640783468398",
      "longitude": "-90.12742776672536"
    }
  },
  {
    "service_request": "2025-1203515",
    "request_type": "Trash/Recycling",
    "request_reason": "Request a Large Item Pick Up",
    "date_created": "2025-06-23T18:24:47.000",
    "date_modified": "2025-06-23T18:24:48.000",
    "request_status": "Pending",
    "responsible_agency": "Department of Sanitation",
    "final_address": "7833 Read Blvd",
    "address_councildis": "E",
    "status": "Assigned to Contractor",
    "contractor": "Waste Pro",
    "rowid": "1203515",
    "final_x": "3708332.69361",
    "final_y": "565110.08413",
    "longitude": "-89.98209233408002",
    "latitude": "30.04701363975529",
    "geocoded_column": {
      "latitude": "30.04701363975529",
      "longitude": "-89.98209233408002"
    }
  },
  {
    "service_request": "2025-1203514",
    "request_type": "Road Striping",
    "request_reason": "Lane Striping or other Pavement Markings",
    "date_created": "2025-06-23T18:21:28.000",
    "date_modified": "2025-06-23T18:21:30.000",
    "request_status": "Pending",
    "responsible_agency": "Department of Public Works",
    "final_address": "5702 Crowder Blvd",
    "address_councildis": "E",
    "status": "Pending",
    "rowid": "1203514",
    "final_x": "3704989.80811",
    "final_y": "558099.921883",
    "longitude": "-89.99291674808748",
    "latitude": "30.027846422348446",
    "geocoded_column": {
      "latitude": "30.027846422348446",
      "longitude": "-89.99291674808748"
    }
  },
  {
    "service_request": "2025-1203513",
    "request_type": "New Orleans Recreation Development Commission (NORDC)",
    "request_reason": "Facilities and Parks Maintenance/Clean Up",
    "date_created": "2025-06-23T18:19:58.000",
    "date_modified": "2025-06-23T18:20:01.000",
    "request_status": "Pending",
    "responsible_agency": "New Orleans Recreation Development Commission",
    "final_address": "604 Verret St",
    "address_councildis": "C",
    "status": "Pending",
    "rowid": "1203513",
    "final_x": "3687082.71497",
    "final_y": "529426.237377",
    "longitude": "-90.05051617702954",
    "latitude": "29.94956786761005",
    "geocoded_column": {
      "latitude": "29.94956786761005",
      "longitude": "-90.05051617702954"
    }
  },
  {
    "service_request": "2025-1203512",
    "request_type": "Roads and Streets",
    "request_reason": "Pothole",
    "date_created": "2025-06-23T18:16:28.000",
    "date_modified": "2025-06-23T18:16:30.000",
    "request_status": "Pending",
    "responsible_agency": "Department of Public Works",
    "final_address": "BURGUNDY ST & PORT ST",
    "address_councildis": "C",
    "status": "Pending",
    "rowid": "1203512",
    "final_x": "3687219.7",
    "final_y": "535604.78",
    "longitude": "-90.04986513829044",
    "latitude": "29.966552511254623",
    "geocoded_column": {
      "latitude": "29.966552511254623",
      "longitude": "-90.04986513829044"
    }
  },
  {
    "service_request": "2025-1203511",
    "request_type": "Graffiti Removal",
    "request_reason": "Graffiti Removal",
    "date_created": "2025-06-23T18:14:15.000",
    "date_modified": "2025-06-23T18:14:17.000",
    "request_status": "Pending",
    "responsible_agency": "Department of Code Enforcement",
    "final_address": "MAGAZINE ST & SONIAT ST",
    "address_councildis": "B",
    "status": "Pending",
    "rowid": "1203511",
    "final_x": "3668342.9",
    "final_y": "518606.08",
    "longitude": "-90.11005117784669",
    "latitude": "29.920379480878413",
    "geocoded_column": {
      "latitude": "29.920379480878413",
      "longitude": "-90.11005117784669"
    }
  },
  {
    "service_request": "2025-1203510",
    "request_type": "Street and Traffic Signs",
    "request_reason": "Stop Sign Missing or Damaged",
    "date_created": "2025-06-23T18:11:10.000",
    "date_modified": "2025-06-23T18:11:12.000",
    "request_status": "Pending",
    "responsible_agency": "Department of Public Works",
    "final_address": "CHESTNUT ST & VALMONT ST",
    "address_councildis": "B",
    "status": "Pending",
    "rowid": "1203510",
    "final_x": "3667592.4",
    "final_y": "519381.18",
    "longitude": "-90.11239409137296",
    "latitude": "29.922532771359286",
    "geocoded_column": {
      "latitude": "29.922532771359286",
      "longitude": "-90.11239409137296"
    }
  },
  {
    "service_request": "2025-1203509",
    "request_type": "Street and Traffic Signs",
    "request_reason": "Stop Sign Missing or Damaged",
    "date_created": "2025-06-23T18:08:40.000",
    "date_modified": "2025-06-23T18:08:42.000",
    "request_status": "Pending",
    "responsible_agency": "Department of Public Works",
    "final_address": "PRYTANIA ST & LEONTINE ST",
    "address_councildis": "B",
    "status": "Pending",
    "rowid": "1203509",
    "final_x": "3667378.1",
    "final_y": "520251.78",
    "longitude": "-90.11304128556486",
    "latitude": "29.924932923503384",
    "geocoded_column": {
      "latitude": "29.924932923503384",
      "longitude": "-90.11304128556486"
    }
  },
  {
    "service_request": "2025-1203508",
    "request_type": "Trash/Recycling",
    "request_reason": "Request a Large Item Pick Up",
    "date_created": "2025-06-23T18:08:07.000",
    "date_modified": "2025-06-23T18:08:09.000",
    "request_status": "Pending",
    "responsible_agency": "Department of Sanitation",
    "final_address": "14239 Explorers Ave",
    "address_councildis": "E",
    "status": "Assigned to Contractor",
    "contractor": "Waste Pro",
    "rowid": "1203508",
    "final_x": "3726786.9351",
    "final_y": "571245.890856",
    "longitude": "-89.92352929019467",
    "latitude": "30.063273229087137",
    "geocoded_column": {
      "latitude": "30.063273229087137",
      "longitude": "-89.92352929019467"
    }
  },
  {
    "service_request": "2025-1203507",
    "request_type": "Trash/Recycling",
    "request_reason": "Replace Recycling Cart",
    "date_created": "2025-06-23T18:07:10.000",
    "date_modified": "2025-06-23T18:07:11.000",
    "request_status": "Pending",
    "responsible_agency": "Department of Sanitation",
    "final_address": "1522 St Ann St",
    "address_councildis": "C",
    "status": "Pending",
    "rowid": "1203507",
    "final_x": "3680355.31906",
    "final_y": "534560.738245",
    "longitude": "-90.07157908192595",
    "latitude": "29.963891385492946",
    "geocoded_column": {
      "latitude": "29.963891385492946",
      "longitude": "-90.07157908192595"
    }
  },
  {
    "service_request": "2025-1203506",
    "request_type": "Street and Traffic Signs",
    "request_reason": "Street Name Sign Damaged or Missing",
    "date_created": "2025-06-23T18:06:59.000",
    "date_modified": "2025-06-23T18:07:01.000",
    "request_status": "Pending",
    "responsible_agency": "Department of Public Works",
    "final_address": "CHESTNUT ST & VALMONT ST",
    "address_councildis": "B",
    "status": "Pending",
    "rowid": "1203506",
    "final_x": "3667592.4",
    "final_y": "519381.18",
    "longitude": "-90.11239409137296",
    "latitude": "29.922532771359286",
    "geocoded_column": {
      "latitude": "29.922532771359286",
      "longitude": "-90.11239409137296"
    }
  },
  {
    "service_request": "2025-1203505",
    "request_type": "Abandoned Vehicles",
    "request_reason": "Abandoned/Junk Vehicles",
    "date_created": "2025-06-23T17:59:04.000",
    "date_modified": "2025-06-23T17:59:05.000",
    "request_status": "Pending",
    "responsible_agency": "Department of Public Works",
    "final_address": "4408 Jeanne Marie Pl",
    "address_councildis": "D",
    "status": "Pending",
    "rowid": "1203505",
    "final_x": "3678456.01717",
    "final_y": "548627.581395",
    "longitude": "-90.07708988052052",
    "latitude": "30.00262768561838",
    "geocoded_column": {
      "latitude": "30.00262768561838",
      "longitude": "-90.07708988052052"
    }
  },
  {
    "service_request": "2025-1203504",
    "request_type": "Trash/Recycling",
    "request_reason": "Order Second Trash Cart",
    "date_created": "2025-06-23T17:58:21.000",
    "date_modified": "2025-06-23T17:58:23.000",
    "request_status": "Pending",
    "responsible_agency": "Department of Sanitation",
    "final_address": "4633 Knight Dr",
    "address_councildis": "E",
    "status": "Assigned to Contractor",
    "contractor": "Waste Pro",
    "rowid": "1203504",
    "final_x": "3708278.07614",
    "final_y": "554855.376984",
    "longitude": "-89.98264699711817",
    "latitude": "30.018819011394683",
    "geocoded_column": {
      "latitude": "30.018819011394683",
      "longitude": "-89.98264699711817"
    }
  },
  {
    "service_request": "2025-1203503",
    "request_type": "Trash/Recycling",
    "request_reason": "Request a Large Item Pick Up",
    "date_created": "2025-06-23T17:47:06.000",
    "date_modified": "2025-06-23T17:47:09.000",
    "request_status": "Pending",
    "responsible_agency": "Department of Sanitation",
    "final_address": "137 40Th St",
    "address_councildis": "A",
    "status": "Assigned to Contractor",
    "contractor": "IV Waste",
    "rowid": "1203503",
    "final_x": "3666088.07373",
    "final_y": "553350.304983",
    "longitude": "-90.11600349251606",
    "latitude": "30.01598057343668",
    "geocoded_column": {
      "latitude": "30.01598057343668",
      "longitude": "-90.11600349251606"
    }
  },
  {
    "service_request": "2025-1203502",
    "request_type": "Trash/Recycling",
    "request_reason": "Request a Large Item Pick Up",
    "date_created": "2025-06-23T17:22:10.000",
    "date_modified": "2025-06-23T17:22:13.000",
    "request_status": "Pending",
    "responsible_agency": "Department of Sanitation",
    "final_address": "618 Leontine St",
    "address_councildis": "B",
    "status": "Assigned to Contractor",
    "contractor": "IV Waste",
    "rowid": "1203502",
    "final_x": "3666938.11002",
    "final_y": "517730.838774",
    "longitude": "-90.11451484146119",
    "latitude": "29.918014005230862",
    "geocoded_column": {
      "latitude": "29.918014005230862",
      "longitude": "-90.11451484146119"
    }
  },
  {
    "service_request": "2025-1203501",
    "request_type": "Trash/Recycling",
    "request_reason": "Missed Trash Pick-Up",
    "date_created": "2025-06-23T17:01:34.000",
    "date_modified": "2025-06-23T17:01:35.000",
    "request_status": "Pending",
    "responsible_agency": "Department of Sanitation",
    "final_address": "2128 Jackson Ave",
    "address_councildis": "B",
    "status": "Assigned to Contractor",
    "contractor": "IV Waste",
    "rowid": "1203501",
    "final_x": "3676236.51534",
    "final_y": "525616.503741",
    "longitude": "-90.08489362855876",
    "latitude": "29.939421788637624",
    "geocoded_column": {
      "latitude": "29.939421788637624",
      "longitude": "-90.08489362855876"
    }
  },
  {
    "service_request": "2025-1203500",
    "request_type": "Property Maintenance",
    "request_reason": "Property Maintenance",
    "date_created": "2025-06-23T16:58:47.000",
    "date_modified": "2025-06-23T16:58:49.000",
    "request_status": "Pending",
    "responsible_agency": "Department of Code Enforcement",
    "final_address": "4133 Hamilton St",
    "address_councildis": "A",
    "status": "Pending",
    "rowid": "1203500",
    "final_x": "3666494.19028",
    "final_y": "538522.536457",
    "longitude": "-90.11521838255474",
    "latitude": "29.975197423958303",
    "geocoded_column": {
      "latitude": "29.975197423958303",
      "longitude": "-90.11521838255474"
    }
  },
  {
    "service_request": "2025-1203499",
    "request_type": "Trash/Recycling",
    "request_reason": "Request a Large Item Pick Up",
    "date_created": "2025-06-23T16:56:55.000",
    "date_modified": "2025-06-23T16:56:56.000",
    "request_status": "Pending",
    "responsible_agency": "Department of Sanitation",
    "final_address": "12930 Chanelle Ct",
    "address_councildis": "E",
    "status": "Assigned to Contractor",
    "contractor": "Waste Pro",
    "rowid": "1203499",
    "final_x": "3716992.6117",
    "final_y": "567623.723684",
    "longitude": "-89.95462707014072",
    "latitude": "30.053641475381475",
    "geocoded_column": {
      "latitude": "30.053641475381475",
      "longitude": "-89.95462707014072"
    }
  },
  {
    "service_request": "2025-1203498",
    "request_type": "Trash/Recycling",
    "request_reason": "Illegal Dumping",
    "date_created": "2025-06-23T16:56:44.000",
    "date_modified": "2025-06-23T16:56:45.000",
    "request_status": "Pending",
    "responsible_agency": "Department of Sanitation",
    "final_address": "2200 BLK Jackson Ave",
    "address_councildis": "B",
    "status": "Pending",
    "rowid": "1203498",
    "final_x": "3675910.82235",
    "final_y": "525927.009613",
    "longitude": "-90.08591121299028",
    "latitude": "29.94028533111175",
    "geocoded_column": {
      "latitude": "29.94028533111175",
      "longitude": "-90.08591121299028"
    }
  },
  {
    "service_request": "2025-1203497",
    "request_type": "Property Maintenance",
    "request_reason": "Property Maintenance",
    "date_created": "2025-06-23T16:53:48.000",
    "date_modified": "2025-06-23T16:53:51.000",
    "request_status": "Pending",
    "responsible_agency": "Department of Code Enforcement",
    "final_address": "4133 Hamilton St",
    "address_councildis": "A",
    "status": "Pending",
    "rowid": "1203497",
    "final_x": "3666494.19028",
    "final_y": "538522.536457",
    "longitude": "-90.11521838255474",
    "latitude": "29.975197423958303",
    "geocoded_column": {
      "latitude": "29.975197423958303",
      "longitude": "-90.11521838255474"
    }
  },
  {
    "service_request": "2025-1203496",
    "request_type": "Trash/Recycling",
    "request_reason": "Order Trash Cart",
    "date_created": "2025-06-23T16:52:37.000",
    "date_modified": "2025-06-23T16:52:39.000",
    "request_status": "Pending",
    "responsible_agency": "Department of Sanitation",
    "final_address": "808 Whitney Ave",
    "address_councildis": "C",
    "status": "Assigned to Contractor",
    "contractor": "Richards Disposal",
    "rowid": "1203496",
    "final_x": "3690272.22467",
    "final_y": "528522.810688",
    "longitude": "-90.04047767139241",
    "latitude": "29.946985184639118",
    "geocoded_column": {
      "latitude": "29.946985184639118",
      "longitude": "-90.04047767139241"
    }
  },
  {
    "service_request": "2025-1203495",
    "request_type": "Trash/Recycling",
    "request_reason": "Request a Large Item Pick Up",
    "date_created": "2025-06-23T16:52:13.000",
    "date_modified": "2025-06-23T16:52:15.000",
    "request_status": "Pending",
    "responsible_agency": "Department of Sanitation",
    "final_address": "4019 Camp St",
    "address_councildis": "B",
    "status": "Assigned to Contractor",
    "contractor": "IV Waste",
    "rowid": "1203495",
    "final_x": "3672317.34177",
    "final_y": "519328.154231",
    "longitude": "-90.09748112756186",
    "latitude": "29.922247686165274",
    "geocoded_column": {
      "latitude": "29.922247686165274",
      "longitude": "-90.09748112756186"
    }
  },
  {
    "service_request": "2025-1203494",
    "request_type": "Trash/Recycling",
    "request_reason": "Request a Large Item Pick Up",
    "date_created": "2025-06-23T16:50:48.000",
    "date_modified": "2025-06-23T16:50:49.000",
    "request_status": "Pending",
    "responsible_agency": "Department of Sanitation",
    "final_address": "219 N Scott St",
    "address_councildis": "A",
    "status": "Assigned to Contractor",
    "contractor": "IV Waste",
    "rowid": "1203494",
    "final_x": "3672077.38983",
    "final_y": "538338.055561",
    "longitude": "-90.09759141344554",
    "latitude": "29.974525780585225",
    "geocoded_column": {
      "latitude": "29.974525780585225",
      "longitude": "-90.09759141344554"
    }
  },
  {
    "service_request": "2025-1203493",
    "request_type": "Trash/Recycling",
    "request_reason": "Repair Trash Cart",
    "date_created": "2025-06-23T16:50:36.000",
    "date_modified": "2025-06-23T16:50:38.000",
    "request_status": "Pending",
    "responsible_agency": "Department of Sanitation",
    "final_address": "3117 Spain St",
    "address_councildis": "D",
    "status": "Assigned to Contractor",
    "contractor": "IV Waste",
    "rowid": "1203493",
    "final_x": "3685574.967",
    "final_y": "544294.711951",
    "longitude": "-90.05475296008315",
    "latitude": "29.990497322790436",
    "geocoded_column": {
      "latitude": "29.990497322790436",
      "longitude": "-90.05475296008315"
    }
  },
  {
    "service_request": "2025-1203492",
    "request_type": "Trash/Recycling",
    "request_reason": "Request a Large Item Pick Up",
    "date_created": "2025-06-23T16:48:08.000",
    "date_modified": "2025-06-23T16:48:09.000",
    "request_status": "Pending",
    "responsible_agency": "Department of Sanitation",
    "final_address": "173 Mary Jane Ln",
    "address_councildis": "E",
    "status": "Assigned to Contractor",
    "contractor": "Waste Pro",
    "rowid": "1203492",
    "final_x": "3718207.3566",
    "final_y": "571185.478376",
    "longitude": "-89.95065176774742",
    "latitude": "30.063394577249248",
    "geocoded_column": {
      "latitude": "30.063394577249248",
      "longitude": "-89.95065176774742"
    }
  },
  {
    "service_request": "2025-1203491",
    "request_type": "Graffiti Removal",
    "request_reason": "Graffiti Removal",
    "date_created": "2025-06-23T16:47:42.000",
    "date_modified": "2025-06-23T16:47:44.000",
    "request_status": "Pending",
    "responsible_agency": "Department of Code Enforcement",
    "final_address": "MAGAZINE ST & SONIAT ST",
    "address_councildis": "B",
    "status": "Pending",
    "rowid": "1203491",
    "final_x": "3668342.9",
    "final_y": "518606.08",
    "longitude": "-90.11005117784669",
    "latitude": "29.920379480878413",
    "geocoded_column": {
      "latitude": "29.920379480878413",
      "longitude": "-90.11005117784669"
    }
  },
  {
    "service_request": "2025-1203490",
    "request_type": "Trash/Recycling",
    "request_reason": "Request a Large Item Pick Up",
    "date_created": "2025-06-23T16:45:54.000",
    "date_modified": "2025-06-23T16:45:56.000",
    "request_status": "Pending",
    "responsible_agency": "Department of Sanitation",
    "final_address": "617 David St",
    "address_councildis": "A",
    "status": "Assigned to Contractor",
    "contractor": "IV Waste",
    "rowid": "1203490",
    "final_x": "3672047.77876",
    "final_y": "540096.798859",
    "longitude": "-90.09762503075697",
    "latitude": "29.97936260530238",
    "geocoded_column": {
      "latitude": "29.97936260530238",
      "longitude": "-90.09762503075697"
    }
  },
  {
    "service_request": "2025-1203489",
    "request_type": "Property Maintenance",
    "request_reason": "Property Maintenance",
    "date_created": "2025-06-23T16:42:37.000",
    "date_modified": "2025-06-23T16:42:39.000",
    "request_status": "Pending",
    "responsible_agency": "Department of Code Enforcement",
    "final_address": "4133 Hamilton St",
    "address_councildis": "A",
    "status": "Pending",
    "rowid": "1203489",
    "final_x": "3666494.19028",
    "final_y": "538522.536457",
    "longitude": "-90.11521838255474",
    "latitude": "29.975197423958303",
    "geocoded_column": {
      "latitude": "29.975197423958303",
      "longitude": "-90.11521838255474"
    }
  },
  {
    "service_request": "2025-1203488",
    "request_type": "Trash/Recycling",
    "request_reason": "Request a Large Item Pick Up",
    "date_created": "2025-06-23T16:40:22.000",
    "date_modified": "2025-06-23T16:40:24.000",
    "request_status": "Pending",
    "responsible_agency": "Department of Sanitation",
    "final_address": "7001 General Diaz St",
    "address_councildis": "A",
    "status": "Assigned to Contractor",
    "contractor": "IV Waste",
    "rowid": "1203488",
    "final_x": "3670174.20097",
    "final_y": "553985.455384",
    "longitude": "-90.10307156785514",
    "latitude": "30.01760701511324",
    "geocoded_column": {
      "latitude": "30.01760701511324",
      "longitude": "-90.10307156785514"
    }
  },
  {
    "service_request": "2025-1203487",
    "request_type": "Trash/Recycling",
    "request_reason": "Request a Large Item Pick Up",
    "date_created": "2025-06-23T16:36:11.000",
    "date_modified": "2025-06-23T16:36:12.000",
    "request_status": "Pending",
    "responsible_agency": "Department of Sanitation",
    "final_address": "608 N Olympia St",
    "address_councildis": "A",
    "status": "Assigned to Contractor",
    "contractor": "IV Waste",
    "rowid": "1203487",
    "final_x": "3670587.65812",
    "final_y": "541118.562444",
    "longitude": "-90.10220200726475",
    "latitude": "29.982215324031753",
    "geocoded_column": {
      "latitude": "29.982215324031753",
      "longitude": "-90.10220200726475"
    }
  },
  {
    "service_request": "2025-1203486",
    "request_type": "Trash/Recycling",
    "request_reason": "Request a Large Item Pick Up",
    "date_created": "2025-06-23T16:32:19.000",
    "date_modified": "2025-06-23T16:32:25.000",
    "request_status": "Pending",
    "responsible_agency": "Department of Sanitation",
    "final_address": "2841 Constance St",
    "address_councildis": "B",
    "status": "Assigned to Contractor",
    "contractor": "IV Waste",
    "rowid": "1203486",
    "final_x": "3676949.27106",
    "final_y": "520351.067256",
    "longitude": "-90.08282478540225",
    "latitude": "29.92492218541923",
    "geocoded_column": {
      "latitude": "29.92492218541923",
      "longitude": "-90.08282478540225"
    }
  },
  {
    "service_request": "2025-1203485",
    "request_type": "Trash/Recycling",
    "request_reason": "Request a Large Item Pick Up",
    "date_created": "2025-06-23T16:30:31.000",
    "date_modified": "2025-06-23T16:30:33.000",
    "request_status": "Pending",
    "responsible_agency": "Department of Sanitation",
    "final_address": "7150 Lake Barrington Dr",
    "address_councildis": "E",
    "status": "Assigned to Contractor",
    "contractor": "Waste Pro",
    "rowid": "1203485",
    "final_x": "3712215.74418",
    "final_y": "564246.650849",
    "longitude": "-89.96985240414227",
    "latitude": "30.044513067027896",
    "geocoded_column": {
      "latitude": "30.044513067027896",
      "longitude": "-89.96985240414227"
    }
  },
  {
    "service_request": "2025-1203484",
    "request_type": "Property Maintenance",
    "request_reason": "Property Maintenance",
    "date_created": "2025-06-23T16:30:08.000",
    "date_modified": "2025-06-23T16:30:45.000",
    "request_status": "Pending",
    "responsible_agency": "Department of Code Enforcement",
    "final_address": "1240 Elysian Fields Ave",
    "address_councildis": "C",
    "status": "Pending",
    "rowid": "1203484",
    "final_x": "3684862.59842",
    "final_y": "536987.518856",
    "longitude": "-90.05726019839815",
    "latitude": "29.97042694965663",
    "geocoded_column": {
      "latitude": "29.97042694965663",
      "longitude": "-90.05726019839815"
    }
  },
  {
    "service_request": "2025-1203483",
    "request_type": "Trash/Recycling",
    "request_reason": "Order Second Trash Cart",
    "date_created": "2025-06-23T16:26:47.000",
    "date_modified": "2025-06-23T16:26:49.000",
    "request_status": "Pending",
    "responsible_agency": "Department of Sanitation",
    "final_address": "1710 Pace Blvd",
    "address_councildis": "C",
    "status": "Assigned to Contractor",
    "contractor": "Richards Disposal",
    "rowid": "1203483",
    "final_x": "3694427.99722",
    "final_y": "524484.875836",
    "longitude": "-90.02750171235266",
    "latitude": "29.93575267059061",
    "geocoded_column": {
      "latitude": "29.93575267059061",
      "longitude": "-90.02750171235266"
    }
  },
  {
    "service_request": "2025-1203482",
    "request_type": "Trash/Recycling",
    "request_reason": "Request a Large Item Pick Up",
    "date_created": "2025-06-23T16:26:17.000",
    "date_modified": "2025-06-23T16:26:19.000",
    "request_status": "Pending",
    "responsible_agency": "Department of Sanitation",
    "final_address": "2105 Leonidas St",
    "address_councildis": "A",
    "status": "Assigned to Contractor",
    "contractor": "IV Waste",
    "rowid": "1203482",
    "final_x": "3662834.80288",
    "final_y": "531913.998531",
    "longitude": "-90.12699548323332",
    "latitude": "29.957132572144896",
    "geocoded_column": {
      "latitude": "29.957132572144896",
      "longitude": "-90.12699548323332"
    }
  },
  {
    "service_request": "2025-1203481",
    "request_type": "Trash/Recycling",
    "request_reason": "Replace Trash Cart",
    "date_created": "2025-06-23T16:25:37.000",
    "date_modified": "2025-06-23T16:25:38.000",
    "request_status": "Pending",
    "responsible_agency": "Department of Sanitation",
    "final_address": "2018 Valmont St",
    "address_councildis": "B",
    "status": "Assigned to Contractor",
    "contractor": "IV Waste",
    "rowid": "1203481",
    "final_x": "3668036.73556",
    "final_y": "523057.388539",
    "longitude": "-90.11086769498661",
    "latitude": "29.93262815109018",
    "geocoded_column": {
      "latitude": "29.93262815109018",
      "longitude": "-90.11086769498661"
    }
  },
  {
    "service_request": "2025-1203480",
    "request_type": "Trash/Recycling",
    "request_reason": "Request a Large Item Pick Up",
    "date_created": "2025-06-23T16:25:29.000",
    "date_modified": "2025-06-23T16:25:33.000",
    "request_status": "Pending",
    "responsible_agency": "Department of Sanitation",
    "final_address": "5424 Press Dr",
    "address_councildis": "D",
    "status": "Assigned to Contractor",
    "contractor": "IV Waste",
    "rowid": "1203480",
    "final_x": "3689169.72278",
    "final_y": "553313.479639",
    "longitude": "-90.04307728369034",
    "latitude": "30.015184861899588",
    "geocoded_column": {
      "latitude": "30.015184861899588",
      "longitude": "-90.04307728369034"
    }
  },
  {
    "service_request": "2025-1203479",
    "request_type": "Drainage",
    "request_reason": "Street Flooding",
    "date_created": "2025-06-23T16:22:26.000",
    "date_modified": "2025-06-23T16:22:28.000",
    "request_status": "Pending",
    "responsible_agency": "Sewerage & Water Board",
    "final_address": "8712 Hickory St",
    "address_councildis": "A",
    "status": "Pending",
    "rowid": "1203479",
    "final_x": "3661706.45075",
    "final_y": "531410.937731",
    "longitude": "-90.13057516404457",
    "latitude": "29.955781933359525",
    "geocoded_column": {
      "latitude": "29.955781933359525",
      "longitude": "-90.13057516404457"
    }
  },
  {
    "service_request": "2025-1203478",
    "request_type": "Trash/Recycling",
    "request_reason": "Order Second Trash Cart",
    "date_created": "2025-06-23T16:17:11.000",
    "date_modified": "2025-06-23T16:17:12.000",
    "request_status": "Pending",
    "responsible_agency": "Department of Sanitation",
    "final_address": "13502 Granville St",
    "address_councildis": "E",
    "status": "Assigned to Contractor",
    "contractor": "Waste Pro",
    "rowid": "1203478",
    "final_x": "3725854.96025",
    "final_y": "562234.057759",
    "longitude": "-89.92682494102444",
    "latitude": "30.038525957713343",
    "geocoded_column": {
      "latitude": "30.038525957713343",
      "longitude": "-89.92682494102444"
    }
  },
  {
    "service_request": "2025-1203477",
    "request_type": "Trash/Recycling",
    "request_reason": "Request a Large Item Pick Up",
    "date_created": "2025-06-23T16:16:25.000",
    "date_modified": "2025-06-23T16:16:27.000",
    "request_status": "Pending",
    "responsible_agency": "Department of Sanitation",
    "final_address": "13502 Granville St",
    "address_councildis": "E",
    "status": "Assigned to Contractor",
    "contractor": "Waste Pro",
    "rowid": "1203477",
    "final_x": "3725854.96025",
    "final_y": "562234.057759",
    "longitude": "-89.92682494102444",
    "latitude": "30.038525957713343",
    "geocoded_column": {
      "latitude": "30.038525957713343",
      "longitude": "-89.92682494102444"
    }
  },
  {
    "service_request": "2025-1203476",
    "request_type": "Trash/Recycling",
    "request_reason": "Request a Large Item Pick Up",
    "date_created": "2025-06-23T16:15:16.000",
    "date_modified": "2025-06-23T16:15:18.000",
    "request_status": "Pending",
    "responsible_agency": "Department of Sanitation",
    "final_address": "1220 Independence St",
    "address_councildis": "D",
    "status": "Assigned to Contractor",
    "contractor": "IV Waste",
    "rowid": "1203476",
    "final_x": "3691058.7151",
    "final_y": "536057.684423",
    "longitude": "-90.0377254398406",
    "latitude": "29.96767904215889",
    "geocoded_column": {
      "latitude": "29.96767904215889",
      "longitude": "-90.0377254398406"
    }
  },
  {
    "service_request": "2025-1203475",
    "request_type": "Trash/Recycling",
    "request_reason": "Request a Large Item Pick Up",
    "date_created": "2025-06-23T16:13:54.000",
    "date_modified": "2025-06-23T16:13:55.000",
    "request_status": "Pending",
    "responsible_agency": "Department of Sanitation",
    "final_address": "8011 Michigan St",
    "address_councildis": "E",
    "status": "Assigned to Contractor",
    "contractor": "Waste Pro",
    "rowid": "1203475",
    "final_x": "3711026.76773",
    "final_y": "567704.877604",
    "longitude": "-89.97348036880456",
    "latitude": "30.05406064031886",
    "geocoded_column": {
      "latitude": "30.05406064031886",
      "longitude": "-89.97348036880456"
    }
  },
  {
    "service_request": "2025-1203474",
    "request_type": "Trash/Recycling",
    "request_reason": "Request a Large Item Pick Up",
    "date_created": "2025-06-23T16:12:00.000",
    "date_modified": "2025-06-23T16:12:02.000",
    "request_status": "Pending",
    "responsible_agency": "Department of Sanitation",
    "final_address": "13000 N Lake Carmel Dr",
    "address_councildis": "E",
    "status": "Assigned to Contractor",
    "contractor": "Waste Pro",
    "rowid": "1203474",
    "final_x": "3716608.4597",
    "final_y": "568675.093413",
    "longitude": "-89.9558013131371",
    "latitude": "30.0565450125185",
    "geocoded_column": {
      "latitude": "30.0565450125185",
      "longitude": "-89.9558013131371"
    }
  },
  {
    "service_request": "2025-1203473",
    "request_type": "Trash/Recycling",
    "request_reason": "Request a Large Item Pick Up",
    "date_created": "2025-06-23T16:10:14.000",
    "date_modified": "2025-06-23T16:10:17.000",
    "request_status": "Pending",
    "responsible_agency": "Department of Sanitation",
    "final_address": "13640 Explorers Ave",
    "address_councildis": "E",
    "status": "Assigned to Contractor",
    "contractor": "Waste Pro",
    "rowid": "1203473",
    "final_x": "3726150.23072",
    "final_y": "569030.044326",
    "longitude": "-89.92562796790553",
    "latitude": "30.057202113722532",
    "geocoded_column": {
      "latitude": "30.057202113722532",
      "longitude": "-89.92562796790553"
    }
  },
  {
    "service_request": "2025-1203472",
    "request_type": "Trash/Recycling",
    "request_reason": "Illegal Dumping",
    "date_created": "2025-06-23T16:04:14.000",
    "date_modified": "2025-06-23T16:04:21.000",
    "request_status": "Pending",
    "responsible_agency": "Department of Sanitation",
    "final_address": "Bienvenue Street & Tricou Street",
    "address_councildis": "E",
    "status": "Pending",
    "rowid": "1203472",
    "final_x": "3699185.25476",
    "final_y": "530695.912066",
    "longitude": "-90.01225700032964",
    "latitude": "29.952680916441178",
    "geocoded_column": {
      "latitude": "29.952680916441178",
      "longitude": "-90.01225700032964"
    }
  },
  {
    "service_request": "2025-1203471",
    "request_type": "Trash/Recycling",
    "request_reason": "Illegal Dumping",
    "date_created": "2025-06-23T15:58:55.000",
    "date_modified": "2025-06-23T15:58:57.000",
    "request_status": "Pending",
    "responsible_agency": "Department of Sanitation",
    "final_address": "2010 Greenspoint Dr",
    "address_councildis": "C",
    "status": "Pending",
    "rowid": "1203471",
    "final_x": "3696721.86032",
    "final_y": "523466.300923",
    "longitude": "-90.0202968391932",
    "latitude": "29.93287986038805",
    "geocoded_column": {
      "latitude": "29.93287986038805",
      "longitude": "-90.0202968391932"
    }
  },
  {
    "service_request": "2025-1203470",
    "request_type": "Trash/Recycling",
    "request_reason": "Request a Large Item Pick Up",
    "date_created": "2025-06-23T15:58:35.000",
    "date_modified": "2025-06-23T15:58:37.000",
    "request_status": "Pending",
    "responsible_agency": "Department of Sanitation",
    "final_address": "6727 Dorian St",
    "address_councildis": "D",
    "status": "Assigned to Contractor",
    "contractor": "Waste Pro",
    "rowid": "1203470",
    "final_x": "3696521.00195",
    "final_y": "556029.016729",
    "longitude": "-90.01975246548467",
    "latitude": "30.02242190518372",
    "geocoded_column": {
      "latitude": "30.02242190518372",
      "longitude": "-90.01975246548467"
    }
  },
  {
    "service_request": "2025-1203469",
    "request_type": "Streetlights",
    "request_reason": "Streetlight Outage/Malfunction",
    "date_created": "2025-06-23T15:54:30.000",
    "date_modified": "2025-06-23T15:54:31.000",
    "request_status": "Pending",
    "responsible_agency": "Department of Public Works",
    "final_address": "100 BLK Tchoupitoulas St",
    "address_councildis": "B",
    "status": "Pending",
    "contractor": "Legacy Professional Services",
    "rowid": "1203469",
    "final_x": "3682098.29062",
    "final_y": "529831.487041",
    "longitude": "-90.06624009601903",
    "latitude": "29.95083466494574",
    "geocoded_column": {
      "latitude": "29.95083466494574",
      "longitude": "-90.06624009601903"
    }
  },
  {
    "service_request": "2025-1203468",
    "request_type": "Trash/Recycling",
    "request_reason": "Request a Large Item Pick Up",
    "date_created": "2025-06-23T15:53:38.000",
    "date_modified": "2025-06-23T15:53:39.000",
    "request_status": "Pending",
    "responsible_agency": "Department of Sanitation",
    "final_address": "1429 Richland Rd",
    "address_councildis": "C",
    "status": "Assigned to Contractor",
    "contractor": "Richards Disposal",
    "rowid": "1203468",
    "final_x": "3697879.62576",
    "final_y": "525863.361853",
    "longitude": "-90.016554920009",
    "latitude": "29.939434418400438",
    "geocoded_column": {
      "latitude": "29.939434418400438",
      "longitude": "-90.016554920009"
    }
  },
  {
    "service_request": "2025-1203467",
    "request_type": "Trash/Recycling",
    "request_reason": "Replace Recycling Cart",
    "date_created": "2025-06-23T15:53:10.000",
    "date_modified": "2025-06-23T15:53:13.000",
    "request_status": "Pending",
    "responsible_agency": "Department of Sanitation",
    "final_address": "6233 Magazine St",
    "address_councildis": "A",
    "status": "Pending",
    "rowid": "1203467",
    "final_x": "3663535.64666",
    "final_y": "519739.001848",
    "longitude": "-90.12518777818275",
    "latitude": "29.923634904883837",
    "geocoded_column": {
      "latitude": "29.923634904883837",
      "longitude": "-90.12518777818275"
    }
  },
  {
    "service_request": "2025-1203466",
    "request_type": "Street and Traffic Signs",
    "request_reason": "Additional Signage Request",
    "date_created": "2025-06-23T15:52:34.000",
    "date_modified": "2025-06-23T15:52:36.000",
    "request_status": "Pending",
    "responsible_agency": "Department of Public Works",
    "final_address": "MAGAZINE ST & SONIAT ST",
    "address_councildis": "B",
    "status": "Pending",
    "rowid": "1203466",
    "final_x": "3668342.9",
    "final_y": "518606.08",
    "longitude": "-90.11005117784669",
    "latitude": "29.920379480878413",
    "geocoded_column": {
      "latitude": "29.920379480878413",
      "longitude": "-90.11005117784669"
    }
  },
  {
    "service_request": "2025-1203465",
    "request_type": "Trash/Recycling",
    "request_reason": "Request a Large Item Pick Up",
    "date_created": "2025-06-23T15:46:35.000",
    "date_modified": "2025-06-23T15:46:36.000",
    "request_status": "Pending",
    "responsible_agency": "Department of Sanitation",
    "final_address": "1511 S Liberty St",
    "address_councildis": "B",
    "status": "Assigned to Contractor",
    "contractor": "IV Waste",
    "rowid": "1203465",
    "final_x": "3676853.5236",
    "final_y": "526846.201086",
    "longitude": "-90.08290328418516",
    "latitude": "29.94278455157291",
    "geocoded_column": {
      "latitude": "29.94278455157291",
      "longitude": "-90.08290328418516"
    }
  },
  {
    "service_request": "2025-1203464",
    "request_type": "Trash/Recycling",
    "request_reason": "Return Trash Cart",
    "date_created": "2025-06-23T15:46:11.000",
    "date_modified": "2025-06-23T15:46:17.000",
    "request_status": "Pending",
    "responsible_agency": "Department of Sanitation",
    "final_address": "3644 Republic St",
    "address_councildis": "D",
    "status": "Assigned to Contractor",
    "contractor": "IV Waste",
    "rowid": "1203464",
    "final_x": "3680384.92456",
    "final_y": "545883.911248",
    "longitude": "-90.07109169095786",
    "latitude": "29.99502527879217",
    "geocoded_column": {
      "latitude": "29.99502527879217",
      "longitude": "-90.07109169095786"
    }
  },
  {
    "service_request": "2025-1203463",
    "request_type": "Trash/Recycling",
    "request_reason": "Request a Large Item Pick Up",
    "date_created": "2025-06-23T15:46:07.000",
    "date_modified": "2025-06-23T15:46:09.000",
    "request_status": "Pending",
    "responsible_agency": "Department of Sanitation",
    "final_address": "0 BLK Allard Blvd",
    "address_councildis": "A",
    "status": "Assigned to Contractor",
    "contractor": "IV Waste",
    "rowid": "1203463",
    "final_x": "3672889.12367",
    "final_y": "541158.059532",
    "longitude": "-90.09493149945968",
    "latitude": "29.982255733983415",
    "geocoded_column": {
      "latitude": "29.982255733983415",
      "longitude": "-90.09493149945968"
    }
  },
  {
    "service_request": "2025-1203461",
    "request_type": "Graffiti Removal",
    "request_reason": "Graffiti Removal",
    "date_created": "2025-06-23T15:45:36.000",
    "date_modified": "2025-06-23T15:45:38.000",
    "request_status": "Pending",
    "responsible_agency": "Department of Code Enforcement",
    "final_address": "MAGAZINE ST & DUFOSSAT ST",
    "address_councildis": "B",
    "status": "Pending",
    "rowid": "1203461",
    "final_x": "3668047.7",
    "final_y": "518615.98",
    "longitude": "-90.11098265499702",
    "latitude": "29.92041536510144",
    "geocoded_column": {
      "latitude": "29.92041536510144",
      "longitude": "-90.11098265499702"
    }
  },
  {
    "service_request": "2025-1203462",
    "request_type": "Trash/Recycling",
    "request_reason": "Order Recycling Cart",
    "date_created": "2025-06-23T15:45:36.000",
    "date_modified": "2025-06-23T15:45:38.000",
    "request_status": "Pending",
    "responsible_agency": "Department of Sanitation",
    "final_address": "2626 Myrtle St",
    "address_councildis": "D",
    "status": "Pending",
    "rowid": "1203462",
    "final_x": "3687399.69609",
    "final_y": "546049.892624",
    "longitude": "-90.04892696937502",
    "latitude": "29.99526732743274",
    "geocoded_column": {
      "latitude": "29.99526732743274",
      "longitude": "-90.04892696937502"
    }
  },
  {
    "service_request": "2025-1203460",
    "request_type": "Street and Traffic Signs",
    "request_reason": "Traffic or Parking Sign Damaged or Missing",
    "date_created": "2025-06-23T15:44:20.000",
    "date_modified": "2025-06-23T15:44:22.000",
    "request_status": "Pending",
    "responsible_agency": "Department of Public Works",
    "final_address": "6928 E Hermes St",
    "address_councildis": "D",
    "status": "Pending",
    "rowid": "1203460",
    "final_x": "3697412.26327",
    "final_y": "556783.482906",
    "longitude": "-90.0169089221704",
    "latitude": "30.024468275962086",
    "geocoded_column": {
      "latitude": "30.024468275962086",
      "longitude": "-90.0169089221704"
    }
  },
  {
    "service_request": "2025-1203459",
    "request_type": "Street and Traffic Signs",
    "request_reason": "Street Name Sign Damaged or Missing",
    "date_created": "2025-06-23T15:43:45.000",
    "date_modified": "2025-06-23T15:43:46.000",
    "request_status": "Pending",
    "responsible_agency": "Department of Public Works",
    "final_address": "MAGAZINE ST & DUFOSSAT ST",
    "address_councildis": "B",
    "status": "Pending",
    "rowid": "1203459",
    "final_x": "3668047.7",
    "final_y": "518615.98",
    "longitude": "-90.11098265499702",
    "latitude": "29.92041536510144",
    "geocoded_column": {
      "latitude": "29.92041536510144",
      "longitude": "-90.11098265499702"
    }
  },
  {
    "service_request": "2025-1203458",
    "request_type": "Trash/Recycling",
    "request_reason": "Request a Large Item Pick Up",
    "date_created": "2025-06-23T15:43:26.000",
    "date_modified": "2025-06-23T15:43:28.000",
    "request_status": "Pending",
    "responsible_agency": "Department of Sanitation",
    "final_address": "8934 Birch St",
    "address_councildis": "A",
    "status": "Assigned to Contractor",
    "contractor": "IV Waste",
    "rowid": "1203458",
    "final_x": "3660548.46605",
    "final_y": "531506.868867",
    "longitude": "-90.13422852339902",
    "latitude": "29.95607908463736",
    "geocoded_column": {
      "latitude": "29.95607908463736",
      "longitude": "-90.13422852339902"
    }
  },
  {
    "service_request": "2025-1203457",
    "request_type": "Street and Traffic Signs",
    "request_reason": "Stop Sign Missing or Damaged",
    "date_created": "2025-06-23T15:42:10.000",
    "date_modified": "2025-06-23T15:42:11.000",
    "request_status": "Pending",
    "responsible_agency": "Department of Public Works",
    "final_address": "MAGAZINE ST & DUFOSSAT ST",
    "address_councildis": "B",
    "status": "Pending",
    "rowid": "1203457",
    "final_x": "3668047.7",
    "final_y": "518615.98",
    "longitude": "-90.11098265499702",
    "latitude": "29.92041536510144",
    "geocoded_column": {
      "latitude": "29.92041536510144",
      "longitude": "-90.11098265499702"
    }
  },
  {
    "service_request": "2025-1203456",
    "request_type": "Trash/Recycling",
    "request_reason": "Request a Large Item Pick Up",
    "date_created": "2025-06-23T15:41:51.000",
    "date_modified": "2025-06-23T15:41:54.000",
    "request_status": "Pending",
    "responsible_agency": "Department of Sanitation",
    "final_address": "620 Tchoupitoulas St",
    "address_councildis": "B",
    "status": "Assigned to Contractor",
    "contractor": "IV Waste",
    "rowid": "1203456",
    "final_x": "3681812.75624",
    "final_y": "528441.010496",
    "longitude": "-90.06719018166646",
    "latitude": "29.947020001787692",
    "geocoded_column": {
      "latitude": "29.947020001787692",
      "longitude": "-90.06719018166646"
    }
  },
  {
    "service_request": "2025-1203455",
    "request_type": "Street and Traffic Signs",
    "request_reason": "Traffic or Parking Sign Damaged or Missing",
    "date_created": "2025-06-23T15:40:31.000",
    "date_modified": "2025-06-23T15:40:33.000",
    "request_status": "Pending",
    "responsible_agency": "Department of Public Works",
    "final_address": "MAGAZINE ST & DUFOSSAT ST",
    "address_councildis": "B",
    "status": "Pending",
    "rowid": "1203455",
    "final_x": "3668047.7",
    "final_y": "518615.98",
    "longitude": "-90.11098265499702",
    "latitude": "29.92041536510144",
    "geocoded_column": {
      "latitude": "29.92041536510144",
      "longitude": "-90.11098265499702"
    }
  },
  {
    "service_request": "2025-1203454",
    "request_type": "Street and Traffic Signs",
    "request_reason": "Traffic or Parking Sign Damaged or Missing",
    "date_created": "2025-06-23T15:39:13.000",
    "date_modified": "2025-06-23T15:39:15.000",
    "request_status": "Pending",
    "responsible_agency": "Department of Public Works",
    "final_address": "MAGAZINE ST & DUFOSSAT ST",
    "address_councildis": "B",
    "status": "Pending",
    "rowid": "1203454",
    "final_x": "3668047.7",
    "final_y": "518615.98",
    "longitude": "-90.11098265499702",
    "latitude": "29.92041536510144",
    "geocoded_column": {
      "latitude": "29.92041536510144",
      "longitude": "-90.11098265499702"
    }
  },
  {
    "service_request": "2025-1203453",
    "request_type": "Trash/Recycling",
    "request_reason": "Return Trash Cart",
    "date_created": "2025-06-23T15:36:29.000",
    "date_modified": "2025-06-23T15:38:19.000",
    "request_status": "Pending",
    "responsible_agency": "Department of Sanitation",
    "final_address": "4100 Constance St",
    "address_councildis": "B",
    "status": "Assigned to Contractor",
    "contractor": "IV Waste",
    "rowid": "1203453",
    "final_x": "3672164.72027",
    "final_y": "518489.468342",
    "longitude": "-90.0979914335622",
    "latitude": "29.919946092625132",
    "geocoded_column": {
      "latitude": "29.919946092625132",
      "longitude": "-90.0979914335622"
    }
  },
  {
    "service_request": "2025-1203452",
    "request_type": "Street and Traffic Signs",
    "request_reason": "Stop Sign Missing or Damaged",
    "date_created": "2025-06-23T15:36:17.000",
    "date_modified": "2025-06-23T15:36:20.000",
    "request_status": "Pending",
    "responsible_agency": "Department of Public Works",
    "final_address": "MAGAZINE ST & SONIAT ST",
    "address_councildis": "B",
    "status": "Pending",
    "rowid": "1203452",
    "final_x": "3668342.9",
    "final_y": "518606.08",
    "longitude": "-90.11005117784669",
    "latitude": "29.920379480878413",
    "geocoded_column": {
      "latitude": "29.920379480878413",
      "longitude": "-90.11005117784669"
    }
  },
  {
    "service_request": "2025-1203451",
    "request_type": "Trash/Recycling",
    "request_reason": "Missed Trash Pick-Up",
    "date_created": "2025-06-23T15:32:31.000",
    "date_modified": "2025-06-23T16:44:14.000",
    "case_close_date": "2025-06-23T11:44:13.000",
    "request_status": "Closed",
    "responsible_agency": "Department of Sanitation",
    "final_address": "13221 Lemans St",
    "address_councildis": "E",
    "status": "Duplicate Request",
    "contractor": "Waste Pro",
    "contractor_action": "Duplicate",
    "rowid": "1203451",
    "final_x": "3724638.03136",
    "final_y": "562923.684384",
    "longitude": "-89.93064402878481",
    "latitude": "30.040463163294447",
    "geocoded_column": {
      "latitude": "30.040463163294447",
      "longitude": "-89.93064402878481"
    }
  },
  {
    "service_request": "2025-1203450",
    "request_type": "Trash/Recycling",
    "request_reason": "Missed Trash Pick-Up",
    "date_created": "2025-06-23T15:32:31.000",
    "date_modified": "2025-06-23T16:43:15.000",
    "case_close_date": "2025-06-23T11:43:14.000",
    "request_status": "Closed",
    "responsible_agency": "Department of Sanitation",
    "final_address": "13221 Lemans St",
    "address_councildis": "E",
    "status": "Invalid Request",
    "contractor": "Waste Pro",
    "contractor_action": "Invalid",
    "rowid": "1203450",
    "final_x": "3724638.03136",
    "final_y": "562923.684384",
    "longitude": "-89.93064402878481",
    "latitude": "30.040463163294447",
    "geocoded_column": {
      "latitude": "30.040463163294447",
      "longitude": "-89.93064402878481"
    }
  },
  {
    "service_request": "2025-1203449",
    "request_type": "Trash/Recycling",
    "request_reason": "Request a Large Item Pick Up",
    "date_created": "2025-06-23T15:24:59.000",
    "date_modified": "2025-06-23T15:25:01.000",
    "request_status": "Pending",
    "responsible_agency": "Department of Sanitation",
    "final_address": "2224 Royal St",
    "address_councildis": "C",
    "status": "Assigned to Contractor",
    "contractor": "IV Waste",
    "rowid": "1203449",
    "final_x": "3685394.18882",
    "final_y": "534853.095302",
    "longitude": "-90.05565654242851",
    "latitude": "29.96454173662454",
    "geocoded_column": {
      "latitude": "29.96454173662454",
      "longitude": "-90.05565654242851"
    }
  },
  {
    "service_request": "2025-1203448",
    "request_type": "Street and Traffic Signs",
    "request_reason": "Street Name Sign Damaged or Missing",
    "date_created": "2025-06-23T15:19:42.000",
    "date_modified": "2025-06-23T15:19:44.000",
    "request_status": "Pending",
    "responsible_agency": "Department of Public Works",
    "final_address": "437 S Bernadotte St",
    "address_councildis": "A",
    "status": "Pending",
    "rowid": "1203448",
    "final_x": "3667858.47841",
    "final_y": "538861.818185",
    "longitude": "-90.11089815498302",
    "latitude": "29.97609038483502",
    "geocoded_column": {
      "latitude": "29.97609038483502",
      "longitude": "-90.11089815498302"
    }
  },
  {
    "service_request": "2025-1203447",
    "request_type": "Trash/Recycling",
    "request_reason": "Order Recycling Cart",
    "date_created": "2025-06-23T15:18:46.000",
    "date_modified": "2025-06-23T15:18:47.000",
    "request_status": "Pending",
    "responsible_agency": "Department of Sanitation",
    "final_address": "437 S Bernadotte St",
    "address_councildis": "A",
    "status": "Pending",
    "rowid": "1203447",
    "final_x": "3667858.47841",
    "final_y": "538861.818185",
    "longitude": "-90.11089815498302",
    "latitude": "29.97609038483502",
    "geocoded_column": {
      "latitude": "29.97609038483502",
      "longitude": "-90.11089815498302"
    }
  },
  {
    "service_request": "2025-1203446",
    "request_type": "Trash/Recycling",
    "request_reason": "Request a Large Item Pick Up",
    "date_created": "2025-06-23T15:12:16.000",
    "date_modified": "2025-06-23T15:12:19.000",
    "request_status": "Pending",
    "responsible_agency": "Department of Sanitation",
    "final_address": "835 Fats Domino Ave",
    "address_councildis": "E",
    "status": "Assigned to Contractor",
    "contractor": "Waste Pro",
    "rowid": "1203446",
    "final_x": "3697860.73271",
    "final_y": "532890.673476",
    "longitude": "-90.01635957111507",
    "latitude": "29.958757658377873",
    "geocoded_column": {
      "latitude": "29.958757658377873",
      "longitude": "-90.01635957111507"
    }
  },
  {
    "service_request": "2025-1203445",
    "request_type": "Trash/Recycling",
    "request_reason": "Request a Large Item Pick Up",
    "date_created": "2025-06-23T15:11:06.000",
    "date_modified": "2025-06-23T15:11:08.000",
    "request_status": "Pending",
    "responsible_agency": "Department of Sanitation",
    "final_address": "925 Milan St",
    "address_councildis": "B",
    "status": "Assigned to Contractor",
    "contractor": "IV Waste",
    "rowid": "1203445",
    "final_x": "3671819.99195",
    "final_y": "519082.471095",
    "longitude": "-90.09905941337516",
    "latitude": "29.921586876266588",
    "geocoded_column": {
      "latitude": "29.921586876266588",
      "longitude": "-90.09905941337516"
    }
  },
  {
    "service_request": "2025-1203444",
    "request_type": "Trash/Recycling",
    "request_reason": "Request a Large Item Pick Up",
    "date_created": "2025-06-23T15:04:11.000",
    "date_modified": "2025-06-23T15:04:12.000",
    "request_status": "Pending",
    "responsible_agency": "Department of Sanitation",
    "final_address": "6855 Tara Ln",
    "address_councildis": "E",
    "status": "Assigned to Contractor",
    "contractor": "Waste Pro",
    "rowid": "1203444",
    "final_x": "3707254.36753",
    "final_y": "559637.806685",
    "longitude": "-89.98570380597056",
    "latitude": "30.032001967477065",
    "geocoded_column": {
      "latitude": "30.032001967477065",
      "longitude": "-89.98570380597056"
    }
  },
  {
    "service_request": "2025-1203443",
    "request_type": "Trash/Recycling",
    "request_reason": "Request a Large Item Pick Up",
    "date_created": "2025-06-23T15:03:39.000",
    "date_modified": "2025-06-23T15:03:42.000",
    "request_status": "Pending",
    "responsible_agency": "Department of Sanitation",
    "final_address": "7512 Morrison Rd",
    "address_councildis": "E",
    "status": "Assigned to Contractor",
    "contractor": "Waste Pro",
    "rowid": "1203443",
    "final_x": "3700995.28721",
    "final_y": "559480.272989",
    "longitude": "-90.00548852587883",
    "latitude": "30.031769734686847",
    "geocoded_column": {
      "latitude": "30.031769734686847",
      "longitude": "-90.00548852587883"
    }
  },
  {
    "service_request": "2025-1203442",
    "request_type": "Trash/Recycling",
    "request_reason": "Request a Large Item Pick Up",
    "date_created": "2025-06-23T15:00:00.000",
    "date_modified": "2025-06-23T15:00:02.000",
    "request_status": "Pending",
    "responsible_agency": "Department of Sanitation",
    "final_address": "329 33Rd St",
    "address_councildis": "A",
    "status": "Assigned to Contractor",
    "contractor": "IV Waste",
    "rowid": "1203442",
    "final_x": "3665082.64692",
    "final_y": "551022.483477",
    "longitude": "-90.11925813581043",
    "latitude": "30.009609208744394",
    "geocoded_column": {
      "latitude": "30.009609208744394",
      "longitude": "-90.11925813581043"
    }
  },
  {
    "service_request": "2025-1203441",
    "request_type": "Trash/Recycling",
    "request_reason": "Request a Large Item Pick Up",
    "date_created": "2025-06-23T14:58:25.000",
    "date_modified": "2025-06-23T14:58:28.000",
    "request_status": "Pending",
    "responsible_agency": "Department of Sanitation",
    "final_address": "5141 Mckendall Pl",
    "address_councildis": "E",
    "status": "Assigned to Contractor",
    "contractor": "Waste Pro",
    "rowid": "1203441",
    "final_x": "3718113.72901",
    "final_y": "558888.830172",
    "longitude": "-89.9514165128859",
    "latitude": "30.02958693727156",
    "geocoded_column": {
      "latitude": "30.02958693727156",
      "longitude": "-89.9514165128859"
    }
  },
  {
    "service_request": "2025-1203440",
    "request_type": "Trash/Recycling",
    "request_reason": "Dead Animal Pick Up",
    "date_created": "2025-06-23T14:57:44.000",
    "date_modified": "2025-06-23T14:57:45.000",
    "request_status": "Pending",
    "responsible_agency": "Department of Sanitation",
    "final_address": "6400 St Claude Ave",
    "address_councildis": "E",
    "status": "Assigned to Contractor",
    "contractor": "Waste Pro",
    "rowid": "1203440",
    "final_x": "3700702.5578",
    "final_y": "532735.782596",
    "longitude": "-90.0073915372427",
    "latitude": "29.958241646904376",
    "geocoded_column": {
      "latitude": "29.958241646904376",
      "longitude": "-90.0073915372427"
    }
  },
  {
    "service_request": "2025-1203439",
    "request_type": "Trash/Recycling",
    "request_reason": "Order Trash Cart",
    "date_created": "2025-06-23T14:57:02.000",
    "date_modified": "2025-06-23T14:57:03.000",
    "request_status": "Pending",
    "responsible_agency": "Department of Sanitation",
    "final_address": "8234 Plum St",
    "address_councildis": "A",
    "status": "Assigned to Contractor",
    "contractor": "IV Waste",
    "rowid": "1203439",
    "final_x": "3661686.16269",
    "final_y": "529042.105472",
    "longitude": "-90.13071773271973",
    "latitude": "29.949268992438018",
    "geocoded_column": {
      "latitude": "29.949268992438018",
      "longitude": "-90.13071773271973"
    }
  },
  {
    "service_request": "2025-1203438",
    "request_type": "Trash/Recycling",
    "request_reason": "Order Trash Cart",
    "date_created": "2025-06-23T14:56:07.000",
    "date_modified": "2025-06-23T14:56:09.000",
    "request_status": "Pending",
    "responsible_agency": "Department of Sanitation",
    "final_address": "716 S Lopez St",
    "address_councildis": "B",
    "status": "Assigned to Contractor",
    "contractor": "IV Waste",
    "rowid": "1203438",
    "final_x": "3672276.97275",
    "final_y": "534072.992325",
    "longitude": "-90.09710640758213",
    "latitude": "29.962792372259884",
    "geocoded_column": {
      "latitude": "29.962792372259884",
      "longitude": "-90.09710640758213"
    }
  },
  {
    "service_request": "2025-1203437",
    "request_type": "Mosquito, Termite & Rodent Control",
    "request_reason": "Rodent Complaint (Mice & Rats)",
    "date_created": "2025-06-23T14:55:46.000",
    "date_modified": "2025-06-23T14:55:48.000",
    "request_status": "Pending",
    "responsible_agency": "Mosquito, Termite & Rodent Control Board",
    "final_address": "3010 Pauger St",
    "address_councildis": "D",
    "status": "Pending",
    "rowid": "1203437",
    "final_x": "3683480.42242",
    "final_y": "540739.921291",
    "longitude": "-90.0614937237381",
    "latitude": "29.980787000371134",
    "geocoded_column": {
      "latitude": "29.980787000371134",
      "longitude": "-90.0614937237381"
    }
  },
  {
    "service_request": "2025-1203436",
    "request_type": "Streetlights",
    "request_reason": "Streetlight Outage/Malfunction",
    "date_created": "2025-06-23T14:54:56.000",
    "date_modified": "2025-06-23T14:54:58.000",
    "request_status": "Pending",
    "responsible_agency": "Department of Public Works",
    "final_address": "6334 Mandeville St",
    "address_councildis": "D",
    "status": "Pending",
    "contractor": "Legacy Professional Services",
    "rowid": "1203436",
    "final_x": "3684116.95093",
    "final_y": "556428.712666",
    "longitude": "-90.05893217233822",
    "latitude": "30.02390608296561",
    "geocoded_column": {
      "latitude": "30.02390608296561",
      "longitude": "-90.05893217233822"
    }
  },
  {
    "service_request": "2025-1203435",
    "request_type": "Trash/Recycling",
    "request_reason": "Request a Large Item Pick Up",
    "date_created": "2025-06-23T14:51:36.000",
    "date_modified": "2025-06-23T14:51:38.000",
    "request_status": "Pending",
    "responsible_agency": "Department of Sanitation",
    "final_address": "2038 Burdette St",
    "address_councildis": "A",
    "status": "Assigned to Contractor",
    "contractor": "IV Waste",
    "rowid": "1203435",
    "final_x": "3664875.56365",
    "final_y": "529950.391873",
    "longitude": "-90.1206169859957",
    "latitude": "29.95167405748589",
    "geocoded_column": {
      "latitude": "29.95167405748589",
      "longitude": "-90.1206169859957"
    }
  },
  {
    "service_request": "2025-1203434",
    "request_type": "Trash/Recycling",
    "request_reason": "Missed Trash Pick-Up",
    "date_created": "2025-06-23T14:50:31.000",
    "date_modified": "2025-06-23T14:50:34.000",
    "request_status": "Pending",
    "responsible_agency": "Department of Sanitation",
    "final_address": "4631 Bright Dr",
    "address_councildis": "E",
    "status": "Assigned to Contractor",
    "contractor": "Waste Pro",
    "rowid": "1203434",
    "final_x": "3715933.88914",
    "final_y": "556503.008154",
    "longitude": "-89.95839516118839",
    "latitude": "30.02309898338429",
    "geocoded_column": {
      "latitude": "30.02309898338429",
      "longitude": "-89.95839516118839"
    }
  },
  {
    "service_request": "2025-1203433",
    "request_type": "Trash/Recycling",
    "request_reason": "Request a Large Item Pick Up",
    "date_created": "2025-06-23T14:49:43.000",
    "date_modified": "2025-06-23T14:49:44.000",
    "request_status": "Pending",
    "responsible_agency": "Department of Sanitation",
    "final_address": "31 Marywood Ct",
    "address_councildis": "E",
    "status": "Assigned to Contractor",
    "contractor": "Waste Pro",
    "rowid": "1203433",
    "final_x": "3712459.83678",
    "final_y": "566932.151332",
    "longitude": "-89.96897990820374",
    "latitude": "30.051889116564762",
    "geocoded_column": {
      "latitude": "30.051889116564762",
      "longitude": "-89.96897990820374"
    }
  },
  {
    "service_request": "2025-1203432",
    "request_type": "Trash/Recycling",
    "request_reason": "Missed Trash Pick-Up",
    "date_created": "2025-06-23T14:48:09.000",
    "date_modified": "2025-06-23T15:20:17.000",
    "case_close_date": "2025-06-23T10:20:16.000",
    "request_status": "Closed",
    "responsible_agency": "Department of Sanitation",
    "final_address": "3606 Banks St",
    "address_councildis": "B",
    "status": "Invalid Request",
    "contractor": "IV Waste",
    "contractor_action": "Invalid",
    "rowid": "1203432",
    "final_x": "3671766.79041",
    "final_y": "536229.785863",
    "longitude": "-90.09864411109723",
    "latitude": "29.968737956934607",
    "geocoded_column": {
      "latitude": "29.968737956934607",
      "longitude": "-90.09864411109723"
    }
  },