[
  {
    "service_request": "2024-1151350",
    "request_type": "Trash/Recycling",
    "request_reason": "Order Recycling Cart",
    "date_created": "2024-11-25T23:51:11.000",
    "date_modified": "2024-11-25T23:51:11.000",
    "request_status": "Pending",
    "responsible_agency": "Department of Sanitation",
    "final_address": "2530 Elder St",
    "address_councildis": "D",
    "status": "Pending",
    "rowid": "1151350",
    "final_x": "3686855.58159",
    "final_y": "545714.424144",
    "longitude": "-90.05065763061033",
    "latitude": "29.994361668899845",
    "geocoded_column": {
      "latitude": "29.994361668899845",
      "longitude": "-90.05065763061033"
    }
  },
  {
    "service_request": "2024-1151349",
    "request_type": "Road Striping",
    "request_reason": "Bike Lane",
    "date_created": "2024-11-25T23:39:02.000",
    "date_modified": "2024-11-25T23:39:02.000",
    "request_status": "Pending",
    "responsible_agency": "Department of Public Works",
    "final_address": "535 Napoleon Ave",
    "address_councildis": "B",
    "status": "Pending",
    "rowid": "1151349",
    "final_x": "3671245.87681",
    "final_y": "517697.072374",
    "longitude": "-90.10091868599694",
    "latitude": "29.917794461745054",
    "geocoded_column": {
      "latitude": "29.917794461745054",
      "longitude": "-90.10091868599694"
    }
  },
  {
    "service_request": "2024-1151348",
    "request_type": "General Services",
    "request_reason": "General Service Request",
    "date_created": "2024-11-25T23:34:00.000",
    "date_modified": "2024-11-25T23:34:00.000",
    "request_status": "Pending",
    "responsible_agency": "Orleans Parish Communication District",
    "final_address": "2845 Grand-Route St John St",
    "address_councildis": "A",
    "status": "Pending",
    "rowid": "1151348",
    "final_x": "3677936.44078",
    "final_y": "540319.103307",
    "longitude": "-90.07901861540415",
    "latitude": "29.979797934601176",
    "geocoded_column": {
      "latitude": "29.979797934601176",
      "longitude": "-90.07901861540415"
    }
  },
  {
    "service_request": "2024-1151347",
    "request_type": "Trash/Recycling",
    "request_reason": "Request a Large Item Pick Up",
    "date_created": "2024-11-25T22:37:15.000",
    "date_modified": "2024-11-25T22:37:16.000",
    "request_status": "Pending",
    "responsible_agency": "Department of Sanitation",
    "final_address": "7430 Camberley Dr",
    "address_councildis": "E",
    "status": "Assigned to Contractor",
    "contractor": "Waste Pro",
    "rowid": "1151347",
    "final_x": "3712692.96523",
    "final_y": "565553.582626",
    "longitude": "-89.96829497604182",
    "latitude": "30.04809097801865",
    "geocoded_column": {
      "latitude": "30.04809097801865",
      "longitude": "-89.96829497604182"
    }
  },
  {
    "service_request": "2024-1151346",
    "request_type": "Roads and Streets",
    "request_reason": "Road Shoulder Damage",
    "date_created": "2024-11-25T21:44:33.000",
    "date_modified": "2024-11-25T21:44:33.000",
    "request_status": "Pending",
    "responsible_agency": "Department of Public Works",
    "final_address": "69 N Park Pl",
    "address_councildis": "A",
    "status": "Pending",
    "rowid": "1151346",
    "final_x": "3669881.51783",
    "final_y": "544896.826063",
    "longitude": "-90.10430434750393",
    "latitude": "29.992625098979957",
    "geocoded_column": {
      "latitude": "29.992625098979957",
      "longitude": "-90.10430434750393"
    }
  },
  {
    "service_request": "2024-1151345",
    "request_type": "Roads and Streets",
    "request_reason": "Push-up/Pavement Expansion",
    "date_created": "2024-11-25T21:12:37.000",
    "date_modified": "2024-11-25T21:12:37.000",
    "request_status": "Pending",
    "responsible_agency": "Department of Public Works",
    "final_address": "4226 S Carrollton Ave",
    "address_councildis": "A",
    "status": "Pending",
    "rowid": "1151345",
    "final_x": "3669756.03143",
    "final_y": "536693.104135",
    "longitude": "-90.10497853889444",
    "latitude": "29.970071350013242",
    "geocoded_column": {
      "latitude": "29.970071350013242",
      "longitude": "-90.10497853889444"
    }
  },
  {
    "service_request": "2024-1151344",
    "request_type": "Utility Poles",
    "request_reason": "Utility Pole Down",
    "date_created": "2024-11-25T21:00:00.000",
    "date_modified": "2024-11-25T21:00:08.000",
    "request_status": "Pending",
    "responsible_agency": "Utility Company Collective",
    "final_address": "500 BLK Jena St",
    "address_councildis": "B",
    "status": "Pending",
    "rowid": "1151344",
    "final_x": "3670775.85592",
    "final_y": "517563.684149",
    "longitude": "-90.10240680895352",
    "latitude": "29.917441578498348",
    "geocoded_column": {
      "latitude": "29.917441578498348",
      "longitude": "-90.10240680895352"
    }
  },
  {
    "service_request": "2024-1151343",
    "request_type": "Trash/Recycling",
    "request_reason": "MIssed Recycling Pick-Up",
    "date_created": "2024-11-25T20:12:23.000",
    "date_modified": "2024-11-25T20:12:24.000",
    "request_status": "Pending",
    "responsible_agency": "Department of Sanitation",
    "final_address": "2737 Ursulines Ave",
    "address_councildis": "A",
    "status": "Assigned to Contractor",
    "contractor": "IV Waste",
    "rowid": "1151343",
    "final_x": "3677227.39304",
    "final_y": "538539.924425",
    "longitude": "-90.08131948021006",
    "latitude": "29.97492712789328",
    "geocoded_column": {
      "latitude": "29.97492712789328",
      "longitude": "-90.08131948021006"
    }
  },
  {
    "service_request": "2024-1151342",
    "request_type": "Trash/Recycling",
    "request_reason": "Request a Large Item Pick Up",
    "date_created": "2024-11-25T20:03:19.000",
    "date_modified": "2024-11-25T20:03:20.000",
    "request_status": "Pending",
    "responsible_agency": "Department of Sanitation",
    "final_address": "4524 Rosemont Pl",
    "address_councildis": "E",
    "status": "Assigned to Contractor",
    "contractor": "Waste Pro",
    "rowid": "1151342",
    "final_x": "3702746.81994",
    "final_y": "553713.533783",
    "longitude": "-90.00016565014923",
    "latitude": "30.015857498261596",
    "geocoded_column": {
      "latitude": "30.015857498261596",
      "longitude": "-90.00016565014923"
    }
  },
  {
    "service_request": "2024-1151341",
    "request_type": "Trash/Recycling",
    "request_reason": "Request a Large Item Pick Up",
    "date_created": "2024-11-25T19:56:26.000",
    "date_modified": "2024-11-25T19:56:27.000",
    "request_status": "Pending",
    "responsible_agency": "Department of Sanitation",
    "final_address": "2724 Calhoun St",
    "address_councildis": "A",
    "status": "Assigned to Contractor",
    "contractor": "IV Waste",
    "rowid": "1151341",
    "final_x": "3666486.86407",
    "final_y": "526837.087998",
    "longitude": "-90.1156337231951",
    "latitude": "29.94306648987642",
    "geocoded_column": {
      "latitude": "29.94306648987642",
      "longitude": "-90.1156337231951"
    }
  },
  {
    "service_request": "2024-1151340",
    "request_type": "Trash/Recycling",
    "request_reason": "Request a Large Item Pick Up",
    "date_created": "2024-11-25T19:55:57.000",
    "date_modified": "2024-11-25T19:55:58.000",
    "request_status": "Pending",
    "responsible_agency": "Department of Sanitation",
    "final_address": "2604 Calhoun St",
    "address_councildis": "A",
    "status": "Assigned to Contractor",
    "contractor": "IV Waste",
    "rowid": "1151340",
    "final_x": "3666303.09639",
    "final_y": "526461.24947",
    "longitude": "-90.11622652950933",
    "latitude": "29.94203842345606",
    "geocoded_column": {
      "latitude": "29.94203842345606",
      "longitude": "-90.11622652950933"
    }
  },
  {
    "service_request": "2024-1151339",
    "request_type": "Trash/Recycling",
    "request_reason": "Request a Large Item Pick Up",
    "date_created": "2024-11-25T19:12:30.000",
    "date_modified": "2024-11-25T19:12:31.000",
    "request_status": "Pending",
    "responsible_agency": "Department of Sanitation",
    "final_address": "1710 Pace Blvd",
    "address_councildis": "C",
    "status": "Assigned to Contractor",
    "contractor": "Richards Disposal",
    "rowid": "1151339",
    "final_x": "3694427.99722",
    "final_y": "524484.875836",
    "longitude": "-90.02750171235266",
    "latitude": "29.93575267059061",
    "geocoded_column": {
      "latitude": "29.93575267059061",
      "longitude": "-90.02750171235266"
    }
  },
  {
    "service_request": "2024-1151338",
    "request_type": "Roads and Streets",
    "request_reason": "Debris in Driving Lanes",
    "date_created": "2024-11-25T18:56:28.000",
    "date_modified": "2024-11-25T18:56:28.000",
    "request_status": "Pending",
    "responsible_agency": "Department of Public Works",
    "final_address": "2114 Lowerline St",
    "address_councildis": "A",
    "status": "Pending",
    "rowid": "1151338",
    "final_x": "3665477.70938",
    "final_y": "529657.266689",
    "longitude": "-90.11872550262122",
    "latitude": "29.950850521218268",
    "geocoded_column": {
      "latitude": "29.950850521218268",
      "longitude": "-90.11872550262122"
    }
  },
  {
    "service_request": "2024-1151337",
    "request_type": "Parks & Parkways",
    "request_reason": "Request Tree Service (Right of Way/Public Property)",
    "date_created": "2024-11-25T18:12:59.000",
    "date_modified": "2024-11-25T18:12:59.000",
    "request_status": "Pending",
    "responsible_agency": "Department of Parks & Parkway",
    "final_address": "2314 Jackson Ave",
    "address_councildis": "B",
    "status": "Pending",
    "rowid": "1151337",
    "final_x": "3675700.59515",
    "final_y": "526118.795134",
    "longitude": "-90.0865683460327",
    "latitude": "29.94081896960699",
    "geocoded_column": {
      "latitude": "29.94081896960699",
      "longitude": "-90.0865683460327"
    }
  },
  {
    "service_request": "2024-1151336",
    "request_type": "Streetlights",
    "request_reason": "Streetlight Outage/Malfunction",
    "date_created": "2024-11-25T18:09:08.000",
    "date_modified": "2024-11-25T18:09:09.000",
    "request_status": "Pending",
    "responsible_agency": "Department of Public Works",
    "final_address": "2314 Jackson Ave",
    "address_councildis": "B",
    "status": "Pending",
    "contractor": "Legacy Professional Services",
    "rowid": "1151336",
    "final_x": "3675700.59515",
    "final_y": "526118.795134",
    "longitude": "-90.0865683460327",
    "latitude": "29.94081896960699",
    "geocoded_column": {
      "latitude": "29.94081896960699",
      "longitude": "-90.0865683460327"
    }
  },
  {
    "service_request": "2024-1151335",
    "request_type": "Trash/Recycling",
    "request_reason": "Return Recycling Cart",
    "date_created": "2024-11-25T18:04:04.000",
    "date_modified": "2024-11-25T18:04:04.000",
    "request_status": "Pending",
    "responsible_agency": "Department of Sanitation",
    "final_address": "4116 Eve St",
    "address_councildis": "B",
    "status": "Pending",
    "rowid": "1151335",
    "final_x": "3670787.33153",
    "final_y": "530422.391426",
    "longitude": "-90.1019344032672",
    "latitude": "29.952798535665753",
    "geocoded_column": {
      "latitude": "29.952798535665753",
      "longitude": "-90.1019344032672"
    }
  },
  {
    "service_request": "2024-1151334",
    "request_type": "Trash/Recycling",
    "request_reason": "Request a Large Item Pick Up",
    "date_created": "2024-11-25T18:03:02.000",
    "date_modified": "2024-11-25T18:03:03.000",
    "request_status": "Pending",
    "responsible_agency": "Department of Sanitation",
    "final_address": "4152 Bienville Ave",
    "address_councildis": "A",
    "status": "Assigned to Contractor",
    "contractor": "IV Waste",
    "rowid": "1151334",
    "final_x": "3671194.69588",
    "final_y": "539172.43905",
    "longitude": "-90.10035082541633",
    "latitude": "29.97684619857511",
    "geocoded_column": {
      "latitude": "29.97684619857511",
      "longitude": "-90.10035082541633"
    }
  },
  {
    "service_request": "2024-1151333",
    "request_type": "Trash/Recycling",
    "request_reason": "Order Recycling Cart",
    "date_created": "2024-11-25T17:51:06.000",
    "date_modified": "2024-11-25T17:51:06.000",
    "request_status": "Pending",
    "responsible_agency": "Department of Sanitation",
    "final_address": "3145 Urquhart St",
    "address_councildis": "C",
    "status": "Pending",
    "rowid": "1151333",
    "final_x": "3689536.48092",
    "final_y": "536681.611207",
    "longitude": "-90.04251048203002",
    "latitude": "29.969441861051934",
    "geocoded_column": {
      "latitude": "29.969441861051934",
      "longitude": "-90.04251048203002"
    }
  },
  {
    "service_request": "2024-1151332",
    "request_type": "Trash/Recycling",
    "request_reason": "Order Trash Cart",
    "date_created": "2024-11-25T17:50:18.000",
    "date_modified": "2024-11-25T17:50:19.000",
    "request_status": "Pending",
    "responsible_agency": "Department of Sanitation",
    "final_address": "3145 Urquhart St",
    "address_councildis": "C",
    "status": "Assigned to Contractor",
    "contractor": "IV Waste",
    "rowid": "1151332",
    "final_x": "3689536.48092",
    "final_y": "536681.611207",
    "longitude": "-90.04251048203002",
    "latitude": "29.969441861051934",
    "geocoded_column": {
      "latitude": "29.969441861051934",
      "longitude": "-90.04251048203002"
    }
  },
  {
    "service_request": "2024-1151331",
    "request_type": "Street and Traffic Signs",
    "request_reason": "Additional Signage Request",
    "date_created": "2024-11-25T17:36:39.000",
    "date_modified": "2024-11-25T17:36:39.000",
    "request_status": "Pending",
    "responsible_agency": "Department of Public Works",
    "final_address": "3725 S Carrollton Ave",
    "address_councildis": "B",
    "status": "Pending",
    "rowid": "1151331",
    "final_x": "3668191.0434",
    "final_y": "534912.625286",
    "longitude": "-90.10998097877997",
    "latitude": "29.96522166367687",
    "geocoded_column": {
      "latitude": "29.96522166367687",
      "longitude": "-90.10998097877997"
    }
  },
  {
    "service_request": "2024-1151330",
    "request_type": "Trash/Recycling",
    "request_reason": "Illegal Dumping",
    "date_created": "2024-11-25T17:36:38.000",
    "date_modified": "2024-11-25T17:36:38.000",
    "request_status": "Pending",
    "responsible_agency": "Department of Sanitation",
    "final_address": "2622 Upperline St",
    "address_councildis": "B",
    "status": "Pending",
    "rowid": "1151330",
    "final_x": "3669145.10606",
    "final_y": "524457.546492",
    "longitude": "-90.10732135680342",
    "latitude": "29.936445574780144",
    "geocoded_column": {
      "latitude": "29.936445574780144",
      "longitude": "-90.10732135680342"
    }
  },
  {
    "service_request": "2024-1151329",
    "request_type": "Streetlights",
    "request_reason": "Streetlight Outage/Malfunction",
    "date_created": "2024-11-25T17:36:28.000",
    "date_modified": "2024-11-25T17:36:29.000",
    "request_status": "Pending",
    "responsible_agency": "Department of Public Works",
    "final_address": "6500 BLK Wuerpel St",
    "address_councildis": "A",
    "status": "Pending",
    "contractor": "Legacy Professional Services",
    "rowid": "1151329",
    "final_x": "3667091.60935",
    "final_y": "551495.066745",
    "longitude": "-90.11289518868311",
    "latitude": "30.010849965769847",
    "geocoded_column": {
      "latitude": "30.010849965769847",
      "longitude": "-90.11289518868311"
    }
  },
  {
    "service_request": "2024-1151328",
    "request_type": "Drainage",
    "request_reason": "Ditch and Culvert Maintenance",
    "date_created": "2024-11-25T17:29:05.000",
    "date_modified": "2024-11-25T17:29:05.000",
    "request_status": "Pending",
    "responsible_agency": "Department of Public Works",
    "final_address": "3154 Elmwood Park Dr",
    "address_councildis": "C",
    "status": "Pending",
    "rowid": "1151328",
    "final_x": "3694703.02986",
    "final_y": "518652.229239",
    "longitude": "-90.02684338794133",
    "latitude": "29.919706254248457",
    "geocoded_column": {
      "latitude": "29.919706254248457",
      "longitude": "-90.02684338794133"
    }
  },
  {
    "service_request": "2024-1151327",
    "request_type": "Property Maintenance",
    "request_reason": "Property Maintenance",
    "date_created": "2024-11-25T17:26:22.000",
    "date_modified": "2024-11-25T17:26:22.000",
    "request_status": "Pending",
    "responsible_agency": "Department of Code Enforcement",
    "final_address": "1940 Fern St",
    "address_councildis": "A",
    "status": "Pending",
    "rowid": "1151327",
    "final_x": "3664360.69716",
    "final_y": "529922.738177",
    "longitude": "-90.12224361677268",
    "latitude": "29.951612992114207",
    "geocoded_column": {
      "latitude": "29.951612992114207",
      "longitude": "-90.12224361677268"
    }
  },
  {
    "service_request": "2024-1151326",
    "request_type": "Trash/Recycling",
    "request_reason": "Missed Trash Pick-Up",
    "date_created": "2024-11-25T17:23:15.000",
    "date_modified": "2024-11-25T17:23:16.000",
    "request_status": "Pending",
    "responsible_agency": "Department of Sanitation",
    "final_address": "2016 Governor Nicholls St",
    "address_councildis": "D",
    "status": "Assigned to Contractor",
    "contractor": "IV Waste",
    "rowid": "1151326",
    "final_x": "3679877.89666",
    "final_y": "536777.054344",
    "longitude": "-90.07300975454918",
    "latitude": "29.96999994323643",
    "geocoded_column": {
      "latitude": "29.96999994323643",
      "longitude": "-90.07300975454918"
    }
  },
  {
    "service_request": "2024-1151325",
    "request_type": "Drainage",
    "request_reason": "Ditch and Culvert Maintenance",
    "date_created": "2024-11-25T17:18:09.000",
    "date_modified": "2024-11-25T17:18:09.000",
    "request_status": "Pending",
    "responsible_agency": "Department of Public Works",
    "final_address": "3154 Elmwood Park Dr",
    "address_councildis": "C",
    "status": "Pending",
    "rowid": "1151325",
    "final_x": "3694703.02986",
    "final_y": "518652.229239",
    "longitude": "-90.02684338794133",
    "latitude": "29.919706254248457",
    "geocoded_column": {
      "latitude": "29.919706254248457",
      "longitude": "-90.02684338794133"
    }
  },
  {
    "service_request": "2024-1151324",
    "request_type": "Trash/Recycling",
    "request_reason": "Order Recycling Cart",
    "date_created": "2024-11-25T17:04:38.000",
    "date_modified": "2024-11-25T17:04:38.000",
    "request_status": "Pending",
    "responsible_agency": "Department of Sanitation",
    "final_address": "1217 Patterson St",
    "address_councildis": "C",
    "status": "Pending",
    "rowid": "1151324",
    "final_x": "3689473.95311",
    "final_y": "531203.679938",
    "longitude": "-90.04290277665926",
    "latitude": "29.954381394748058",
    "geocoded_column": {
      "latitude": "29.954381394748058",
      "longitude": "-90.04290277665926"
    }
  },
  {
    "service_request": "2024-1151323",
    "request_type": "Trash/Recycling",
    "request_reason": "Order Trash Cart",
    "date_created": "2024-11-25T17:02:37.000",
    "date_modified": "2024-11-25T17:02:38.000",
    "request_status": "Pending",
    "responsible_agency": "Department of Sanitation",
    "final_address": "1217 Patterson St",
    "address_councildis": "C",
    "status": "Assigned to Contractor",
    "contractor": "Richards Disposal",
    "rowid": "1151323",
    "final_x": "3689473.95311",
    "final_y": "531203.679938",
    "longitude": "-90.04290277665926",
    "latitude": "29.954381394748058",
    "geocoded_column": {
      "latitude": "29.954381394748058",
      "longitude": "-90.04290277665926"
    }
  },
  {
    "service_request": "2024-1151322",
    "request_type": "Trash/Recycling",
    "request_reason": "Request a Large Item Pick Up",
    "date_created": "2024-11-25T17:02:09.000",
    "date_modified": "2024-11-25T17:02:10.000",
    "request_status": "Pending",
    "responsible_agency": "Department of Sanitation",
    "final_address": "4717 Rosemont Pl",
    "address_councildis": "E",
    "status": "Assigned to Contractor",
    "contractor": "Waste Pro",
    "rowid": "1151322",
    "final_x": "3702787.70814",
    "final_y": "554741.68092",
    "longitude": "-89.99999866250313",
    "latitude": "30.018683201306757",
    "geocoded_column": {
      "latitude": "30.018683201306757",
      "longitude": "-89.99999866250313"
    }
  },
  {
    "service_request": "2024-1151321",
    "request_type": "Trash/Recycling",
    "request_reason": "Request a Large Item Pick Up",
    "date_created": "2024-11-25T17:02:00.000",
    "date_modified": "2024-11-25T17:02:02.000",
    "request_status": "Pending",
    "responsible_agency": "Department of Sanitation",
    "final_address": "5309 Cameron Blvd",
    "address_councildis": "D",
    "status": "Assigned to Contractor",
    "contractor": "IV Waste",
    "rowid": "1151321",
    "final_x": "3682677.69224",
    "final_y": "552308.368278",
    "longitude": "-90.06362421509758",
    "latitude": "30.01262057906469",
    "geocoded_column": {
      "latitude": "30.01262057906469",
      "longitude": "-90.06362421509758"
    }
  },
  {
    "service_request": "2024-1151320",
    "request_type": "Trash/Recycling",
    "request_reason": "Missed Trash Pick-Up",
    "date_created": "2024-11-25T17:00:19.000",
    "date_modified": "2024-11-25T17:00:21.000",
    "request_status": "Pending",
    "responsible_agency": "Department of Sanitation",
    "final_address": "1102 Adams St",
    "address_councildis": "A",
    "status": "Assigned to Contractor",
    "contractor": "IV Waste",
    "rowid": "1151320",
    "final_x": "3662813.9376",
    "final_y": "527176.167231",
    "longitude": "-90.12721884568492",
    "latitude": "29.944105665455606",
    "geocoded_column": {
      "latitude": "29.944105665455606",
      "longitude": "-90.12721884568492"
    }
  },
  {
    "service_request": "2024-1151319",
    "request_type": "Trash/Recycling",
    "request_reason": "Illegal Dumping",
    "date_created": "2024-11-25T16:58:26.000",
    "date_modified": "2024-11-25T16:58:26.000",
    "request_status": "Pending",
    "responsible_agency": "Department of Sanitation",
    "final_address": "0 BLK Audubon Blvd",
    "address_councildis": "A",
    "status": "Pending",
    "rowid": "1151319",
    "final_x": "3665721.60225",
    "final_y": "527591.816651",
    "longitude": "-90.11802457989006",
    "latitude": "29.945164090388623",
    "geocoded_column": {
      "latitude": "29.945164090388623",
      "longitude": "-90.11802457989006"
    }
  },
  {
    "service_request": "2024-1151318",
    "request_type": "Trash/Recycling",
    "request_reason": "Request a Large Item Pick Up",
    "date_created": "2024-11-25T16:53:03.000",
    "date_modified": "2024-11-25T16:53:03.000",
    "request_status": "Pending",
    "responsible_agency": "Department of Sanitation",
    "final_address": "5043 E St Andrews Cir",
    "address_councildis": "E",
    "status": "Assigned to Contractor",
    "contractor": "Waste Pro",
    "rowid": "1151318",
    "final_x": "3719574.2677",
    "final_y": "559926.201501",
    "longitude": "-89.94676162284782",
    "latitude": "30.03239077538315",
    "geocoded_column": {
      "latitude": "30.03239077538315",
      "longitude": "-89.94676162284782"
    }
  },
  {
    "service_request": "2024-1151317",
    "request_type": "Property Maintenance",
    "request_reason": "Property Maintenance",
    "date_created": "2024-11-25T16:49:54.000",
    "date_modified": "2024-11-25T16:49:54.000",
    "request_status": "Pending",
    "responsible_agency": "Department of Code Enforcement",
    "final_address": "10101 Chef Menteur Hwy Stop 520",
    "address_councildis": "E",
    "status": "Pending",
    "rowid": "1151317",
    "final_x": "3712984.76325",
    "final_y": "554884.632024",
    "longitude": "-89.9677745946534",
    "latitude": "30.01874605885781",
    "geocoded_column": {
      "latitude": "30.01874605885781",
      "longitude": "-89.9677745946534"
    }
  },
  {
    "service_request": "2024-1151316",
    "request_type": "Trash/Recycling",
    "request_reason": "Start Trash Service",
    "date_created": "2024-11-25T16:49:48.000",
    "date_modified": "2024-11-25T16:49:49.000",
    "request_status": "Pending",
    "responsible_agency": "Department of Sanitation",
    "final_address": "5178 Metropolitan Drive, New Orleans, LA 70126",
    "status": "Assigned to Contractor",
    "rowid": "1151316",
    "longitude": "0.0",
    "latitude": "0.0",
    "geocoded_column": {
      "latitude": "0.0",
      "longitude": "0.0"
    }
  },
  {
    "service_request": "2024-1151315",
    "request_type": "Property Maintenance",
    "request_reason": "Property Maintenance",
    "date_created": "2024-11-25T16:49:13.000",
    "date_modified": "2024-11-25T16:49:13.000",
    "request_status": "Pending",
    "responsible_agency": "Department of Code Enforcement",
    "final_address": "4523 Read Blvd",
    "address_councildis": "E",
    "status": "Pending",
    "rowid": "1151315",
    "final_x": "3712944.96382",
    "final_y": "555097.242905",
    "longitude": "-89.96789234011118",
    "latitude": "30.01933195944609",
    "geocoded_column": {
      "latitude": "30.01933195944609",
      "longitude": "-89.96789234011118"
    }
  },
  {
    "service_request": "2024-1151314",
    "request_type": "Property Maintenance",
    "request_reason": "Property Maintenance",
    "date_created": "2024-11-25T16:47:51.000",
    "date_modified": "2024-11-25T16:47:51.000",
    "request_status": "Pending",
    "responsible_agency": "Department of Code Enforcement",
    "final_address": "4968 Read Blvd",
    "address_councildis": "E",
    "status": "Pending",
    "rowid": "1151314",
    "final_x": "3712549.51115",
    "final_y": "557361.599771",
    "longitude": "-89.96905663853717",
    "latitude": "30.02557100089648",
    "geocoded_column": {
      "latitude": "30.02557100089648",
      "longitude": "-89.96905663853717"
    }
  },
  {
    "service_request": "2024-1151313",
    "request_type": "Trash/Recycling",
    "request_reason": "Order Trash Cart",
    "date_created": "2024-11-25T16:46:32.000",
    "date_modified": "2024-11-25T16:46:33.000",
    "request_status": "Pending",
    "responsible_agency": "Department of Sanitation",
    "final_address": "2017 N Villere St",
    "address_councildis": "C",
    "status": "Assigned to Contractor",
    "contractor": "IV Waste",
    "rowid": "1151313",
    "final_x": "3684282.77609",
    "final_y": "537388.997384",
    "longitude": "-90.05907723956028",
    "latitude": "29.971548618533532",
    "geocoded_column": {
      "latitude": "29.971548618533532",
      "longitude": "-90.05907723956028"
    }
  },
  {
    "service_request": "2024-1151312",
    "request_type": "Property Maintenance",
    "request_reason": "Property Maintenance",
    "date_created": "2024-11-25T16:45:31.000",
    "date_modified": "2024-11-25T16:45:31.000",
    "request_status": "Pending",
    "responsible_agency": "Department of Code Enforcement",
    "final_address": "6945 Virgillian st, 70126",
    "status": "Pending",
    "rowid": "1151312",
    "longitude": "0.0",
    "latitude": "0.0",
    "geocoded_column": {
      "latitude": "0.0",
      "longitude": "0.0"
    }
  },
  {
    "service_request": "2024-1151311",
    "request_type": "Property Maintenance",
    "request_reason": "Property Maintenance",
    "date_created": "2024-11-25T16:44:51.000",
    "date_modified": "2024-11-25T16:44:51.000",
    "request_status": "Pending",
    "responsible_agency": "Department of Code Enforcement",
    "final_address": "10218 Hammond St",
    "address_councildis": "E",
    "status": "Pending",
    "rowid": "1151311",
    "final_x": "3713294.32344",
    "final_y": "556370.326362",
    "longitude": "-89.96674051948061",
    "latitude": "30.022820985994095",
    "geocoded_column": {
      "latitude": "30.022820985994095",
      "longitude": "-89.96674051948061"
    }
  },
  {
    "service_request": "2024-1151310",
    "request_type": "Property Maintenance",
    "request_reason": "Property Maintenance",
    "date_created": "2024-11-25T16:43:41.000",
    "date_modified": "2024-11-25T16:43:41.000",
    "request_status": "Pending",
    "responsible_agency": "Department of Code Enforcement",
    "final_address": "4735 Warren Dr",
    "address_councildis": "E",
    "status": "Pending",
    "rowid": "1151310",
    "final_x": "3713531.44159",
    "final_y": "556259.939418",
    "longitude": "-89.96599545061848",
    "latitude": "30.022509687381667",
    "geocoded_column": {
      "latitude": "30.022509687381667",
      "longitude": "-89.96599545061848"
    }
  },
  {
    "service_request": "2024-1151309",
    "request_type": "Property Maintenance",
    "request_reason": "Property Maintenance",
    "date_created": "2024-11-25T16:42:45.000",
    "date_modified": "2024-11-25T16:42:45.000",
    "request_status": "Pending",
    "responsible_agency": "Department of Code Enforcement",
    "final_address": "4711 Warren Dr",
    "address_councildis": "E",
    "status": "Pending",
    "rowid": "1151309",
    "final_x": "3713549.53208",
    "final_y": "556081.24393",
    "longitude": "-89.9659450276485",
    "latitude": "30.022017751692967",
    "geocoded_column": {
      "latitude": "30.022017751692967",
      "longitude": "-89.9659450276485"
    }
  },
  {
    "service_request": "2024-1151308",
    "request_type": "Property Maintenance",
    "request_reason": "Property Maintenance",
    "date_created": "2024-11-25T16:41:53.000",
    "date_modified": "2024-11-25T16:41:53.000",
    "request_status": "Pending",
    "responsible_agency": "Department of Code Enforcement",
    "final_address": "4743 Warren Dr",
    "address_councildis": "E",
    "status": "Pending",
    "rowid": "1151308",
    "final_x": "3713525.50328",
    "final_y": "556321.03305",
    "longitude": "-89.96601191052265",
    "latitude": "30.022677865605388",
    "geocoded_column": {
      "latitude": "30.022677865605388",
      "longitude": "-89.96601191052265"
    }
  },
  {
    "service_request": "2024-1151307",
    "request_type": "Property Maintenance",
    "request_reason": "Property Maintenance",
    "date_created": "2024-11-25T16:40:50.000",
    "date_modified": "2024-11-25T16:40:50.000",
    "request_status": "Pending",
    "responsible_agency": "Department of Code Enforcement",
    "final_address": "10123 Dreux Ave",
    "address_councildis": "E",
    "status": "Pending",
    "rowid": "1151307",
    "final_x": "3713028.32459",
    "final_y": "555989.936281",
    "longitude": "-89.96759533216819",
    "latitude": "30.021783783518938",
    "geocoded_column": {
      "latitude": "30.021783783518938",
      "longitude": "-89.96759533216819"
    }
  },
  {
    "service_request": "2024-1151306",
    "request_type": "Trash/Recycling",
    "request_reason": "Request a Large Item Pick Up",
    "date_created": "2024-11-25T16:39:40.000",
    "date_modified": "2024-11-25T16:39:41.000",
    "request_status": "Pending",
    "responsible_agency": "Department of Sanitation",
    "final_address": "4918 Friar Tuck Dr",
    "address_councildis": "E",
    "status": "Assigned to Contractor",
    "contractor": "Waste Pro",
    "rowid": "1151306",
    "final_x": "3717630.86092",
    "final_y": "557794.632475",
    "longitude": "-89.95298400345273",
    "latitude": "30.02659433578124",
    "geocoded_column": {
      "latitude": "30.02659433578124",
      "longitude": "-89.95298400345273"
    }
  },
  {
    "service_request": "2024-1151305",
    "request_type": "Trash/Recycling",
    "request_reason": "Request a Large Item Pick Up",
    "date_created": "2024-11-25T16:39:12.000",
    "date_modified": "2024-11-25T16:39:13.000",
    "request_status": "Pending",
    "responsible_agency": "Department of Sanitation",
    "final_address": "3317 Fourth St",
    "address_councildis": "B",
    "status": "Assigned to Contractor",
    "contractor": "IV Waste",
    "rowid": "1151305",
    "final_x": "3672779.9122",
    "final_y": "527909.090239",
    "longitude": "-90.09572842324575",
    "latitude": "29.945828754758562",
    "geocoded_column": {
      "latitude": "29.945828754758562",
      "longitude": "-90.09572842324575"
    }
  },
  {
    "service_request": "2024-1151304",
    "request_type": "Trash/Recycling",
    "request_reason": "Request a Large Item Pick Up",
    "date_created": "2024-11-25T16:38:53.000",
    "date_modified": "2024-11-25T16:38:54.000",
    "request_status": "Pending",
    "responsible_agency": "Department of Sanitation",
    "final_address": "1731 Congress St",
    "address_councildis": "D",
    "status": "Assigned to Contractor",
    "contractor": "IV Waste",
    "rowid": "1151304",
    "final_x": "3691373.68771",
    "final_y": "538040.786249",
    "longitude": "-90.03665988137627",
    "latitude": "29.973122075232343",
    "geocoded_column": {
      "latitude": "29.973122075232343",
      "longitude": "-90.03665988137627"
    }
  },
  {
    "service_request": "2024-1151303",
    "request_type": "Trash/Recycling",
    "request_reason": "Request a Large Item Pick Up",
    "date_created": "2024-11-25T16:32:43.000",
    "date_modified": "2024-11-25T16:32:44.000",
    "request_status": "Pending",
    "responsible_agency": "Department of Sanitation",
    "final_address": "8132 Belfast St",
    "address_councildis": "A",
    "status": "Assigned to Contractor",
    "contractor": "IV Waste",
    "rowid": "1151303",
    "final_x": "3665382.86381",
    "final_y": "532501.925316",
    "longitude": "-90.11892978353336",
    "latitude": "29.95867517036736",
    "geocoded_column": {
      "latitude": "29.95867517036736",
      "longitude": "-90.11892978353336"
    }
  },
  {
    "service_request": "2024-1151302",
    "request_type": "Mosquito, Termite & Rodent Control",
    "request_reason": "Mosquito Complaint",
    "date_created": "2024-11-25T16:27:03.000",
    "date_modified": "2024-11-25T16:27:03.000",
    "request_status": "Pending",
    "responsible_agency": "Mosquito, Termite & Rodent Control Board",
    "final_address": "871 Topaz St",
    "address_councildis": "D",
    "status": "Pending",
    "rowid": "1151302",
    "final_x": "3670730.00161",
    "final_y": "556772.790298",
    "longitude": "-90.10122075241216",
    "latitude": "30.025254770092427",
    "geocoded_column": {
      "latitude": "30.025254770092427",
      "longitude": "-90.10122075241216"
    }
  },
  {
    "service_request": "2024-1151301",
    "request_type": "Trash/Recycling",
    "request_reason": "Request a Large Item Pick Up",
    "date_created": "2024-11-25T16:18:00.000",
    "date_modified": "2024-11-25T16:18:01.000",
    "request_status": "Pending",
    "responsible_agency": "Department of Sanitation",
    "final_address": "5224 Dauphine St",
    "address_councildis": "E",
    "status": "Assigned to Contractor",
    "contractor": "Waste Pro",
    "rowid": "1151301",
    "final_x": "3696414.21655",
    "final_y": "532915.153028",
    "longitude": "-90.02092638789604",
    "latitude": "29.95887060380209",
    "geocoded_column": {
      "latitude": "29.95887060380209",
      "longitude": "-90.02092638789604"
    }
  },
  {
    "service_request": "2024-1151300",
    "request_type": "Trash/Recycling",
    "request_reason": "Repair Trash Cart",
    "date_created": "2024-11-25T16:16:30.000",
    "date_modified": "2024-11-25T16:16:31.000",
    "request_status": "Pending",
    "responsible_agency": "Department of Sanitation",
    "final_address": "3604 Cleveland Ave",
    "address_councildis": "B",
    "status": "Assigned to Contractor",
    "contractor": "IV Waste",
    "rowid": "1151300",
    "final_x": "3672219.56391",
    "final_y": "536815.372872",
    "longitude": "-90.09719427213317",
    "latitude": "29.970334701092114",
    "geocoded_column": {
      "latitude": "29.970334701092114",
      "longitude": "-90.09719427213317"
    }
  },
  {
    "service_request": "2024-1151299",
    "request_type": "Roads and Streets",
    "request_reason": "Street Subsidence (Sinking)",
    "date_created": "2024-11-25T16:14:18.000",
    "date_modified": "2024-11-25T16:14:18.000",
    "request_status": "Pending",
    "responsible_agency": "Department of Public Works",
    "final_address": "1 English Turn Prkwy",
    "address_councildis": "C",
    "status": "Pending",
    "rowid": "1151299",
    "final_x": "3713690.71429",
    "final_y": "516301.512564",
    "longitude": "-89.96699773956271",
    "latitude": "29.912633659868995",
    "geocoded_column": {
      "latitude": "29.912633659868995",
      "longitude": "-89.96699773956271"
    }
  },
  {
    "service_request": "2024-1151298",
    "request_type": "Trash/Recycling",
    "request_reason": "MIssed Recycling Pick-Up",
    "date_created": "2024-11-25T16:10:42.000",
    "date_modified": "2024-11-25T16:10:43.000",
    "request_status": "Pending",
    "responsible_agency": "Department of Sanitation",
    "final_address": "4525 Patterson St",
    "address_councildis": "C",
    "status": "Assigned to Contractor",
    "contractor": "Richards Disposal",
    "rowid": "1151298",
    "final_x": "3700607.53905",
    "final_y": "525534.825789",
    "longitude": "-90.00795459297763",
    "latitude": "29.93844457878178",
    "geocoded_column": {
      "latitude": "29.93844457878178",
      "longitude": "-90.00795459297763"
    }
  },
  {
    "service_request": "2024-1151297",
    "request_type": "Trash/Recycling",
    "request_reason": "Request a Large Item Pick Up",
    "date_created": "2024-11-25T16:06:19.000",
    "date_modified": "2024-11-25T16:06:20.000",
    "request_status": "Pending",
    "responsible_agency": "Department of Sanitation",
    "final_address": "4827 Michoud Blvd",
    "address_councildis": "E",
    "status": "Assigned to Contractor",
    "contractor": "Waste Pro",
    "rowid": "1151297",
    "final_x": "3725204.75692",
    "final_y": "560807.90563",
    "longitude": "-89.92893496838317",
    "latitude": "30.034626555451585",
    "geocoded_column": {
      "latitude": "30.034626555451585",
      "longitude": "-89.92893496838317"
    }
  },
  {
    "service_request": "2024-1151296",
    "request_type": "Trash/Recycling",
    "request_reason": "Request a Large Item Pick Up",
    "date_created": "2024-11-25T16:06:13.000",
    "date_modified": "2024-11-25T16:06:14.000",
    "request_status": "Pending",
    "responsible_agency": "Department of Sanitation",
    "final_address": "529 Austerlitz St",
    "address_councildis": "B",
    "status": "Assigned to Contractor",
    "contractor": "IV Waste",
    "rowid": "1151296",
    "final_x": "3673011.8212",
    "final_y": "517870.858998",
    "longitude": "-90.09533863832412",
    "latitude": "29.918219974954027",
    "geocoded_column": {
      "latitude": "29.918219974954027",
      "longitude": "-90.09533863832412"
    }
  },
  {
    "service_request": "2024-1151295",
    "request_type": "Abandoned Vehicles",
    "request_reason": "Abandoned/Junk Vehicles",
    "date_created": "2024-11-25T15:59:59.000",
    "date_modified": "2024-11-25T16:02:15.000",
    "request_status": "Pending",
    "responsible_agency": "Department of Public Works",
    "final_address": "ELYSIAN FIELDS AVE & I 610 W",
    "address_councildis": "D",
    "status": "Pending",
    "rowid": "1151295",
    "final_x": "3684394.0",
    "final_y": "544639.28",
    "longitude": "-90.05847122150196",
    "latitude": "29.991480943716812",
    "geocoded_column": {
      "latitude": "29.991480943716812",
      "longitude": "-90.05847122150196"
    }
  },
  {
    "service_request": "2024-1151294",
    "request_type": "Abandoned Vehicles",
    "request_reason": "Abandoned/Junk Vehicles",
    "date_created": "2024-11-25T15:54:13.000",
    "date_modified": "2024-11-25T15:56:11.000",
    "request_status": "Pending",
    "responsible_agency": "Department of Public Works",
    "final_address": "4900 Canal St",
    "address_councildis": "A",
    "status": "Pending",
    "rowid": "1151294",
    "final_x": "3668444.51732",
    "final_y": "540247.428811",
    "longitude": "-90.10900050779789",
    "latitude": "29.979883142646745",
    "geocoded_column": {
      "latitude": "29.979883142646745",
      "longitude": "-90.10900050779789"
    }
  },
  {
    "service_request": "2024-1151293",
    "request_type": "Trash/Recycling",
    "request_reason": "Request a Large Item Pick Up",
    "date_created": "2024-11-25T15:53:59.000",
    "date_modified": "2024-11-25T15:54:01.000",
    "request_status": "Pending",
    "responsible_agency": "Department of Sanitation",
    "final_address": "325 S St Patrick St",
    "address_councildis": "A",
    "status": "Assigned to Contractor",
    "contractor": "IV Waste",
    "rowid": "1151293",
    "final_x": "3668475.52167",
    "final_y": "539061.934922",
    "longitude": "-90.10894259259986",
    "latitude": "29.976622523364362",
    "geocoded_column": {
      "latitude": "29.976622523364362",
      "longitude": "-90.10894259259986"
    }
  },
  {
    "service_request": "2024-1151292",
    "request_type": "Trash/Recycling",
    "request_reason": "Illegal Dumping",
    "date_created": "2024-11-25T15:53:50.000",
    "date_modified": "2024-11-25T15:53:51.000",
    "request_status": "Pending",
    "responsible_agency": "Department of Sanitation",
    "final_address": "6320 Mckenna St",
    "address_councildis": "A",
    "status": "Pending",
    "rowid": "1151292",
    "final_x": "3667530.10151",
    "final_y": "529409.449729",
    "longitude": "-90.11225340503044",
    "latitude": "29.95010912485791",
    "geocoded_column": {
      "latitude": "29.95010912485791",
      "longitude": "-90.11225340503044"
    }
  },
  {
    "service_request": "2024-1151291",
    "request_type": "Trash/Recycling",
    "request_reason": "Request a Large Item Pick Up",
    "date_created": "2024-11-25T15:46:54.000",
    "date_modified": "2024-11-25T15:46:55.000",
    "request_status": "Pending",
    "responsible_agency": "Department of Sanitation",
    "final_address": "11342 Pressburg St",
    "address_councildis": "E",
    "status": "Assigned to Contractor",
    "contractor": "Waste Pro",
    "rowid": "1151291",
    "final_x": "3717266.61458",
    "final_y": "557505.501275",
    "longitude": "-89.95414596508766",
    "latitude": "30.02581140064734",
    "geocoded_column": {
      "latitude": "30.02581140064734",
      "longitude": "-89.95414596508766"
    }
  },
  {
    "service_request": "2024-1151290",
    "request_type": "Utility Poles",
    "request_reason": "Wires Sagging/Hanging Low",
    "date_created": "2024-11-25T15:45:44.000",
    "date_modified": "2024-11-25T15:45:48.000",
    "request_status": "Pending",
    "responsible_agency": "Utility Company Collective",
    "final_address": "PRENTISS AVE & ST BERNARD AVE",
    "address_councildis": "D",
    "status": "Pending",
    "rowid": "1151290",
    "final_x": "3676916.4",
    "final_y": "553238.78",
    "longitude": "-90.08179462596016",
    "latitude": "30.01535315872736",
    "geocoded_column": {
      "latitude": "30.01535315872736",
      "longitude": "-90.08179462596016"
    }
  },
  {
    "service_request": "2024-1151289",
    "request_type": "Drainage",
    "request_reason": "Alley Way Drainage Issue",
    "date_created": "2024-11-25T15:45:36.000",
    "date_modified": "2024-11-25T15:45:36.000",
    "request_status": "Pending",
    "responsible_agency": "Department of Public Works",
    "final_address": "1741 Poydras St",
    "address_councildis": "B",
    "status": "Pending",
    "rowid": "1151289",
    "final_x": "3677073.11963",
    "final_y": "530804.668802",
    "longitude": "-90.08207349038473",
    "latitude": "29.953662429924364",
    "geocoded_column": {
      "latitude": "29.953662429924364",
      "longitude": "-90.08207349038473"
    }
  },
  {
    "service_request": "2024-1151288",
    "request_type": "Trash/Recycling",
    "request_reason": "Request a Large Item Pick Up",
    "date_created": "2024-11-25T15:44:00.000",
    "date_modified": "2024-11-25T15:44:01.000",
    "request_status": "Pending",
    "responsible_agency": "Department of Sanitation",
    "final_address": "338 Vallette St",
    "address_councildis": "C",
    "status": "Assigned to Contractor",
    "contractor": "Richards Disposal",
    "rowid": "1151288",
    "final_x": "3687637.01219",
    "final_y": "530454.836866",
    "longitude": "-90.0487296038945",
    "latitude": "29.95237908895206",
    "geocoded_column": {
      "latitude": "29.95237908895206",
      "longitude": "-90.0487296038945"
    }
  },
  {
    "service_request": "2024-1151287",
    "request_type": "Trash/Recycling",
    "request_reason": "Repair Recycling Cart",
    "date_created": "2024-11-25T15:40:24.000",
    "date_modified": "2024-11-25T15:40:24.000",
    "request_status": "Pending",
    "responsible_agency": "Department of Sanitation",
    "final_address": "8516 Edinburgh St",
    "address_councildis": "A",
    "status": "Pending",
    "rowid": "1151287",
    "final_x": "3666291.66157",
    "final_y": "535468.515718",
    "longitude": "-90.11596049960531",
    "latitude": "29.966805801368416",
    "geocoded_column": {
      "latitude": "29.966805801368416",
      "longitude": "-90.11596049960531"
    }
  },
  {
    "service_request": "2024-1151286",
    "request_type": "Trash/Recycling",
    "request_reason": "Request a Large Item Pick Up",
    "date_created": "2024-11-25T15:31:10.000",
    "date_modified": "2024-11-25T15:31:11.000",
    "request_status": "Pending",
    "responsible_agency": "Department of Sanitation",
    "final_address": "4618 Longfellow Dr",
    "address_councildis": "E",
    "status": "Assigned to Contractor",
    "contractor": "Waste Pro",
    "rowid": "1151286",
    "final_x": "3709636.78526",
    "final_y": "554993.145688",
    "longitude": "-89.97834885248561",
    "latitude": "30.019153713352896",
    "geocoded_column": {
      "latitude": "30.019153713352896",
      "longitude": "-89.97834885248561"
    }
  },
  {
    "service_request": "2024-1151285",
    "request_type": "Trash/Recycling",
    "request_reason": "MIssed Recycling Pick-Up",
    "date_created": "2024-11-25T15:29:46.000",
    "date_modified": "2024-11-25T15:29:47.000",
    "request_status": "Pending",
    "responsible_agency": "Department of Sanitation",
    "final_address": "4618 Longfellow Dr",
    "address_councildis": "E",
    "status": "Assigned to Contractor",
    "contractor": "Waste Pro",
    "rowid": "1151285",
    "final_x": "3709636.78526",
    "final_y": "554993.145688",
    "longitude": "-89.97834885248561",
    "latitude": "30.019153713352896",
    "geocoded_column": {
      "latitude": "30.019153713352896",
      "longitude": "-89.97834885248561"
    }
  },
  {
    "service_request": "2024-1151284",
    "request_type": "Trash/Recycling",
    "request_reason": "Request a Large Item Pick Up",
    "date_created": "2024-11-25T15:22:49.000",
    "date_modified": "2024-11-25T15:22:50.000",
    "request_status": "Pending",
    "responsible_agency": "Department of Sanitation",
    "final_address": "3609 Elaine Pl",
    "address_councildis": "A",
    "status": "Assigned to Contractor",
    "contractor": "IV Waste",
    "rowid": "1151284",
    "final_x": "3674266.12846",
    "final_y": "539443.546698",
    "longitude": "-90.0906409713863",
    "latitude": "29.97750041789848",
    "geocoded_column": {
      "latitude": "29.97750041789848",
      "longitude": "-90.0906409713863"
    }
  },
  {
    "service_request": "2024-1151283",
    "request_type": "Utility Poles",
    "request_reason": "Utility Pole Down",
    "date_created": "2024-11-25T15:22:29.000",
    "date_modified": "2024-11-25T15:22:35.000",
    "request_status": "Pending",
    "responsible_agency": "Utility Company Collective",
    "final_address": "1974 Mirabeau Ave",
    "address_councildis": "D",
    "status": "Pending",
    "rowid": "1151283",
    "final_x": "3682254.85352",
    "final_y": "550494.711764",
    "longitude": "-90.06502357700847",
    "latitude": "30.007646556660156",
    "geocoded_column": {
      "latitude": "30.007646556660156",
      "longitude": "-90.06502357700847"
    }
  },
  {
    "service_request": "2024-1151282",
    "request_type": "Streetlights",
    "request_reason": "Streetlight Outage/Malfunction",
    "date_created": "2024-11-25T15:21:41.000",
    "date_modified": "2024-11-25T15:21:42.000",
    "request_status": "Pending",
    "responsible_agency": "Department of Public Works",
    "final_address": "1240 Frenchmen St",
    "address_councildis": "C",
    "status": "Pending",
    "contractor": "Legacy Professional Services",
    "rowid": "1151282",
    "final_x": "3684507.22338",
    "final_y": "536954.850824",
    "longitude": "-90.05838365885094",
    "latitude": "29.970348001330255",
    "geocoded_column": {
      "latitude": "29.970348001330255",
      "longitude": "-90.05838365885094"
    }
  },
  {
    "service_request": "2024-1151281",
    "request_type": "Trash/Recycling",
    "request_reason": "Illegal Dumping",
    "date_created": "2024-11-25T15:20:58.000",
    "date_modified": "2024-11-25T15:20:59.000",
    "request_status": "Pending",
    "responsible_agency": "Department of Sanitation",
    "final_address": "4714 Werner Dr",
    "address_councildis": "E",
    "status": "Pending",
    "rowid": "1151281",
    "final_x": "3704752.64772",
    "final_y": "555120.669657",
    "longitude": "-89.99377621033014",
    "latitude": "30.01966225868786",
    "geocoded_column": {
      "latitude": "30.01966225868786",
      "longitude": "-89.99377621033014"
    }
  },
  {
    "service_request": "2024-1151280",
    "request_type": "Trash/Recycling",
    "request_reason": "Request a Large Item Pick Up",
    "date_created": "2024-11-25T15:20:46.000",
    "date_modified": "2024-11-25T15:20:47.000",
    "request_status": "Pending",
    "responsible_agency": "Department of Sanitation",
    "final_address": "1474 Constance St",
    "address_councildis": "B",
    "status": "Assigned to Contractor",
    "contractor": "IV Waste",
    "rowid": "1151280",
    "final_x": "3680609.51023",
    "final_y": "523820.312315",
    "longitude": "-90.0711499808611",
    "latitude": "29.934351123438777",
    "geocoded_column": {
      "latitude": "29.934351123438777",
      "longitude": "-90.0711499808611"
    }
  },
  {
    "service_request": "2024-1151279",
    "request_type": "Trash/Recycling",
    "request_reason": "Repair Trash Cart",
    "date_created": "2024-11-25T15:18:27.000",
    "date_modified": "2024-11-25T15:18:28.000",
    "request_status": "Pending",
    "responsible_agency": "Department of Sanitation",
    "final_address": "5 Ibis St",
    "address_councildis": "D",
    "status": "Assigned to Contractor",
    "contractor": "IV Waste",
    "rowid": "1151279",
    "final_x": "3675473.12776",
    "final_y": "555378.417625",
    "longitude": "-90.08628112627498",
    "latitude": "30.02127965886256",
    "geocoded_column": {
      "latitude": "30.02127965886256",
      "longitude": "-90.08628112627498"
    }
  },
  {
    "service_request": "2024-1151278",
    "request_type": "Trash/Recycling",
    "request_reason": "Request a Large Item Pick Up",
    "date_created": "2024-11-25T15:16:57.000",
    "date_modified": "2024-11-25T15:16:58.000",
    "request_status": "Pending",
    "responsible_agency": "Department of Sanitation",
    "final_address": "7621 Branch Dr",
    "address_councildis": "E",
    "status": "Assigned to Contractor",
    "contractor": "Waste Pro",
    "rowid": "1151278",
    "final_x": "3714835.61624",
    "final_y": "568618.914405",
    "longitude": "-89.96140705135957",
    "latitude": "30.056449027031057",
    "geocoded_column": {
      "latitude": "30.056449027031057",
      "longitude": "-89.96140705135957"
    }
  },
  {
    "service_request": "2024-1151277",
    "request_type": "Trash/Recycling",
    "request_reason": "Repair Recycling Cart",
    "date_created": "2024-11-25T15:16:54.000",
    "date_modified": "2024-11-25T15:16:55.000",
    "request_status": "Pending",
    "responsible_agency": "Department of Sanitation",
    "final_address": "1316 Toledano St",
    "address_councildis": "B",
    "status": "Pending",
    "rowid": "1151277",
    "final_x": "3675004.57185",
    "final_y": "520576.692664",
    "longitude": "-90.0889558375557",
    "latitude": "29.925600796737257",
    "geocoded_column": {
      "latitude": "29.925600796737257",
      "longitude": "-90.0889558375557"
    }
  },
  {
    "service_request": "2024-1151276",
    "request_type": "Drainage",
    "request_reason": "Ditch and Culvert Maintenance",
    "date_created": "2024-11-25T15:16:34.000",
    "date_modified": "2024-11-25T15:16:34.000",
    "request_status": "Pending",
    "responsible_agency": "Department of Public Works",
    "final_address": "1339 Elmira Ave",
    "address_councildis": "C",
    "status": "Pending",
    "rowid": "1151276",
    "final_x": "3688010.53174",
    "final_y": "526468.021054",
    "longitude": "-90.04769144787012",
    "latitude": "29.941405186615576",
    "geocoded_column": {
      "latitude": "29.941405186615576",
      "longitude": "-90.04769144787012"
    }
  },
  {
    "service_request": "2024-1151275",
    "request_type": "Healthy Homes",
    "request_reason": "Healthy Homes",
    "date_created": "2024-11-25T15:13:10.000",
    "date_modified": "2024-11-25T15:15:25.000",
    "request_status": "Pending",
    "responsible_agency": "Department of Code Enforcement",
    "final_address": "7001 Lawrence Rd Apt 168",
    "address_councildis": "E",
    "status": "Pending",
    "rowid": "1151275",
    "final_x": "3703768.41943",
    "final_y": "558705.595676",
    "longitude": "-89.99675389750193",
    "latitude": "30.029551019848718",
    "geocoded_column": {
      "latitude": "30.029551019848718",
      "longitude": "-89.99675389750193"
    }
  },
  {
    "service_request": "2024-1151274",
    "request_type": "Trash/Recycling",
    "request_reason": "Request a Large Item Pick Up",
    "date_created": "2024-11-25T15:12:10.000",
    "date_modified": "2024-11-25T15:12:11.000",
    "request_status": "Pending",
    "responsible_agency": "Department of Sanitation",
    "final_address": "11218 Pressburg St",
    "address_councildis": "E",
    "status": "Assigned to Contractor",
    "contractor": "Waste Pro",
    "rowid": "1151274",
    "final_x": "3716841.46572",
    "final_y": "557484.206171",
    "longitude": "-89.95549017175755",
    "latitude": "30.02576691137722",
    "geocoded_column": {
      "latitude": "30.02576691137722",
      "longitude": "-89.95549017175755"
    }
  },
  {
    "service_request": "2024-1151273",
    "request_type": "Trash/Recycling",
    "request_reason": "Request a Large Item Pick Up",
    "date_created": "2024-11-25T15:09:12.000",
    "date_modified": "2024-11-25T15:09:12.000",
    "request_status": "Pending",
    "responsible_agency": "Department of Sanitation",
    "final_address": "7061 W Renaissance Ct",
    "address_councildis": "E",
    "status": "Assigned to Contractor",
    "contractor": "Waste Pro",
    "rowid": "1151273",
    "final_x": "3716899.56229",
    "final_y": "567320.623908",
    "longitude": "-89.95493269697825",
    "latitude": "30.052811153860855",
    "geocoded_column": {
      "latitude": "30.052811153860855",
      "longitude": "-89.95493269697825"
    }
  },
  {
    "service_request": "2024-1151272",
    "request_type": "Trash/Recycling",
    "request_reason": "Request a Large Item Pick Up",
    "date_created": "2024-11-25T15:08:48.000",
    "date_modified": "2024-11-25T15:08:50.000",
    "request_status": "Pending",
    "responsible_agency": "Department of Sanitation",
    "final_address": "2507 Dreux Ave",
    "address_councildis": "D",
    "status": "Assigned to Contractor",
    "contractor": "IV Waste",
    "rowid": "1151272",
    "final_x": "3686172.37161",
    "final_y": "552230.251926",
    "longitude": "-90.05258573792362",
    "latitude": "30.0122988459803",
    "geocoded_column": {
      "latitude": "30.0122988459803",
      "longitude": "-90.05258573792362"
    }
  },
  {
    "service_request": "2024-1151271",
    "request_type": "Trash/Recycling",
    "request_reason": "Illegal Dumping",
    "date_created": "2024-11-25T15:05:18.000",
    "date_modified": "2024-11-25T15:05:18.000",
    "request_status": "Pending",
    "responsible_agency": "Department of Sanitation",
    "final_address": "3100 BLK Hudson St",
    "address_councildis": "C",
    "status": "Pending",
    "rowid": "1151271",
    "final_x": "3694802.02145",
    "final_y": "519975.056294",
    "longitude": "-90.0264832993587",
    "latitude": "29.923340477788305",
    "geocoded_column": {
      "latitude": "29.923340477788305",
      "longitude": "-90.0264832993587"
    }
  },
  {
    "service_request": "2024-1151270",
    "request_type": "Trash/Recycling",
    "request_reason": "Replace Trash Cart",
    "date_created": "2024-11-25T15:04:22.000",
    "date_modified": "2024-11-25T15:04:23.000",
    "request_status": "Pending",
    "responsible_agency": "Department of Sanitation",
    "final_address": "2324 Mardi Gras Blvd",
    "address_councildis": "C",
    "status": "Assigned to Contractor",
    "contractor": "Richards Disposal",
    "rowid": "1151270",
    "final_x": "3692130.38365",
    "final_y": "523075.680763",
    "longitude": "-90.0348057015327",
    "latitude": "29.931949661236104",
    "geocoded_column": {
      "latitude": "29.931949661236104",
      "longitude": "-90.0348057015327"
    }
  },
  {
    "service_request": "2024-1151269",
    "request_type": "Trash/Recycling",
    "request_reason": "Replace Trash Cart",
    "date_created": "2024-11-25T15:03:05.000",
    "date_modified": "2024-11-25T15:03:06.000",
    "request_status": "Pending",
    "responsible_agency": "Department of Sanitation",
    "final_address": "2324 Mardi Gras Blvd",
    "address_councildis": "C",
    "status": "Assigned to Contractor",
    "contractor": "Richards Disposal",
    "rowid": "1151269",
    "final_x": "3692130.38365",
    "final_y": "523075.680763",
    "longitude": "-90.0348057015327",
    "latitude": "29.931949661236104",
    "geocoded_column": {
      "latitude": "29.931949661236104",
      "longitude": "-90.0348057015327"
    }
  },
  {
    "service_request": "2024-1151268",
    "request_type": "Trash/Recycling",
    "request_reason": "Request a Large Item Pick Up",
    "date_created": "2024-11-25T14:59:19.000",
    "date_modified": "2024-11-25T14:59:20.000",
    "request_status": "Pending",
    "responsible_agency": "Department of Sanitation",
    "final_address": "4707 Haydel St",
    "address_councildis": "E",
    "status": "Assigned to Contractor",
    "contractor": "Waste Pro",
    "rowid": "1151268",
    "final_x": "3699113.27984",
    "final_y": "554264.86876",
    "longitude": "-90.01162584106304",
    "latitude": "30.017489202438473",
    "geocoded_column": {
      "latitude": "30.017489202438473",
      "longitude": "-90.01162584106304"
    }
  },
  {
    "service_request": "2024-1151267",
    "request_type": "Roads and Streets",
    "request_reason": "Sidewalk Damaged or Missing",
    "date_created": "2024-11-25T14:52:47.000",
    "date_modified": "2024-11-25T14:52:47.000",
    "request_status": "Pending",
    "responsible_agency": "Department of Public Works",
    "final_address": "8801 Belfast St",
    "address_councildis": "A",
    "status": "Pending",
    "rowid": "1151267",
    "final_x": "3663759.67104",
    "final_y": "534079.999813",
    "longitude": "-90.1240028358639",
    "latitude": "29.96306156295618",
    "geocoded_column": {
      "latitude": "29.96306156295618",
      "longitude": "-90.1240028358639"
    }
  },
  {
    "service_request": "2024-1151266",
    "request_type": "Trash/Recycling",
    "request_reason": "Request a Large Item Pick Up",
    "date_created": "2024-11-25T14:52:43.000",
    "date_modified": "2024-11-25T14:52:44.000",
    "request_status": "Pending",
    "responsible_agency": "Department of Sanitation",
    "final_address": "341 S Cortez St",
    "address_councildis": "A",
    "status": "Assigned to Contractor",
    "contractor": "IV Waste",
    "rowid": "1151266",
    "final_x": "3671355.18529",
    "final_y": "536738.849031",
    "longitude": "-90.0999266822785",
    "latitude": "29.970149898437892",
    "geocoded_column": {
      "latitude": "29.970149898437892",
      "longitude": "-90.0999266822785"
    }
  },
  {
    "service_request": "2024-1151265",
    "request_type": "Graffiti Removal",
    "request_reason": "Graffiti Removal",
    "date_created": "2024-11-25T14:49:25.000",
    "date_modified": "2024-11-25T14:49:25.000",
    "request_status": "Pending",
    "responsible_agency": "Department of Code Enforcement",
    "final_address": "920 Frenchmen St",
    "address_councildis": "C",
    "status": "Pending",
    "rowid": "1151265",
    "final_x": "3684598.26082",
    "final_y": "535730.495559",
    "longitude": "-90.05813918459324",
    "latitude": "29.966978663378992",
    "geocoded_column": {
      "latitude": "29.966978663378992",
      "longitude": "-90.05813918459324"
    }
  },
  {
    "service_request": "2024-1151264",
    "request_type": "Street and Traffic Signs",
    "request_reason": "Stop Sign Missing or Damaged",
    "date_created": "2024-11-25T14:47:14.000",
    "date_modified": "2024-11-25T14:47:14.000",
    "request_status": "Pending",
    "responsible_agency": "Department of Public Works",
    "final_address": "8801 Belfast St",
    "address_councildis": "A",
    "status": "Pending",
    "rowid": "1151264",
    "final_x": "3663759.67104",
    "final_y": "534079.999813",
    "longitude": "-90.1240028358639",
    "latitude": "29.96306156295618",
    "geocoded_column": {
      "latitude": "29.96306156295618",
      "longitude": "-90.1240028358639"
    }
  },
  {
    "service_request": "2024-1151263",
    "request_type": "Mosquito, Termite & Rodent Control",
    "request_reason": "Non-Rodent Complaint (Mice, Possums, Snakes)",
    "date_created": "2024-11-25T14:45:47.000",
    "date_modified": "2024-11-25T14:45:48.000",
    "request_status": "Pending",
    "responsible_agency": "Mosquito, Termite & Rodent Control Board",
    "final_address": "3124 Pittari Pl",
    "address_councildis": "C",
    "status": "Pending",
    "rowid": "1151263",
    "final_x": "3709795.08216",
    "final_y": "519183.537207",
    "longitude": "-89.97918584242291",
    "latitude": "29.92068537569112",
    "geocoded_column": {
      "latitude": "29.92068537569112",
      "longitude": "-89.97918584242291"
    }
  },
  {
    "service_request": "2024-1151262",
    "request_type": "Trash/Recycling",
    "request_reason": "Request a Large Item Pick Up",
    "date_created": "2024-11-25T14:45:23.000",
    "date_modified": "2024-11-25T14:45:24.000",
    "request_status": "Pending",
    "responsible_agency": "Department of Sanitation",
    "final_address": "3000 Frenchmen St",
    "address_councildis": "D",
    "status": "Assigned to Contractor",
    "contractor": "IV Waste",
    "rowid": "1151262",
    "final_x": "3683941.05711",
    "final_y": "543690.008846",
    "longitude": "-90.05993528930229",
    "latitude": "29.98888463388612",
    "geocoded_column": {
      "latitude": "29.98888463388612",
      "longitude": "-90.05993528930229"
    }
  },
  {
    "service_request": "2024-1151261",
    "request_type": "Trash/Recycling",
    "request_reason": "Change Size of Trash Cart",
    "date_created": "2024-11-25T14:41:18.000",
    "date_modified": "2024-11-25T14:43:57.000",
    "request_status": "Pending",
    "responsible_agency": "Department of Sanitation",
    "final_address": "10320 Chevy Chase Dr",
    "address_councildis": "E",
    "contractor": "Waste Pro",
    "rowid": "1151261",
    "final_x": "3710389.94443",
    "final_y": "563344.337184",
    "longitude": "-89.97565650206668",
    "latitude": "30.042091677870282",
    "geocoded_column": {
      "latitude": "30.042091677870282",
      "longitude": "-89.97565650206668"
    }
  },
  {
    "service_request": "2024-1151260",
    "request_type": "Trash/Recycling",
    "request_reason": "Request a Large Item Pick Up",
    "date_created": "2024-11-25T14:38:15.000",
    "date_modified": "2024-11-25T14:38:16.000",
    "request_status": "Pending",
    "responsible_agency": "Department of Sanitation",
    "final_address": "3725 Silver Maple Ct",
    "address_councildis": "C",
    "status": "Assigned to Contractor",
    "contractor": "Richards Disposal",
    "rowid": "1151260",
    "final_x": "3703302.47665",
    "final_y": "512826.713457",
    "longitude": "-89.9999133540069",
    "latitude": "29.903415667760257",
    "geocoded_column": {
      "latitude": "29.903415667760257",
      "longitude": "-89.9999133540069"
    }
  },
  {
    "service_request": "2024-1151259",
    "request_type": "Roads and Streets",
    "request_reason": "Sidewalk Damaged or Missing",
    "date_created": "2024-11-25T14:37:40.000",
    "date_modified": "2024-11-25T14:37:40.000",
    "request_status": "Pending",
    "responsible_agency": "Department of Public Works",
    "final_address": "8801 Belfast St",
    "address_councildis": "A",
    "status": "Pending",
    "rowid": "1151259",
    "final_x": "3663759.67104",
    "final_y": "534079.999813",
    "longitude": "-90.1240028358639",
    "latitude": "29.96306156295618",
    "geocoded_column": {
      "latitude": "29.96306156295618",
      "longitude": "-90.1240028358639"
    }
  },
  {
    "service_request": "2024-1151258",
    "request_type": "Trash/Recycling",
    "request_reason": "Return Recycling Cart",
    "date_created": "2024-11-25T14:37:07.000",
    "date_modified": "2024-11-25T14:37:07.000",
    "request_status": "Pending",
    "responsible_agency": "Department of Sanitation",
    "final_address": "4920 S Rocheblave St",
    "address_councildis": "B",
    "status": "Pending",
    "rowid": "1151258",
    "final_x": "3669151.27239",
    "final_y": "528327.96448",
    "longitude": "-90.10717113336905",
    "latitude": "29.94708778985063",
    "geocoded_column": {
      "latitude": "29.94708778985063",
      "longitude": "-90.10717113336905"
    }
  },
  {
    "service_request": "2024-1151257",
    "request_type": "Trash/Recycling",
    "request_reason": "Repair Trash Cart",
    "date_created": "2024-11-25T14:35:48.000",
    "date_modified": "2024-11-25T14:35:49.000",
    "request_status": "Pending",
    "responsible_agency": "Department of Sanitation",
    "final_address": "4920 S Rocheblave St",
    "address_councildis": "B",
    "status": "Assigned to Contractor",
    "contractor": "IV Waste",
    "rowid": "1151257",
    "final_x": "3669151.27239",
    "final_y": "528327.96448",
    "longitude": "-90.10717113336905",
    "latitude": "29.94708778985063",
    "geocoded_column": {
      "latitude": "29.94708778985063",
      "longitude": "-90.10717113336905"
    }
  },
  {
    "service_request": "2024-1151256",
    "request_type": "Roads and Streets",
    "request_reason": "Sidewalk Damaged or Missing",
    "date_created": "2024-11-25T14:34:51.000",
    "date_modified": "2024-11-25T14:34:51.000",
    "request_status": "Pending",
    "responsible_agency": "Department of Public Works",
    "final_address": "8801 Belfast St",
    "address_councildis": "A",
    "status": "Pending",
    "rowid": "1151256",
    "final_x": "3663759.67104",
    "final_y": "534079.999813",
    "longitude": "-90.1240028358639",
    "latitude": "29.96306156295618",
    "geocoded_column": {
      "latitude": "29.96306156295618",
      "longitude": "-90.1240028358639"
    }
  },
  {
    "service_request": "2024-1151255",
    "request_type": "Trash/Recycling",
    "request_reason": "Request a Large Item Pick Up",
    "date_created": "2024-11-25T14:34:04.000",
    "date_modified": "2024-11-25T14:34:05.000",
    "request_status": "Pending",
    "responsible_agency": "Department of Sanitation",
    "final_address": "12910 Parlange Ct",
    "address_councildis": "E",
    "status": "Assigned to Contractor",
    "contractor": "Waste Pro",
    "rowid": "1151255",
    "final_x": "3716767.53215",
    "final_y": "567799.55466",
    "longitude": "-89.95533179790917",
    "latitude": "30.05413238279299",
    "geocoded_column": {
      "latitude": "30.05413238279299",
      "longitude": "-89.95533179790917"
    }
  },
  {
    "service_request": "2024-1151254",
    "request_type": "Trash/Recycling",
    "request_reason": "Request a Large Item Pick Up",
    "date_created": "2024-11-25T14:31:40.000",
    "date_modified": "2024-11-25T14:31:41.000",
    "request_status": "Pending",
    "responsible_agency": "Department of Sanitation",
    "final_address": "4746 Good Dr",
    "address_councildis": "E",
    "status": "Assigned to Contractor",
    "contractor": "Waste Pro",
    "rowid": "1151254",
    "final_x": "3714708.22936",
    "final_y": "556898.54953",
    "longitude": "-89.9622529784388",
    "latitude": "30.02422694770449",
    "geocoded_column": {
      "latitude": "30.02422694770449",
      "longitude": "-89.9622529784388"
    }
  },
  {
    "service_request": "2024-1151253",
    "request_type": "Trash/Recycling",
    "request_reason": "Request a Large Item Pick Up",
    "date_created": "2024-11-25T14:28:09.000",
    "date_modified": "2024-11-25T14:28:11.000",
    "request_status": "Pending",
    "responsible_agency": "Department of Sanitation",
    "final_address": "3517 General Ogden St",
    "address_councildis": "A",
    "status": "Assigned to Contractor",
    "contractor": "IV Waste",
    "rowid": "1151253",
    "final_x": "3665526.93664",
    "final_y": "536433.590855",
    "longitude": "-90.1183431927378",
    "latitude": "29.969481756538926",
    "geocoded_column": {
      "latitude": "29.969481756538926",
      "longitude": "-90.1183431927378"
    }
  },
  {
    "service_request": "2024-1151252",
    "request_type": "Property Maintenance",
    "request_reason": "Property Maintenance",
    "date_created": "2024-11-25T14:21:07.000",
    "date_modified": "2024-11-25T14:21:07.000",
    "request_status": "Pending",
    "responsible_agency": "Department of Code Enforcement",
    "final_address": "7070 Boston Dr",
    "address_councildis": "E",
    "status": "Pending",
    "rowid": "1151252",
    "final_x": "3706282.94391",
    "final_y": "560849.44547",
    "longitude": "-89.98872860910454",
    "latitude": "30.035364876495724",
    "geocoded_column": {
      "latitude": "30.035364876495724",
      "longitude": "-89.98872860910454"
    }
  },
  {
    "service_request": "2024-1151251",
    "request_type": "Property Maintenance",
    "request_reason": "Property Maintenance",
    "date_created": "2024-11-25T14:20:48.000",
    "date_modified": "2024-11-25T14:20:48.000",
    "request_status": "Pending",
    "responsible_agency": "Department of Code Enforcement",
    "final_address": "7053 Boston Dr",
    "address_councildis": "E",
    "status": "Pending",
    "rowid": "1151251",
    "final_x": "3706403.19038",
    "final_y": "560803.75779",
    "longitude": "-89.98835030789722",
    "latitude": "30.035235372964603",
    "geocoded_column": {
      "latitude": "30.035235372964603",
      "longitude": "-89.98835030789722"
    }
  },
  {
    "service_request": "2024-1151250",
    "request_type": "Trash/Recycling",
    "request_reason": "Request a Large Item Pick Up",
    "date_created": "2024-11-25T14:20:43.000",
    "date_modified": "2024-11-25T14:20:45.000",
    "request_status": "Pending",
    "responsible_agency": "Department of Sanitation",
    "final_address": "1729 Marais St",
    "address_councildis": "C",
    "status": "Assigned to Contractor",
    "contractor": "IV Waste",
    "rowid": "1151250",
    "final_x": "3683350.5126",
    "final_y": "536571.498375",
    "longitude": "-90.06205010611903",
    "latitude": "29.969329253424014",
    "geocoded_column": {
      "latitude": "29.969329253424014",
      "longitude": "-90.06205010611903"
    }
  },
  {
    "service_request": "2024-1151249",
    "request_type": "Property Maintenance",
    "request_reason": "Property Maintenance",
    "date_created": "2024-11-25T14:20:28.000",
    "date_modified": "2024-11-25T14:20:28.000",
    "request_status": "Pending",
    "responsible_agency": "Department of Code Enforcement",
    "final_address": "6910 Boston Dr",
    "address_councildis": "E",
    "status": "Pending",
    "rowid": "1151249",
    "final_x": "3706610.50807",
    "final_y": "560199.025245",
    "longitude": "-89.98771759779265",
    "latitude": "30.03356590371684",
    "geocoded_column": {
      "latitude": "30.03356590371684",
      "longitude": "-89.98771759779265"
    }
  },
  {
    "service_request": "2024-1151248",
    "request_type": "Property Maintenance",
    "request_reason": "Property Maintenance",
    "date_created": "2024-11-25T14:20:14.000",
    "date_modified": "2024-11-25T14:20:14.000",
    "request_status": "Pending",
    "responsible_agency": "Department of Code Enforcement",
    "final_address": "6920 Boston Dr",
    "address_councildis": "E",
    "status": "Pending",
    "rowid": "1151248",
    "final_x": "3706579.40734",
    "final_y": "560255.010013",
    "longitude": "-89.98781380126108",
    "latitude": "30.033720844021715",
    "geocoded_column": {
      "latitude": "30.033720844021715",
      "longitude": "-89.98781380126108"
    }
  },
  {
    "service_request": "2024-1151247",
    "request_type": "Property Maintenance",
    "request_reason": "Property Maintenance",
    "date_created": "2024-11-25T14:19:58.000",
    "date_modified": "2024-11-25T14:19:59.000",
    "request_status": "Pending",
    "responsible_agency": "Department of Code Enforcement",
    "final_address": "6940 Boston Dr",
    "address_councildis": "E",
    "status": "Pending",
    "rowid": "1151247",
    "final_x": "3706530.00023",
    "final_y": "560360.162013",
    "longitude": "-89.98796603063025",
    "latitude": "30.034011565817952",
    "geocoded_column": {
      "latitude": "30.034011565817952",
      "longitude": "-89.98796603063025"
    }
  },
  {
    "service_request": "2024-1151246",
    "request_type": "Trash/Recycling",
    "request_reason": "Request a Large Item Pick Up",
    "date_created": "2024-11-25T14:18:39.000",
    "date_modified": "2024-11-25T14:18:44.000",
    "request_status": "Pending",
    "responsible_agency": "Department of Sanitation",
    "final_address": "7113 Boston Dr",
    "address_councildis": "E",
    "status": "Assigned to Contractor",
    "contractor": "Waste Pro",
    "rowid": "1151246",
    "final_x": "3706265.44772",
    "final_y": "561059.69539",
    "longitude": "-89.98877610304709",
    "latitude": "30.035943545475817",
    "geocoded_column": {
      "latitude": "30.035943545475817",
      "longitude": "-89.98877610304709"
    }
  },
  {
    "service_request": "2024-1151245",
    "request_type": "Property Maintenance",
    "request_reason": "Property Maintenance",
    "date_created": "2024-11-25T14:15:31.000",
    "date_modified": "2024-11-25T14:15:31.000",
    "request_status": "Pending",
    "responsible_agency": "Department of Code Enforcement",
    "final_address": "2620 Annette St",
    "address_councildis": "D",
    "status": "Pending",
    "rowid": "1151245",
    "final_x": "3682647.53532",
    "final_y": "541874.736844",
    "longitude": "-90.06408464246839",
    "latitude": "29.98393273872673",
    "geocoded_column": {
      "latitude": "29.98393273872673",
      "longitude": "-90.06408464246839"
    }
  },
  {
    "service_request": "2024-1151244",
    "request_type": "Property Maintenance",
    "request_reason": "Property Maintenance",
    "date_created": "2024-11-25T14:13:44.000",
    "date_modified": "2024-11-25T14:13:45.000",
    "request_status": "Pending",
    "responsible_agency": "Department of Code Enforcement",
    "final_address": "2622 Annette St",
    "address_councildis": "D",
    "status": "Pending",
    "rowid": "1151244",
    "final_x": "3682646.84085",
    "final_y": "541887.236812",
    "longitude": "-90.06408639863943",
    "latitude": "29.983967130399705",
    "geocoded_column": {
      "latitude": "29.983967130399705",
      "longitude": "-90.06408639863943"
    }
  },
  {
    "service_request": "2024-1151243",
    "request_type": "Trash/Recycling",
    "request_reason": "Request a Large Item Pick Up",
    "date_created": "2024-11-25T14:13:28.000",
    "date_modified": "2024-11-25T14:13:30.000",
    "request_status": "Pending",
    "responsible_agency": "Department of Sanitation",
    "final_address": "7340 Shaw Ave",
    "address_councildis": "E",
    "status": "Assigned to Contractor",
    "contractor": "Waste Pro",
    "rowid": "1151243",
    "final_x": "3707634.98321",
    "final_y": "563363.44144",
    "longitude": "-89.98436244422516",
    "latitude": "30.042233674475032",
    "geocoded_column": {
      "latitude": "30.042233674475032",
      "longitude": "-89.98436244422516"
    }
  },
  {
    "service_request": "2024-1151242",
    "request_type": "Trash/Recycling",
    "request_reason": "Order Second Trash Cart",
    "date_created": "2024-11-25T14:12:14.000",
    "date_modified": "2024-11-25T14:12:15.000",
    "request_status": "Pending",
    "responsible_agency": "Department of Sanitation",
    "final_address": "6241 Pasteur Blvd",
    "address_councildis": "D",
    "status": "Assigned to Contractor",
    "contractor": "IV Waste",
    "rowid": "1151242",
    "final_x": "3682779.00674",
    "final_y": "556246.685274",
    "longitude": "-90.0631661875796",
    "latitude": "30.02344642295852",
    "geocoded_column": {
      "latitude": "30.02344642295852",
      "longitude": "-90.0631661875796"
    }
  },
  {
    "service_request": "2024-1151241",
    "request_type": "Street and Traffic Signs",
    "request_reason": "New Disabled Parking Sign Request ",
    "date_created": "2024-11-25T14:11:39.000",
    "date_modified": "2024-11-25T14:11:39.000",
    "request_status": "Pending",
    "responsible_agency": "Department of Public Works",
    "final_address": "4918 Haik Dr",
    "address_councildis": "D",
    "status": "Pending",
    "rowid": "1151241",
    "final_x": "3681923.22946",
    "final_y": "550797.418837",
    "longitude": "-90.06606069612111",
    "latitude": "30.008488980809023",
    "geocoded_column": {
      "latitude": "30.008488980809023",
      "longitude": "-90.06606069612111"
    }
  },
  {
    "service_request": "2024-1151240",
    "request_type": "Streetlights",
    "request_reason": "Streetlight Outage/Malfunction",
    "date_created": "2024-11-25T14:10:13.000",
    "date_modified": "2024-11-25T14:10:14.000",
    "request_status": "Pending",
    "responsible_agency": "Department of Public Works",
    "final_address": "4768 St Roch Ave",
    "address_councildis": "D",
    "status": "Pending",
    "contractor": "Legacy Professional Services",
    "rowid": "1151240",
    "final_x": "3685186.76322",
    "final_y": "550670.767124",
    "longitude": "-90.05575463675189",
    "latitude": "30.008041085627482",
    "geocoded_column": {
      "latitude": "30.008041085627482",
      "longitude": "-90.05575463675189"
    }
  },
  {
    "service_request": "2024-1151239",
    "request_type": "Property Maintenance",
    "request_reason": "Property Maintenance",
    "date_created": "2024-11-25T14:09:30.000",
    "date_modified": "2024-11-25T14:09:30.000",
    "request_status": "Pending",
    "responsible_agency": "Department of Code Enforcement",
    "final_address": "632 Upperline St",
    "address_councildis": "B",
    "status": "Pending",
    "rowid": "1151239",
    "final_x": "3668928.43041",
    "final_y": "517749.876214",
    "longitude": "-90.1082318241868",
    "latitude": "29.91800798916858",
    "geocoded_column": {
      "latitude": "29.91800798916858",
      "longitude": "-90.1082318241868"
    }
  },
  {
    "service_request": "2024-1151238",
    "request_type": "Trash/Recycling",
    "request_reason": "Repair Recycling Cart",
    "date_created": "2024-11-25T14:09:26.000",
    "date_modified": "2024-11-25T14:09:26.000",
    "request_status": "Pending",
    "responsible_agency": "Department of Sanitation",
    "final_address": "2116 Milan St",
    "address_councildis": "B",
    "status": "Pending",
    "rowid": "1151238",
    "final_x": "3671361.02407",
    "final_y": "522884.457979",
    "longitude": "-90.1003790433442",
    "latitude": "29.932054709439225",
    "geocoded_column": {
      "latitude": "29.932054709439225",
      "longitude": "-90.1003790433442"
    }
  },
  {
    "service_request": "2024-1151237",
    "request_type": "Trash/Recycling",
    "request_reason": "Order Recycling Cart",
    "date_created": "2024-11-25T14:09:25.000",
    "date_modified": "2024-11-25T14:09:25.000",
    "request_status": "Pending",
    "responsible_agency": "Department of Sanitation",
    "final_address": "2632 Annette St",
    "address_councildis": "D",
    "status": "Pending",
    "rowid": "1151237",
    "final_x": "3682644.06812",
    "final_y": "541966.077324",
    "longitude": "-90.06409239802136",
    "latitude": "29.98418399855927",
    "geocoded_column": {
      "latitude": "29.98418399855927",
      "longitude": "-90.06409239802136"
    }
  },
  {
    "service_request": "2024-1151236",
    "request_type": "Trash/Recycling",
    "request_reason": "Order Recycling Cart",
    "date_created": "2024-11-25T14:09:05.000",
    "date_modified": "2024-11-25T14:09:06.000",
    "request_status": "Pending",
    "responsible_agency": "Department of Sanitation",
    "final_address": "2634 Annette St",
    "address_councildis": "D",
    "status": "Pending",
    "rowid": "1151236",
    "final_x": "3682645.38632",
    "final_y": "541975.869004",
    "longitude": "-90.06408789184474",
    "latitude": "29.984210882089144",
    "geocoded_column": {
      "latitude": "29.984210882089144",
      "longitude": "-90.06408789184474"
    }
  },
  {
    "service_request": "2024-1151235",
    "request_type": "Trash/Recycling",
    "request_reason": "Replace Trash Cart",
    "date_created": "2024-11-25T14:08:24.000",
    "date_modified": "2024-11-25T14:08:26.000",
    "request_status": "Pending",
    "responsible_agency": "Department of Sanitation",
    "final_address": "2634 Annette St",
    "address_councildis": "D",
    "status": "Assigned to Contractor",
    "contractor": "IV Waste",
    "rowid": "1151235",
    "final_x": "3682645.38632",
    "final_y": "541975.869004",
    "longitude": "-90.06408789184474",
    "latitude": "29.984210882089144",
    "geocoded_column": {
      "latitude": "29.984210882089144",
      "longitude": "-90.06408789184474"
    }
  },
  {
    "service_request": "2024-1151234",
    "request_type": "Trash/Recycling",
    "request_reason": "Replace Trash Cart",
    "date_created": "2024-11-25T14:08:00.000",
    "date_modified": "2024-11-25T14:08:01.000",
    "request_status": "Pending",
    "responsible_agency": "Department of Sanitation",
    "final_address": "2632 Annette St",
    "address_councildis": "D",
    "status": "Assigned to Contractor",
    "contractor": "IV Waste",
    "rowid": "1151234",
    "final_x": "3682644.06812",
    "final_y": "541966.077324",
    "longitude": "-90.06409239802136",
    "latitude": "29.98418399855927",
    "geocoded_column": {
      "latitude": "29.98418399855927",
      "longitude": "-90.06409239802136"
    }
  },
  {
    "service_request": "2024-1151232",
    "request_type": "General Services",
    "request_reason": "General Service Request",
    "date_created": "2024-11-25T14:06:20.000",
    "date_modified": "2024-11-25T14:37:53.000",
    "case_close_date": "2024-11-25T08:37:53.000",
    "request_status": "Closed",
    "responsible_agency": "Orleans Parish Communication District",
    "final_address": "822 Roosevelt Pl",
    "address_councildis": "A",
    "status": "Question Answered.",
    "rowid": "1151232",
    "final_x": "3673588.31982",
    "final_y": "539758.357834",
    "longitude": "-90.09277095790712",
    "latitude": "29.978386236380107",
    "geocoded_column": {
      "latitude": "29.978386236380107",
      "longitude": "-90.09277095790712"
    }
  },
  {
    "service_request": "2024-1151231",
    "request_type": "Trash/Recycling",
    "request_reason": "Replace Trash Cart",
    "date_created": "2024-11-25T14:06:19.000",
    "date_modified": "2024-11-25T14:06:20.000",
    "request_status": "Pending",
    "responsible_agency": "Department of Sanitation",
    "final_address": "2430 Annette St",
    "address_councildis": "D",
    "status": "Assigned to Contractor",
    "contractor": "IV Waste",
    "rowid": "1151231",
    "final_x": "3682696.34191",
    "final_y": "541208.27342",
    "longitude": "-90.06395380513959",
    "latitude": "29.982098711568927",
    "geocoded_column": {
      "latitude": "29.982098711568927",
      "longitude": "-90.06395380513959"
    }
  },
  {
    "service_request": "2024-1151230",
    "request_type": "Trash/Recycling",
    "request_reason": "Request a Large Item Pick Up",
    "date_created": "2024-11-25T14:06:02.000",
    "date_modified": "2024-11-25T14:06:03.000",
    "request_status": "Pending",
    "responsible_agency": "Department of Sanitation",
    "final_address": "2318 N Roman St",
    "address_councildis": "D",
    "status": "Assigned to Contractor",
    "contractor": "IV Waste",
    "rowid": "1151230",
    "final_x": "3685771.2317",
    "final_y": "538924.186058",
    "longitude": "-90.05432236773113",
    "latitude": "29.975724252318372",
    "geocoded_column": {
      "latitude": "29.975724252318372",
      "longitude": "-90.05432236773113"
    }
  },
  {
    "service_request": "2024-1151229",
    "request_type": "Trash/Recycling",
    "request_reason": "Request a Large Item Pick Up",
    "date_created": "2024-11-25T13:57:29.000",
    "date_modified": "2024-11-25T13:57:30.000",
    "request_status": "Pending",
    "responsible_agency": "Department of Sanitation",
    "final_address": "3124 N Rampart St",
    "address_councildis": "C",
    "status": "Assigned to Contractor",
    "contractor": "IV Waste",
    "rowid": "1151229",
    "final_x": "3689091.39427",
    "final_y": "535479.591366",
    "longitude": "-90.04395881346248",
    "latitude": "29.966150506876335",
    "geocoded_column": {
      "latitude": "29.966150506876335",
      "longitude": "-90.04395881346248"
    }
  },
  {
    "service_request": "2024-1151228",
    "request_type": "Trash/Recycling",
    "request_reason": "Repair Trash Cart",
    "date_created": "2024-11-25T13:51:25.000",
    "date_modified": "2024-11-25T13:51:26.000",
    "request_status": "Pending",
    "responsible_agency": "Department of Sanitation",
    "final_address": "2508 Cleveland Ave",
    "address_councildis": "B",
    "status": "Assigned to Contractor",
    "contractor": "IV Waste",
    "rowid": "1151228",
    "final_x": "3675756.96705",
    "final_y": "534168.568773",
    "longitude": "-90.08611373856945",
    "latitude": "29.96295148026177",
    "geocoded_column": {
      "latitude": "29.96295148026177",
      "longitude": "-90.08611373856945"
    }
  },
  {
    "service_request": "2024-1151227",
    "request_type": "Trash/Recycling",
    "request_reason": "Order Recycling Cart",
    "date_created": "2024-11-25T13:44:14.000",
    "date_modified": "2024-11-25T13:44:15.000",
    "request_status": "Pending",
    "responsible_agency": "Department of Sanitation",
    "final_address": "1620 Franklin Ave",
    "address_councildis": "D",
    "status": "Pending",
    "rowid": "1151227",
    "final_x": "3687535.58236",
    "final_y": "538530.191881",
    "longitude": "-90.04876401834025",
    "latitude": "29.974586637200744",
    "geocoded_column": {
      "latitude": "29.974586637200744",
      "longitude": "-90.04876401834025"
    }
  },
  {
    "service_request": "2024-1151226",
    "request_type": "Trash/Recycling",
    "request_reason": "Repair Trash Cart",
    "date_created": "2024-11-25T13:43:01.000",
    "date_modified": "2024-11-25T13:43:02.000",
    "request_status": "Pending",
    "responsible_agency": "Department of Sanitation",
    "final_address": "1620 Franklin Ave",
    "address_councildis": "D",
    "status": "Assigned to Contractor",
    "contractor": "IV Waste",
    "rowid": "1151226",
    "final_x": "3687535.58236",
    "final_y": "538530.191881",
    "longitude": "-90.04876401834025",
    "latitude": "29.974586637200744",
    "geocoded_column": {
      "latitude": "29.974586637200744",
      "longitude": "-90.04876401834025"
    }
  },
  {
    "service_request": "2024-1151225",
    "request_type": "Trash/Recycling",
    "request_reason": "Request a Large Item Pick Up",
    "date_created": "2024-11-25T13:41:16.000",
    "date_modified": "2024-11-25T13:41:18.000",
    "request_status": "Pending",
    "responsible_agency": "Department of Sanitation",
    "final_address": "1828 Marengo St",
    "address_councildis": "B",
    "status": "Assigned to Contractor",
    "contractor": "IV Waste",
    "rowid": "1151225",
    "final_x": "3671797.78343",
    "final_y": "521938.578106",
    "longitude": "-90.09903240112332",
    "latitude": "29.929440914491742",
    "geocoded_column": {
      "latitude": "29.929440914491742",
      "longitude": "-90.09903240112332"
    }
  },
  {
    "service_request": "2024-1151224",
    "request_type": "Trash/Recycling",
    "request_reason": "Request a Large Item Pick Up",
    "date_created": "2024-11-25T13:40:13.000",
    "date_modified": "2024-11-25T13:40:14.000",
    "request_status": "Pending",
    "responsible_agency": "Department of Sanitation",
    "final_address": "8213 Sycamore St",
    "address_councildis": "A",
    "status": "Assigned to Contractor",
    "contractor": "IV Waste",
    "rowid": "1151224",
    "final_x": "3663981.72359",
    "final_y": "531335.187778",
    "longitude": "-90.12339314439048",
    "latitude": "29.95550777934063",
    "geocoded_column": {
      "latitude": "29.95550777934063",
      "longitude": "-90.12339314439048"
    }
  },
  {
    "service_request": "2024-1151223",
    "request_type": "Trash/Recycling",
    "request_reason": "Replace Trash Cart",
    "date_created": "2024-11-25T13:33:21.000",
    "date_modified": "2024-11-25T13:33:22.000",
    "request_status": "Pending",
    "responsible_agency": "Department of Sanitation",
    "final_address": "617 S Cortez St",
    "address_councildis": "B",
    "status": "Assigned to Contractor",
    "contractor": "IV Waste",
    "rowid": "1151223",
    "final_x": "3670749.7467",
    "final_y": "535930.047687",
    "longitude": "-90.10186617651965",
    "latitude": "29.967943871903827",
    "geocoded_column": {
      "latitude": "29.967943871903827",
      "longitude": "-90.10186617651965"
    }
  },
  {
    "service_request": "2024-1151222",
    "request_type": "Abandoned Vehicles",
    "request_reason": "Abandoned/Junk Vehicles",
    "date_created": "2024-11-25T13:32:32.000",
    "date_modified": "2024-11-25T13:32:32.000",
    "request_status": "Pending",
    "responsible_agency": "Department of Public Works",
    "final_address": "4901 Bancroft Dr",
    "address_councildis": "D",
    "status": "Pending",
    "rowid": "1151222",
    "final_x": "3676434.42337",
    "final_y": "550223.77858",
    "longitude": "-90.08342136137864",
    "latitude": "30.007077449080274",
    "geocoded_column": {
      "latitude": "30.007077449080274",
      "longitude": "-90.08342136137864"
    }
  },
  {
    "service_request": "2024-1151221",
    "request_type": "Property Maintenance",
    "request_reason": "Property Maintenance",
    "date_created": "2024-11-25T13:31:22.000",
    "date_modified": "2024-11-25T13:31:23.000",
    "request_status": "Pending",
    "responsible_agency": "Department of Code Enforcement",
    "final_address": "3135 College Ct",
    "address_councildis": "B",
    "status": "Pending",
    "rowid": "1151221",
    "final_x": "3668565.96615",
    "final_y": "531971.503363",
    "longitude": "-90.10889623863405",
    "latitude": "29.95712353897815",
    "geocoded_column": {
      "latitude": "29.95712353897815",
      "longitude": "-90.10889623863405"
    }
  },
  {
    "service_request": "2024-1151220",
    "request_type": "Trash/Recycling",
    "request_reason": "Start Trash Service",
    "date_created": "2024-11-25T13:29:40.000",
    "date_modified": "2024-11-25T13:29:41.000",
    "request_status": "Pending",
    "responsible_agency": "Department of Sanitation",
    "final_address": "919 N Villere St",
    "address_councildis": "C",
    "status": "Assigned to Contractor",
    "contractor": "IV Waste",
    "rowid": "1151220",
    "final_x": "3680823.97659",
    "final_y": "534932.58055",
    "longitude": "-90.07008616083236",
    "latitude": "29.964899626267236",
    "geocoded_column": {
      "latitude": "29.964899626267236",
      "longitude": "-90.07008616083236"
    }
  },
  {
    "service_request": "2024-1151219",
    "request_type": "Trash/Recycling",
    "request_reason": "Order Trash Cart",
    "date_created": "2024-11-25T13:29:26.000",
    "date_modified": "2024-11-25T13:29:27.000",
    "request_status": "Pending",
    "responsible_agency": "Department of Sanitation",
    "final_address": "919 N Villere St",
    "address_councildis": "C",
    "status": "Assigned to Contractor",
    "contractor": "IV Waste",
    "rowid": "1151219",
    "final_x": "3680823.97659",
    "final_y": "534932.58055",
    "longitude": "-90.07008616083236",
    "latitude": "29.964899626267236",
    "geocoded_column": {
      "latitude": "29.964899626267236",
      "longitude": "-90.07008616083236"
    }
  },
  {
    "service_request": "2024-1151218",
    "request_type": "Traffic Signals",
    "request_reason": "Traffic Signal Malfunctioning or Damaged",
    "date_created": "2024-11-25T13:24:00.000",
    "date_modified": "2024-11-25T13:24:01.000",
    "request_status": "Pending",
    "responsible_agency": "Department of Public Works",
    "final_address": "DRYADES ST & HOWARD AVE & S RAMPART ST",
    "address_councildis": "B",
    "status": "Pending",
    "rowid": "1151218",
    "final_x": "3678995.6",
    "final_y": "527882.48",
    "longitude": "-90.07610434095865",
    "latitude": "29.945569523759083",
    "geocoded_column": {
      "latitude": "29.945569523759083",
      "longitude": "-90.07610434095865"
    }
  },
  {
    "service_request": "2024-1151217",
    "request_type": "Property Maintenance",
    "request_reason": "Property Maintenance",
    "date_created": "2024-11-25T13:23:31.000",
    "date_modified": "2024-11-25T13:23:32.000",
    "request_status": "Pending",
    "responsible_agency": "Department of Code Enforcement",
    "final_address": "936 Seventh St",
    "address_councildis": "B",
    "status": "Pending",
    "rowid": "1151217",
    "final_x": "3676570.53825",
    "final_y": "519988.489272",
    "longitude": "-90.08403280075049",
    "latitude": "29.923936573011225",
    "geocoded_column": {
      "latitude": "29.923936573011225",
      "longitude": "-90.08403280075049"
    }
  },
  {
    "service_request": "2024-1151216",
    "request_type": "Property Maintenance",
    "request_reason": "Property Maintenance",
    "date_created": "2024-11-25T13:22:51.000",
    "date_modified": "2024-11-25T13:22:52.000",
    "request_status": "Pending",
    "responsible_agency": "Department of Code Enforcement",
    "final_address": "3135 College Ct",
    "address_councildis": "B",
    "status": "Pending",
    "rowid": "1151216",
    "final_x": "3668565.96615",
    "final_y": "531971.503363",
    "longitude": "-90.10889623863405",
    "latitude": "29.95712353897815",
    "geocoded_column": {
      "latitude": "29.95712353897815",
      "longitude": "-90.10889623863405"
    }
  },
  {
    "service_request": "2024-1151215",
    "request_type": "Abandoned Vehicles",
    "request_reason": "Abandoned/Junk Vehicles",
    "date_created": "2024-11-25T13:20:44.000",
    "date_modified": "2024-11-25T13:22:17.000",
    "request_status": "Pending",
    "responsible_agency": "Department of Public Works",
    "final_address": "2704 Dublin St",
    "address_councildis": "A",
    "status": "Pending",
    "rowid": "1151215",
    "final_x": "3665349.39885",
    "final_y": "532666.923524",
    "longitude": "-90.11902993609995",
    "latitude": "29.959129836652348",
    "geocoded_column": {
      "latitude": "29.959129836652348",
      "longitude": "-90.11902993609995"
    }
  },
  {
    "service_request": "2024-1151214",
    "request_type": "Streetlights",
    "request_reason": "Streetlight Outage/Malfunction",
    "date_created": "2024-11-25T13:18:36.000",
    "date_modified": "2024-11-25T13:18:37.000",
    "request_status": "Pending",
    "responsible_agency": "Department of Public Works",
    "final_address": "6112 Stratford Pl",
    "address_councildis": "C",
    "status": "Pending",
    "contractor": "Legacy Professional Services",
    "rowid": "1151214",
    "final_x": "3706480.31639",
    "final_y": "516240.199924",
    "longitude": "-89.98975788035776",
    "latitude": "29.912699516260176",
    "geocoded_column": {
      "latitude": "29.912699516260176",
      "longitude": "-89.98975788035776"
    }
  },
  {
    "service_request": "2024-1151213",
    "request_type": "Trash/Recycling",
    "request_reason": "Request a Large Item Pick Up",
    "date_created": "2024-11-25T13:16:34.000",
    "date_modified": "2024-11-25T13:16:35.000",
    "request_status": "Pending",
    "responsible_agency": "Department of Sanitation",
    "final_address": "5024 Magazine St",
    "address_councildis": "B",
    "status": "Assigned to Contractor",
    "contractor": "IV Waste",
    "rowid": "1151213",
    "final_x": "3668425.89806",
    "final_y": "518543.107255",
    "longitude": "-90.10979131375458",
    "latitude": "29.92020388900644",
    "geocoded_column": {
      "latitude": "29.92020388900644",
      "longitude": "-90.10979131375458"
    }
  },
  {
    "service_request": "2024-1151212",
    "request_type": "Trash/Recycling",
    "request_reason": "Order Recycling Cart",
    "date_created": "2024-11-25T13:13:19.000",
    "date_modified": "2024-11-25T13:13:19.000",
    "request_status": "Pending",
    "responsible_agency": "Department of Sanitation",
    "final_address": "2020 Octavia St",
    "address_councildis": "A",
    "status": "Pending",
    "rowid": "1151212",
    "final_x": "3667341.70234",
    "final_y": "523227.297147",
    "longitude": "-90.1130561522605",
    "latitude": "29.933115716424442",
    "geocoded_column": {
      "latitude": "29.933115716424442",
      "longitude": "-90.1130561522605"
    }
  },
  {
    "service_request": "2024-1151211",
    "request_type": "Trash/Recycling",
    "request_reason": "Illegal Dumping",
    "date_created": "2024-11-25T13:08:54.000",
    "date_modified": "2024-11-25T13:08:54.000",
    "request_status": "Pending",
    "responsible_agency": "Department of Sanitation",
    "final_address": "5620 Providence Pl",
    "address_councildis": "D",
    "status": "Pending",
    "rowid": "1151211",
    "final_x": "3688209.48969",
    "final_y": "554116.883544",
    "longitude": "-90.04608264383462",
    "latitude": "30.01742362132846",
    "geocoded_column": {
      "latitude": "30.01742362132846",
      "longitude": "-90.04608264383462"
    }
  },