[
  {
    "service_request": "2025-1173515",
    "request_type": "Roads and Streets",
    "request_reason": "Abandoned Service Cut",
    "date_created": "2025-03-06T23:04:45.000",
    "date_modified": "2025-03-06T23:04:46.000",
    "request_status": "Pending",
    "responsible_agency": "Department of Public Works",
    "final_address": "2263 Lark St",
    "address_councildis": "D",
    "status": "Pending",
    "rowid": "1173515",
    "final_x": "3684035.20834",
    "final_y": "557883.164507",
    "longitude": "-90.05913935679041",
    "latitude": "30.02790778651365",
    "geocoded_column": {
      "latitude": "30.02790778651365",
      "longitude": "-90.05913935679041"
    }
  },
  {
    "service_request": "2025-1173514",
    "request_type": "Healthy Homes",
    "request_reason": "Healthy Homes",
    "date_created": "2025-03-06T23:04:23.000",
    "date_modified": "2025-03-06T23:04:25.000",
    "request_status": "Pending",
    "responsible_agency": "Department of Code Enforcement",
    "final_address": "6363 St Charles Ave",
    "address_councildis": "A",
    "status": "Pending",
    "rowid": "1173514",
    "final_x": "3664695.3778",
    "final_y": "523768.445627",
    "longitude": "-90.12139238546794",
    "latitude": "29.934680930134874",
    "geocoded_column": {
      "latitude": "29.934680930134874",
      "longitude": "-90.12139238546794"
    }
  },
  {
    "service_request": "2025-1173513",
    "request_type": "Trash/Recycling",
    "request_reason": "Replace Trash Cart",
    "date_created": "2025-03-06T22:44:14.000",
    "date_modified": "2025-03-06T22:44:16.000",
    "request_status": "Pending",
    "responsible_agency": "Department of Sanitation",
    "final_address": "104 Brunswick Ct",
    "address_councildis": "C",
    "status": "Assigned to Contractor",
    "contractor": "Richards Disposal",
    "rowid": "1173513",
    "final_x": "3705729.46455",
    "final_y": "517245.753525",
    "longitude": "-89.99209061372714",
    "latitude": "29.915488629362798",
    "geocoded_column": {
      "latitude": "29.915488629362798",
      "longitude": "-89.99209061372714"
    }
  },
  {
    "service_request": "2025-1173512",
    "request_type": "Trash/Recycling",
    "request_reason": "Repair Trash Cart",
    "date_created": "2025-03-06T22:41:43.000",
    "date_modified": "2025-03-06T22:41:45.000",
    "request_status": "Pending",
    "responsible_agency": "Department of Sanitation",
    "final_address": "7191 wayside drive, new orleans, la 70128",
    "status": "Assigned to Contractor",
    "rowid": "1173512",
    "longitude": "0.0",
    "latitude": "0.0",
    "geocoded_column": {
      "latitude": "0.0",
      "longitude": "0.0"
    }
  },
  {
    "service_request": "2025-1173511",
    "request_type": "Road Striping",
    "request_reason": "Bike Lane",
    "date_created": "2025-03-06T22:35:36.000",
    "date_modified": "2025-03-06T22:35:37.000",
    "request_status": "Pending",
    "responsible_agency": "Department of Public Works",
    "final_address": "540 S Broad St",
    "address_councildis": "B",
    "status": "Pending",
    "rowid": "1173511",
    "final_x": "3674171.78241",
    "final_y": "533407.733636",
    "longitude": "-90.09114560889088",
    "latitude": "29.96090678730102",
    "geocoded_column": {
      "latitude": "29.96090678730102",
      "longitude": "-90.09114560889088"
    }
  },
  {
    "service_request": "2025-1173510",
    "request_type": "General Services",
    "request_reason": "General Service Request",
    "date_created": "2025-03-06T22:32:31.000",
    "date_modified": "2025-03-06T22:32:33.000",
    "request_status": "Pending",
    "responsible_agency": "Orleans Parish Communication District",
    "final_address": "7181 wayside drive, new orleans, la, 70128",
    "status": "Pending",
    "rowid": "1173510",
    "longitude": "0.0",
    "latitude": "0.0",
    "geocoded_column": {
      "latitude": "0.0",
      "longitude": "0.0"
    }
  },
  {
    "service_request": "2025-1173509",
    "request_type": "Trash/Recycling",
    "request_reason": "Replace Recycling Cart",
    "date_created": "2025-03-06T21:45:05.000",
    "date_modified": "2025-03-06T21:45:08.000",
    "request_status": "Pending",
    "responsible_agency": "Department of Sanitation",
    "final_address": "2818 Hudson Pl",
    "address_councildis": "C",
    "status": "Pending",
    "rowid": "1173509",
    "final_x": "3703382.87268",
    "final_y": "520274.796536",
    "longitude": "-89.99938597757145",
    "latitude": "29.923892771807374",
    "geocoded_column": {
      "latitude": "29.923892771807374",
      "longitude": "-89.99938597757145"
    }
  },
  {
    "service_request": "2025-1173508",
    "request_type": "Roads and Streets",
    "request_reason": "Street Subsidence (Sinking)",
    "date_created": "2025-03-06T21:29:24.000",
    "date_modified": "2025-03-06T21:29:26.000",
    "request_status": "Pending",
    "responsible_agency": "Department of Public Works",
    "final_address": "1673 N Miro St",
    "address_councildis": "D",
    "status": "Pending",
    "rowid": "1173508",
    "final_x": "3680854.19285",
    "final_y": "539606.511946",
    "longitude": "-90.06982798318074",
    "latitude": "29.97775041040505",
    "geocoded_column": {
      "latitude": "29.97775041040505",
      "longitude": "-90.06982798318074"
    }
  },
  {
    "service_request": "2025-1173507",
    "request_type": "Trash/Recycling",
    "request_reason": "Repair Trash Cart",
    "date_created": "2025-03-06T21:28:25.000",
    "date_modified": "2025-03-06T21:28:26.000",
    "request_status": "Pending",
    "responsible_agency": "Department of Sanitation",
    "final_address": "4558 Frenchmen St",
    "address_councildis": "D",
    "status": "Assigned to Contractor",
    "contractor": "IV Waste",
    "rowid": "1173507",
    "final_x": "3683462.25109",
    "final_y": "549487.039379",
    "longitude": "-90.06124440470022",
    "latitude": "30.004839018897027",
    "geocoded_column": {
      "latitude": "30.004839018897027",
      "longitude": "-90.06124440470022"
    }
  },
  {
    "service_request": "2025-1173506",
    "request_type": "Trash/Recycling",
    "request_reason": "Replace Trash Cart",
    "date_created": "2025-03-06T21:04:55.000",
    "date_modified": "2025-03-06T21:04:56.000",
    "request_status": "Pending",
    "responsible_agency": "Department of Sanitation",
    "final_address": "11349 Prentiss Ave",
    "address_councildis": "E",
    "status": "Assigned to Contractor",
    "contractor": "Waste Pro",
    "rowid": "1173506",
    "final_x": "3717390.4558",
    "final_y": "556868.431514",
    "longitude": "-89.95377888455849",
    "latitude": "30.024055613886308",
    "geocoded_column": {
      "latitude": "30.024055613886308",
      "longitude": "-89.95377888455849"
    }
  },
  {
    "service_request": "2025-1173505",
    "request_type": "Property Maintenance",
    "request_reason": "Property Maintenance",
    "date_created": "2025-03-06T20:50:23.000",
    "date_modified": "2025-03-06T20:50:24.000",
    "request_status": "Pending",
    "responsible_agency": "Department of Code Enforcement",
    "final_address": "6640 Lincoln Beach Blvd",
    "address_councildis": "E",
    "status": "Pending",
    "rowid": "1173505",
    "final_x": "3697454.42365",
    "final_y": "560628.644638",
    "longitude": "-90.01663608650651",
    "latitude": "30.0350396642001",
    "geocoded_column": {
      "latitude": "30.0350396642001",
      "longitude": "-90.01663608650651"
    }
  },
  {
    "service_request": "2025-1173504",
    "request_type": "Trash/Recycling",
    "request_reason": "Illegal Dumping",
    "date_created": "2025-03-06T20:48:10.000",
    "date_modified": "2025-03-06T20:48:12.000",
    "request_status": "Pending",
    "responsible_agency": "Department of Sanitation",
    "final_address": "4818 Cleveland Ave",
    "address_councildis": "A",
    "status": "Pending",
    "rowid": "1173504",
    "final_x": "3668387.09498",
    "final_y": "539786.997066",
    "longitude": "-90.10919740780366",
    "latitude": "29.97861879775222",
    "geocoded_column": {
      "latitude": "29.97861879775222",
      "longitude": "-90.10919740780366"
    }
  },
  {
    "service_request": "2025-1173503",
    "request_type": "General Services",
    "request_reason": "General Service Request",
    "date_created": "2025-03-06T20:42:50.000",
    "date_modified": "2025-03-06T20:42:52.000",
    "request_status": "Pending",
    "responsible_agency": "Orleans Parish Communication District",
    "final_address": "New Orleans,LA",
    "status": "Pending",
    "rowid": "1173503",
    "longitude": "0.0",
    "latitude": "0.0",
    "geocoded_column": {
      "latitude": "0.0",
      "longitude": "0.0"
    }
  },
  {
    "service_request": "2025-1173502",
    "request_type": "Trash/Recycling",
    "request_reason": "Request a Large Item Pick Up",
    "date_created": "2025-03-06T20:22:00.000",
    "date_modified": "2025-03-06T20:22:02.000",
    "request_status": "Pending",
    "responsible_agency": "Department of Sanitation",
    "final_address": "4830 Alsace St",
    "address_councildis": "E",
    "status": "Assigned to Contractor",
    "contractor": "Waste Pro",
    "rowid": "1173502",
    "final_x": "3730430.45382",
    "final_y": "562787.50288",
    "longitude": "-89.91234369802217",
    "latitude": "30.03989247824541",
    "geocoded_column": {
      "latitude": "30.03989247824541",
      "longitude": "-89.91234369802217"
    }
  },
  {
    "service_request": "2025-1173501",
    "request_type": "Trash/Recycling",
    "request_reason": "Request a Large Item Pick Up",
    "date_created": "2025-03-06T20:19:33.000",
    "date_modified": "2025-03-06T20:19:36.000",
    "request_status": "Pending",
    "responsible_agency": "Department of Sanitation",
    "final_address": "4900 Alsace St Apt A",
    "address_councildis": "E",
    "status": "Assigned to Contractor",
    "contractor": "Waste Pro",
    "rowid": "1173501",
    "final_x": "3730444.97312",
    "final_y": "562926.17552",
    "longitude": "-89.91229237823721",
    "latitude": "30.040273274936826",
    "geocoded_column": {
      "latitude": "30.040273274936826",
      "longitude": "-89.91229237823721"
    }
  },
  {
    "service_request": "2025-1173500",
    "request_type": "Trash/Recycling",
    "request_reason": "Missed Trash Pick-Up",
    "date_created": "2025-03-06T20:12:58.000",
    "date_modified": "2025-03-06T20:13:00.000",
    "request_status": "Pending",
    "responsible_agency": "Department of Sanitation",
    "final_address": "2329 General Meyer Ave",
    "address_councildis": "C",
    "status": "Assigned to Contractor",
    "contractor": "Richards Disposal",
    "rowid": "1173500",
    "final_x": "3692652.05296",
    "final_y": "527621.965631",
    "longitude": "-90.03299598049206",
    "latitude": "29.944434123735533",
    "geocoded_column": {
      "latitude": "29.944434123735533",
      "longitude": "-90.03299598049206"
    }
  },
  {
    "service_request": "2025-1173499",
    "request_type": "Abandoned Vehicles",
    "request_reason": "Abandoned/Junk Vehicles",
    "date_created": "2025-03-06T20:12:28.000",
    "date_modified": "2025-03-06T20:12:30.000",
    "request_status": "Pending",
    "responsible_agency": "Department of Public Works",
    "final_address": "5704 Wilton Dr",
    "address_councildis": "D",
    "status": "Pending",
    "rowid": "1173499",
    "final_x": "3681780.21308",
    "final_y": "553797.926167",
    "longitude": "-90.0664077170002",
    "latitude": "30.01674363643913",
    "geocoded_column": {
      "latitude": "30.01674363643913",
      "longitude": "-90.0664077170002"
    }
  },
  {
    "service_request": "2025-1173498",
    "request_type": "Trash/Recycling",
    "request_reason": "Repair Recycling Cart",
    "date_created": "2025-03-06T19:54:30.000",
    "date_modified": "2025-03-06T19:54:33.000",
    "request_status": "Pending",
    "responsible_agency": "Department of Sanitation",
    "final_address": "229 26Th St",
    "address_councildis": "A",
    "status": "Pending",
    "rowid": "1173498",
    "final_x": "3665532.57844",
    "final_y": "549959.442836",
    "longitude": "-90.11787226337438",
    "latitude": "30.00667310027335",
    "geocoded_column": {
      "latitude": "30.00667310027335",
      "longitude": "-90.11787226337438"
    }
  },
  {
    "service_request": "2025-1173497",
    "request_type": "Trash/Recycling",
    "request_reason": "Request a Large Item Pick Up",
    "date_created": "2025-03-06T19:51:46.000",
    "date_modified": "2025-03-06T19:51:48.000",
    "request_status": "Pending",
    "responsible_agency": "Department of Sanitation",
    "final_address": "2429 Philip St",
    "address_councildis": "B",
    "status": "Assigned to Contractor",
    "contractor": "IV Waste",
    "rowid": "1173497",
    "final_x": "3675409.64526",
    "final_y": "526035.97587",
    "longitude": "-90.08748976992358",
    "latitude": "29.94059994543265",
    "geocoded_column": {
      "latitude": "29.94059994543265",
      "longitude": "-90.08748976992358"
    }
  },
  {
    "service_request": "2025-1173496",
    "request_type": "Property Maintenance",
    "request_reason": "Property Maintenance",
    "date_created": "2025-03-06T19:23:21.000",
    "date_modified": "2025-03-06T19:23:22.000",
    "request_status": "Pending",
    "responsible_agency": "Department of Code Enforcement",
    "final_address": "3310 Dickens Dr",
    "address_councildis": "C",
    "status": "Pending",
    "rowid": "1173496",
    "final_x": "3708355.91716",
    "final_y": "518479.703734",
    "longitude": "-89.9837547481539",
    "latitude": "29.91879676717459",
    "geocoded_column": {
      "latitude": "29.91879676717459",
      "longitude": "-89.9837547481539"
    }
  },
  {
    "service_request": "2025-1173495",
    "request_type": "Parks & Parkways",
    "request_reason": "Park Maintenance/Clean Up",
    "date_created": "2025-03-06T19:22:20.000",
    "date_modified": "2025-03-06T19:22:22.000",
    "request_status": "Pending",
    "responsible_agency": "Department of Parks & Parkway",
    "final_address": "1829 St Roch Ave",
    "address_councildis": "D",
    "status": "Pending",
    "rowid": "1173495",
    "final_x": "3686397.55433",
    "final_y": "539252.669898",
    "longitude": "-90.05233267161682",
    "latitude": "29.976608229396707",
    "geocoded_column": {
      "latitude": "29.976608229396707",
      "longitude": "-90.05233267161682"
    }
  },
  {
    "service_request": "2025-1173494",
    "request_type": "Trash/Recycling",
    "request_reason": "MIssed Recycling Pick-Up",
    "date_created": "2025-03-06T19:14:21.000",
    "date_modified": "2025-03-06T19:14:23.000",
    "request_status": "Pending",
    "responsible_agency": "Department of Sanitation",
    "final_address": "1807 Jena St",
    "address_councildis": "B",
    "status": "Assigned to Contractor",
    "contractor": "IV Waste",
    "rowid": "1173494",
    "final_x": "3670403.79175",
    "final_y": "521631.027449",
    "longitude": "-90.10344340853035",
    "latitude": "29.92863646440958",
    "geocoded_column": {
      "latitude": "29.92863646440958",
      "longitude": "-90.10344340853035"
    }
  },
  {
    "service_request": "2025-1173493",
    "request_type": "Trash/Recycling",
    "request_reason": "Missed Trash Pick-Up",
    "date_created": "2025-03-06T19:13:33.000",
    "date_modified": "2025-03-06T19:13:36.000",
    "request_status": "Pending",
    "responsible_agency": "Department of Sanitation",
    "final_address": "1807 Jena St",
    "address_councildis": "B",
    "status": "Assigned to Contractor",
    "contractor": "IV Waste",
    "rowid": "1173493",
    "final_x": "3670403.79175",
    "final_y": "521631.027449",
    "longitude": "-90.10344340853035",
    "latitude": "29.92863646440958",
    "geocoded_column": {
      "latitude": "29.92863646440958",
      "longitude": "-90.10344340853035"
    }
  },
  {
    "service_request": "2025-1173492",
    "request_type": "Trash/Recycling",
    "request_reason": "Illegal Dumping",
    "date_created": "2025-03-06T19:10:04.000",
    "date_modified": "2025-03-06T19:10:08.000",
    "request_status": "Pending",
    "responsible_agency": "Department of Sanitation",
    "final_address": "8953 Birch St",
    "address_councildis": "A",
    "status": "Pending",
    "rowid": "1173492",
    "final_x": "3660514.72013",
    "final_y": "531639.755459",
    "longitude": "-90.13433069127966",
    "latitude": "29.956445450930246",
    "geocoded_column": {
      "latitude": "29.956445450930246",
      "longitude": "-90.13433069127966"
    }
  },
  {
    "service_request": "2025-1173491",
    "request_type": "Trash/Recycling",
    "request_reason": "Request a Large Item Pick Up",
    "date_created": "2025-03-06T19:06:48.000",
    "date_modified": "2025-03-06T19:06:50.000",
    "request_status": "Pending",
    "responsible_agency": "Department of Sanitation",
    "final_address": "5 Brownlee Ct",
    "address_councildis": "E",
    "status": "Assigned to Contractor",
    "contractor": "Waste Pro",
    "rowid": "1173491",
    "final_x": "3712672.82469",
    "final_y": "567255.755364",
    "longitude": "-89.96829454123358",
    "latitude": "30.052771920979204",
    "geocoded_column": {
      "latitude": "30.052771920979204",
      "longitude": "-89.96829454123358"
    }
  },
  {
    "service_request": "2025-1173490",
    "request_type": "Abandoned Vehicles",
    "request_reason": "Abandoned/Junk Vehicles",
    "date_created": "2025-03-06T19:00:17.000",
    "date_modified": "2025-03-06T19:00:18.000",
    "request_status": "Pending",
    "responsible_agency": "Department of Public Works",
    "final_address": "4256 Vendome Pl",
    "address_councildis": "B",
    "status": "Pending",
    "rowid": "1173490",
    "final_x": "3669057.08378",
    "final_y": "531486.060611",
    "longitude": "-90.1073618367837",
    "latitude": "29.955774291700784",
    "geocoded_column": {
      "latitude": "29.955774291700784",
      "longitude": "-90.1073618367837"
    }
  },
  {
    "service_request": "2025-1173489",
    "request_type": "Trash/Recycling",
    "request_reason": "Missed Trash Pick-Up",
    "date_created": "2025-03-06T18:44:02.000",
    "date_modified": "2025-03-06T19:04:30.000",
    "case_close_date": "2025-03-06T13:04:29.000",
    "request_status": "Closed",
    "responsible_agency": "Department of Sanitation",
    "final_address": "2325 Jefferson Ave",
    "address_councildis": "B",
    "status": "Assigned to Contractor",
    "contractor": "IV Waste",
    "contractor_action": "Invalid Request",
    "rowid": "1173489",
    "final_x": "3668061.84013",
    "final_y": "524185.50886",
    "longitude": "-90.11075044260612",
    "latitude": "29.935729384436623",
    "geocoded_column": {
      "latitude": "29.935729384436623",
      "longitude": "-90.11075044260612"
    }
  },
  {
    "service_request": "2025-1173488",
    "request_type": "Abandoned Vehicles",
    "request_reason": "Abandoned/Junk Vehicles",
    "date_created": "2025-03-06T18:38:43.000",
    "date_modified": "2025-03-06T18:38:44.000",
    "request_status": "Pending",
    "responsible_agency": "Department of Public Works",
    "final_address": "4221 S Rocheblave St",
    "address_councildis": "B",
    "status": "Pending",
    "rowid": "1173488",
    "final_x": "3670643.1387",
    "final_y": "528572.58336",
    "longitude": "-90.1024524448143",
    "latitude": "29.94771643053698",
    "geocoded_column": {
      "latitude": "29.94771643053698",
      "longitude": "-90.1024524448143"
    }
  },
  {
    "service_request": "2025-1173487",
    "request_type": "Abandoned Vehicles",
    "request_reason": "Abandoned/Junk Vehicles",
    "date_created": "2025-03-06T18:38:26.000",
    "date_modified": "2025-03-06T18:38:28.000",
    "request_status": "Pending",
    "responsible_agency": "Department of Public Works",
    "final_address": "4221 S Rocheblave St",
    "address_councildis": "B",
    "status": "Pending",
    "rowid": "1173487",
    "final_x": "3670643.1387",
    "final_y": "528572.58336",
    "longitude": "-90.1024524448143",
    "latitude": "29.94771643053698",
    "geocoded_column": {
      "latitude": "29.94771643053698",
      "longitude": "-90.1024524448143"
    }
  },
  {
    "service_request": "2025-1173486",
    "request_type": "Abandoned Vehicles",
    "request_reason": "Abandoned/Junk Vehicles",
    "date_created": "2025-03-06T18:38:19.000",
    "date_modified": "2025-03-06T18:38:20.000",
    "request_status": "Pending",
    "responsible_agency": "Department of Public Works",
    "final_address": "4221 S Rocheblave St",
    "address_councildis": "B",
    "status": "Pending",
    "rowid": "1173486",
    "final_x": "3670643.1387",
    "final_y": "528572.58336",
    "longitude": "-90.1024524448143",
    "latitude": "29.94771643053698",
    "geocoded_column": {
      "latitude": "29.94771643053698",
      "longitude": "-90.1024524448143"
    }
  },
  {
    "service_request": "2025-1173485",
    "request_type": "Trash/Recycling",
    "request_reason": "Missed Trash Pick-Up",
    "date_created": "2025-03-06T18:09:07.000",
    "date_modified": "2025-03-06T19:02:41.000",
    "case_close_date": "2025-03-06T13:02:40.000",
    "request_status": "Closed",
    "responsible_agency": "Department of Sanitation",
    "final_address": "1023 Valence St",
    "address_councildis": "B",
    "status": "Invalid Request",
    "contractor": "IV Waste",
    "contractor_action": "Invalid",
    "rowid": "1173485",
    "final_x": "3669938.84999",
    "final_y": "519253.164791",
    "longitude": "-90.10499160510983",
    "latitude": "29.922111813156572",
    "geocoded_column": {
      "latitude": "29.922111813156572",
      "longitude": "-90.10499160510983"
    }
  },
  {
    "service_request": "2025-1173484",
    "request_type": "Property Maintenance",
    "request_reason": "Property Maintenance",
    "date_created": "2025-03-06T18:02:17.000",
    "date_modified": "2025-03-06T18:02:19.000",
    "request_status": "Pending",
    "responsible_agency": "Department of Code Enforcement",
    "final_address": "39 Maryland Dr",
    "address_councildis": "A",
    "status": "Pending",
    "rowid": "1173484",
    "final_x": "3663713.25139",
    "final_y": "541188.218444",
    "longitude": "-90.12391249953113",
    "latitude": "29.98260815620498",
    "geocoded_column": {
      "latitude": "29.98260815620498",
      "longitude": "-90.12391249953113"
    }
  },
  {
    "service_request": "2025-1173483",
    "request_type": "Trash/Recycling",
    "request_reason": "Replace Trash Cart",
    "date_created": "2025-03-06T18:01:02.000",
    "date_modified": "2025-03-06T18:01:04.000",
    "request_status": "Pending",
    "responsible_agency": "Department of Sanitation",
    "final_address": "1407 State St",
    "address_councildis": "A",
    "status": "Assigned to Contractor",
    "contractor": "IV Waste",
    "rowid": "1173483",
    "final_x": "3665451.06612",
    "final_y": "521202.181881",
    "longitude": "-90.11909253451724",
    "latitude": "29.927602518648172",
    "geocoded_column": {
      "latitude": "29.927602518648172",
      "longitude": "-90.11909253451724"
    }
  },
  {
    "service_request": "2025-1173482",
    "request_type": "Abandoned Vehicles",
    "request_reason": "Abandoned/Junk Vehicles",
    "date_created": "2025-03-06T17:52:59.000",
    "date_modified": "2025-03-06T17:53:00.000",
    "request_status": "Pending",
    "responsible_agency": "Department of Public Works",
    "final_address": "210 Pelican Ave",
    "address_councildis": "C",
    "status": "Pending",
    "rowid": "1173482",
    "final_x": "3685960.91273",
    "final_y": "530128.253697",
    "longitude": "-90.05403345930623",
    "latitude": "29.95153265862249",
    "geocoded_column": {
      "latitude": "29.95153265862249",
      "longitude": "-90.05403345930623"
    }
  },
  {
    "service_request": "2025-1173481",
    "request_type": "Trash/Recycling",
    "request_reason": "MIssed Recycling Pick-Up",
    "date_created": "2025-03-06T17:52:18.000",
    "date_modified": "2025-03-06T20:03:24.000",
    "case_close_date": "2025-03-06T14:03:23.000",
    "request_status": "Closed",
    "responsible_agency": "Department of Sanitation",
    "final_address": "1409 Calhoun St",
    "address_councildis": "A",
    "status": "Invalid Request",
    "contractor": "IV Waste",
    "contractor_action": "Invalid",
    "rowid": "1173481",
    "final_x": "3664323.72167",
    "final_y": "521668.936633",
    "longitude": "-90.1226357350314",
    "latitude": "29.92891874785529",
    "geocoded_column": {
      "latitude": "29.92891874785529",
      "longitude": "-90.1226357350314"
    }
  },
  {
    "service_request": "2025-1173480",
    "request_type": "Streetlights",
    "request_reason": "Streetlight Outage/Malfunction",
    "date_created": "2025-03-06T17:48:48.000",
    "date_modified": "2025-03-06T17:48:54.000",
    "request_status": "Pending",
    "responsible_agency": "Department of Public Works",
    "final_address": "1205 N Lopez St",
    "address_councildis": "A",
    "status": "Pending",
    "contractor": "Legacy Professional Services",
    "rowid": "1173480",
    "final_x": "3676212.62965",
    "final_y": "539514.720714",
    "longitude": "-90.08449081046427",
    "latitude": "29.977637932411703",
    "geocoded_column": {
      "latitude": "29.977637932411703",
      "longitude": "-90.08449081046427"
    }
  },
  {
    "service_request": "2025-1173479",
    "request_type": "Trash/Recycling",
    "request_reason": "Request a Large Item Pick Up",
    "date_created": "2025-03-06T17:43:37.000",
    "date_modified": "2025-03-06T17:43:39.000",
    "request_status": "Pending",
    "responsible_agency": "Department of Sanitation",
    "final_address": "7530 Alabama St",
    "address_councildis": "D",
    "status": "Assigned to Contractor",
    "contractor": "Waste Pro",
    "rowid": "1173479",
    "final_x": "3694929.71536",
    "final_y": "558246.74934",
    "longitude": "-90.02470049246016",
    "latitude": "30.0285698921602",
    "geocoded_column": {
      "latitude": "30.0285698921602",
      "longitude": "-90.02470049246016"
    }
  },
  {
    "service_request": "2025-1173478",
    "request_type": "Property Maintenance",
    "request_reason": "Property Maintenance",
    "date_created": "2025-03-06T17:43:08.000",
    "date_modified": "2025-03-06T17:43:18.000",
    "request_status": "Pending",
    "responsible_agency": "Department of Code Enforcement",
    "final_address": "2605 Memorial Park Dr",
    "address_councildis": "C",
    "status": "Pending",
    "rowid": "1173478",
    "final_x": "3692837.01699",
    "final_y": "521008.039161",
    "longitude": "-90.03264903748617",
    "latitude": "29.926242309385856",
    "geocoded_column": {
      "latitude": "29.926242309385856",
      "longitude": "-90.03264903748617"
    }
  },
  {
    "service_request": "2025-1173477",
    "request_type": "Property Maintenance",
    "request_reason": "Property Maintenance",
    "date_created": "2025-03-06T17:42:24.000",
    "date_modified": "2025-03-06T17:42:26.000",
    "request_status": "Pending",
    "responsible_agency": "Department of Code Enforcement",
    "final_address": "2535 Memorial Park Dr",
    "address_councildis": "C",
    "status": "Pending",
    "rowid": "1173477",
    "final_x": "3692796.73923",
    "final_y": "521052.483641",
    "longitude": "-90.03277458992366",
    "latitude": "29.92636577379837",
    "geocoded_column": {
      "latitude": "29.92636577379837",
      "longitude": "-90.03277458992366"
    }
  },
  {
    "service_request": "2025-1173476",
    "request_type": "Property Maintenance",
    "request_reason": "Property Maintenance",
    "date_created": "2025-03-06T17:41:27.000",
    "date_modified": "2025-03-06T17:41:29.000",
    "request_status": "Pending",
    "responsible_agency": "Department of Code Enforcement",
    "final_address": "2524 Behrman Hwy",
    "address_councildis": "C",
    "status": "Pending",
    "rowid": "1173476",
    "final_x": "3692647.85033",
    "final_y": "520938.039161",
    "longitude": "-90.03324868731819",
    "latitude": "29.926055736026708",
    "geocoded_column": {
      "latitude": "29.926055736026708",
      "longitude": "-90.03324868731819"
    }
  },
  {
    "service_request": "2025-1173475",
    "request_type": "Property Maintenance",
    "request_reason": "Property Maintenance",
    "date_created": "2025-03-06T17:39:42.000",
    "date_modified": "2025-03-06T17:39:44.000",
    "request_status": "Pending",
    "responsible_agency": "Department of Code Enforcement",
    "final_address": "2600 Behrman Hwy",
    "address_councildis": "C",
    "status": "Pending",
    "rowid": "1173475",
    "final_x": "3692749.28867",
    "final_y": "520880.119097",
    "longitude": "-90.03293055235815",
    "latitude": "29.92589331033643",
    "geocoded_column": {
      "latitude": "29.92589331033643",
      "longitude": "-90.03293055235815"
    }
  },
  {
    "service_request": "2025-1173474",
    "request_type": "Property Maintenance",
    "request_reason": "Property Maintenance",
    "date_created": "2025-03-06T17:38:22.000",
    "date_modified": "2025-03-06T17:38:24.000",
    "request_status": "Pending",
    "responsible_agency": "Department of Code Enforcement",
    "final_address": "2525 Memorial Park Dr",
    "address_councildis": "C",
    "status": "Pending",
    "rowid": "1173474",
    "final_x": "3692766.18371",
    "final_y": "521079.566969",
    "longitude": "-90.03287007438414",
    "latitude": "29.92644119738659",
    "geocoded_column": {
      "latitude": "29.92644119738659",
      "longitude": "-90.03287007438414"
    }
  },
  {
    "service_request": "2025-1173473",
    "request_type": "Healthy Homes",
    "request_reason": "Healthy Homes",
    "date_created": "2025-03-06T17:37:47.000",
    "date_modified": "2025-03-06T17:37:50.000",
    "request_status": "Pending",
    "responsible_agency": "Department of Code Enforcement",
    "final_address": "0 BLK Agriculture Pl",
    "address_councildis": "D",
    "status": "Pending",
    "rowid": "1173473",
    "final_x": "3689891.40135",
    "final_y": "543419.290574",
    "longitude": "-90.04114966127275",
    "latitude": "29.987957086684915",
    "geocoded_column": {
      "latitude": "29.987957086684915",
      "longitude": "-90.04114966127275"
    }
  },
  {
    "service_request": "2025-1173472",
    "request_type": "Drainage",
    "request_reason": "Street Flooding",
    "date_created": "2025-03-06T17:12:50.000",
    "date_modified": "2025-03-06T17:12:52.000",
    "request_status": "Pending",
    "responsible_agency": "Sewerage & Water Board ",
    "final_address": "ST CHARLES AVE & VALENCE ST",
    "address_councildis": "B",
    "status": "Pending",
    "rowid": "1173472",
    "final_x": "3669738.6",
    "final_y": "520784.68",
    "longitude": "-90.10557191290471",
    "latitude": "29.926328894401728",
    "geocoded_column": {
      "latitude": "29.926328894401728",
      "longitude": "-90.10557191290471"
    }
  },
  {
    "service_request": "2025-1173471",
    "request_type": "Safety & Permits",
    "request_reason": "Zoning Enforcement",
    "date_created": "2025-03-06T17:09:40.000",
    "date_modified": "2025-03-06T17:09:43.000",
    "request_status": "Pending",
    "responsible_agency": "Safety and Permits",
    "final_address": "5522 Seminary Pl",
    "address_councildis": "D",
    "status": "Pending",
    "rowid": "1173471",
    "final_x": "3688455.34716",
    "final_y": "553361.673815",
    "longitude": "-90.04533265663534",
    "latitude": "30.015339477128272",
    "geocoded_column": {
      "latitude": "30.015339477128272",
      "longitude": "-90.04533265663534"
    }
  },
  {
    "service_request": "2025-1173470",
    "request_type": "Trash/Recycling",
    "request_reason": "Repair Recycling Cart",
    "date_created": "2025-03-06T17:02:53.000",
    "date_modified": "2025-03-06T17:02:54.000",
    "request_status": "Pending",
    "responsible_agency": "Department of Sanitation",
    "final_address": "1622 King Dr",
    "address_councildis": "D",
    "status": "Pending",
    "rowid": "1173470",
    "final_x": "3680145.86082",
    "final_y": "549966.630164",
    "longitude": "-90.07170486605632",
    "latitude": "30.006258540902817",
    "geocoded_column": {
      "latitude": "30.006258540902817",
      "longitude": "-90.07170486605632"
    }
  },
  {
    "service_request": "2025-1173469",
    "request_type": "Abandoned Vehicles",
    "request_reason": "Abandoned/Junk Vehicles",
    "date_created": "2025-03-06T17:02:34.000",
    "date_modified": "2025-03-06T17:02:36.000",
    "request_status": "Pending",
    "responsible_agency": "Department of Public Works",
    "final_address": "4000 Mithra St",
    "address_councildis": "D",
    "status": "Pending",
    "rowid": "1173469",
    "final_x": "3688776.69532",
    "final_y": "552956.800535",
    "longitude": "-90.04433173933487",
    "latitude": "30.01421628912314",
    "geocoded_column": {
      "latitude": "30.01421628912314",
      "longitude": "-90.04433173933487"
    }
  },
  {
    "service_request": "2025-1173468",
    "request_type": "Trash/Recycling",
    "request_reason": "Missed Trash Pick-Up",
    "date_created": "2025-03-06T17:00:17.000",
    "date_modified": "2025-03-06T18:58:25.000",
    "case_close_date": "2025-03-06T12:58:24.000",
    "request_status": "Closed",
    "responsible_agency": "Department of Sanitation",
    "final_address": "5525 Wickfield Dr",
    "address_councildis": "D",
    "status": "Invalid Request",
    "contractor": "IV Waste",
    "contractor_action": "Invalid",
    "rowid": "1173468",
    "final_x": "3681122.77877",
    "final_y": "553525.759447",
    "longitude": "-90.06849442385031",
    "latitude": "30.01601524787855",
    "geocoded_column": {
      "latitude": "30.01601524787855",
      "longitude": "-90.06849442385031"
    }
  },
  {
    "service_request": "2025-1173467",
    "request_type": "Abandoned Vehicles",
    "request_reason": "Abandoned/Junk Vehicles",
    "date_created": "2025-03-06T16:55:06.000",
    "date_modified": "2025-03-06T16:55:08.000",
    "request_status": "Pending",
    "responsible_agency": "Department of Public Works",
    "final_address": "5522 Seminary Pl",
    "address_councildis": "D",
    "status": "Pending",
    "rowid": "1173467",
    "final_x": "3688455.34716",
    "final_y": "553361.673815",
    "longitude": "-90.04533265663534",
    "latitude": "30.015339477128272",
    "geocoded_column": {
      "latitude": "30.015339477128272",
      "longitude": "-90.04533265663534"
    }
  },
  {
    "service_request": "2025-1173466",
    "request_type": "Trash/Recycling",
    "request_reason": "Missed Trash Pick-Up",
    "date_created": "2025-03-06T16:45:57.000",
    "date_modified": "2025-03-06T16:45:59.000",
    "request_status": "Pending",
    "responsible_agency": "Department of Sanitation",
    "final_address": "3501 Adrian St",
    "address_councildis": "C",
    "status": "Assigned to Contractor",
    "contractor": "Richards Disposal",
    "rowid": "1173466",
    "final_x": "3710582.72785",
    "final_y": "517898.473334",
    "longitude": "-89.97674765661267",
    "latitude": "29.91712628250826",
    "geocoded_column": {
      "latitude": "29.91712628250826",
      "longitude": "-89.97674765661267"
    }
  },
  {
    "service_request": "2025-1173465",
    "request_type": "Property Maintenance",
    "request_reason": "Property Maintenance",
    "date_created": "2025-03-06T16:44:37.000",
    "date_modified": "2025-03-06T16:44:39.000",
    "request_status": "Pending",
    "responsible_agency": "Department of Code Enforcement",
    "final_address": "3126 Johnny Jackson Jr Blvd",
    "address_councildis": "D",
    "status": "Pending",
    "rowid": "1173465",
    "final_x": "3691548.43996",
    "final_y": "544006.805134",
    "longitude": "-90.03589463454891",
    "latitude": "29.989521053853515",
    "geocoded_column": {
      "latitude": "29.989521053853515",
      "longitude": "-90.03589463454891"
    }
  },
  {
    "service_request": "2025-1173464",
    "request_type": "Trash/Recycling",
    "request_reason": "Request a Large Item Pick Up",
    "date_created": "2025-03-06T16:44:25.000",
    "date_modified": "2025-03-06T16:44:26.000",
    "request_status": "Pending",
    "responsible_agency": "Department of Sanitation",
    "final_address": "938 Jourdan Ave",
    "address_councildis": "E",
    "status": "Assigned to Contractor",
    "contractor": "Waste Pro",
    "rowid": "1173464",
    "final_x": "3694814.05283",
    "final_y": "534034.842821",
    "longitude": "-90.02593893329619",
    "latitude": "29.9619996542102",
    "geocoded_column": {
      "latitude": "29.9619996542102",
      "longitude": "-90.02593893329619"
    }
  },
  {
    "service_request": "2025-1173463",
    "request_type": "Trash/Recycling",
    "request_reason": "Request a Large Item Pick Up",
    "date_created": "2025-03-06T16:43:16.000",
    "date_modified": "2025-03-06T16:43:19.000",
    "request_status": "Pending",
    "responsible_agency": "Department of Sanitation",
    "final_address": "847 Behrman Ave",
    "address_councildis": "C",
    "status": "Assigned to Contractor",
    "contractor": "Richards Disposal",
    "rowid": "1173463",
    "final_x": "3691399.20937",
    "final_y": "528158.693951",
    "longitude": "-90.036932383419",
    "latitude": "29.945948976585704",
    "geocoded_column": {
      "latitude": "29.945948976585704",
      "longitude": "-90.036932383419"
    }
  },
  {
    "service_request": "2025-1173462",
    "request_type": "Property Maintenance",
    "request_reason": "Property Maintenance",
    "date_created": "2025-03-06T16:43:15.000",
    "date_modified": "2025-03-06T16:43:16.000",
    "request_status": "Pending",
    "responsible_agency": "Department of Code Enforcement",
    "final_address": "3132 Johnny Jackson Jr Blvd",
    "address_councildis": "D",
    "status": "Pending",
    "rowid": "1173462",
    "final_x": "3691557.01705",
    "final_y": "544054.34395",
    "longitude": "-90.03586584173219",
    "latitude": "29.989651501383605",
    "geocoded_column": {
      "latitude": "29.989651501383605",
      "longitude": "-90.03586584173219"
    }
  },
  {
    "service_request": "2025-1173461",
    "request_type": "Property Maintenance",
    "request_reason": "Property Maintenance",
    "date_created": "2025-03-06T16:42:32.000",
    "date_modified": "2025-03-06T16:42:34.000",
    "request_status": "Pending",
    "responsible_agency": "Department of Code Enforcement",
    "final_address": "3108 Johnny Jackson Jr Blvd",
    "address_councildis": "D",
    "status": "Pending",
    "rowid": "1173461",
    "final_x": "3691515.91414",
    "final_y": "543880.76987",
    "longitude": "-90.0360018814469",
    "latitude": "29.98917551500928",
    "geocoded_column": {
      "latitude": "29.98917551500928",
      "longitude": "-90.0360018814469"
    }
  },
  {
    "service_request": "2025-1173460",
    "request_type": "Property Maintenance",
    "request_reason": "Property Maintenance",
    "date_created": "2025-03-06T16:41:41.000",
    "date_modified": "2025-03-06T16:41:42.000",
    "request_status": "Pending",
    "responsible_agency": "Department of Code Enforcement",
    "final_address": "5749 Congress Dr",
    "address_councildis": "D",
    "status": "Pending",
    "rowid": "1173460",
    "final_x": "3691303.1638",
    "final_y": "555228.271961",
    "longitude": "-90.03626815584708",
    "latitude": "30.020383598964248",
    "geocoded_column": {
      "latitude": "30.020383598964248",
      "longitude": "-90.03626815584708"
    }
  },
  {
    "service_request": "2025-1173459",
    "request_type": "Trash/Recycling",
    "request_reason": "Illegal Dumping",
    "date_created": "2025-03-06T16:41:30.000",
    "date_modified": "2025-03-06T16:41:33.000",
    "request_status": "Pending",
    "responsible_agency": "Department of Sanitation",
    "final_address": "3108 Johnny Jackson Jr Blvd",
    "address_councildis": "D",
    "status": "Pending",
    "rowid": "1173459",
    "final_x": "3691515.91414",
    "final_y": "543880.76987",
    "longitude": "-90.0360018814469",
    "latitude": "29.98917551500928",
    "geocoded_column": {
      "latitude": "29.98917551500928",
      "longitude": "-90.0360018814469"
    }
  },
  {
    "service_request": "2025-1173458",
    "request_type": "Property Maintenance",
    "request_reason": "Property Maintenance",
    "date_created": "2025-03-06T16:40:29.000",
    "date_modified": "2025-03-06T16:40:31.000",
    "request_status": "Pending",
    "responsible_agency": "Department of Code Enforcement",
    "final_address": "3114 Johnny Jackson Jr Blvd",
    "address_councildis": "D",
    "status": "Pending",
    "rowid": "1173458",
    "final_x": "3691526.89142",
    "final_y": "543922.72475",
    "longitude": "-90.0359657070994",
    "latitude": "29.989290534037416",
    "geocoded_column": {
      "latitude": "29.989290534037416",
      "longitude": "-90.0359657070994"
    }
  },
  {
    "service_request": "2025-1173457",
    "request_type": "Trash/Recycling",
    "request_reason": "Illegal Dumping",
    "date_created": "2025-03-06T16:39:28.000",
    "date_modified": "2025-03-06T16:39:29.000",
    "request_status": "Pending",
    "responsible_agency": "Department of Sanitation",
    "final_address": "3001 Piety St",
    "address_councildis": "D",
    "status": "Pending",
    "rowid": "1173457",
    "final_x": "3691767.17667",
    "final_y": "543362.284878",
    "longitude": "-90.03522677378913",
    "latitude": "29.987742043754835",
    "geocoded_column": {
      "latitude": "29.987742043754835",
      "longitude": "-90.03522677378913"
    }
  },
  {
    "service_request": "2025-1173456",
    "request_type": "Property Maintenance",
    "request_reason": "Property Maintenance",
    "date_created": "2025-03-06T16:38:19.000",
    "date_modified": "2025-03-06T16:38:22.000",
    "request_status": "Pending",
    "responsible_agency": "Department of Code Enforcement",
    "final_address": "3238 Piety St",
    "address_councildis": "D",
    "status": "Pending",
    "rowid": "1173456",
    "final_x": "3691961.0255",
    "final_y": "544396.003791",
    "longitude": "-90.0345774644685",
    "latitude": "29.990578357364377",
    "geocoded_column": {
      "latitude": "29.990578357364377",
      "longitude": "-90.0345774644685"
    }
  },
  {
    "service_request": "2025-1173455",
    "request_type": "Drainage",
    "request_reason": "Catch Basin Clogged",
    "date_created": "2025-03-06T16:37:12.000",
    "date_modified": "2025-03-06T16:37:13.000",
    "request_status": "Pending",
    "responsible_agency": "Sewerage & Water Board ",
    "final_address": "1411 Dauphine St",
    "address_councildis": "C",
    "status": "Pending",
    "rowid": "1173455",
    "final_x": "3683502.50972",
    "final_y": "535009.138374",
    "longitude": "-90.06162484850074",
    "latitude": "29.96502866507802",
    "geocoded_column": {
      "latitude": "29.96502866507802",
      "longitude": "-90.06162484850074"
    }
  },
  {
    "service_request": "2025-1173454",
    "request_type": "Trash/Recycling",
    "request_reason": "Illegal Dumping",
    "date_created": "2025-03-06T16:36:59.000",
    "date_modified": "2025-03-06T16:37:01.000",
    "request_status": "Pending",
    "responsible_agency": "Department of Sanitation",
    "final_address": "3239 Johnny Jackson Jr Blvd",
    "address_councildis": "D",
    "status": "Pending",
    "rowid": "1173454",
    "final_x": "3691773.74633",
    "final_y": "544442.146383",
    "longitude": "-90.03516737903738",
    "latitude": "29.990711068198337",
    "geocoded_column": {
      "latitude": "29.990711068198337",
      "longitude": "-90.03516737903738"
    }
  },
  {
    "service_request": "2025-1173453",
    "request_type": "Trash/Recycling",
    "request_reason": "Order Recycling Cart",
    "date_created": "2025-03-06T16:35:51.000",
    "date_modified": "2025-03-06T16:36:38.000",
    "request_status": "Pending",
    "responsible_agency": "Department of Sanitation",
    "final_address": "1719 St Andrew St",
    "address_councildis": "B",
    "status": "Pending",
    "rowid": "1173453",
    "final_x": "3677802.61416",
    "final_y": "524685.185404",
    "longitude": "-90.07998140846192",
    "latitude": "29.936813958749063",
    "geocoded_column": {
      "latitude": "29.936813958749063",
      "longitude": "-90.07998140846192"
    }
  },
  {
    "service_request": "2025-1173452",
    "request_type": "Trash/Recycling",
    "request_reason": "Order Trash Cart",
    "date_created": "2025-03-06T16:35:15.000",
    "date_modified": "2025-03-06T16:37:10.000",
    "request_status": "Pending",
    "responsible_agency": "Department of Sanitation",
    "final_address": "1719 St Andrew St",
    "address_councildis": "B",
    "status": "Assigned to Contractor",
    "contractor": "IV Waste",
    "rowid": "1173452",
    "final_x": "3677802.61416",
    "final_y": "524685.185404",
    "longitude": "-90.07998140846192",
    "latitude": "29.936813958749063",
    "geocoded_column": {
      "latitude": "29.936813958749063",
      "longitude": "-90.07998140846192"
    }
  },
  {
    "service_request": "2025-1173451",
    "request_type": "Trash/Recycling",
    "request_reason": "Order Second Trash Cart",
    "date_created": "2025-03-06T16:34:51.000",
    "date_modified": "2025-03-06T16:34:54.000",
    "request_status": "Pending",
    "responsible_agency": "Department of Sanitation",
    "final_address": "22 Egret St",
    "address_councildis": "D",
    "status": "Assigned to Contractor",
    "contractor": "IV Waste",
    "rowid": "1173451",
    "final_x": "3673940.55227",
    "final_y": "554840.029848",
    "longitude": "-90.09114208964907",
    "latitude": "30.0198450595014",
    "geocoded_column": {
      "latitude": "30.0198450595014",
      "longitude": "-90.09114208964907"
    }
  },
  {
    "service_request": "2025-1173450",
    "request_type": "Healthy Homes",
    "request_reason": "Healthy Homes",
    "date_created": "2025-03-06T16:32:00.000",
    "date_modified": "2025-03-06T16:32:02.000",
    "request_status": "Pending",
    "responsible_agency": "Department of Code Enforcement",
    "final_address": "2441 Chartres St",
    "address_councildis": "C",
    "status": "Pending",
    "rowid": "1173450",
    "final_x": "3686248.68527",
    "final_y": "534634.76423",
    "longitude": "-90.05296581574306",
    "latitude": "29.963915175091753",
    "geocoded_column": {
      "latitude": "29.963915175091753",
      "longitude": "-90.05296581574306"
    }
  },
  {
    "service_request": "2025-1173449",
    "request_type": "Property Maintenance",
    "request_reason": "Property Maintenance",
    "date_created": "2025-03-06T16:29:20.000",
    "date_modified": "2025-03-06T16:29:22.000",
    "request_status": "Pending",
    "responsible_agency": "Department of Code Enforcement",
    "final_address": "933 Gordon St",
    "address_councildis": "E",
    "status": "Pending",
    "rowid": "1173449",
    "final_x": "3698985.75575",
    "final_y": "532943.462084",
    "longitude": "-90.01280513809115",
    "latitude": "29.958867205988412",
    "geocoded_column": {
      "latitude": "29.958867205988412",
      "longitude": "-90.01280513809115"
    }
  },
  {
    "service_request": "2025-1173448",
    "request_type": "Trash/Recycling",
    "request_reason": "Request a Large Item Pick Up",
    "date_created": "2025-03-06T16:25:03.000",
    "date_modified": "2025-03-06T16:25:05.000",
    "request_status": "Pending",
    "responsible_agency": "Department of Sanitation",
    "final_address": "6635 Coventry St",
    "address_councildis": "E",
    "status": "Assigned to Contractor",
    "contractor": "Waste Pro",
    "rowid": "1173448",
    "final_x": "3697730.2929",
    "final_y": "559373.122973",
    "longitude": "-90.01580992205524",
    "latitude": "30.03157874409579",
    "geocoded_column": {
      "latitude": "30.03157874409579",
      "longitude": "-90.01580992205524"
    }
  },
  {
    "service_request": "2025-1173447",
    "request_type": "Property Maintenance",
    "request_reason": "Property Maintenance",
    "date_created": "2025-03-06T16:24:44.000",
    "date_modified": "2025-03-06T16:24:46.000",
    "request_status": "Pending",
    "responsible_agency": "Department of Code Enforcement",
    "final_address": "3245 Johnny Jackson Jr Blvd",
    "address_councildis": "D",
    "status": "Pending",
    "rowid": "1173447",
    "final_x": "3691784.65833",
    "final_y": "544484.655695",
    "longitude": "-90.03513138953183",
    "latitude": "29.99082761349189",
    "geocoded_column": {
      "latitude": "29.99082761349189",
      "longitude": "-90.03513138953183"
    }
  },
  {
    "service_request": "2025-1173446",
    "request_type": "Trash/Recycling",
    "request_reason": "MIssed Recycling Pick-Up",
    "date_created": "2025-03-06T16:23:20.000",
    "date_modified": "2025-03-06T16:32:17.000",
    "case_close_date": "2025-03-06T10:32:16.000",
    "request_status": "Closed",
    "responsible_agency": "Department of Sanitation",
    "final_address": "3805 Octavia St",
    "address_councildis": "A",
    "status": "Invalid Request",
    "contractor": "IV Waste",
    "contractor_action": "Invalid Request",
    "rowid": "1173446",
    "final_x": "3668826.2827",
    "final_y": "529392.729665",
    "longitude": "-90.1081613042878",
    "latitude": "29.950025105536138",
    "geocoded_column": {
      "latitude": "29.950025105536138",
      "longitude": "-90.1081613042878"
    }
  },
  {
    "service_request": "2025-1173445",
    "request_type": "Trash/Recycling",
    "request_reason": "Request a Large Item Pick Up",
    "date_created": "2025-03-06T16:22:32.000",
    "date_modified": "2025-03-06T16:22:34.000",
    "request_status": "Pending",
    "responsible_agency": "Department of Sanitation",
    "final_address": "8839 Edinburgh St",
    "address_councildis": "A",
    "status": "Assigned to Contractor",
    "contractor": "IV Waste",
    "rowid": "1173445",
    "final_x": "3665444.48845",
    "final_y": "536338.519303",
    "longitude": "-90.1186067549337",
    "latitude": "29.969222744869413",
    "geocoded_column": {
      "latitude": "29.969222744869413",
      "longitude": "-90.1186067549337"
    }
  },
  {
    "service_request": "2025-1173444",
    "request_type": "Property Maintenance",
    "request_reason": "Property Maintenance",
    "date_created": "2025-03-06T16:22:32.000",
    "date_modified": "2025-03-06T16:22:50.000",
    "request_status": "Pending",
    "responsible_agency": "Department of Code Enforcement",
    "final_address": "2530 Behrman Hwy",
    "address_councildis": "C",
    "status": "Pending",
    "rowid": "1173444",
    "final_x": "3692694.80649",
    "final_y": "520914.069945",
    "longitude": "-90.03310131960312",
    "latitude": "29.925988363749667",
    "geocoded_column": {
      "latitude": "29.925988363749667",
      "longitude": "-90.03310131960312"
    }
  },
  {
    "service_request": "2025-1173443",
    "request_type": "Abandoned Vehicles",
    "request_reason": "Abandoned/Junk Vehicles",
    "date_created": "2025-03-06T16:21:38.000",
    "date_modified": "2025-03-06T16:21:39.000",
    "request_status": "Pending",
    "responsible_agency": "Department of Public Works",
    "final_address": "3310 Dickens Dr",
    "address_councildis": "C",
    "status": "Pending",
    "rowid": "1173443",
    "final_x": "3708355.91716",
    "final_y": "518479.703734",
    "longitude": "-89.9837547481539",
    "latitude": "29.91879676717459",
    "geocoded_column": {
      "latitude": "29.91879676717459",
      "longitude": "-89.9837547481539"
    }
  },
  {
    "service_request": "2025-1173442",
    "request_type": "Trash/Recycling",
    "request_reason": "Request a Large Item Pick Up",
    "date_created": "2025-03-06T16:19:55.000",
    "date_modified": "2025-03-06T16:19:57.000",
    "request_status": "Pending",
    "responsible_agency": "Department of Sanitation",
    "final_address": "1527 Gallier St",
    "address_councildis": "D",
    "status": "Assigned to Contractor",
    "contractor": "IV Waste",
    "rowid": "1173442",
    "final_x": "3690922.7199",
    "final_y": "537337.21364",
    "longitude": "-90.03810923880457",
    "latitude": "29.971201523943673",
    "geocoded_column": {
      "latitude": "29.971201523943673",
      "longitude": "-90.03810923880457"
    }
  },
  {
    "service_request": "2025-1173441",
    "request_type": "Property Maintenance",
    "request_reason": "Property Maintenance",
    "date_created": "2025-03-06T16:18:56.000",
    "date_modified": "2025-03-06T16:18:58.000",
    "request_status": "Pending",
    "responsible_agency": "Department of Code Enforcement",
    "final_address": "3315 Johnny Jackson Jr Blvd",
    "address_councildis": "D",
    "status": "Pending",
    "rowid": "1173441",
    "final_x": "3691837.22147",
    "final_y": "544643.889423",
    "longitude": "-90.0349596565607",
    "latitude": "29.991263811015553",
    "geocoded_column": {
      "latitude": "29.991263811015553",
      "longitude": "-90.0349596565607"
    }
  },
  {
    "service_request": "2025-1173440",
    "request_type": "Property Maintenance",
    "request_reason": "Property Maintenance",
    "date_created": "2025-03-06T16:14:25.000",
    "date_modified": "2025-03-06T16:14:27.000",
    "request_status": "Pending",
    "responsible_agency": "Department of Code Enforcement",
    "final_address": "5171 Marigny St",
    "address_councildis": "D",
    "status": "Pending",
    "rowid": "1173440",
    "final_x": "3684379.98127",
    "final_y": "551842.09807",
    "longitude": "-90.05826232217214",
    "latitude": "30.011286529340925",
    "geocoded_column": {
      "latitude": "30.011286529340925",
      "longitude": "-90.05826232217214"
    }
  },
  {
    "service_request": "2025-1173439",
    "request_type": "Trash/Recycling",
    "request_reason": "Request a Large Item Pick Up",
    "date_created": "2025-03-06T16:14:00.000",
    "date_modified": "2025-03-06T16:14:02.000",
    "request_status": "Pending",
    "responsible_agency": "Department of Sanitation",
    "final_address": "59 Fontainebleau Dr",
    "address_councildis": "A",
    "status": "Assigned to Contractor",
    "contractor": "IV Waste",
    "rowid": "1173439",
    "final_x": "3666530.63873",
    "final_y": "531174.333826",
    "longitude": "-90.11534995586233",
    "latitude": "29.954991229966453",
    "geocoded_column": {
      "latitude": "29.954991229966453",
      "longitude": "-90.11534995586233"
    }
  },
  {
    "service_request": "2025-1173438",
    "request_type": "Trash/Recycling",
    "request_reason": "Order Trash Cart",
    "date_created": "2025-03-06T16:05:53.000",
    "date_modified": "2025-03-06T16:05:54.000",
    "request_status": "Pending",
    "responsible_agency": "Department of Sanitation",
    "final_address": "5457 N Claiborne Ave",
    "address_councildis": "E",
    "status": "Assigned to Contractor",
    "contractor": "Waste Pro",
    "rowid": "1173438",
    "final_x": "3698170.34615",
    "final_y": "535742.163847",
    "longitude": "-90.01527832161341",
    "latitude": "29.966588453080803",
    "geocoded_column": {
      "latitude": "29.966588453080803",
      "longitude": "-90.01527832161341"
    }
  },
  {
    "service_request": "2025-1173437",
    "request_type": "Trash/Recycling",
    "request_reason": "Request a Large Item Pick Up",
    "date_created": "2025-03-06T16:03:52.000",
    "date_modified": "2025-03-06T16:03:54.000",
    "request_status": "Pending",
    "responsible_agency": "Department of Sanitation",
    "final_address": "5700 Norland Ave",
    "address_councildis": "C",
    "status": "Assigned to Contractor",
    "contractor": "Richards Disposal",
    "rowid": "1173437",
    "final_x": "3704632.93617",
    "final_y": "520656.446393",
    "longitude": "-89.99542594147624",
    "latitude": "29.92490210175517",
    "geocoded_column": {
      "latitude": "29.92490210175517",
      "longitude": "-89.99542594147624"
    }
  },
  {
    "service_request": "2025-1173436",
    "request_type": "Trash/Recycling",
    "request_reason": "Request a Large Item Pick Up",
    "date_created": "2025-03-06T16:01:37.000",
    "date_modified": "2025-03-06T16:01:38.000",
    "request_status": "Pending",
    "responsible_agency": "Department of Sanitation",
    "final_address": "32 Curtis Dr",
    "address_councildis": "E",
    "status": "Assigned to Contractor",
    "contractor": "Waste Pro",
    "rowid": "1173436",
    "final_x": "3697715.11165",
    "final_y": "560971.142686",
    "longitude": "-90.01579983051062",
    "latitude": "30.03597316219121",
    "geocoded_column": {
      "latitude": "30.03597316219121",
      "longitude": "-90.01579983051062"
    }
  },
  {
    "service_request": "2025-1173435",
    "request_type": "Abandoned Vehicles",
    "request_reason": "Abandoned/Junk Vehicles",
    "date_created": "2025-03-06T15:59:36.000",
    "date_modified": "2025-03-06T15:59:38.000",
    "request_status": "Pending",
    "responsible_agency": "Department of Public Works",
    "final_address": "210 Pelican Ave",
    "address_councildis": "C",
    "status": "Pending",
    "rowid": "1173435",
    "final_x": "3685960.91273",
    "final_y": "530128.253697",
    "longitude": "-90.05403345930623",
    "latitude": "29.95153265862249",
    "geocoded_column": {
      "latitude": "29.95153265862249",
      "longitude": "-90.05403345930623"
    }
  },
  {
    "service_request": "2025-1173434",
    "request_type": "Trash/Recycling",
    "request_reason": "Illegal Dumping",
    "date_created": "2025-03-06T15:58:15.000",
    "date_modified": "2025-03-06T15:58:17.000",
    "request_status": "Pending",
    "responsible_agency": "Department of Sanitation",
    "final_address": "3200 Piety St",
    "address_councildis": "D",
    "status": "Pending",
    "rowid": "1173434",
    "final_x": "3691896.0456",
    "final_y": "544139.907982",
    "longitude": "-90.0347918864062",
    "latitude": "29.989876211522926",
    "geocoded_column": {
      "latitude": "29.989876211522926",
      "longitude": "-90.0347918864062"
    }
  },
  {
    "service_request": "2025-1173433",
    "request_type": "Trash/Recycling",
    "request_reason": "Illegal Dumping",
    "date_created": "2025-03-06T15:56:58.000",
    "date_modified": "2025-03-06T15:57:01.000",
    "request_status": "Pending",
    "responsible_agency": "Department of Sanitation",
    "final_address": "3201 Johnny Jackson Jr Blvd",
    "address_councildis": "D",
    "status": "Pending",
    "rowid": "1173433",
    "final_x": "3691706.52336",
    "final_y": "544186.36123",
    "longitude": "-90.03538887122293",
    "latitude": "29.99000984546544",
    "geocoded_column": {
      "latitude": "29.99000984546544",
      "longitude": "-90.03538887122293"
    }
  },
  {
    "service_request": "2025-1173432",
    "request_type": "Roads and Streets",
    "request_reason": "Debris in Driving Lanes",
    "date_created": "2025-03-06T15:56:23.000",
    "date_modified": "2025-03-06T15:56:25.000",
    "request_status": "Pending",
    "responsible_agency": "Department of Public Works",
    "final_address": "MOSS ST & GRAND ROUTE ST JOHN",
    "address_councildis": "A",
    "status": "Pending",
    "rowid": "1173432",
    "final_x": "3675385.8",
    "final_y": "540337.48",
    "longitude": "-90.08707396030022",
    "latitude": "29.97992499086232",
    "geocoded_column": {
      "latitude": "29.97992499086232",
      "longitude": "-90.08707396030022"
    }
  },
  {
    "service_request": "2025-1173431",
    "request_type": "Trash/Recycling",
    "request_reason": "Dead Animal Pick Up",
    "date_created": "2025-03-06T15:55:29.000",
    "date_modified": "2025-03-06T15:55:31.000",
    "request_status": "Pending",
    "responsible_agency": "Department of Sanitation",
    "final_address": "3500 Dickens Dr",
    "address_councildis": "C",
    "status": "Assigned to Contractor",
    "contractor": "Richards Disposal",
    "rowid": "1173431",
    "final_x": "3708321.7875",
    "final_y": "517963.994422",
    "longitude": "-89.98388164750911",
    "latitude": "29.917379851568825",
    "geocoded_column": {
      "latitude": "29.917379851568825",
      "longitude": "-89.98388164750911"
    }
  },
  {
    "service_request": "2025-1173430",
    "request_type": "Trash/Recycling",
    "request_reason": "Repair Recycling Cart",
    "date_created": "2025-03-06T15:53:40.000",
    "date_modified": "2025-03-06T15:53:50.000",
    "request_status": "Pending",
    "responsible_agency": "Department of Sanitation",
    "final_address": "5610 Franklin Ave",
    "address_councildis": "D",
    "status": "Pending",
    "rowid": "1173430",
    "final_x": "3686449.08092",
    "final_y": "553738.315223",
    "longitude": "-90.05165819931905",
    "latitude": "30.016436958972346",
    "geocoded_column": {
      "latitude": "30.016436958972346",
      "longitude": "-90.05165819931905"
    }
  },
  {
    "service_request": "2025-1173429",
    "request_type": "Trash/Recycling",
    "request_reason": "Request a Large Item Pick Up",
    "date_created": "2025-03-06T15:52:43.000",
    "date_modified": "2025-03-06T15:52:46.000",
    "request_status": "Pending",
    "responsible_agency": "Department of Sanitation",
    "final_address": "2321 Terpsichore St",
    "address_councildis": "B",
    "status": "Assigned to Contractor",
    "contractor": "IV Waste",
    "rowid": "1173429",
    "final_x": "3676337.68437",
    "final_y": "527008.61587",
    "longitude": "-90.08452632407192",
    "latitude": "29.943246607077096",
    "geocoded_column": {
      "latitude": "29.943246607077096",
      "longitude": "-90.08452632407192"
    }
  },
  {
    "service_request": "2025-1173428",
    "request_type": "Trash/Recycling",
    "request_reason": "Order Trash Cart",
    "date_created": "2025-03-06T15:47:38.000",
    "date_modified": "2025-03-06T15:47:40.000",
    "request_status": "Pending",
    "responsible_agency": "Department of Sanitation",
    "final_address": "3509 St Anthony Ave",
    "address_councildis": "D",
    "status": "Assigned to Contractor",
    "contractor": "IV Waste",
    "rowid": "1173428",
    "final_x": "3682836.24367",
    "final_y": "545496.140368",
    "longitude": "-90.06336182546552",
    "latitude": "29.99388456931487",
    "geocoded_column": {
      "latitude": "29.99388456931487",
      "longitude": "-90.06336182546552"
    }
  },
  {
    "service_request": "2025-1173427",
    "request_type": "Trash/Recycling",
    "request_reason": "Order Trash Cart",
    "date_created": "2025-03-06T15:46:37.000",
    "date_modified": "2025-03-06T15:46:39.000",
    "request_status": "Pending",
    "responsible_agency": "Department of Sanitation",
    "final_address": "3511 St Anthony Ave",
    "address_councildis": "D",
    "status": "Assigned to Contractor",
    "contractor": "IV Waste",
    "rowid": "1173427",
    "final_x": "3682834.81538",
    "final_y": "545507.260624",
    "longitude": "-90.06336594789619",
    "latitude": "29.99391518959255",
    "geocoded_column": {
      "latitude": "29.99391518959255",
      "longitude": "-90.06336594789619"
    }
  },
  {
    "service_request": "2025-1173426",
    "request_type": "Property Maintenance",
    "request_reason": "Property Maintenance",
    "date_created": "2025-03-06T15:42:28.000",
    "date_modified": "2025-03-06T15:42:30.000",
    "request_status": "Pending",
    "responsible_agency": "Department of Code Enforcement",
    "final_address": "3139 Piety St",
    "address_councildis": "D",
    "status": "Pending",
    "rowid": "1173426",
    "final_x": "3691929.14595",
    "final_y": "543998.293198",
    "longitude": "-90.03469240154365",
    "latitude": "29.989485790589157",
    "geocoded_column": {
      "latitude": "29.989485790589157",
      "longitude": "-90.03469240154365"
    }
  },
  {
    "service_request": "2025-1173425",
    "request_type": "Trash/Recycling",
    "request_reason": "Repair Trash Cart",
    "date_created": "2025-03-06T15:42:18.000",
    "date_modified": "2025-03-06T15:42:20.000",
    "request_status": "Pending",
    "responsible_agency": "Department of Sanitation",
    "final_address": "3124 State Street Dr",
    "address_councildis": "A",
    "status": "Assigned to Contractor",
    "contractor": "IV Waste",
    "rowid": "1173425",
    "final_x": "3667387.59604",
    "final_y": "527691.611135",
    "longitude": "-90.11276114113406",
    "latitude": "29.9453898011865",
    "geocoded_column": {
      "latitude": "29.9453898011865",
      "longitude": "-90.11276114113406"
    }
  },
  {
    "service_request": "2025-1173424",
    "request_type": "Trash/Recycling",
    "request_reason": "Request a Large Item Pick Up",
    "date_created": "2025-03-06T15:39:14.000",
    "date_modified": "2025-03-06T15:39:16.000",
    "request_status": "Pending",
    "responsible_agency": "Department of Sanitation",
    "final_address": "3507 Mimosa Ct",
    "address_councildis": "C",
    "status": "Assigned to Contractor",
    "contractor": "Richards Disposal",
    "rowid": "1173424",
    "final_x": "3703676.89969",
    "final_y": "512933.445105",
    "longitude": "-89.99872776321342",
    "latitude": "29.903697157439694",
    "geocoded_column": {
      "latitude": "29.903697157439694",
      "longitude": "-89.99872776321342"
    }
  },
  {
    "service_request": "2025-1173423",
    "request_type": "Trash/Recycling",
    "request_reason": "Illegal Dumping",
    "date_created": "2025-03-06T15:38:29.000",
    "date_modified": "2025-03-06T15:38:30.000",
    "request_status": "Pending",
    "responsible_agency": "Department of Sanitation",
    "final_address": "3211 Treasure St",
    "address_councildis": "D",
    "status": "Pending",
    "rowid": "1173423",
    "final_x": "3691710.74902",
    "final_y": "543778.470478",
    "longitude": "-90.03539011799346",
    "latitude": "29.988888161627884",
    "geocoded_column": {
      "latitude": "29.988888161627884",
      "longitude": "-90.03539011799346"
    }
  },
  {
    "service_request": "2025-1173422",
    "request_type": "Trash/Recycling",
    "request_reason": "Missed Trash Pick-Up",
    "date_created": "2025-03-06T15:37:11.000",
    "date_modified": "2025-03-06T16:22:18.000",
    "case_close_date": "2025-03-06T10:22:17.000",
    "request_status": "Closed",
    "responsible_agency": "Department of Sanitation",
    "final_address": "4616 Donna Dr",
    "address_councildis": "E",
    "status": "Invalid Request",
    "contractor": "Waste Pro",
    "contractor_action": "Invalid Request",
    "rowid": "1173422",
    "final_x": "3711003.44017",
    "final_y": "555168.491097",
    "longitude": "-89.9740241647289",
    "latitude": "30.019591337060504",
    "geocoded_column": {
      "latitude": "30.019591337060504",
      "longitude": "-89.9740241647289"
    }
  },
  {
    "service_request": "2025-1173421",
    "request_type": "Trash/Recycling",
    "request_reason": "Request a Large Item Pick Up",
    "date_created": "2025-03-06T15:36:52.000",
    "date_modified": "2025-03-06T16:28:33.000",
    "request_status": "Pending",
    "responsible_agency": "Department of Sanitation",
    "final_address": "1546 Jefferson Ave",
    "address_councildis": "A",
    "status": "Assigned to Contractor",
    "contractor": "IV Waste",
    "rowid": "1173421",
    "final_x": "3667189.37434",
    "final_y": "520954.061817",
    "longitude": "-90.11361343479581",
    "latitude": "29.926869501507873",
    "geocoded_column": {
      "latitude": "29.926869501507873",
      "longitude": "-90.11361343479581"
    }
  },
  {
    "service_request": "2025-1173420",
    "request_type": "Parks & Parkways",
    "request_reason": "Park Maintenance/Clean Up",
    "date_created": "2025-03-06T15:36:35.000",
    "date_modified": "2025-03-06T15:36:37.000",
    "request_status": "Pending",
    "responsible_agency": "Department of Parks & Parkway",
    "final_address": "2011 Mandeville St",
    "address_councildis": "D",
    "status": "Pending",
    "rowid": "1173420",
    "final_x": "3685539.88566",
    "final_y": "539784.770762",
    "longitude": "-90.05502270002026",
    "latitude": "29.978097656781475",
    "geocoded_column": {
      "latitude": "29.978097656781475",
      "longitude": "-90.05502270002026"
    }
  },
  {
    "service_request": "2025-1173419",
    "request_type": "Trash/Recycling",
    "request_reason": "Request a Large Item Pick Up",
    "date_created": "2025-03-06T15:36:33.000",
    "date_modified": "2025-03-06T15:36:36.000",
    "request_status": "Pending",
    "responsible_agency": "Department of Sanitation",
    "final_address": "10911 Harrow Rd",
    "address_councildis": "E",
    "status": "Assigned to Contractor",
    "contractor": "Waste Pro",
    "rowid": "1173419",
    "final_x": "3711538.91608",
    "final_y": "563824.881633",
    "longitude": "-89.97200730640662",
    "latitude": "30.043375499016523",
    "geocoded_column": {
      "latitude": "30.043375499016523",
      "longitude": "-89.97200730640662"
    }
  },
  {
    "service_request": "2025-1173418",
    "request_type": "Trash/Recycling",
    "request_reason": "Order Second Trash Cart",
    "date_created": "2025-03-06T15:34:57.000",
    "date_modified": "2025-03-06T15:34:59.000",
    "request_status": "Pending",
    "responsible_agency": "Department of Sanitation",
    "final_address": "7008 Oleander St",
    "address_councildis": "B",
    "status": "Assigned to Contractor",
    "contractor": "IV Waste",
    "rowid": "1173418",
    "final_x": "3668433.62906",
    "final_y": "532050.844547",
    "longitude": "-90.10931144337555",
    "latitude": "29.957345588892668",
    "geocoded_column": {
      "latitude": "29.957345588892668",
      "longitude": "-90.10931144337555"
    }
  },
  {
    "service_request": "2025-1173417",
    "request_type": "Drainage",
    "request_reason": "Catch Basin Clogged",
    "date_created": "2025-03-06T15:34:56.000",
    "date_modified": "2025-03-06T15:34:58.000",
    "request_status": "Pending",
    "responsible_agency": "Sewerage & Water Board ",
    "final_address": "964 Felicity St",
    "address_councildis": "B",
    "status": "Pending",
    "rowid": "1173417",
    "final_x": "3680142.12027",
    "final_y": "522854.601083",
    "longitude": "-90.07265905958718",
    "latitude": "29.931709884107715",
    "geocoded_column": {
      "latitude": "29.931709884107715",
      "longitude": "-90.07265905958718"
    }
  },
  {
    "service_request": "2025-1173416",
    "request_type": "EMS",
    "request_reason": "EMS Lost & Found",
    "date_created": "2025-03-06T15:31:59.000",
    "date_modified": "2025-03-06T15:32:02.000",
    "request_status": "Pending",
    "responsible_agency": "Emergency Medical Services",
    "final_address": "3938 Jennifer St",
    "address_councildis": "C",
    "status": "Pending",
    "rowid": "1173416",
    "final_x": "3709634.72779",
    "final_y": "516184.485236",
    "longitude": "-89.97980382698078",
    "latitude": "29.912444239703234",
    "geocoded_column": {
      "latitude": "29.912444239703234",
      "longitude": "-89.97980382698078"
    }
  },
  {
    "service_request": "2025-1173415",
    "request_type": "Property Maintenance",
    "request_reason": "Property Maintenance",
    "date_created": "2025-03-06T15:30:55.000",
    "date_modified": "2025-03-06T15:30:57.000",
    "request_status": "Pending",
    "responsible_agency": "Department of Code Enforcement",
    "final_address": "3239 Piety St",
    "address_councildis": "D",
    "status": "Pending",
    "rowid": "1173415",
    "final_x": "3692026.46249",
    "final_y": "544379.877455",
    "longitude": "-90.03437134362991",
    "latitude": "29.990531976210836",
    "geocoded_column": {
      "latitude": "29.990531976210836",
      "longitude": "-90.03437134362991"
    }
  },
  {
    "service_request": "2025-1173414",
    "request_type": "Trash/Recycling",
    "request_reason": "Request a Large Item Pick Up",
    "date_created": "2025-03-06T15:28:35.000",
    "date_modified": "2025-03-06T16:26:56.000",
    "request_status": "Pending",
    "responsible_agency": "Department of Sanitation",
    "final_address": "3112 General Taylor St",
    "address_councildis": "B",
    "status": "Assigned to Contractor",
    "contractor": "IV Waste",
    "rowid": "1173414",
    "final_x": "3671312.61505",
    "final_y": "526472.280446",
    "longitude": "-90.10040999410032",
    "latitude": "29.941921491961196",
    "geocoded_column": {
      "latitude": "29.941921491961196",
      "longitude": "-90.10040999410032"
    }
  },
  {
    "service_request": "2025-1173413",
    "request_type": "Property Maintenance",
    "request_reason": "Property Maintenance",
    "date_created": "2025-03-06T15:27:57.000",
    "date_modified": "2025-03-06T15:27:58.000",
    "request_status": "Pending",
    "responsible_agency": "Department of Code Enforcement",
    "final_address": "3238 Piety St",
    "address_councildis": "D",
    "status": "Pending",
    "rowid": "1173413",
    "final_x": "3691961.0255",
    "final_y": "544396.003791",
    "longitude": "-90.0345774644685",
    "latitude": "29.990578357364377",
    "geocoded_column": {
      "latitude": "29.990578357364377",
      "longitude": "-90.0345774644685"
    }
  },
  {
    "service_request": "2025-1173412",
    "request_type": "Trash/Recycling",
    "request_reason": "Dead Animal Pick Up",
    "date_created": "2025-03-06T15:26:54.000",
    "date_modified": "2025-03-06T15:26:56.000",
    "request_status": "Pending",
    "responsible_agency": "Department of Sanitation",
    "final_address": "9530 Lincoln Beach Blvd",
    "address_councildis": "E",
    "status": "Assigned to Contractor",
    "contractor": "Waste Pro",
    "rowid": "1173412",
    "final_x": "3706107.79044",
    "final_y": "564970.897698",
    "longitude": "-89.98912932707974",
    "latitude": "30.046702887486866",
    "geocoded_column": {
      "latitude": "30.046702887486866",
      "longitude": "-89.98912932707974"
    }
  },
  {
    "service_request": "2025-1173411",
    "request_type": "Trash/Recycling",
    "request_reason": "Repair Trash Cart",
    "date_created": "2025-03-06T15:24:02.000",
    "date_modified": "2025-03-06T15:24:03.000",
    "request_status": "Pending",
    "responsible_agency": "Department of Sanitation",
    "final_address": "2533 Clover St",
    "address_councildis": "D",
    "status": "Assigned to Contractor",
    "contractor": "IV Waste",
    "rowid": "1173411",
    "final_x": "3686659.98428",
    "final_y": "546663.643473",
    "longitude": "-90.0512419456783",
    "latitude": "29.996977699849058",
    "geocoded_column": {
      "latitude": "29.996977699849058",
      "longitude": "-90.0512419456783"
    }
  },
  {
    "service_request": "2025-1173410",
    "request_type": "Property Maintenance",
    "request_reason": "Property Maintenance",
    "date_created": "2025-03-06T15:22:49.000",
    "date_modified": "2025-03-06T15:22:50.000",
    "request_status": "Pending",
    "responsible_agency": "Department of Code Enforcement",
    "final_address": "3301 Piety St",
    "address_councildis": "D",
    "status": "Pending",
    "rowid": "1173410",
    "final_x": "3692056.76291",
    "final_y": "544503.766735",
    "longitude": "-90.03427119595221",
    "latitude": "29.990871682351166",
    "geocoded_column": {
      "latitude": "29.990871682351166",
      "longitude": "-90.03427119595221"
    }
  },
  {
    "service_request": "2025-1173409",
    "request_type": "Trash/Recycling",
    "request_reason": "Repair Trash Cart",
    "date_created": "2025-03-06T15:22:05.000",
    "date_modified": "2025-03-06T15:22:07.000",
    "request_status": "Pending",
    "responsible_agency": "Department of Sanitation",
    "final_address": "6637 Bellaire Dr",
    "address_councildis": "A",
    "status": "Assigned to Contractor",
    "contractor": "IV Waste",
    "rowid": "1173409",
    "final_x": "3664616.82016",
    "final_y": "552276.299094",
    "longitude": "-90.1206879313687",
    "latitude": "30.013070328527718",
    "geocoded_column": {
      "latitude": "30.013070328527718",
      "longitude": "-90.1206879313687"
    }
  },
  {
    "service_request": "2025-1173408",
    "request_type": "Trash/Recycling",
    "request_reason": "Order Second Trash Cart",
    "date_created": "2025-03-06T15:19:36.000",
    "date_modified": "2025-03-06T15:19:39.000",
    "request_status": "Pending",
    "responsible_agency": "Department of Sanitation",
    "final_address": "6911 Vicksburg St",
    "address_councildis": "A",
    "status": "Assigned to Contractor",
    "contractor": "IV Waste",
    "rowid": "1173408",
    "final_x": "3669479.1769",
    "final_y": "553387.157719",
    "longitude": "-90.10528783682923",
    "latitude": "30.015982408825934",
    "geocoded_column": {
      "latitude": "30.015982408825934",
      "longitude": "-90.10528783682923"
    }
  },
  {
    "service_request": "2025-1173407",
    "request_type": "Trash/Recycling",
    "request_reason": "Order Second Trash Cart",
    "date_created": "2025-03-06T15:17:58.000",
    "date_modified": "2025-03-06T15:18:00.000",
    "request_status": "Pending",
    "responsible_agency": "Department of Sanitation",
    "final_address": "4764 De Montluzin St",
    "address_councildis": "D",
    "status": "Assigned to Contractor",
    "contractor": "IV Waste",
    "rowid": "1173407",
    "final_x": "3687064.94274",
    "final_y": "550811.068309",
    "longitude": "-90.04981594699201",
    "latitude": "30.008369148312653",
    "geocoded_column": {
      "latitude": "30.008369148312653",
      "longitude": "-90.04981594699201"
    }
  },
  {
    "service_request": "2025-1173406",
    "request_type": "Utility Poles",
    "request_reason": "Utility Pole Down",
    "date_created": "2025-03-06T15:16:00.000",
    "date_modified": "2025-03-06T15:16:03.000",
    "request_status": "Pending",
    "responsible_agency": "Utility Company Collective",
    "final_address": "DHEMECOURT ST & S PIERCE ST",
    "address_councildis": "B",
    "status": "Pending",
    "rowid": "1173406",
    "final_x": "3670282.8",
    "final_y": "536473.88",
    "longitude": "-90.10332237791513",
    "latitude": "29.969453019259078",
    "geocoded_column": {
      "latitude": "29.969453019259078",
      "longitude": "-90.10332237791513"
    }
  },
  {
    "service_request": "2025-1173405",
    "request_type": "Trash/Recycling",
    "request_reason": "Request a Large Item Pick Up",
    "date_created": "2025-03-06T15:15:24.000",
    "date_modified": "2025-03-06T15:16:06.000",
    "request_status": "Pending",
    "responsible_agency": "Department of Sanitation",
    "final_address": "4510 Chantilly Dr",
    "address_councildis": "E",
    "status": "Assigned to Contractor",
    "contractor": "Waste Pro",
    "rowid": "1173405",
    "final_x": "3700920.47805",
    "final_y": "552926.678807",
    "longitude": "-90.00596483108241",
    "latitude": "30.013752247103366",
    "geocoded_column": {
      "latitude": "30.013752247103366",
      "longitude": "-90.00596483108241"
    }
  },
  {
    "service_request": "2025-1173404",
    "request_type": "Streetlights",
    "request_reason": "Streetlight Outage/Malfunction",
    "date_created": "2025-03-06T15:15:19.000",
    "date_modified": "2025-03-06T15:15:20.000",
    "request_status": "Pending",
    "responsible_agency": "Department of Public Works",
    "final_address": "3050 N Rocheblave St",
    "address_councildis": "D",
    "status": "Pending",
    "contractor": "Legacy Professional Services",
    "rowid": "1173404",
    "final_x": "3690092.20022",
    "final_y": "540880.046155",
    "longitude": "-90.04060589449858",
    "latitude": "29.98096884514655",
    "geocoded_column": {
      "latitude": "29.98096884514655",
      "longitude": "-90.04060589449858"
    }
  },
  {
    "service_request": "2025-1173403",
    "request_type": "Trash/Recycling",
    "request_reason": "Illegal Dumping",
    "date_created": "2025-03-06T15:14:34.000",
    "date_modified": "2025-03-06T15:14:36.000",
    "request_status": "Pending",
    "responsible_agency": "Department of Sanitation",
    "final_address": "3503 Piedmont Dr",
    "address_councildis": "D",
    "status": "Pending",
    "rowid": "1173403",
    "final_x": "3686378.11913",
    "final_y": "545608.94696",
    "longitude": "-90.05216959459577",
    "latitude": "29.994086332155366",
    "geocoded_column": {
      "latitude": "29.994086332155366",
      "longitude": "-90.05216959459577"
    }
  },
  {
    "service_request": "2025-1173402",
    "request_type": "Trash/Recycling",
    "request_reason": "Order Trash Cart",
    "date_created": "2025-03-06T15:13:23.000",
    "date_modified": "2025-03-06T15:13:27.000",
    "request_status": "Pending",
    "responsible_agency": "Department of Sanitation",
    "final_address": "12419 Willow Dr",
    "address_councildis": "C",
    "status": "Assigned to Contractor",
    "contractor": "Richards Disposal",
    "rowid": "1173402",
    "final_x": "3729608.66304",
    "final_y": "510322.061615",
    "longitude": "-89.91699026018925",
    "latitude": "29.895660829506546",
    "geocoded_column": {
      "latitude": "29.895660829506546",
      "longitude": "-89.91699026018925"
    }
  },
  {
    "service_request": "2025-1173401",
    "request_type": "Abandoned Vehicles",
    "request_reason": "Abandoned/Junk Vehicles",
    "date_created": "2025-03-06T15:11:19.000",
    "date_modified": "2025-03-06T15:13:36.000",
    "request_status": "Pending",
    "responsible_agency": "Department of Public Works",
    "final_address": "2227 Joliet St",
    "address_councildis": "A",
    "status": "Pending",
    "rowid": "1173401",
    "final_x": "3663433.85683",
    "final_y": "532053.229315",
    "longitude": "-90.12509921081808",
    "latitude": "29.95749805629031",
    "geocoded_column": {
      "latitude": "29.95749805629031",
      "longitude": "-90.12509921081808"
    }
  },
  {
    "service_request": "2025-1173400",
    "request_type": "Abandoned Vehicles",
    "request_reason": "Abandoned/Junk Vehicles",
    "date_created": "2025-03-06T15:05:21.000",
    "date_modified": "2025-03-06T15:05:22.000",
    "request_status": "Pending",
    "responsible_agency": "Department of Public Works",
    "final_address": "3822 N Johnson St",
    "address_councildis": "D",
    "status": "Pending",
    "rowid": "1173400",
    "final_x": "3692211.41699",
    "final_y": "538734.170953",
    "longitude": "-90.0339893451932",
    "latitude": "29.975002543316016",
    "geocoded_column": {
      "latitude": "29.975002543316016",
      "longitude": "-90.0339893451932"
    }
  },
  {
    "service_request": "2025-1173399",
    "request_type": "Trash/Recycling",
    "request_reason": "Order Recycling Cart",
    "date_created": "2025-03-06T15:05:03.000",
    "date_modified": "2025-03-06T15:05:06.000",
    "request_status": "Pending",
    "responsible_agency": "Department of Sanitation",
    "final_address": "541 Webster St",
    "address_councildis": "A",
    "status": "Pending",
    "rowid": "1173399",
    "final_x": "3663903.38759",
    "final_y": "518734.188151",
    "longitude": "-90.12406042429113",
    "latitude": "29.92086131449269",
    "geocoded_column": {
      "latitude": "29.92086131449269",
      "longitude": "-90.12406042429113"
    }
  },
  {
    "service_request": "2025-1173398",
    "request_type": "Property Maintenance",
    "request_reason": "Property Maintenance",
    "date_created": "2025-03-06T15:02:56.000",
    "date_modified": "2025-03-06T15:02:58.000",
    "request_status": "Pending",
    "responsible_agency": "Department of Code Enforcement",
    "final_address": "4722 Eastview Dr",
    "address_councildis": "E",
    "status": "Pending",
    "rowid": "1173398",
    "final_x": "3705070.42679",
    "final_y": "555187.079833",
    "longitude": "-89.99276968604957",
    "latitude": "30.019834642268105",
    "geocoded_column": {
      "latitude": "30.019834642268105",
      "longitude": "-89.99276968604957"
    }
  },
  {
    "service_request": "2025-1173397",
    "request_type": "Trash/Recycling",
    "request_reason": "Return Trash Cart",
    "date_created": "2025-03-06T14:59:57.000",
    "date_modified": "2025-03-06T14:59:59.000",
    "request_status": "Pending",
    "responsible_agency": "Department of Sanitation",
    "final_address": "921 Bellecastle St",
    "address_councildis": "B",
    "status": "Assigned to Contractor",
    "contractor": "IV Waste",
    "rowid": "1173397",
    "final_x": "3667732.46164",
    "final_y": "518771.660343",
    "longitude": "-90.11197247985518",
    "latitude": "29.92085268008009",
    "geocoded_column": {
      "latitude": "29.92085268008009",
      "longitude": "-90.11197247985518"
    }
  },
  {
    "service_request": "2025-1173396",
    "request_type": "Trash/Recycling",
    "request_reason": "Request a Large Item Pick Up",
    "date_created": "2025-03-06T14:59:40.000",
    "date_modified": "2025-03-06T14:59:41.000",
    "request_status": "Pending",
    "responsible_agency": "Department of Sanitation",
    "final_address": "11251 Asphodel Dr",
    "address_councildis": "E",
    "status": "Assigned to Contractor",
    "contractor": "Waste Pro",
    "rowid": "1173396",
    "final_x": "3717667.73746",
    "final_y": "559812.622237",
    "longitude": "-89.9527906518224",
    "latitude": "30.032141776136363",
    "geocoded_column": {
      "latitude": "30.032141776136363",
      "longitude": "-89.9527906518224"
    }
  },
  {
    "service_request": "2025-1173395",
    "request_type": "Trash/Recycling",
    "request_reason": "Request a Large Item Pick Up",
    "date_created": "2025-03-06T14:59:25.000",
    "date_modified": "2025-03-06T14:59:27.000",
    "request_status": "Pending",
    "responsible_agency": "Department of Sanitation",
    "final_address": "5411 Royal St",
    "address_councildis": "E",
    "status": "Assigned to Contractor",
    "contractor": "Waste Pro",
    "rowid": "1173395",
    "final_x": "3696897.33898",
    "final_y": "532498.415428",
    "longitude": "-90.01941590777422",
    "latitude": "29.957709498503405",
    "geocoded_column": {
      "latitude": "29.957709498503405",
      "longitude": "-90.01941590777422"
    }
  },
  {
    "service_request": "2025-1173394",
    "request_type": "Trash/Recycling",
    "request_reason": "Repair Trash Cart",
    "date_created": "2025-03-06T14:59:24.000",
    "date_modified": "2025-03-06T14:59:26.000",
    "request_status": "Pending",
    "responsible_agency": "Department of Sanitation",
    "final_address": "7825 Dorsett Dr",
    "address_councildis": "E",
    "status": "Assigned to Contractor",
    "contractor": "Waste Pro",
    "rowid": "1173394",
    "final_x": "3712424.64869",
    "final_y": "568048.971365",
    "longitude": "-89.96904909720223",
    "latitude": "30.054961068464543",
    "geocoded_column": {
      "latitude": "30.054961068464543",
      "longitude": "-89.96904909720223"
    }
  },
  {
    "service_request": "2025-1173393",
    "request_type": "Trash/Recycling",
    "request_reason": "Request a Large Item Pick Up",
    "date_created": "2025-03-06T14:59:23.000",
    "date_modified": "2025-03-06T14:59:25.000",
    "request_status": "Pending",
    "responsible_agency": "Department of Sanitation",
    "final_address": "4420 General Pershing St",
    "address_councildis": "B",
    "status": "Assigned to Contractor",
    "contractor": "IV Waste",
    "rowid": "1173393",
    "final_x": "3669234.35252",
    "final_y": "529803.132097",
    "longitude": "-90.10685896331229",
    "latitude": "29.951141574259584",
    "geocoded_column": {
      "latitude": "29.951141574259584",
      "longitude": "-90.10685896331229"
    }
  },
  {
    "service_request": "2025-1173392",
    "request_type": "General Services",
    "request_reason": "General Service Request",
    "date_created": "2025-03-06T14:58:32.000",
    "date_modified": "2025-03-06T16:09:16.000",
    "request_status": "Pending",
    "responsible_agency": "Orleans Parish Communication District",
    "final_address": "New Orleans,LA",
    "address_councildis": "D",
    "status": "Pending",
    "rowid": "1173392",
    "final_x": "3686704.48207",
    "final_y": "541824.372428",
    "longitude": "-90.05127242335578",
    "latitude": "29.983670064604787",
    "geocoded_column": {
      "latitude": "29.983670064604787",
      "longitude": "-90.05127242335578"
    }
  },
  {
    "service_request": "2025-1173391",
    "request_type": "Trash/Recycling",
    "request_reason": "Request a Large Item Pick Up",
    "date_created": "2025-03-06T14:57:43.000",
    "date_modified": "2025-03-06T14:57:45.000",
    "request_status": "Pending",
    "responsible_agency": "Department of Sanitation",
    "final_address": "7719 Dorsett Dr",
    "address_councildis": "E",
    "status": "Assigned to Contractor",
    "contractor": "Waste Pro",
    "rowid": "1173391",
    "final_x": "3712639.4469",
    "final_y": "567729.380772",
    "longitude": "-89.9683822054817",
    "latitude": "30.054075291005073",
    "geocoded_column": {
      "latitude": "30.054075291005073",
      "longitude": "-89.9683822054817"
    }
  },
  {
    "service_request": "2025-1173390",
    "request_type": "Trash/Recycling",
    "request_reason": "Request a Large Item Pick Up",
    "date_created": "2025-03-06T14:56:51.000",
    "date_modified": "2025-03-06T14:56:53.000",
    "request_status": "Pending",
    "responsible_agency": "Department of Sanitation",
    "final_address": "7710 Dorsett Dr",
    "address_councildis": "E",
    "status": "Assigned to Contractor",
    "contractor": "Waste Pro",
    "rowid": "1173390",
    "final_x": "3712607.2604",
    "final_y": "567640.529892",
    "longitude": "-89.96848728339911",
    "latitude": "30.053832041532385",
    "geocoded_column": {
      "latitude": "30.053832041532385",
      "longitude": "-89.96848728339911"
    }
  },
  {
    "service_request": "2025-1173389",
    "request_type": "Trash/Recycling",
    "request_reason": "Request a Large Item Pick Up",
    "date_created": "2025-03-06T14:56:07.000",
    "date_modified": "2025-03-06T14:56:08.000",
    "request_status": "Pending",
    "responsible_agency": "Department of Sanitation",
    "final_address": "6617 Lake Willow Dr",
    "address_councildis": "E",
    "status": "Assigned to Contractor",
    "contractor": "Waste Pro",
    "rowid": "1173389",
    "final_x": "3704116.51742",
    "final_y": "559710.645725",
    "longitude": "-89.99561684410428",
    "latitude": "30.03230334638636",
    "geocoded_column": {
      "latitude": "30.03230334638636",
      "longitude": "-89.99561684410428"
    }
  },
  {
    "service_request": "2025-1173388",
    "request_type": "Roads and Streets",
    "request_reason": "Road Shoulder Damage",
    "date_created": "2025-03-06T14:55:54.000",
    "date_modified": "2025-03-06T14:55:57.000",
    "request_status": "Pending",
    "responsible_agency": "Department of Public Works",
    "final_address": "240 Burgundy St",
    "address_councildis": "C",
    "status": "Pending",
    "rowid": "1173388",
    "final_x": "3680773.61192",
    "final_y": "531862.911107",
    "longitude": "-90.07035205758977",
    "latitude": "29.956460607102155",
    "geocoded_column": {
      "latitude": "29.956460607102155",
      "longitude": "-90.07035205758977"
    }
  },
  {
    "service_request": "2025-1173387",
    "request_type": "Trash/Recycling",
    "request_reason": "Request a Large Item Pick Up",
    "date_created": "2025-03-06T14:55:17.000",
    "date_modified": "2025-03-06T14:55:19.000",
    "request_status": "Pending",
    "responsible_agency": "Department of Sanitation",
    "final_address": "6741 Lake Willow Dr",
    "address_councildis": "E",
    "status": "Assigned to Contractor",
    "contractor": "Waste Pro",
    "rowid": "1173387",
    "final_x": "3703708.9514",
    "final_y": "559450.941085",
    "longitude": "-89.99691434405338",
    "latitude": "30.031602336722692",
    "geocoded_column": {
      "latitude": "30.031602336722692",
      "longitude": "-89.99691434405338"
    }
  },
  {
    "service_request": "2025-1173386",
    "request_type": "Street and Traffic Signs",
    "request_reason": "Stop Sign Missing or Damaged",
    "date_created": "2025-03-06T14:54:38.000",
    "date_modified": "2025-03-06T14:54:40.000",
    "request_status": "Pending",
    "responsible_agency": "Department of Public Works",
    "final_address": "AIRLINE HWY & LIVINGSTON ST",
    "address_councildis": "A",
    "status": "Pending",
    "rowid": "1173386",
    "final_x": "3663506.8",
    "final_y": "537305.58",
    "longitude": "-90.1246939331693",
    "latitude": "29.97193818312107",
    "geocoded_column": {
      "latitude": "29.97193818312107",
      "longitude": "-90.1246939331693"
    }
  },
  {
    "service_request": "2025-1173385",
    "request_type": "Trash/Recycling",
    "request_reason": "Request a Large Item Pick Up",
    "date_created": "2025-03-06T14:53:07.000",
    "date_modified": "2025-03-06T14:53:09.000",
    "request_status": "Pending",
    "responsible_agency": "Department of Sanitation",
    "final_address": "10101 Hammond St",
    "address_councildis": "E",
    "status": "Assigned to Contractor",
    "contractor": "Waste Pro",
    "rowid": "1173385",
    "final_x": "3712862.25906",
    "final_y": "556460.984794",
    "longitude": "-89.96810231666264",
    "latitude": "30.023084422798533",
    "geocoded_column": {
      "latitude": "30.023084422798533",
      "longitude": "-89.96810231666264"
    }
  },
  {
    "service_request": "2025-1173384",
    "request_type": "Trash/Recycling",
    "request_reason": "Request a Large Item Pick Up",
    "date_created": "2025-03-06T14:52:51.000",
    "date_modified": "2025-03-06T15:12:00.000",
    "request_status": "Pending",
    "responsible_agency": "Department of Sanitation",
    "final_address": "2502 Touro St",
    "address_councildis": "D",
    "status": "Assigned to Contractor",
    "contractor": "IV Waste",
    "rowid": "1173384",
    "final_x": "3683784.54466",
    "final_y": "541425.135628",
    "longitude": "-90.0605091326418",
    "latitude": "29.9826618137108",
    "geocoded_column": {
      "latitude": "29.9826618137108",
      "longitude": "-90.0605091326418"
    }
  },
  {
    "service_request": "2025-1173383",
    "request_type": "Trash/Recycling",
    "request_reason": "Illegal Dumping",
    "date_created": "2025-03-06T14:46:23.000",
    "date_modified": "2025-03-06T14:46:25.000",
    "request_status": "Pending",
    "responsible_agency": "Department of Sanitation",
    "final_address": "5600 BLK Vicksburg St",
    "address_councildis": "A",
    "status": "Pending",
    "rowid": "1173383",
    "final_x": "3668745.91805",
    "final_y": "544536.909073",
    "longitude": "-90.10790366733364",
    "latitude": "29.991668893880007",
    "geocoded_column": {
      "latitude": "29.991668893880007",
      "longitude": "-90.10790366733364"
    }
  },
  {
    "service_request": "2025-1173382",
    "request_type": "Trash/Recycling",
    "request_reason": "Request a Large Item Pick Up",
    "date_created": "2025-03-06T14:45:15.000",
    "date_modified": "2025-03-06T14:45:17.000",
    "request_status": "Pending",
    "responsible_agency": "Department of Sanitation",
    "final_address": "7145 Downman Rd",
    "address_councildis": "D",
    "status": "Assigned to Contractor",
    "contractor": "Waste Pro",
    "rowid": "1173382",
    "final_x": "3695294.48867",
    "final_y": "556839.897242",
    "longitude": "-90.02359864589498",
    "latitude": "30.024690123887616",
    "geocoded_column": {
      "latitude": "30.024690123887616",
      "longitude": "-90.02359864589498"
    }
  },
  {
    "service_request": "2025-1173381",
    "request_type": "Trash/Recycling",
    "request_reason": "Illegal Dumping",
    "date_created": "2025-03-06T14:45:13.000",
    "date_modified": "2025-03-06T14:45:15.000",
    "request_status": "Pending",
    "responsible_agency": "Department of Sanitation",
    "final_address": "3245 Piety St",
    "address_councildis": "D",
    "status": "Pending",
    "rowid": "1173381",
    "final_x": "3692036.30089",
    "final_y": "544420.152911",
    "longitude": "-90.03433882447553",
    "latitude": "29.99064241246045",
    "geocoded_column": {
      "latitude": "29.99064241246045",
      "longitude": "-90.03433882447553"
    }
  },
  {
    "service_request": "2025-1173380",
    "request_type": "Property Maintenance",
    "request_reason": "Property Maintenance",
    "date_created": "2025-03-06T14:43:45.000",
    "date_modified": "2025-03-06T14:43:51.000",
    "request_status": "Pending",
    "responsible_agency": "Department of Code Enforcement",
    "final_address": "6408 Pratt Dr",
    "address_councildis": "D",
    "status": "Pending",
    "rowid": "1173380",
    "final_x": "3678918.75368",
    "final_y": "557802.390427",
    "longitude": "-90.07530981332874",
    "latitude": "30.027841137562184",
    "geocoded_column": {
      "latitude": "30.027841137562184",
      "longitude": "-90.07530981332874"
    }
  },
  {
    "service_request": "2025-1173379",
    "request_type": "Trash/Recycling",
    "request_reason": "Replace Trash Cart",
    "date_created": "2025-03-06T14:41:27.000",
    "date_modified": "2025-03-06T14:41:29.000",
    "request_status": "Pending",
    "responsible_agency": "Department of Sanitation",
    "final_address": "2216 N Villere St",
    "address_councildis": "C",
    "status": "Assigned to Contractor",
    "contractor": "IV Waste",
    "rowid": "1173379",
    "final_x": "3685145.56828",
    "final_y": "537387.437384",
    "longitude": "-90.05635247404417",
    "latitude": "29.97151791830621",
    "geocoded_column": {
      "latitude": "29.97151791830621",
      "longitude": "-90.05635247404417"
    }
  },
  {
    "service_request": "2025-1173378",
    "request_type": "Trash/Recycling",
    "request_reason": "Replace Recycling Cart",
    "date_created": "2025-03-06T14:40:43.000",
    "date_modified": "2025-03-06T14:40:44.000",
    "request_status": "Pending",
    "responsible_agency": "Department of Sanitation",
    "final_address": "1340 Marigny St",
    "address_councildis": "C",
    "status": "Pending",
    "rowid": "1173378",
    "final_x": "3685287.04354",
    "final_y": "537401.793928",
    "longitude": "-90.0559051697441",
    "latitude": "29.97155305774249",
    "geocoded_column": {
      "latitude": "29.97155305774249",
      "longitude": "-90.0559051697441"
    }
  },
  {
    "service_request": "2025-1173377",
    "request_type": "Trash/Recycling",
    "request_reason": "Request a Large Item Pick Up",
    "date_created": "2025-03-06T14:40:29.000",
    "date_modified": "2025-03-06T14:40:31.000",
    "request_status": "Pending",
    "responsible_agency": "Department of Sanitation",
    "final_address": "5910 Doral Ct",
    "address_councildis": "E",
    "status": "Assigned to Contractor",
    "contractor": "Waste Pro",
    "rowid": "1173377",
    "final_x": "3719948.61791",
    "final_y": "564872.616994",
    "longitude": "-89.94538932724157",
    "latitude": "30.04597893941798",
    "geocoded_column": {
      "latitude": "30.04597893941798",
      "longitude": "-89.94538932724157"
    }
  },
  {
    "service_request": "2025-1173376",
    "request_type": "Trash/Recycling",
    "request_reason": "Replace Recycling Cart",
    "date_created": "2025-03-06T14:40:06.000",
    "date_modified": "2025-03-06T14:40:07.000",
    "request_status": "Pending",
    "responsible_agency": "Department of Sanitation",
    "final_address": "1338 Marigny St",
    "address_councildis": "C",
    "status": "Pending",
    "rowid": "1173376",
    "final_x": "3685291.27497",
    "final_y": "537389.80532",
    "longitude": "-90.05589222838876",
    "latitude": "29.9715199635369",
    "geocoded_column": {
      "latitude": "29.9715199635369",
      "longitude": "-90.05589222838876"
    }
  },