[
  {
    "service_request": "2023-1055162",
    "request_type": "Traffic Signals/Signs/Striping/Streetlights",
    "request_reason": "Street Light Outage/Malfunction",
    "date_created": "2023-12-11T23:29:49.000",
    "date_modified": "2023-12-11T23:29:49.000",
    "request_status": "Pending",
    "responsible_agency": "Department of Public Works",
    "final_address": "600 BLK Ursulines Ave",
    "address_councildis": "C",
    "status": "Assigned to Contractor",
    "contractor": "Legacy Professional Services",
    "rowid": "1055162",
    "final_x": "3683583.06226",
    "final_y": "533513.344178",
    "longitude": "-90.06142290203572",
    "latitude": "29.960913286700738",
    "geocoded_column": {
      "latitude": "29.960913286700738",
      "longitude": "-90.06142290203572"
    }
  },
  {
    "service_request": "2023-1055161",
    "request_type": "Roads/Drainage",
    "request_reason": "Pothole",
    "date_created": "2023-12-11T23:11:54.000",
    "date_modified": "2023-12-11T23:11:54.000",
    "request_status": "Pending",
    "responsible_agency": "Department of Public Works",
    "final_address": "4639 Pitt St",
    "address_councildis": "B",
    "status": "Pending",
    "rowid": "1055161",
    "final_x": "3669864.36314",
    "final_y": "520530.560824",
    "longitude": "-90.10518351118087",
    "latitude": "29.925626441705436",
    "geocoded_column": {
      "latitude": "29.925626441705436",
      "longitude": "-90.10518351118087"
    }
  },
  {
    "service_request": "2023-1055160",
    "request_type": "Roads/Drainage",
    "request_reason": "Pothole",
    "date_created": "2023-12-11T23:04:05.000",
    "date_modified": "2023-12-11T23:04:05.000",
    "request_status": "Pending",
    "responsible_agency": "Department of Public Works",
    "final_address": "1200 BLK Amelia St",
    "address_councildis": "B",
    "status": "Pending",
    "rowid": "1055160",
    "final_x": "3673521.46558",
    "final_y": "519660.816109",
    "longitude": "-90.09366883741032",
    "latitude": "29.923126634409968",
    "geocoded_column": {
      "latitude": "29.923126634409968",
      "longitude": "-90.09366883741032"
    }
  },
  {
    "service_request": "2023-1055159",
    "request_type": "Roads/Drainage",
    "request_reason": "Pothole",
    "date_created": "2023-12-11T23:02:47.000",
    "date_modified": "2023-12-11T23:02:47.000",
    "request_status": "Pending",
    "responsible_agency": "Department of Public Works",
    "final_address": "1500 BLK General Taylor St",
    "address_councildis": "B",
    "status": "Pending",
    "rowid": "1055159",
    "final_x": "3672671.04734",
    "final_y": "520876.798257",
    "longitude": "-90.0963118481831",
    "latitude": "29.926495466763885",
    "geocoded_column": {
      "latitude": "29.926495466763885",
      "longitude": "-90.0963118481831"
    }
  },
  {
    "service_request": "2023-1055158",
    "request_type": "Roads/Drainage",
    "request_reason": "WaterMain Break",
    "date_created": "2023-12-11T22:58:17.000",
    "date_modified": "2023-12-11T22:58:17.000",
    "request_status": "Pending",
    "responsible_agency": "Department of Public Works",
    "final_address": "1ST ST & DRYADES ST",
    "address_councildis": "B",
    "status": "Pending",
    "rowid": "1055158",
    "final_x": "3676347.7",
    "final_y": "524125.38",
    "longitude": "-90.08459390801737",
    "latitude": "29.9353183560014",
    "geocoded_column": {
      "latitude": "29.9353183560014",
      "longitude": "-90.08459390801737"
    }
  },
  {
    "service_request": "2023-1055157",
    "request_type": "Trash/Recycling",
    "request_reason": "Request a Large Item Pick Up",
    "date_created": "2023-12-11T22:46:27.000",
    "date_modified": "2023-12-11T22:46:28.000",
    "request_status": "Pending",
    "responsible_agency": "Department of Sanitation",
    "final_address": "1420 Josephine St Apt 2C",
    "address_councildis": "B",
    "status": "Assigned to Contractor",
    "contractor": "Richards Disposal",
    "rowid": "1055157",
    "final_x": "3678364.07797",
    "final_y": "523224.693499",
    "longitude": "-90.07825934328505",
    "latitude": "29.93278118720232",
    "geocoded_column": {
      "latitude": "29.93278118720232",
      "longitude": "-90.07825934328505"
    }
  },
  {
    "service_request": "2023-1055156",
    "request_type": "Roads/Drainage",
    "request_reason": "Pothole",
    "date_created": "2023-12-11T22:33:29.000",
    "date_modified": "2023-12-11T22:33:29.000",
    "request_status": "Pending",
    "responsible_agency": "Department of Public Works",
    "final_address": "5902 Hurst St",
    "address_councildis": "A",
    "status": "Pending",
    "rowid": "1055156",
    "final_x": "3665757.45908",
    "final_y": "521688.420601",
    "longitude": "-90.11810904350683",
    "latitude": "29.92893059016598",
    "geocoded_column": {
      "latitude": "29.92893059016598",
      "longitude": "-90.11810904350683"
    }
  },
  {
    "service_request": "2023-1055155",
    "request_type": "Roads/Drainage",
    "request_reason": "Pothole",
    "date_created": "2023-12-11T22:28:06.000",
    "date_modified": "2023-12-11T22:28:06.000",
    "request_status": "Pending",
    "responsible_agency": "Department of Public Works",
    "final_address": "1221 Webster St",
    "address_councildis": "A",
    "status": "Pending",
    "rowid": "1055155",
    "final_x": "3664710.14048",
    "final_y": "520843.538105",
    "longitude": "-90.12144344135018",
    "latitude": "29.926637929593507",
    "geocoded_column": {
      "latitude": "29.926637929593507",
      "longitude": "-90.12144344135018"
    }
  },
  {
    "service_request": "2023-1055154",
    "request_type": "Roads/Drainage",
    "request_reason": "Pothole",
    "date_created": "2023-12-11T22:25:16.000",
    "date_modified": "2023-12-11T22:25:16.000",
    "request_status": "Pending",
    "responsible_agency": "Department of Public Works",
    "final_address": "5914 Hurst St",
    "address_councildis": "A",
    "status": "Pending",
    "rowid": "1055154",
    "final_x": "3665677.14951",
    "final_y": "521715.385146",
    "longitude": "-90.11836166316931",
    "latitude": "29.929007075862273",
    "geocoded_column": {
      "latitude": "29.929007075862273",
      "longitude": "-90.11836166316931"
    }
  },
  {
    "service_request": "2023-1055153",
    "request_type": "Trash/Recycling",
    "request_reason": "Request a Large Item Pick Up",
    "date_created": "2023-12-11T21:31:35.000",
    "date_modified": "2023-12-11T21:31:36.000",
    "request_status": "Pending",
    "responsible_agency": "Department of Sanitation",
    "final_address": "7411 Chadbourne Dr",
    "address_councildis": "E",
    "status": "Assigned to Contractor",
    "contractor": "Waste Pro",
    "rowid": "1055153",
    "final_x": "3701462.77521",
    "final_y": "557645.086363",
    "longitude": "-90.00407852391213",
    "latitude": "30.02670877707106",
    "geocoded_column": {
      "latitude": "30.02670877707106",
      "longitude": "-90.00407852391213"
    }
  },
  {
    "service_request": "2023-1055152",
    "request_type": "Trash/Recycling",
    "request_reason": "Replace Recycling Cart",
    "date_created": "2023-12-11T21:12:42.000",
    "date_modified": "2023-12-11T21:12:42.000",
    "request_status": "Pending",
    "responsible_agency": "Department of Sanitation",
    "final_address": "1729 Nashville Ave",
    "address_councildis": "A",
    "status": "Pending",
    "rowid": "1055152",
    "final_x": "3666547.43905",
    "final_y": "522878.884539",
    "longitude": "-90.11557528636845",
    "latitude": "29.932180927162634",
    "geocoded_column": {
      "latitude": "29.932180927162634",
      "longitude": "-90.11557528636845"
    }
  },
  {
    "service_request": "2023-1055151",
    "request_type": "Property Maintenance",
    "request_reason": "Property Maintenance",
    "date_created": "2023-12-11T21:10:48.000",
    "date_modified": "2023-12-11T21:10:48.000",
    "request_status": "Pending",
    "responsible_agency": "Department of Code Enforcement",
    "final_address": "1305 General Taylor St",
    "address_councildis": "B",
    "status": "Pending",
    "rowid": "1055151",
    "final_x": "3672835.63592",
    "final_y": "520330.183928",
    "longitude": "-90.0958109224427",
    "latitude": "29.924987565948786",
    "geocoded_column": {
      "latitude": "29.924987565948786",
      "longitude": "-90.0958109224427"
    }
  },
  {
    "service_request": "2023-1055150",
    "request_type": "Trash/Recycling",
    "request_reason": "MIssed Recycling Pick-Up",
    "date_created": "2023-12-11T19:52:05.000",
    "date_modified": "2023-12-11T19:52:06.000",
    "request_status": "Pending",
    "responsible_agency": "Department of Sanitation",
    "final_address": "7 Avoyelles Pl",
    "address_councildis": "E",
    "status": "Assigned to Contractor",
    "contractor": "Waste Pro",
    "rowid": "1055150",
    "final_x": "3725706.36691",
    "final_y": "564401.324065",
    "longitude": "-89.9272104798286",
    "latitude": "30.04449005661948",
    "geocoded_column": {
      "latitude": "30.04449005661948",
      "longitude": "-89.9272104798286"
    }
  },
  {
    "service_request": "2023-1055148",
    "request_type": "Trash/Recycling",
    "request_reason": "MIssed Recycling Pick-Up",
    "date_created": "2023-12-11T19:47:08.000",
    "date_modified": "2023-12-11T19:47:08.000",
    "request_status": "Pending",
    "responsible_agency": "Department of Sanitation",
    "final_address": "10 Avoyelles Pl",
    "address_councildis": "E",
    "status": "Assigned to Contractor",
    "contractor": "Waste Pro",
    "rowid": "1055148",
    "final_x": "3725616.91347",
    "final_y": "564466.947489",
    "longitude": "-89.92749064488848",
    "latitude": "30.044673511796",
    "geocoded_column": {
      "latitude": "30.044673511796",
      "longitude": "-89.92749064488848"
    }
  },
  {
    "service_request": "2023-1055147",
    "request_type": "Trash/Recycling",
    "request_reason": "Request a Large Item Pick Up",
    "date_created": "2023-12-11T19:39:42.000",
    "date_modified": "2023-12-11T19:39:43.000",
    "request_status": "Pending",
    "responsible_agency": "Department of Sanitation",
    "final_address": "801 Patterson St Apt 107",
    "address_councildis": "C",
    "status": "Assigned to Contractor",
    "contractor": "Richards Disposal",
    "rowid": "1055147",
    "final_x": "3687958.50198",
    "final_y": "531345.146178",
    "longitude": "-90.04768294739662",
    "latitude": "29.954817219148392",
    "geocoded_column": {
      "latitude": "29.954817219148392",
      "longitude": "-90.04768294739662"
    }
  },
  {
    "service_request": "2023-1055146",
    "request_type": "Roads/Drainage",
    "request_reason": "Road Shoulder Repair",
    "date_created": "2023-12-11T19:23:26.000",
    "date_modified": "2023-12-11T19:23:26.000",
    "request_status": "Pending",
    "responsible_agency": "Department of Public Works",
    "final_address": "1915 Short St",
    "address_councildis": "A",
    "status": "Pending",
    "rowid": "1055146",
    "final_x": "3664066.89856",
    "final_y": "529951.553345",
    "longitude": "-90.12317033411054",
    "latitude": "29.951700759750825",
    "geocoded_column": {
      "latitude": "29.951700759750825",
      "longitude": "-90.12317033411054"
    }
  },
  {
    "service_request": "2023-1055145",
    "request_type": "Roads/Drainage",
    "request_reason": "Pothole",
    "date_created": "2023-12-11T19:12:25.000",
    "date_modified": "2023-12-11T19:12:25.000",
    "request_status": "Pending",
    "responsible_agency": "Department of Public Works",
    "final_address": "1443 Eleonore St",
    "address_councildis": "A",
    "status": "Pending",
    "rowid": "1055145",
    "final_x": "3665802.5225",
    "final_y": "521426.674617",
    "longitude": "-90.11797555086005",
    "latitude": "29.9282095572671",
    "geocoded_column": {
      "latitude": "29.9282095572671",
      "longitude": "-90.11797555086005"
    }
  },
  {
    "service_request": "2023-1055144",
    "request_type": "Safety & Permits",
    "request_reason": "Construction permit",
    "date_created": "2023-12-11T19:04:14.000",
    "date_modified": "2023-12-11T19:04:14.000",
    "request_status": "Pending",
    "responsible_agency": "Department of Code Enforcement",
    "final_address": "609 Jackson Ave",
    "address_councildis": "B",
    "status": "Pending",
    "rowid": "1055144",
    "final_x": "3679901.14056",
    "final_y": "520810.428217",
    "longitude": "-90.07349075794016",
    "latitude": "29.926096366929237",
    "geocoded_column": {
      "latitude": "29.926096366929237",
      "longitude": "-90.07349075794016"
    }
  },
  {
    "service_request": "2023-1055143",
    "request_type": "Trash/Recycling",
    "request_reason": "Replace Trash Cart",
    "date_created": "2023-12-11T18:28:59.000",
    "date_modified": "2023-12-11T18:29:00.000",
    "request_status": "Pending",
    "responsible_agency": "Department of Sanitation",
    "final_address": "2652 Orleans Ave",
    "address_councildis": "D",
    "status": "Assigned to Contractor",
    "contractor": "Richards Disposal",
    "rowid": "1055143",
    "final_x": "3676857.22241",
    "final_y": "536871.746184",
    "longitude": "-90.08254608498291",
    "latitude": "29.970351324460935",
    "geocoded_column": {
      "latitude": "29.970351324460935",
      "longitude": "-90.08254608498291"
    }
  },
  {
    "service_request": "2023-1055142",
    "request_type": "Roads/Drainage",
    "request_reason": "Pothole",
    "date_created": "2023-12-11T18:20:57.000",
    "date_modified": "2023-12-11T18:20:57.000",
    "request_status": "Pending",
    "responsible_agency": "Department of Public Works",
    "final_address": "DWYER RD & DALE ST",
    "address_councildis": "E",
    "status": "Pending",
    "rowid": "1055142",
    "final_x": "3699374.8",
    "final_y": "555531.78",
    "longitude": "-90.01075334287353",
    "latitude": "30.020964429152023",
    "geocoded_column": {
      "latitude": "30.020964429152023",
      "longitude": "-90.01075334287353"
    }
  },
  {
    "service_request": "2023-1055141",
    "request_type": "Traffic Signals/Signs/Striping/Streetlights",
    "request_reason": "Additional signage",
    "date_created": "2023-12-11T17:51:55.000",
    "date_modified": "2023-12-11T17:51:55.000",
    "request_status": "Pending",
    "responsible_agency": "Department of Public Works",
    "final_address": "1607 S Carrollton Ave",
    "address_councildis": "A",
    "status": "Pending",
    "rowid": "1055141",
    "final_x": "3663216.32896",
    "final_y": "529310.983297",
    "longitude": "-90.12587735100978",
    "latitude": "29.949964071940247",
    "geocoded_column": {
      "latitude": "29.949964071940247",
      "longitude": "-90.12587735100978"
    }
  },
  {
    "service_request": "2023-1055140",
    "request_type": "Property Maintenance",
    "request_reason": "Property Maintenance",
    "date_created": "2023-12-11T17:51:18.000",
    "date_modified": "2023-12-11T17:51:18.000",
    "request_status": "Pending",
    "responsible_agency": "Department of Code Enforcement",
    "final_address": "2100 BLK Montegut St",
    "address_councildis": "D",
    "status": "Pending",
    "rowid": "1055140",
    "final_x": "3689429.03974",
    "final_y": "540101.21322",
    "longitude": "-90.04272815138883",
    "latitude": "29.978847886813796",
    "geocoded_column": {
      "latitude": "29.978847886813796",
      "longitude": "-90.04272815138883"
    }
  },
  {
    "service_request": "2023-1055139",
    "request_type": "Traffic Signals/Signs/Striping/Streetlights",
    "request_reason": "Request for Stop Sign",
    "date_created": "2023-12-11T17:37:25.000",
    "date_modified": "2023-12-11T17:37:25.000",
    "request_status": "Pending",
    "responsible_agency": "Department of Public Works",
    "final_address": "2857 Annunciation St",
    "address_councildis": "B",
    "status": "Pending",
    "rowid": "1055139",
    "final_x": "3677245.7764",
    "final_y": "519679.140728",
    "longitude": "-90.08191197942094",
    "latitude": "29.923065704093972",
    "geocoded_column": {
      "latitude": "29.923065704093972",
      "longitude": "-90.08191197942094"
    }
  },
  {
    "service_request": "2023-1055138",
    "request_type": "Trash/Recycling",
    "request_reason": "Request a Large Item Pick Up",
    "date_created": "2023-12-11T17:34:37.000",
    "date_modified": "2023-12-11T17:35:46.000",
    "request_status": "Pending",
    "responsible_agency": "Department of Sanitation",
    "final_address": "7411 Chadbourne Dr",
    "address_councildis": "E",
    "status": "Assigned to Contractor",
    "contractor": "Waste Pro",
    "rowid": "1055138",
    "final_x": "3701462.77521",
    "final_y": "557645.086363",
    "longitude": "-90.00407852391213",
    "latitude": "30.02670877707106",
    "geocoded_column": {
      "latitude": "30.02670877707106",
      "longitude": "-90.00407852391213"
    }
  },
  {
    "service_request": "2023-1055137",
    "request_type": "Roads/Drainage",
    "request_reason": "Pothole",
    "date_created": "2023-12-11T17:34:17.000",
    "date_modified": "2023-12-11T17:34:17.000",
    "request_status": "Pending",
    "responsible_agency": "Department of Public Works",
    "final_address": "4216 Chestnut St",
    "address_councildis": "B",
    "status": "Pending",
    "rowid": "1055137",
    "final_x": "3671574.31393",
    "final_y": "519539.203703",
    "longitude": "-90.09981939416457",
    "latitude": "29.922850019854593",
    "geocoded_column": {
      "latitude": "29.922850019854593",
      "longitude": "-90.09981939416457"
    }
  },
  {
    "service_request": "2023-1055136",
    "request_type": "Trash/Recycling",
    "request_reason": "Illegal Dumping",
    "date_created": "2023-12-11T17:16:07.000",
    "date_modified": "2023-12-11T17:16:07.000",
    "request_status": "Pending",
    "responsible_agency": "Department of Sanitation",
    "final_address": "2407 Law St",
    "address_councildis": "D",
    "status": "Pending",
    "rowid": "1055136",
    "final_x": "3685488.2669",
    "final_y": "541986.635084",
    "longitude": "-90.05510815282076",
    "latitude": "29.984153590751813",
    "geocoded_column": {
      "latitude": "29.984153590751813",
      "longitude": "-90.05510815282076"
    }
  },
  {
    "service_request": "2023-1055135",
    "request_type": "Abandoned Vehicles",
    "request_reason": "Abandoned/Junk Vehicles",
    "date_created": "2023-12-11T17:15:22.000",
    "date_modified": "2023-12-11T17:15:22.000",
    "request_status": "Pending",
    "responsible_agency": "Department of Public Works",
    "final_address": "DELARONDE ST & SEGUIN ST",
    "address_councildis": "C",
    "status": "Pending",
    "rowid": "1055135",
    "final_x": "3685972.2",
    "final_y": "530557.88",
    "longitude": "-90.05398267354231",
    "latitude": "29.952713637698704",
    "geocoded_column": {
      "latitude": "29.952713637698704",
      "longitude": "-90.05398267354231"
    }
  },
  {
    "service_request": "2023-1055134",
    "request_type": "Trash/Recycling",
    "request_reason": "Request a Large Item Pick Up",
    "date_created": "2023-12-11T16:58:32.000",
    "date_modified": "2023-12-11T16:58:33.000",
    "request_status": "Pending",
    "responsible_agency": "Department of Sanitation",
    "final_address": "1855 Law St",
    "address_councildis": "D",
    "status": "Assigned to Contractor",
    "contractor": "IV Waste",
    "rowid": "1055134",
    "final_x": "3680899.40507",
    "final_y": "541563.252108",
    "longitude": "-90.06961702932134",
    "latitude": "29.983129393202713",
    "geocoded_column": {
      "latitude": "29.983129393202713",
      "longitude": "-90.06961702932134"
    }
  },
  {
    "service_request": "2023-1055133",
    "request_type": "Abandoned Vehicles",
    "request_reason": "Abandoned/Junk Vehicles",
    "date_created": "2023-12-11T16:56:31.000",
    "date_modified": "2023-12-11T16:56:31.000",
    "request_status": "Pending",
    "responsible_agency": "Department of Public Works",
    "final_address": "URQUHART ST & TOURO ST",
    "address_councildis": "C",
    "status": "Pending",
    "rowid": "1055133",
    "final_x": "3684175.0",
    "final_y": "536979.08",
    "longitude": "-90.0594320045117",
    "latitude": "29.970424783269227",
    "geocoded_column": {
      "latitude": "29.970424783269227",
      "longitude": "-90.0594320045117"
    }
  },
  {
    "service_request": "2023-1055132",
    "request_type": "Trash/Recycling",
    "request_reason": "Order Recycling Cart",
    "date_created": "2023-12-11T16:54:49.000",
    "date_modified": "2023-12-11T16:54:50.000",
    "request_status": "Pending",
    "responsible_agency": "Department of Sanitation",
    "final_address": "6153 Marshal Foch St",
    "address_councildis": "A",
    "status": "Pending",
    "rowid": "1055132",
    "final_x": "3669953.62689",
    "final_y": "548189.266002",
    "longitude": "-90.10396498408683",
    "latitude": "30.00167604192087",
    "geocoded_column": {
      "latitude": "30.00167604192087",
      "longitude": "-90.10396498408683"
    }
  },
  {
    "service_request": "2023-1055131",
    "request_type": "Trash/Recycling",
    "request_reason": "Order Trash Cart",
    "date_created": "2023-12-11T16:54:11.000",
    "date_modified": "2023-12-11T16:54:12.000",
    "request_status": "Pending",
    "responsible_agency": "Department of Sanitation",
    "final_address": "6153 Marshal Foch St",
    "address_councildis": "A",
    "status": "Assigned to Contractor",
    "contractor": "IV Waste",
    "rowid": "1055131",
    "final_x": "3669953.62689",
    "final_y": "548189.266002",
    "longitude": "-90.10396498408683",
    "latitude": "30.00167604192087",
    "geocoded_column": {
      "latitude": "30.00167604192087",
      "longitude": "-90.10396498408683"
    }
  },
  {
    "service_request": "2023-1055130",
    "request_type": "Trash/Recycling",
    "request_reason": "Order Recycling Cart",
    "date_created": "2023-12-11T16:46:56.000",
    "date_modified": "2023-12-11T16:46:56.000",
    "request_status": "Pending",
    "responsible_agency": "Department of Sanitation",
    "final_address": "1221 Bartholomew St",
    "address_councildis": "D",
    "status": "Pending",
    "rowid": "1055130",
    "final_x": "3691962.22454",
    "final_y": "535838.386631",
    "longitude": "-90.03487999309532",
    "latitude": "29.967047929061405",
    "geocoded_column": {
      "latitude": "29.967047929061405",
      "longitude": "-90.03487999309532"
    }
  },
  {
    "service_request": "2023-1055129",
    "request_type": "Trash/Recycling",
    "request_reason": "Request a Large Item Pick Up",
    "date_created": "2023-12-11T16:46:08.000",
    "date_modified": "2023-12-11T16:46:09.000",
    "request_status": "Pending",
    "responsible_agency": "Department of Sanitation",
    "final_address": "7637 Jonlee Dr",
    "address_councildis": "E",
    "status": "Assigned to Contractor",
    "contractor": "Waste Pro",
    "rowid": "1055129",
    "final_x": "3717114.08824",
    "final_y": "570632.495591",
    "longitude": "-89.9541286505246",
    "latitude": "30.061910333380087",
    "geocoded_column": {
      "latitude": "30.061910333380087",
      "longitude": "-89.9541286505246"
    }
  },
  {
    "service_request": "2023-1055128",
    "request_type": "Trash/Recycling",
    "request_reason": "Request a Large Item Pick Up",
    "date_created": "2023-12-11T16:44:23.000",
    "date_modified": "2023-12-11T16:44:24.000",
    "request_status": "Pending",
    "responsible_agency": "Department of Sanitation",
    "final_address": "922 Burdette St",
    "address_councildis": "A",
    "status": "Assigned to Contractor",
    "contractor": "Richards Disposal",
    "rowid": "1055128",
    "final_x": "3662175.25658",
    "final_y": "526996.054398",
    "longitude": "-90.12924132614656",
    "latitude": "29.943628882567197",
    "geocoded_column": {
      "latitude": "29.943628882567197",
      "longitude": "-90.12924132614656"
    }
  },
  {
    "service_request": "2023-1055127",
    "request_type": "Trash/Recycling",
    "request_reason": "Illegal Dumping",
    "date_created": "2023-12-11T16:36:58.000",
    "date_modified": "2023-12-11T16:36:59.000",
    "request_status": "Pending",
    "responsible_agency": "Department of Sanitation",
    "final_address": "FIG ST & MONTICELLO AVE",
    "address_councildis": "A",
    "status": "Pending",
    "rowid": "1055127",
    "final_x": "3662763.2",
    "final_y": "536354.08",
    "longitude": "-90.12707398702521",
    "latitude": "29.9693434179169",
    "geocoded_column": {
      "latitude": "29.9693434179169",
      "longitude": "-90.12707398702521"
    }
  },
  {
    "service_request": "2023-1055126",
    "request_type": "Roads/Drainage",
    "request_reason": "Alley Way",
    "date_created": "2023-12-11T16:27:28.000",
    "date_modified": "2023-12-11T16:27:28.000",
    "request_status": "Pending",
    "responsible_agency": "Department of Public Works",
    "final_address": "6454 Colbert St",
    "address_councildis": "A",
    "status": "Pending",
    "rowid": "1055126",
    "final_x": "3667618.48058",
    "final_y": "550609.692756",
    "longitude": "-90.11126042345887",
    "latitude": "30.008400056095304",
    "geocoded_column": {
      "latitude": "30.008400056095304",
      "longitude": "-90.11126042345887"
    }
  },
  {
    "service_request": "2023-1055125",
    "request_type": "Trash/Recycling",
    "request_reason": "Request a Large Item Pick Up",
    "date_created": "2023-12-11T16:27:18.000",
    "date_modified": "2023-12-11T16:27:20.000",
    "request_status": "Pending",
    "responsible_agency": "Department of Sanitation",
    "final_address": "14086 Partridge Ln",
    "address_councildis": "E",
    "status": "Assigned to Contractor",
    "contractor": "Waste Pro",
    "rowid": "1055125",
    "final_x": "3719821.19852",
    "final_y": "571940.547432",
    "longitude": "-89.94552147804639",
    "latitude": "30.065417055357347",
    "geocoded_column": {
      "latitude": "30.065417055357347",
      "longitude": "-89.94552147804639"
    }
  },
  {
    "service_request": "2023-1055124",
    "request_type": "Trash/Recycling",
    "request_reason": "Illegal Dumping",
    "date_created": "2023-12-11T16:26:12.000",
    "date_modified": "2023-12-11T16:26:13.000",
    "request_status": "Pending",
    "responsible_agency": "Department of Sanitation",
    "final_address": "KERLEREC ST & N RAMPART ST",
    "address_councildis": "C",
    "status": "Pending",
    "rowid": "1055124",
    "final_x": "3683067.1",
    "final_y": "535614.98",
    "longitude": "-90.06297863420222",
    "latitude": "29.96670780110936",
    "geocoded_column": {
      "latitude": "29.96670780110936",
      "longitude": "-90.06297863420222"
    }
  },
  {
    "service_request": "2023-1055123",
    "request_type": "Trash/Recycling",
    "request_reason": "Repair Recycling Cart",
    "date_created": "2023-12-11T16:19:49.000",
    "date_modified": "2023-12-11T16:19:50.000",
    "request_status": "Pending",
    "responsible_agency": "Department of Sanitation",
    "final_address": "500 Powder St",
    "address_councildis": "C",
    "status": "Pending",
    "rowid": "1055123",
    "final_x": "3685909.4799",
    "final_y": "529464.664705",
    "longitude": "-90.05421924883481",
    "latitude": "29.949709593982494",
    "geocoded_column": {
      "latitude": "29.949709593982494",
      "longitude": "-90.05421924883481"
    }
  },
  {
    "service_request": "2023-1055122",
    "request_type": "Traffic Signals/Signs/Striping/Streetlights",
    "request_reason": "Street Light Outage/Malfunction",
    "date_created": "2023-12-11T16:18:06.000",
    "date_modified": "2023-12-11T16:18:07.000",
    "request_status": "Pending",
    "responsible_agency": "Department of Public Works",
    "final_address": "6154 Warwick Ct",
    "address_councildis": "C",
    "status": "Assigned to Contractor",
    "contractor": "Legacy Professional Services",
    "rowid": "1055122",
    "final_x": "3706794.12196",
    "final_y": "515947.848564",
    "longitude": "-89.98877825632333",
    "latitude": "29.911885529548353",
    "geocoded_column": {
      "latitude": "29.911885529548353",
      "longitude": "-89.98877825632333"
    }
  },
  {
    "service_request": "2023-1055121",
    "request_type": "Traffic Signals/Signs/Striping/Streetlights",
    "request_reason": "Street Light Outage/Malfunction",
    "date_created": "2023-12-11T16:16:46.000",
    "date_modified": "2023-12-11T16:16:47.000",
    "request_status": "Pending",
    "responsible_agency": "Department of Public Works",
    "final_address": "6138 Warwick Ct",
    "address_councildis": "C",
    "status": "Assigned to Contractor",
    "contractor": "Legacy Professional Services",
    "rowid": "1055121",
    "final_x": "3706660.1475",
    "final_y": "515948.099124",
    "longitude": "-89.98920110172988",
    "latitude": "29.91189054054266",
    "geocoded_column": {
      "latitude": "29.91189054054266",
      "longitude": "-89.98920110172988"
    }
  },
  {
    "service_request": "2023-1055120",
    "request_type": "Traffic Signals/Signs/Striping/Streetlights",
    "request_reason": "Street Light Outage/Malfunction",
    "date_created": "2023-12-11T16:13:59.000",
    "date_modified": "2023-12-11T16:14:00.000",
    "request_status": "Pending",
    "responsible_agency": "Department of Public Works",
    "final_address": "6100 Warwick Ct",
    "address_councildis": "C",
    "status": "Assigned to Contractor",
    "contractor": "Legacy Professional Services",
    "rowid": "1055120",
    "final_x": "3706407.46225",
    "final_y": "515948.604788",
    "longitude": "-89.98999861678384",
    "latitude": "29.911900078917185",
    "geocoded_column": {
      "latitude": "29.911900078917185",
      "longitude": "-89.98999861678384"
    }
  },
  {
    "service_request": "2023-1055119",
    "request_type": "Abandoned Vehicles",
    "request_reason": "Abandoned/Junk Vehicles",
    "date_created": "2023-12-11T16:13:39.000",
    "date_modified": "2023-12-11T16:14:06.000",
    "request_status": "Pending",
    "responsible_agency": "Department of Public Works",
    "final_address": "10200 Almonaster Ave",
    "address_councildis": "E",
    "status": "Inspected",
    "rowid": "1055119",
    "final_x": "3713684.56383",
    "final_y": "551626.395989",
    "longitude": "-89.96568637555853",
    "latitude": "30.00976423388402",
    "geocoded_column": {
      "latitude": "30.00976423388402",
      "longitude": "-89.96568637555853"
    }
  },
  {
    "service_request": "2023-1055118",
    "request_type": "Traffic Signals/Signs/Striping/Streetlights",
    "request_reason": "Street Light Outage/Malfunction",
    "date_created": "2023-12-11T16:11:46.000",
    "date_modified": "2023-12-11T16:11:47.000",
    "request_status": "Pending",
    "responsible_agency": "Department of Public Works",
    "final_address": "5830 Florida Ave",
    "address_councildis": "E",
    "status": "Assigned to Contractor",
    "contractor": "Legacy Professional Services",
    "rowid": "1055118",
    "final_x": "3700476.52445",
    "final_y": "539515.88737",
    "longitude": "-90.0078576230775",
    "latitude": "29.976891684002737",
    "geocoded_column": {
      "latitude": "29.976891684002737",
      "longitude": "-90.0078576230775"
    }
  },
  {
    "service_request": "2023-1055117",
    "request_type": "Trash/Recycling",
    "request_reason": "Request a Large Item Pick Up",
    "date_created": "2023-12-11T16:09:56.000",
    "date_modified": "2023-12-11T16:09:58.000",
    "request_status": "Pending",
    "responsible_agency": "Department of Sanitation",
    "final_address": "1920 River Oaks Dr",
    "address_councildis": "C",
    "status": "Assigned to Contractor",
    "contractor": "Richards Disposal",
    "rowid": "1055117",
    "final_x": "3701723.83441",
    "final_y": "523639.473979",
    "longitude": "-90.00449975529773",
    "latitude": "29.933197471891866",
    "geocoded_column": {
      "latitude": "29.933197471891866",
      "longitude": "-90.00449975529773"
    }
  },
  {
    "service_request": "2023-1055116",
    "request_type": "Traffic Signals/Signs/Striping/Streetlights",
    "request_reason": "Street Light Outage/Malfunction",
    "date_created": "2023-12-11T16:09:05.000",
    "date_modified": "2023-12-11T16:09:06.000",
    "request_status": "Pending",
    "responsible_agency": "Department of Public Works",
    "final_address": "6020 Warwick Ct",
    "address_councildis": "C",
    "status": "Assigned to Contractor",
    "contractor": "Legacy Professional Services",
    "rowid": "1055116",
    "final_x": "3706069.93214",
    "final_y": "515949.28882",
    "longitude": "-89.99106391570331",
    "latitude": "29.911912836067117",
    "geocoded_column": {
      "latitude": "29.911912836067117",
      "longitude": "-89.99106391570331"
    }
  },
  {
    "service_request": "2023-1055115",
    "request_type": "Traffic Signals/Signs/Striping/Streetlights",
    "request_reason": "Street Light Outage/Malfunction",
    "date_created": "2023-12-11T16:08:10.000",
    "date_modified": "2023-12-11T16:08:11.000",
    "request_status": "Pending",
    "responsible_agency": "Department of Public Works",
    "final_address": "6038 Warwick Ct",
    "address_councildis": "C",
    "status": "Assigned to Contractor",
    "contractor": "Legacy Professional Services",
    "rowid": "1055115",
    "final_x": "3706212.30187",
    "final_y": "515948.989492",
    "longitude": "-89.99061457447013",
    "latitude": "29.91190742646319",
    "geocoded_column": {
      "latitude": "29.91190742646319",
      "longitude": "-89.99061457447013"
    }
  },
  {
    "service_request": "2023-1055114",
    "request_type": "Trash/Recycling",
    "request_reason": "Order Recycling Cart",
    "date_created": "2023-12-11T16:05:37.000",
    "date_modified": "2023-12-11T16:05:38.000",
    "request_status": "Pending",
    "responsible_agency": "Department of Sanitation",
    "final_address": "1811 Baronne St",
    "address_councildis": "B",
    "status": "Pending",
    "rowid": "1055114",
    "final_x": "3677772.31406",
    "final_y": "525124.958653",
    "longitude": "-90.08006188182834",
    "latitude": "29.938024101706638",
    "geocoded_column": {
      "latitude": "29.938024101706638",
      "longitude": "-90.08006188182834"
    }
  },
  {
    "service_request": "2023-1055113",
    "request_type": "Trash/Recycling",
    "request_reason": "Order Trash Cart",
    "date_created": "2023-12-11T16:05:25.000",
    "date_modified": "2023-12-11T16:05:26.000",
    "request_status": "Pending",
    "responsible_agency": "Department of Sanitation",
    "final_address": "1811 Baronne St",
    "address_councildis": "B",
    "status": "Assigned to Contractor",
    "contractor": "Richards Disposal",
    "rowid": "1055113",
    "final_x": "3677772.31406",
    "final_y": "525124.958653",
    "longitude": "-90.08006188182834",
    "latitude": "29.938024101706638",
    "geocoded_column": {
      "latitude": "29.938024101706638",
      "longitude": "-90.08006188182834"
    }
  },
  {
    "service_request": "2023-1055112",
    "request_type": "Trash/Recycling",
    "request_reason": "Request a Large Item Pick Up",
    "date_created": "2023-12-11T16:03:25.000",
    "date_modified": "2023-12-11T16:03:26.000",
    "request_status": "Pending",
    "responsible_agency": "Department of Sanitation",
    "final_address": "63 Lakewood Estates Dr",
    "address_councildis": "C",
    "status": "Assigned to Contractor",
    "contractor": "Richards Disposal",
    "rowid": "1055112",
    "final_x": "3701549.57661",
    "final_y": "512665.516273",
    "longitude": "-90.00545135127228",
    "latitude": "29.903028403003287",
    "geocoded_column": {
      "latitude": "29.903028403003287",
      "longitude": "-90.00545135127228"
    }
  },
  {
    "service_request": "2023-1055111",
    "request_type": "Trash/Recycling",
    "request_reason": "Repair Trash Cart",
    "date_created": "2023-12-11T16:01:03.000",
    "date_modified": "2023-12-11T16:01:04.000",
    "request_status": "Pending",
    "responsible_agency": "Department of Sanitation",
    "final_address": "4310 Hamilton St",
    "address_councildis": "A",
    "status": "Assigned to Contractor",
    "contractor": "Richards Disposal",
    "rowid": "1055111",
    "final_x": "3666799.35412",
    "final_y": "538983.911818",
    "longitude": "-90.11423908817946",
    "latitude": "29.976457127899355",
    "geocoded_column": {
      "latitude": "29.976457127899355",
      "longitude": "-90.11423908817946"
    }
  },
  {
    "service_request": "2023-1055110",
    "request_type": "Trash/Recycling",
    "request_reason": "Request a Large Item Pick Up",
    "date_created": "2023-12-11T16:00:20.000",
    "date_modified": "2023-12-11T16:00:22.000",
    "request_status": "Pending",
    "responsible_agency": "Department of Sanitation",
    "final_address": "44 Marywood Ct",
    "address_councildis": "E",
    "status": "Assigned to Contractor",
    "contractor": "Waste Pro",
    "rowid": "1055110",
    "final_x": "3712233.94373",
    "final_y": "567025.747748",
    "longitude": "-89.96969035871096",
    "latitude": "30.052153862366005",
    "geocoded_column": {
      "latitude": "30.052153862366005",
      "longitude": "-89.96969035871096"
    }
  },
  {
    "service_request": "2023-1055109",
    "request_type": "Property Maintenance",
    "request_reason": "Property Maintenance",
    "date_created": "2023-12-11T16:00:12.000",
    "date_modified": "2023-12-11T16:00:12.000",
    "request_status": "Pending",
    "responsible_agency": "Department of Code Enforcement",
    "final_address": "12000 S Interstate 10 Service Rd",
    "address_councildis": "E",
    "status": "Pending",
    "rowid": "1055109",
    "final_x": "3715494.08037",
    "final_y": "564830.081826",
    "longitude": "-89.95946936763703",
    "latitude": "30.046009594369995",
    "geocoded_column": {
      "latitude": "30.046009594369995",
      "longitude": "-89.95946936763703"
    }
  },
  {
    "service_request": "2023-1055108",
    "request_type": "Roads/Drainage",
    "request_reason": "Pothole",
    "date_created": "2023-12-11T15:54:45.000",
    "date_modified": "2023-12-11T15:54:45.000",
    "request_status": "Pending",
    "responsible_agency": "Department of Public Works",
    "final_address": "2100 BLK Rousseau St",
    "address_councildis": "B",
    "status": "Pending",
    "rowid": "1055108",
    "final_x": "3680383.79668",
    "final_y": "520417.410068",
    "longitude": "-90.07198081023876",
    "latitude": "29.925001094857983",
    "geocoded_column": {
      "latitude": "29.925001094857983",
      "longitude": "-90.07198081023876"
    }
  },
  {
    "service_request": "2023-1055107",
    "request_type": "Abandoned Vehicles",
    "request_reason": "Abandoned/Junk Vehicles",
    "date_created": "2023-12-11T15:53:35.000",
    "date_modified": "2023-12-11T15:55:24.000",
    "request_status": "Pending",
    "responsible_agency": "Department of Public Works",
    "final_address": "ST ANDREW ST & DANNEEL ST",
    "address_councildis": "B",
    "status": "Pending",
    "rowid": "1055107",
    "final_x": "3677221.5",
    "final_y": "525424.18",
    "longitude": "-90.08179053274915",
    "latitude": "29.93886341601741",
    "geocoded_column": {
      "latitude": "29.93886341601741",
      "longitude": "-90.08179053274915"
    }
  },
  {
    "service_request": "2023-1055106",
    "request_type": "Abandoned Vehicles",
    "request_reason": "Abandoned/Junk Vehicles",
    "date_created": "2023-12-11T15:52:54.000",
    "date_modified": "2023-12-11T15:52:54.000",
    "request_status": "Pending",
    "responsible_agency": "Department of Public Works",
    "final_address": "924 N Roman St",
    "address_councildis": "D",
    "status": "Pending",
    "rowid": "1055106",
    "final_x": "3679789.75778",
    "final_y": "535768.464583",
    "longitude": "-90.07332313177025",
    "latitude": "29.967229332452455",
    "geocoded_column": {
      "latitude": "29.967229332452455",
      "longitude": "-90.07332313177025"
    }
  },
  {
    "service_request": "2023-1055105",
    "request_type": "Trash/Recycling",
    "request_reason": "Replace Trash Cart",
    "date_created": "2023-12-11T15:52:42.000",
    "date_modified": "2023-12-11T15:52:43.000",
    "request_status": "Pending",
    "responsible_agency": "Department of Sanitation",
    "final_address": "2507 St Philip St",
    "address_councildis": "D",
    "status": "Assigned to Contractor",
    "contractor": "Richards Disposal",
    "rowid": "1055105",
    "final_x": "3678167.35899",
    "final_y": "537304.889992",
    "longitude": "-90.07839354662946",
    "latitude": "29.971502932914195",
    "geocoded_column": {
      "latitude": "29.971502932914195",
      "longitude": "-90.07839354662946"
    }
  },
  {
    "service_request": "2023-1055104",
    "request_type": "Trash/Recycling",
    "request_reason": "Order Recycling Cart",
    "date_created": "2023-12-11T15:50:49.000",
    "date_modified": "2023-12-11T15:50:50.000",
    "request_status": "Pending",
    "responsible_agency": "Department of Sanitation",
    "final_address": "7525 Scottwood Dr",
    "address_councildis": "E",
    "status": "Pending",
    "rowid": "1055104",
    "final_x": "3717698.97676",
    "final_y": "570303.615847",
    "longitude": "-89.95229236412173",
    "latitude": "30.060986680515455",
    "geocoded_column": {
      "latitude": "30.060986680515455",
      "longitude": "-89.95229236412173"
    }
  },
  {
    "service_request": "2023-1055103",
    "request_type": "Trash/Recycling",
    "request_reason": "Replace Trash Cart",
    "date_created": "2023-12-11T15:49:00.000",
    "date_modified": "2023-12-11T15:49:00.000",
    "request_status": "Pending",
    "responsible_agency": "Department of Sanitation",
    "final_address": "6025 Marigny St",
    "address_councildis": "D",
    "status": "Assigned to Contractor",
    "contractor": "IV Waste",
    "rowid": "1055103",
    "final_x": "3683953.62159",
    "final_y": "555216.807705",
    "longitude": "-90.0594908322575",
    "latitude": "30.020578784853086",
    "geocoded_column": {
      "latitude": "30.020578784853086",
      "longitude": "-90.0594908322575"
    }
  },
  {
    "service_request": "2023-1055102",
    "request_type": "Trash/Recycling",
    "request_reason": "Order Trash Cart",
    "date_created": "2023-12-11T15:46:16.000",
    "date_modified": "2023-12-11T15:46:18.000",
    "request_status": "Pending",
    "responsible_agency": "Department of Sanitation",
    "final_address": "3121 Conti St",
    "address_councildis": "B",
    "status": "Assigned to Contractor",
    "contractor": "Richards Disposal",
    "rowid": "1055102",
    "final_x": "3674660.31905",
    "final_y": "537148.406024",
    "longitude": "-90.0894746723545",
    "latitude": "29.971177802245204",
    "geocoded_column": {
      "latitude": "29.971177802245204",
      "longitude": "-90.0894746723545"
    }
  },
  {
    "service_request": "2023-1055101",
    "request_type": "Trash/Recycling",
    "request_reason": "Repair Trash Cart",
    "date_created": "2023-12-11T15:46:06.000",
    "date_modified": "2023-12-11T15:46:08.000",
    "request_status": "Pending",
    "responsible_agency": "Department of Sanitation",
    "final_address": "14563 Duane Rd",
    "address_councildis": "E",
    "status": "Assigned to Contractor",
    "contractor": "Waste Pro",
    "rowid": "1055101",
    "final_x": "3720885.02802",
    "final_y": "573525.233002",
    "longitude": "-89.94209780641667",
    "latitude": "30.06973880090296",
    "geocoded_column": {
      "latitude": "30.06973880090296",
      "longitude": "-89.94209780641667"
    }
  },
  {
    "service_request": "2023-1055100",
    "request_type": "Trash/Recycling",
    "request_reason": "Request a Large Item Pick Up",
    "date_created": "2023-12-11T15:45:53.000",
    "date_modified": "2023-12-11T15:45:54.000",
    "request_status": "Pending",
    "responsible_agency": "Department of Sanitation",
    "final_address": "7160 Deanne St",
    "address_councildis": "D",
    "status": "Assigned to Contractor",
    "contractor": "Waste Pro",
    "rowid": "1055100",
    "final_x": "3695366.92451",
    "final_y": "556997.46377",
    "longitude": "-90.02336407005002",
    "latitude": "30.025121095238553",
    "geocoded_column": {
      "latitude": "30.025121095238553",
      "longitude": "-90.02336407005002"
    }
  },
  {
    "service_request": "2023-1055099",
    "request_type": "Trash/Recycling",
    "request_reason": "Request a Large Item Pick Up",
    "date_created": "2023-12-11T15:44:15.000",
    "date_modified": "2023-12-11T15:44:16.000",
    "request_status": "Pending",
    "responsible_agency": "Department of Sanitation",
    "final_address": "3121 Conti St",
    "address_councildis": "B",
    "status": "Assigned to Contractor",
    "contractor": "Richards Disposal",
    "rowid": "1055099",
    "final_x": "3674660.31905",
    "final_y": "537148.406024",
    "longitude": "-90.0894746723545",
    "latitude": "29.971177802245204",
    "geocoded_column": {
      "latitude": "29.971177802245204",
      "longitude": "-90.0894746723545"
    }
  },
  {
    "service_request": "2023-1055098",
    "request_type": "Trash/Recycling",
    "request_reason": "Order Trash Cart",
    "date_created": "2023-12-11T15:42:15.000",
    "date_modified": "2023-12-11T15:42:16.000",
    "request_status": "Pending",
    "responsible_agency": "Department of Sanitation",
    "final_address": "1635 St Mary St",
    "address_councildis": "B",
    "status": "Assigned to Contractor",
    "contractor": "Richards Disposal",
    "rowid": "1055098",
    "final_x": "3678187.1787",
    "final_y": "524586.73094",
    "longitude": "-90.07877072220951",
    "latitude": "29.93653166937429",
    "geocoded_column": {
      "latitude": "29.93653166937429",
      "longitude": "-90.07877072220951"
    }
  },
  {
    "service_request": "2023-1055097",
    "request_type": "Abandoned Vehicles",
    "request_reason": "Abandoned/Junk Vehicles",
    "date_created": "2023-12-11T15:42:06.000",
    "date_modified": "2023-12-11T15:42:06.000",
    "request_status": "Pending",
    "responsible_agency": "Department of Public Works",
    "final_address": "1900 BLK N Windsor Dr",
    "address_councildis": "D",
    "status": "Pending",
    "rowid": "1055097",
    "final_x": "3682136.15177",
    "final_y": "550979.89914",
    "longitude": "-90.06538162801098",
    "latitude": "30.00898425896166",
    "geocoded_column": {
      "latitude": "30.00898425896166",
      "longitude": "-90.06538162801098"
    }
  },
  {
    "service_request": "2023-1055096",
    "request_type": "Trash/Recycling",
    "request_reason": "Request a Large Item Pick Up",
    "date_created": "2023-12-11T15:40:52.000",
    "date_modified": "2023-12-11T15:40:53.000",
    "request_status": "Pending",
    "responsible_agency": "Department of Sanitation",
    "final_address": "706 Napoleon Ave",
    "address_councildis": "B",
    "status": "Assigned to Contractor",
    "contractor": "Richards Disposal",
    "rowid": "1055096",
    "final_x": "3671034.45582",
    "final_y": "518128.681846",
    "longitude": "-90.10157138176636",
    "latitude": "29.918987501994604",
    "geocoded_column": {
      "latitude": "29.918987501994604",
      "longitude": "-90.10157138176636"
    }
  },
  {
    "service_request": "2023-1055095",
    "request_type": "Roads/Drainage",
    "request_reason": "Street Subsidence (Sinking)",
    "date_created": "2023-12-11T15:40:21.000",
    "date_modified": "2023-12-11T15:40:22.000",
    "request_status": "Pending",
    "responsible_agency": "Department of Public Works",
    "final_address": "5308 Eads St",
    "address_councildis": "D",
    "status": "Pending",
    "rowid": "1055095",
    "final_x": "3686894.38121",
    "final_y": "552631.049494",
    "longitude": "-90.05029041934812",
    "latitude": "30.013378682415794",
    "geocoded_column": {
      "latitude": "30.013378682415794",
      "longitude": "-90.05029041934812"
    }
  },
  {
    "service_request": "2023-1055094",
    "request_type": "Mosquito, Termite & Rodent Control",
    "request_reason": "Rodent Complaint (Rats)",
    "date_created": "2023-12-11T15:38:50.000",
    "date_modified": "2023-12-11T15:38:52.000",
    "request_status": "Pending",
    "responsible_agency": "Mosquito, Termite & Rodent Control Board",
    "final_address": "6301 Marais St",
    "address_councildis": "E",
    "status": "Pending",
    "rowid": "1055094",
    "final_x": "3700368.55696",
    "final_y": "533412.461316",
    "longitude": "-90.00842150676783",
    "latitude": "29.960112895191546",
    "geocoded_column": {
      "latitude": "29.960112895191546",
      "longitude": "-90.00842150676783"
    }
  },
  {
    "service_request": "2023-1055093",
    "request_type": "Trash/Recycling",
    "request_reason": "Dead Animal Pick Up",
    "date_created": "2023-12-11T15:35:11.000",
    "date_modified": "2023-12-11T15:35:12.000",
    "request_status": "Pending",
    "responsible_agency": "Department of Sanitation",
    "final_address": "4900 Clara St",
    "address_councildis": "B",
    "status": "Assigned to Contractor",
    "contractor": "Richards Disposal",
    "rowid": "1055093",
    "final_x": "3669158.13793",
    "final_y": "524932.738749",
    "longitude": "-90.10726416216876",
    "latitude": "29.937751817058984",
    "geocoded_column": {
      "latitude": "29.937751817058984",
      "longitude": "-90.10726416216876"
    }
  },
  {
    "service_request": "2023-1055092",
    "request_type": "Trash/Recycling",
    "request_reason": "Repair Trash Cart",
    "date_created": "2023-12-11T15:31:30.000",
    "date_modified": "2023-12-11T15:31:31.000",
    "request_status": "Pending",
    "responsible_agency": "Department of Sanitation",
    "final_address": "3529 Mimosa Ct",
    "address_councildis": "C",
    "status": "Assigned to Contractor",
    "contractor": "Richards Disposal",
    "rowid": "1055092",
    "final_x": "3703487.17649",
    "final_y": "512959.242737",
    "longitude": "-89.99932557757127",
    "latitude": "29.903774166990836",
    "geocoded_column": {
      "latitude": "29.903774166990836",
      "longitude": "-89.99932557757127"
    }
  },
  {
    "service_request": "2023-1055091",
    "request_type": "Trash/Recycling",
    "request_reason": "Illegal Dumping",
    "date_created": "2023-12-11T15:31:07.000",
    "date_modified": "2023-12-11T15:31:08.000",
    "request_status": "Pending",
    "responsible_agency": "Department of Sanitation",
    "final_address": "MONTICELLO AVE & PRITCHARD PL",
    "address_councildis": "A",
    "status": "Pending",
    "rowid": "1055091",
    "final_x": "3662609.3",
    "final_y": "536032.98",
    "longitude": "-90.12757068855134",
    "latitude": "29.968464952479756",
    "geocoded_column": {
      "latitude": "29.968464952479756",
      "longitude": "-90.12757068855134"
    }
  },
  {
    "service_request": "2023-1055090",
    "request_type": "Abandoned Vehicles",
    "request_reason": "Abandoned/Junk Vehicles",
    "date_created": "2023-12-11T15:28:17.000",
    "date_modified": "2023-12-11T15:28:17.000",
    "request_status": "Pending",
    "responsible_agency": "Department of Public Works",
    "final_address": "10200 BLK Almonaster Ave",
    "address_councildis": "E",
    "status": "Inspected",
    "rowid": "1055090",
    "final_x": "3714488.88923",
    "final_y": "551896.847109",
    "longitude": "-89.96313503455288",
    "latitude": "30.010481447366526",
    "geocoded_column": {
      "latitude": "30.010481447366526",
      "longitude": "-89.96313503455288"
    }
  },
  {
    "service_request": "2023-1055089",
    "request_type": "Abandoned Vehicles",
    "request_reason": "Abandoned/Junk Vehicles",
    "date_created": "2023-12-11T15:27:16.000",
    "date_modified": "2023-12-11T15:27:16.000",
    "request_status": "Pending",
    "responsible_agency": "Department of Public Works",
    "final_address": "6600 BLK Fleur-de-lis Dr",
    "address_councildis": "A",
    "status": "Pending",
    "rowid": "1055089",
    "final_x": "3665444.93417",
    "final_y": "552247.112485",
    "longitude": "-90.1180725033447",
    "latitude": "30.01296595182022",
    "geocoded_column": {
      "latitude": "30.01296595182022",
      "longitude": "-90.1180725033447"
    }
  },
  {
    "service_request": "2023-1055088",
    "request_type": "Trash/Recycling",
    "request_reason": "Order Trash Cart",
    "date_created": "2023-12-11T15:26:59.000",
    "date_modified": "2023-12-11T15:27:00.000",
    "request_status": "Pending",
    "responsible_agency": "Department of Sanitation",
    "final_address": "3 Assumption Pl",
    "address_councildis": "E",
    "status": "Assigned to Contractor",
    "contractor": "Waste Pro",
    "rowid": "1055088",
    "final_x": "3726241.12294",
    "final_y": "564232.751585",
    "longitude": "-89.92552697686354",
    "latitude": "30.04400849785838",
    "geocoded_column": {
      "latitude": "30.04400849785838",
      "longitude": "-89.92552697686354"
    }
  },
  {
    "service_request": "2023-1055087",
    "request_type": "Trash/Recycling",
    "request_reason": "Order Trash Cart",
    "date_created": "2023-12-11T15:26:04.000",
    "date_modified": "2023-12-11T15:26:05.000",
    "request_status": "Pending",
    "responsible_agency": "Department of Sanitation",
    "final_address": "5000 Toulon St",
    "address_councildis": "E",
    "status": "Assigned to Contractor",
    "contractor": "Waste Pro",
    "rowid": "1055087",
    "final_x": "3723619.60262",
    "final_y": "561251.68387",
    "longitude": "-89.93392708835012",
    "latitude": "30.035900089350214",
    "geocoded_column": {
      "latitude": "30.035900089350214",
      "longitude": "-89.93392708835012"
    }
  },
  {
    "service_request": "2023-1055086",
    "request_type": "Roads/Drainage",
    "request_reason": "Pothole",
    "date_created": "2023-12-11T15:23:14.000",
    "date_modified": "2023-12-11T15:23:14.000",
    "request_status": "Pending",
    "responsible_agency": "Department of Public Works",
    "final_address": "1301 Constantinople St",
    "address_councildis": "B",
    "status": "Pending",
    "rowid": "1055086",
    "final_x": "3672430.66305",
    "final_y": "520250.7726",
    "longitude": "-90.09709199725775",
    "latitude": "29.924781230435865",
    "geocoded_column": {
      "latitude": "29.924781230435865",
      "longitude": "-90.09709199725775"
    }
  },
  {
    "service_request": "2023-1055085",
    "request_type": "Abandoned Vehicles",
    "request_reason": "Abandoned/Junk Vehicles",
    "date_created": "2023-12-11T15:20:44.000",
    "date_modified": "2023-12-11T15:23:59.000",
    "request_status": "Pending",
    "responsible_agency": "Department of Public Works",
    "final_address": "2800 BLK N Claiborne Ave",
    "address_councildis": "C",
    "status": "Pending",
    "rowid": "1055085",
    "final_x": "3688306.27394",
    "final_y": "538124.696176",
    "longitude": "-90.04634437708508",
    "latitude": "29.973447887249492",
    "geocoded_column": {
      "latitude": "29.973447887249492",
      "longitude": "-90.04634437708508"
    }
  },
  {
    "service_request": "2023-1055084",
    "request_type": "Trash/Recycling",
    "request_reason": "Replace Trash Cart",
    "date_created": "2023-12-11T15:18:50.000",
    "date_modified": "2023-12-11T15:18:51.000",
    "request_status": "Pending",
    "responsible_agency": "Department of Sanitation",
    "final_address": "3164 State Street Dr",
    "address_councildis": "A",
    "status": "Assigned to Contractor",
    "contractor": "Richards Disposal",
    "rowid": "1055084",
    "final_x": "3667528.49146",
    "final_y": "528097.722943",
    "longitude": "-90.11230262397056",
    "latitude": "29.946502349505167",
    "geocoded_column": {
      "latitude": "29.946502349505167",
      "longitude": "-90.11230262397056"
    }
  },
  {
    "service_request": "2023-1055083",
    "request_type": "Trash/Recycling",
    "request_reason": "Missed Trash Pick-Up",
    "date_created": "2023-12-11T15:18:15.000",
    "date_modified": "2023-12-11T15:19:19.000",
    "request_status": "Pending",
    "responsible_agency": "Department of Sanitation",
    "final_address": "7626 Hayne Blvd",
    "address_councildis": "E",
    "status": "Assigned to Contractor",
    "contractor": "Waste Pro",
    "rowid": "1055083",
    "final_x": "3700548.55581",
    "final_y": "562162.727839",
    "longitude": "-90.0068020783592",
    "latitude": "30.039159669630823",
    "geocoded_column": {
      "latitude": "30.039159669630823",
      "longitude": "-90.0068020783592"
    }
  },
  {
    "service_request": "2023-1055082",
    "request_type": "Roads/Drainage",
    "request_reason": "Pothole",
    "date_created": "2023-12-11T15:12:23.000",
    "date_modified": "2023-12-11T15:12:23.000",
    "request_status": "Pending",
    "responsible_agency": "Department of Public Works",
    "final_address": "1312 Milan St",
    "address_councildis": "B",
    "status": "Pending",
    "rowid": "1055082",
    "final_x": "3671625.82823",
    "final_y": "520286.919608",
    "longitude": "-90.09963137110304",
    "latitude": "29.92490447494246",
    "geocoded_column": {
      "latitude": "29.92490447494246",
      "longitude": "-90.09963137110304"
    }
  },
  {
    "service_request": "2023-1055081",
    "request_type": "Abandoned Vehicles",
    "request_reason": "Abandoned/Junk Vehicles",
    "date_created": "2023-12-11T14:57:14.000",
    "date_modified": "2023-12-11T14:57:14.000",
    "request_status": "Pending",
    "responsible_agency": "Department of Public Works",
    "final_address": "4501 Tchoupitoulas St",
    "address_councildis": "B",
    "status": "Pending",
    "rowid": "1055081",
    "final_x": "3670745.92699",
    "final_y": "517450.17791",
    "longitude": "-90.10250512644365",
    "latitude": "29.917130356254525",
    "geocoded_column": {
      "latitude": "29.917130356254525",
      "longitude": "-90.10250512644365"
    }
  },
  {
    "service_request": "2023-1055080",
    "request_type": "Property Maintenance",
    "request_reason": "Property Maintenance",
    "date_created": "2023-12-11T14:56:27.000",
    "date_modified": "2023-12-11T14:56:28.000",
    "request_status": "Pending",
    "responsible_agency": "Department of Code Enforcement",
    "final_address": "2027 Conti St",
    "address_councildis": "B",
    "status": "Pending",
    "rowid": "1055080",
    "final_x": "3678095.95643",
    "final_y": "534527.709957",
    "longitude": "-90.07871508018106",
    "latitude": "29.963868784850792",
    "geocoded_column": {
      "latitude": "29.963868784850792",
      "longitude": "-90.07871508018106"
    }
  },
  {
    "service_request": "2023-1055079",
    "request_type": "Trash/Recycling",
    "request_reason": "Request a Large Item Pick Up",
    "date_created": "2023-12-11T14:53:56.000",
    "date_modified": "2023-12-11T14:53:57.000",
    "request_status": "Pending",
    "responsible_agency": "Department of Sanitation",
    "final_address": "8024 Berg Rd",
    "address_councildis": "E",
    "status": "Assigned to Contractor",
    "contractor": "Waste Pro",
    "rowid": "1055079",
    "final_x": "3711130.63659",
    "final_y": "567890.645477",
    "longitude": "-89.97314509734551",
    "latitude": "30.054568036572064",
    "geocoded_column": {
      "latitude": "30.054568036572064",
      "longitude": "-89.97314509734551"
    }
  },
  {
    "service_request": "2023-1055078",
    "request_type": "Roads/Drainage",
    "request_reason": "Street Subsidence (Sinking)",
    "date_created": "2023-12-11T14:53:36.000",
    "date_modified": "2023-12-11T14:53:36.000",
    "request_status": "Pending",
    "responsible_agency": "Department of Public Works",
    "final_address": "3100 BLK Trafalgar St",
    "address_councildis": "A",
    "status": "Pending",
    "rowid": "1055078",
    "final_x": "3678586.48662",
    "final_y": "543167.709056",
    "longitude": "-90.07686684747203",
    "latitude": "29.98761102756519",
    "geocoded_column": {
      "latitude": "29.98761102756519",
      "longitude": "-90.07686684747203"
    }
  },
  {
    "service_request": "2023-1055077",
    "request_type": "Trash/Recycling",
    "request_reason": "Order Recycling Cart",
    "date_created": "2023-12-11T14:45:53.000",
    "date_modified": "2023-12-11T14:45:54.000",
    "request_status": "Pending",
    "responsible_agency": "Department of Sanitation",
    "final_address": "2746 Ramsey Dr",
    "address_councildis": "C",
    "status": "Pending",
    "rowid": "1055077",
    "final_x": "3703157.73694",
    "final_y": "520595.267896",
    "longitude": "-90.00008487416912",
    "latitude": "29.924781161941475",
    "geocoded_column": {
      "latitude": "29.924781161941475",
      "longitude": "-90.00008487416912"
    }
  },
  {
    "service_request": "2023-1055075",
    "request_type": "Abandoned Vehicles",
    "request_reason": "Abandoned/Junk Vehicles",
    "date_created": "2023-12-11T14:40:32.000",
    "date_modified": "2023-12-11T14:40:33.000",
    "request_status": "Pending",
    "responsible_agency": "Department of Public Works",
    "final_address": "NEWTON ST & ODEON ST",
    "address_councildis": "C",
    "status": "Pending",
    "rowid": "1055075",
    "final_x": "3696055.2",
    "final_y": "527792.98",
    "longitude": "-90.02224513640647",
    "latitude": "29.944797723064063",
    "geocoded_column": {
      "latitude": "29.944797723064063",
      "longitude": "-90.02224513640647"
    }
  },
  {
    "service_request": "2023-1055074",
    "request_type": "Traffic Signals/Signs/Striping/Streetlights",
    "request_reason": "Street Light Outage/Malfunction",
    "date_created": "2023-12-11T14:38:04.000",
    "date_modified": "2023-12-11T14:38:21.000",
    "request_status": "Pending",
    "responsible_agency": "Department of Public Works",
    "final_address": "5214 Dauphine St",
    "address_councildis": "E",
    "status": "Assigned to Contractor",
    "contractor": "Legacy Professional Services",
    "rowid": "1055074",
    "final_x": "3696350.8481",
    "final_y": "532935.985476",
    "longitude": "-90.02112573500155",
    "latitude": "29.958929881230112",
    "geocoded_column": {
      "latitude": "29.958929881230112",
      "longitude": "-90.02112573500155"
    }
  },
  {
    "service_request": "2023-1055073",
    "request_type": "Abandoned Vehicles",
    "request_reason": "Abandoned/Junk Vehicles",
    "date_created": "2023-12-11T14:37:43.000",
    "date_modified": "2023-12-11T14:37:44.000",
    "request_status": "Pending",
    "responsible_agency": "Department of Public Works",
    "final_address": "1125 Odeon St",
    "address_councildis": "C",
    "status": "Pending",
    "rowid": "1055073",
    "final_x": "3695975.27344",
    "final_y": "527208.870143",
    "longitude": "-90.02251858464851",
    "latitude": "29.943194138089652",
    "geocoded_column": {
      "latitude": "29.943194138089652",
      "longitude": "-90.02251858464851"
    }
  },
  {
    "service_request": "2023-1055072",
    "request_type": "Trash/Recycling",
    "request_reason": "Request a Large Item Pick Up",
    "date_created": "2023-12-11T14:36:23.000",
    "date_modified": "2023-12-11T14:36:24.000",
    "request_status": "Pending",
    "responsible_agency": "Department of Sanitation",
    "final_address": "7641 Inlet Ln",
    "address_councildis": "E",
    "status": "Assigned to Contractor",
    "contractor": "Waste Pro",
    "rowid": "1055072",
    "final_x": "3714568.21202",
    "final_y": "568643.523173",
    "longitude": "-89.96225133242132",
    "latitude": "30.056525491627156",
    "geocoded_column": {
      "latitude": "30.056525491627156",
      "longitude": "-89.96225133242132"
    }
  },
  {
    "service_request": "2023-1055071",
    "request_type": "Roads/Drainage",
    "request_reason": "Accessibility Ramps, Curbs and Sidewalk Repair",
    "date_created": "2023-12-11T14:29:34.000",
    "date_modified": "2023-12-11T14:29:34.000",
    "request_status": "Pending",
    "responsible_agency": "Department of Public Works",
    "final_address": "2925 Tulane Ave",
    "address_councildis": "B",
    "status": "Pending",
    "rowid": "1055071",
    "final_x": "3673322.32417",
    "final_y": "534316.548677",
    "longitude": "-90.09379699692013",
    "latitude": "29.96343101818244",
    "geocoded_column": {
      "latitude": "29.96343101818244",
      "longitude": "-90.09379699692013"
    }
  },
  {
    "service_request": "2023-1055070",
    "request_type": "Trash/Recycling",
    "request_reason": "Request a Large Item Pick Up",
    "date_created": "2023-12-11T14:28:21.000",
    "date_modified": "2023-12-11T14:28:21.000",
    "request_status": "Pending",
    "responsible_agency": "Department of Sanitation",
    "final_address": "2307 Wirth Pl",
    "address_councildis": "A",
    "status": "Assigned to Contractor",
    "contractor": "Richards Disposal",
    "rowid": "1055070",
    "final_x": "3667189.5698",
    "final_y": "524581.323516",
    "longitude": "-90.11349091965724",
    "latitude": "29.936843310157585",
    "geocoded_column": {
      "latitude": "29.936843310157585",
      "longitude": "-90.11349091965724"
    }
  },
  {
    "service_request": "2023-1055069",
    "request_type": "Trash/Recycling",
    "request_reason": "Repair Trash Cart",
    "date_created": "2023-12-11T14:28:16.000",
    "date_modified": "2023-12-11T16:44:38.000",
    "case_close_date": "2023-12-10T18:00:00.000",
    "request_status": "Closed",
    "responsible_agency": "Department of Sanitation",
    "final_address": "520 Turquoise St",
    "address_councildis": "D",
    "status": "Duplicate Request",
    "contractor": "IV Waste",
    "contractor_action": "duplicate",
    "rowid": "1055069",
    "final_x": "3668326.71898",
    "final_y": "555261.012185",
    "longitude": "-90.10886583457275",
    "latitude": "30.021168756609676",
    "geocoded_column": {
      "latitude": "30.021168756609676",
      "longitude": "-90.10886583457275"
    }
  },
  {
    "service_request": "2023-1055067",
    "request_type": "Utility Poles",
    "request_reason": "Utility Pole Leaning",
    "date_created": "2023-12-11T14:17:41.000",
    "date_modified": "2023-12-11T14:17:51.000",
    "request_status": "Pending",
    "responsible_agency": "Utility Company Collective",
    "final_address": "1200 St Roch Ave",
    "address_councildis": "C",
    "status": "Pending",
    "rowid": "1055067",
    "final_x": "3686369.9174",
    "final_y": "536818.21812",
    "longitude": "-90.05250590260395",
    "latitude": "29.969915188900192",
    "geocoded_column": {
      "latitude": "29.969915188900192",
      "longitude": "-90.05250590260395"
    }
  },
  {
    "service_request": "2023-1055064",
    "request_type": "Parks & Parkways",
    "request_reason": "Request Tree Service (Right of Way/Public Property)",
    "date_created": "2023-12-11T14:14:29.000",
    "date_modified": "2023-12-11T14:14:30.000",
    "request_status": "Pending",
    "responsible_agency": "Department of Parks & Parkway",
    "final_address": "7939 Bass St",
    "address_councildis": "E",
    "status": "Pending",
    "rowid": "1055064",
    "final_x": "3719467.10348",
    "final_y": "574368.121579",
    "longitude": "-89.94654792661518",
    "latitude": "30.072103649149234",
    "geocoded_column": {
      "latitude": "30.072103649149234",
      "longitude": "-89.94654792661518"
    }
  },
  {
    "service_request": "2023-1055063",
    "request_type": "Parks & Parkways",
    "request_reason": "Request Tree Service (Right of Way/Public Property)",
    "date_created": "2023-12-11T14:13:29.000",
    "date_modified": "2023-12-11T14:13:29.000",
    "request_status": "Pending",
    "responsible_agency": "Department of Parks & Parkway",
    "final_address": "917 Hillary St",
    "address_councildis": "A",
    "status": "Pending",
    "rowid": "1055063",
    "final_x": "3662665.65216",
    "final_y": "526423.723262",
    "longitude": "-90.12771202280595",
    "latitude": "29.94204097557979",
    "geocoded_column": {
      "latitude": "29.94204097557979",
      "longitude": "-90.12771202280595"
    }
  },
  {
    "service_request": "2023-1055062",
    "request_type": "Trash/Recycling",
    "request_reason": "Request a Large Item Pick Up",
    "date_created": "2023-12-11T14:07:35.000",
    "date_modified": "2023-12-11T14:07:36.000",
    "request_status": "Pending",
    "responsible_agency": "Department of Sanitation",
    "final_address": "4308 S Derbigny St",
    "address_councildis": "B",
    "status": "Assigned to Contractor",
    "contractor": "Richards Disposal",
    "rowid": "1055062",
    "final_x": "3670608.70478",
    "final_y": "526240.219198",
    "longitude": "-90.10264026191228",
    "latitude": "29.941304206336067",
    "geocoded_column": {
      "latitude": "29.941304206336067",
      "longitude": "-90.10264026191228"
    }
  },
  {
    "service_request": "2023-1055061",
    "request_type": "Trash/Recycling",
    "request_reason": "Request a Large Item Pick Up",
    "date_created": "2023-12-11T14:05:30.000",
    "date_modified": "2023-12-11T14:05:31.000",
    "request_status": "Pending",
    "responsible_agency": "Department of Sanitation",
    "final_address": "7500 Dune Dr",
    "address_councildis": "E",
    "status": "Assigned to Contractor",
    "contractor": "Waste Pro",
    "rowid": "1055061",
    "final_x": "3715723.32696",
    "final_y": "568443.737253",
    "longitude": "-89.95860781765694",
    "latitude": "30.055938107488632",
    "geocoded_column": {
      "latitude": "30.055938107488632",
      "longitude": "-89.95860781765694"
    }
  },
  {
    "service_request": "2023-1055060",
    "request_type": "Property Maintenance",
    "request_reason": "Property Maintenance",
    "date_created": "2023-12-11T14:02:01.000",
    "date_modified": "2023-12-11T14:02:01.000",
    "request_status": "Pending",
    "responsible_agency": "Department of Code Enforcement",
    "final_address": "2218 Independence St",
    "address_councildis": "D",
    "status": "Pending",
    "rowid": "1055060",
    "final_x": "3691993.93379",
    "final_y": "539862.818378",
    "longitude": "-90.0346358096618",
    "latitude": "29.978112701021843",
    "geocoded_column": {
      "latitude": "29.978112701021843",
      "longitude": "-90.0346358096618"
    }
  },
  {
    "service_request": "2023-1055059",
    "request_type": "Trash/Recycling",
    "request_reason": "Request a Large Item Pick Up",
    "date_created": "2023-12-11T13:54:44.000",
    "date_modified": "2023-12-11T13:54:45.000",
    "request_status": "Pending",
    "responsible_agency": "Department of Sanitation",
    "final_address": "4915 Spain St",
    "address_councildis": "D",
    "status": "Assigned to Contractor",
    "contractor": "IV Waste",
    "rowid": "1055059",
    "final_x": "3684994.38882",
    "final_y": "550995.100565",
    "longitude": "-90.05635098536239",
    "latitude": "30.00893878104121",
    "geocoded_column": {
      "latitude": "30.00893878104121",
      "longitude": "-90.05635098536239"
    }
  },
  {
    "service_request": "2023-1055058",
    "request_type": "Trash/Recycling",
    "request_reason": "Request a Large Item Pick Up",
    "date_created": "2023-12-11T13:48:23.000",
    "date_modified": "2023-12-11T13:48:24.000",
    "request_status": "Pending",
    "responsible_agency": "Department of Sanitation",
    "final_address": "4718 Allen St",
    "address_councildis": "D",
    "status": "Assigned to Contractor",
    "contractor": "IV Waste",
    "rowid": "1055058",
    "final_x": "3681606.90082",
    "final_y": "549893.752596",
    "longitude": "-90.0670916276131",
    "latitude": "30.006013839969647",
    "geocoded_column": {
      "latitude": "30.006013839969647",
      "longitude": "-90.0670916276131"
    }
  },
  {
    "service_request": "2023-1055057",
    "request_type": "Trash/Recycling",
    "request_reason": "MIssed Recycling Pick-Up",
    "date_created": "2023-12-11T13:47:53.000",
    "date_modified": "2023-12-11T13:47:54.000",
    "request_status": "Pending",
    "responsible_agency": "Department of Sanitation",
    "final_address": "1400 Kentucky St",
    "address_councildis": "D",
    "status": "Assigned to Contractor",
    "contractor": "IV Waste",
    "rowid": "1055057",
    "final_x": "3693566.00016",
    "final_y": "536083.572615",
    "longitude": "-90.02980647479123",
    "latitude": "29.96767203460184",
    "geocoded_column": {
      "latitude": "29.96767203460184",
      "longitude": "-90.02980647479123"
    }
  },
  {
    "service_request": "2023-1055056",
    "request_type": "Trash/Recycling",
    "request_reason": "Request a Large Item Pick Up",
    "date_created": "2023-12-11T13:47:27.000",
    "date_modified": "2023-12-11T13:47:28.000",
    "request_status": "Pending",
    "responsible_agency": "Department of Sanitation",
    "final_address": "7431 Camberley Dr",
    "address_councildis": "E",
    "status": "Assigned to Contractor",
    "contractor": "Waste Pro",
    "rowid": "1055056",
    "final_x": "3712778.44357",
    "final_y": "565618.47997",
    "longitude": "-89.96802237443458",
    "latitude": "30.048266619185373",
    "geocoded_column": {
      "latitude": "30.048266619185373",
      "longitude": "-89.96802237443458"
    }
  },
  {
    "service_request": "2023-1055054",
    "request_type": "Trash/Recycling",
    "request_reason": "Request a Large Item Pick Up",
    "date_created": "2023-12-11T13:37:58.000",
    "date_modified": "2023-12-11T13:37:59.000",
    "request_status": "Pending",
    "responsible_agency": "Department of Sanitation",
    "final_address": "1334 Gordon St",
    "address_councildis": "E",
    "status": "Assigned to Contractor",
    "contractor": "Waste Pro",
    "rowid": "1055054",
    "final_x": "3699512.58052",
    "final_y": "534438.552005",
    "longitude": "-90.01108709012286",
    "latitude": "29.962961465341827",
    "geocoded_column": {
      "latitude": "29.962961465341827",
      "longitude": "-90.01108709012286"
    }
  },
  {
    "service_request": "2023-1055053",
    "request_type": "Traffic Signals/Signs/Striping/Streetlights",
    "request_reason": "Street Light Outage/Malfunction",
    "date_created": "2023-12-11T13:34:28.000",
    "date_modified": "2023-12-11T13:34:30.000",
    "request_status": "Pending",
    "responsible_agency": "Department of Public Works",
    "final_address": "2700 BLK Valence St",
    "address_councildis": "B",
    "status": "Assigned to Contractor",
    "contractor": "Legacy Professional Services",
    "rowid": "1055053",
    "final_x": "3669338.17441",
    "final_y": "524801.610946",
    "longitude": "-90.10670020288897",
    "latitude": "29.93738595961113",
    "geocoded_column": {
      "latitude": "29.93738595961113",
      "longitude": "-90.10670020288897"
    }
  },
  {
    "service_request": "2023-1055052",
    "request_type": "Safety & Permits",
    "request_reason": "Licenses & Permits",
    "date_created": "2023-12-11T13:33:48.000",
    "date_modified": "2023-12-11T13:33:48.000",
    "request_status": "Pending",
    "responsible_agency": "Safety and Permits",
    "final_address": "3044 St Claude Ave",
    "address_councildis": "C",
    "status": "Pending",
    "rowid": "1055052",
    "final_x": "3688771.79644",
    "final_y": "536002.086791",
    "longitude": "-90.04494954020726",
    "latitude": "29.967597071392024",
    "geocoded_column": {
      "latitude": "29.967597071392024",
      "longitude": "-90.04494954020726"
    }
  },
  {
    "service_request": "2023-1055051",
    "request_type": "Trash/Recycling",
    "request_reason": "Request a Large Item Pick Up",
    "date_created": "2023-12-11T13:33:26.000",
    "date_modified": "2023-12-11T13:33:27.000",
    "request_status": "Pending",
    "responsible_agency": "Department of Sanitation",
    "final_address": "1856 Lauradale Dr",
    "address_councildis": "C",
    "status": "Assigned to Contractor",
    "contractor": "Richards Disposal",
    "rowid": "1055051",
    "final_x": "3692768.25437",
    "final_y": "524252.227068",
    "longitude": "-90.03274986076404",
    "latitude": "29.935164871129928",
    "geocoded_column": {
      "latitude": "29.935164871129928",
      "longitude": "-90.03274986076404"
    }
  },
  {
    "service_request": "2023-1055050",
    "request_type": "Trash/Recycling",
    "request_reason": "Return Recycling Cart",
    "date_created": "2023-12-11T13:32:58.000",
    "date_modified": "2023-12-11T13:32:58.000",
    "request_status": "Pending",
    "responsible_agency": "Department of Sanitation",
    "final_address": "3936 Bienville Ave",
    "address_councildis": "A",
    "status": "Pending",
    "rowid": "1055050",
    "final_x": "3671956.63566",
    "final_y": "538596.116041",
    "longitude": "-90.09796399819847",
    "latitude": "29.97523893976319",
    "geocoded_column": {
      "latitude": "29.97523893976319",
      "longitude": "-90.09796399819847"
    }
  },
  {
    "service_request": "2023-1055049",
    "request_type": "Traffic Signals/Signs/Striping/Streetlights",
    "request_reason": "Street Light Outage/Malfunction",
    "date_created": "2023-12-11T13:32:30.000",
    "date_modified": "2023-12-11T13:33:09.000",
    "request_status": "Pending",
    "responsible_agency": "Department of Public Works",
    "final_address": "2621 Valence St",
    "address_councildis": "B",
    "status": "Assigned to Contractor",
    "contractor": "Legacy Professional Services",
    "rowid": "1055049",
    "final_x": "3669418.11777",
    "final_y": "524470.21542",
    "longitude": "-90.10645901789653",
    "latitude": "29.936472375260823",
    "geocoded_column": {
      "latitude": "29.936472375260823",
      "longitude": "-90.10645901789653"
    }
  },
  {
    "service_request": "2023-1055048",
    "request_type": "Trash/Recycling",
    "request_reason": "Order Recycling Cart",
    "date_created": "2023-12-11T13:30:56.000",
    "date_modified": "2023-12-11T13:30:57.000",
    "request_status": "Pending",
    "responsible_agency": "Department of Sanitation",
    "final_address": "204 N Anthony St",
    "address_councildis": "A",
    "status": "Pending",
    "rowid": "1055048",
    "final_x": "3668895.33786",
    "final_y": "540652.728587",
    "longitude": "-90.10756293252133",
    "latitude": "29.980984326963707",
    "geocoded_column": {
      "latitude": "29.980984326963707",
      "longitude": "-90.10756293252133"
    }
  },
  {
    "service_request": "2023-1055047",
    "request_type": "Traffic Signals/Signs/Striping/Streetlights",
    "request_reason": "Street Light Outage/Malfunction",
    "date_created": "2023-12-11T13:28:22.000",
    "date_modified": "2023-12-11T13:28:23.000",
    "request_status": "Pending",
    "responsible_agency": "Department of Public Works",
    "final_address": "7110 Chatelain Dr",
    "address_councildis": "E",
    "status": "Assigned to Contractor",
    "contractor": "Legacy Professional Services",
    "rowid": "1055047",
    "final_x": "3715511.88011",
    "final_y": "566657.308323",
    "longitude": "-89.95934386417937",
    "latitude": "30.051033134715208",
    "geocoded_column": {
      "latitude": "30.051033134715208",
      "longitude": "-89.95934386417937"
    }
  },
  {
    "service_request": "2023-1055046",
    "request_type": "Abandoned Vehicles",
    "request_reason": "Abandoned/Junk Vehicles",
    "date_created": "2023-12-11T13:27:03.000",
    "date_modified": "2023-12-11T13:30:23.000",
    "request_status": "Pending",
    "responsible_agency": "Department of Public Works",
    "final_address": "10900 Roger Dr",
    "address_councildis": "E",
    "status": "Pending",
    "rowid": "1055046",
    "final_x": "3711926.30475",
    "final_y": "563227.913184",
    "longitude": "-89.9708054414871",
    "latitude": "30.041721415282215",
    "geocoded_column": {
      "latitude": "30.041721415282215",
      "longitude": "-89.9708054414871"
    }
  },
  {
    "service_request": "2023-1055045",
    "request_type": "Trash/Recycling",
    "request_reason": "Repair Trash Cart",
    "date_created": "2023-12-11T13:25:18.000",
    "date_modified": "2023-12-11T16:43:53.000",
    "case_close_date": "2023-12-10T18:00:00.000",
    "request_status": "Closed",
    "responsible_agency": "Department of Sanitation",
    "final_address": "6015 Pauline Dr",
    "address_councildis": "D",
    "status": "Duplicate Request",
    "contractor": "IV Waste",
    "contractor_action": "duplicate",
    "rowid": "1055045",
    "final_x": "3691569.679",
    "final_y": "556166.664538",
    "longitude": "-90.03539246635368",
    "latitude": "30.022955528781015",
    "geocoded_column": {
      "latitude": "30.022955528781015",
      "longitude": "-90.03539246635368"
    }
  },
  {
    "service_request": "2023-1055044",
    "request_type": "Trash/Recycling",
    "request_reason": "Request a Large Item Pick Up",
    "date_created": "2023-12-11T13:24:57.000",
    "date_modified": "2023-12-11T13:24:58.000",
    "request_status": "Pending",
    "responsible_agency": "Department of Sanitation",
    "final_address": "10821 Roger Dr",
    "address_councildis": "E",
    "status": "Assigned to Contractor",
    "contractor": "Waste Pro",
    "rowid": "1055044",
    "final_x": "3711728.0076",
    "final_y": "563182.724832",
    "longitude": "-89.9714338249306",
    "latitude": "30.041603647474425",
    "geocoded_column": {
      "latitude": "30.041603647474425",
      "longitude": "-89.9714338249306"
    }
  },
  {
    "service_request": "2023-1055043",
    "request_type": "Trash/Recycling",
    "request_reason": "Request a Large Item Pick Up",
    "date_created": "2023-12-11T13:23:51.000",
    "date_modified": "2023-12-11T13:23:52.000",
    "request_status": "Pending",
    "responsible_agency": "Department of Sanitation",
    "final_address": "3450 Magnolia St",
    "address_councildis": "B",
    "status": "Assigned to Contractor",
    "contractor": "Richards Disposal",
    "rowid": "1055043",
    "final_x": "3672249.00571",
    "final_y": "524930.023036",
    "longitude": "-90.09750612185543",
    "latitude": "29.937653048438285",
    "geocoded_column": {
      "latitude": "29.937653048438285",
      "longitude": "-90.09750612185543"
    }
  },
  {
    "service_request": "2023-1055042",
    "request_type": "Trash/Recycling",
    "request_reason": "Request a Large Item Pick Up",
    "date_created": "2023-12-11T13:23:23.000",
    "date_modified": "2023-12-11T13:23:24.000",
    "request_status": "Pending",
    "responsible_agency": "Department of Sanitation",
    "final_address": "10830 Roger Dr",
    "address_councildis": "E",
    "status": "Assigned to Contractor",
    "contractor": "Waste Pro",
    "rowid": "1055042",
    "final_x": "3711821.88101",
    "final_y": "563150.568032",
    "longitude": "-89.97113836173169",
    "latitude": "30.041512160991395",
    "geocoded_column": {
      "latitude": "30.041512160991395",
      "longitude": "-89.97113836173169"
    }
  },
  {
    "service_request": "2023-1055040",
    "request_type": "Trash/Recycling",
    "request_reason": "Order Trash Cart",
    "date_created": "2023-12-11T13:22:51.000",
    "date_modified": "2023-12-11T13:22:52.000",
    "request_status": "Pending",
    "responsible_agency": "Department of Sanitation",
    "final_address": "1637 Touro St",
    "address_councildis": "D",
    "status": "Assigned to Contractor",
    "contractor": "IV Waste",
    "rowid": "1055040",
    "final_x": "3684095.07772",
    "final_y": "538389.096585",
    "longitude": "-90.05963490894574",
    "latitude": "29.97430428136028",
    "geocoded_column": {
      "latitude": "29.97430428136028",
      "longitude": "-90.05963490894574"
    }
  },
  {
    "service_request": "2023-1055039",
    "request_type": "Trash/Recycling",
    "request_reason": "Request a Large Item Pick Up",
    "date_created": "2023-12-11T13:22:33.000",
    "date_modified": "2023-12-11T13:22:34.000",
    "request_status": "Pending",
    "responsible_agency": "Department of Sanitation",
    "final_address": "10727 Roger Dr",
    "address_councildis": "E",
    "status": "Assigned to Contractor",
    "contractor": "Waste Pro",
    "rowid": "1055039",
    "final_x": "3711545.81029",
    "final_y": "563059.454112",
    "longitude": "-89.97201425780051",
    "latitude": "30.041270655559796",
    "geocoded_column": {
      "latitude": "30.041270655559796",
      "longitude": "-89.97201425780051"
    }
  },
  {
    "service_request": "2023-1055038",
    "request_type": "Trash/Recycling",
    "request_reason": "Missed Trash Pick-Up",
    "date_created": "2023-12-11T13:22:11.000",
    "date_modified": "2023-12-11T17:52:09.000",
    "case_close_date": "2023-12-11T11:52:09.000",
    "request_status": "Closed",
    "responsible_agency": "Department of Sanitation",
    "final_address": "1529 Louisa St",
    "address_councildis": "D",
    "status": "Assigned to Contractor",
    "contractor": "IV Waste",
    "contractor_action": "Completed",
    "rowid": "1055038",
    "final_x": "3690023.25897",
    "final_y": "537581.67476",
    "longitude": "-90.0409411423153",
    "latitude": "29.97190163156744",
    "geocoded_column": {
      "latitude": "29.97190163156744",
      "longitude": "-90.0409411423153"
    }
  },
  {
    "service_request": "2023-1055037",
    "request_type": "Trash/Recycling",
    "request_reason": "Request a Large Item Pick Up",
    "date_created": "2023-12-11T13:20:10.000",
    "date_modified": "2023-12-11T13:20:39.000",
    "request_status": "Pending",
    "responsible_agency": "Department of Sanitation",
    "final_address": "4212 S Derbigny St",
    "address_councildis": "B",
    "status": "Assigned to Contractor",
    "contractor": "Richards Disposal",
    "rowid": "1055037",
    "final_x": "3670903.91406",
    "final_y": "526249.882174",
    "longitude": "-90.10170789961559",
    "latitude": "29.941322054689223",
    "geocoded_column": {
      "latitude": "29.941322054689223",
      "longitude": "-90.10170789961559"
    }
  },
  {
    "service_request": "2023-1055036",
    "request_type": "Trash/Recycling",
    "request_reason": "Request a Large Item Pick Up",
    "date_created": "2023-12-11T13:16:02.000",
    "date_modified": "2023-12-11T13:16:03.000",
    "request_status": "Pending",
    "responsible_agency": "Department of Sanitation",
    "final_address": "2430 Amelia St",
    "address_councildis": "B",
    "status": "Assigned to Contractor",
    "contractor": "Richards Disposal",
    "rowid": "1055036",
    "final_x": "3672351.50638",
    "final_y": "524156.366588",
    "longitude": "-90.0972088682849",
    "latitude": "29.935522704025395",
    "geocoded_column": {
      "latitude": "29.935522704025395",
      "longitude": "-90.0972088682849"
    }
  },
  {
    "service_request": "2023-1055035",
    "request_type": "Trash/Recycling",
    "request_reason": "Dead Animal Pick Up",
    "date_created": "2023-12-11T13:10:07.000",
    "date_modified": "2023-12-11T13:10:49.000",
    "request_status": "Pending",
    "responsible_agency": "Department of Sanitation",
    "final_address": "2335 Ursulines Ave",
    "address_councildis": "D",
    "status": "Assigned to Contractor",
    "contractor": "Richards Disposal",
    "rowid": "1055035",
    "final_x": "3678801.91675",
    "final_y": "537313.18964",
    "longitude": "-90.07638923250445",
    "latitude": "29.97150662938206",
    "geocoded_column": {
      "latitude": "29.97150662938206",
      "longitude": "-90.07638923250445"
    }
  },
  {
    "service_request": "2023-1055033",
    "request_type": "Trash/Recycling",
    "request_reason": "Request a Large Item Pick Up",
    "date_created": "2023-12-11T13:04:01.000",
    "date_modified": "2023-12-11T13:04:02.000",
    "request_status": "Pending",
    "responsible_agency": "Department of Sanitation",
    "final_address": "10820 Roger Dr",
    "address_councildis": "E",
    "status": "Assigned to Contractor",
    "contractor": "Waste Pro",
    "rowid": "1055033",
    "final_x": "3711760.58744",
    "final_y": "563105.955936",
    "longitude": "-89.97133374560251",
    "latitude": "30.04139149905458",
    "geocoded_column": {
      "latitude": "30.04139149905458",
      "longitude": "-89.97133374560251"
    }
  },
  {
    "service_request": "2023-1055034",
    "request_type": "Roads/Drainage",
    "request_reason": "Street Subsidence (Sinking)",
    "date_created": "2023-12-11T13:04:01.000",
    "date_modified": "2023-12-11T13:06:20.000",
    "request_status": "Pending",
    "responsible_agency": "Department of Public Works",
    "final_address": "2503 Broadway St",
    "address_councildis": "A",
    "status": "Pending",
    "rowid": "1055034",
    "final_x": "3666874.90426",
    "final_y": "530430.436162",
    "longitude": "-90.11428788099589",
    "latitude": "29.952935687617867",
    "geocoded_column": {
      "latitude": "29.952935687617867",
      "longitude": "-90.11428788099589"
    }
  },
  {
    "service_request": "2023-1055032",
    "request_type": "Graffiti Removal",
    "request_reason": "Graffiti Removal",
    "date_created": "2023-12-11T13:02:30.000",
    "date_modified": "2023-12-11T13:02:30.000",
    "request_status": "Pending",
    "responsible_agency": "Department of Code Enforcement",
    "final_address": "2700 BLK Tulane Ave",
    "address_councildis": "B",
    "status": "Pending",
    "rowid": "1055032",
    "final_x": "3674163.7015",
    "final_y": "533843.032495",
    "longitude": "-90.09115622530457",
    "latitude": "29.962103954079044",
    "geocoded_column": {
      "latitude": "29.962103954079044",
      "longitude": "-90.09115622530457"
    }
  },
  {
    "service_request": "2023-1055031",
    "request_type": "Trash/Recycling",
    "request_reason": "Request a Large Item Pick Up",
    "date_created": "2023-12-11T12:59:34.000",
    "date_modified": "2023-12-11T12:59:35.000",
    "request_status": "Pending",
    "responsible_agency": "Department of Sanitation",
    "final_address": "306 Filmore Ave",
    "address_councildis": "A",
    "status": "Assigned to Contractor",
    "contractor": "IV Waste",
    "rowid": "1055031",
    "final_x": "3667588.90797",
    "final_y": "552061.156438",
    "longitude": "-90.11130494757552",
    "latitude": "30.012391940502734",
    "geocoded_column": {
      "latitude": "30.012391940502734",
      "longitude": "-90.11130494757552"
    }
  },
  {
    "service_request": "2023-1055030",
    "request_type": "Trash/Recycling",
    "request_reason": "Replace Recycling Cart",
    "date_created": "2023-12-11T12:58:49.000",
    "date_modified": "2023-12-11T12:58:49.000",
    "request_status": "Pending",
    "responsible_agency": "Department of Sanitation",
    "final_address": "219 Olivier St",
    "address_councildis": "C",
    "status": "Pending",
    "rowid": "1055030",
    "final_x": "3687172.76073",
    "final_y": "531021.118082",
    "longitude": "-90.05017547012575",
    "latitude": "29.953950471161203",
    "geocoded_column": {
      "latitude": "29.953950471161203",
      "longitude": "-90.05017547012575"
    }
  },
  {
    "service_request": "2023-1055029",
    "request_type": "Traffic Signals/Signs/Striping/Streetlights",
    "request_reason": "Street Light Outage/Malfunction",
    "date_created": "2023-12-11T12:49:15.000",
    "date_modified": "2023-12-11T12:49:17.000",
    "request_status": "Pending",
    "responsible_agency": "Department of Public Works",
    "final_address": "7006 Read Ln",
    "address_councildis": "E",
    "status": "Assigned to Contractor",
    "contractor": "Legacy Professional Services",
    "rowid": "1055029",
    "final_x": "3710128.12369",
    "final_y": "562138.057183",
    "longitude": "-89.97652908949973",
    "latitude": "30.038783417201167",
    "geocoded_column": {
      "latitude": "30.038783417201167",
      "longitude": "-89.97652908949973"
    }
  },
  {
    "service_request": "2023-1055028",
    "request_type": "Trash/Recycling",
    "request_reason": "Illegal Dumping",
    "date_created": "2023-12-11T12:45:24.000",
    "date_modified": "2023-12-11T12:45:25.000",
    "request_status": "Pending",
    "responsible_agency": "Department of Sanitation",
    "final_address": "11031 Roger Dr Apt B",
    "address_councildis": "E",
    "status": "Pending",
    "rowid": "1055028",
    "final_x": "3712273.41797",
    "final_y": "563644.727905",
    "longitude": "-89.96969276981577",
    "latitude": "30.04285613432818",
    "geocoded_column": {
      "latitude": "30.04285613432818",
      "longitude": "-89.96969276981577"
    }
  },
  {
    "service_request": "2023-1055027",
    "request_type": "Trash/Recycling",
    "request_reason": "Repair Recycling Cart",
    "date_created": "2023-12-11T12:44:27.000",
    "date_modified": "2023-12-11T12:44:27.000",
    "request_status": "Pending",
    "responsible_agency": "Department of Sanitation",
    "final_address": "4419 Werner Dr",
    "address_councildis": "E",
    "status": "Pending",
    "rowid": "1055027",
    "final_x": "3705040.06097",
    "final_y": "553442.974103",
    "longitude": "-89.99293009670554",
    "latitude": "30.015039999335567",
    "geocoded_column": {
      "latitude": "30.015039999335567",
      "longitude": "-89.99293009670554"
    }
  },
  {
    "service_request": "2023-1055026",
    "request_type": "Trash/Recycling",
    "request_reason": "Request a Large Item Pick Up",
    "date_created": "2023-12-11T12:44:13.000",
    "date_modified": "2023-12-11T12:44:14.000",
    "request_status": "Pending",
    "responsible_agency": "Department of Sanitation",
    "final_address": "11030 Roger Dr",
    "address_councildis": "E",
    "status": "Assigned to Contractor",
    "contractor": "Waste Pro",
    "rowid": "1055026",
    "final_x": "3712354.63301",
    "final_y": "563548.12368",
    "longitude": "-89.96943973403509",
    "latitude": "30.04258785378137",
    "geocoded_column": {
      "latitude": "30.04258785378137",
      "longitude": "-89.96943973403509"
    }
  },
  {
    "service_request": "2023-1055025",
    "request_type": "Trash/Recycling",
    "request_reason": "Repair Trash Cart",
    "date_created": "2023-12-11T12:43:15.000",
    "date_modified": "2023-12-11T12:43:16.000",
    "request_status": "Pending",
    "responsible_agency": "Department of Sanitation",
    "final_address": "5938 Laurel St",
    "address_councildis": "A",
    "status": "Assigned to Contractor",
    "contractor": "Richards Disposal",
    "rowid": "1055025",
    "final_x": "3664685.8553",
    "final_y": "518102.754102",
    "longitude": "-90.12161159706895",
    "latitude": "29.919102338403178",
    "geocoded_column": {
      "latitude": "29.919102338403178",
      "longitude": "-90.12161159706895"
    }
  },
  {
    "service_request": "2023-1055024",
    "request_type": "Abandoned Vehicles",
    "request_reason": "Abandoned/Junk Vehicles",
    "date_created": "2023-12-11T12:41:39.000",
    "date_modified": "2023-12-11T12:47:37.000",
    "request_status": "Pending",
    "responsible_agency": "Department of Public Works",
    "final_address": "1400 BLK Saint Andrew St",
    "address_councildis": "B",
    "status": "Inspected",
    "rowid": "1055024",
    "final_x": "3678688.93655",
    "final_y": "523563.910993",
    "longitude": "-90.07722205073586",
    "latitude": "29.9337041358214",
    "geocoded_column": {
      "latitude": "29.9337041358214",
      "longitude": "-90.07722205073586"
    }
  },
  {
    "service_request": "2023-1055023",
    "request_type": "Traffic Signals/Signs/Striping/Streetlights",
    "request_reason": "Street Light Outage/Malfunction",
    "date_created": "2023-12-11T12:39:12.000",
    "date_modified": "2023-12-11T12:39:13.000",
    "request_status": "Pending",
    "responsible_agency": "Department of Public Works",
    "final_address": "11040 Willowbrae Dr",
    "address_councildis": "E",
    "status": "Assigned to Contractor",
    "contractor": "Legacy Professional Services",
    "rowid": "1055023",
    "final_x": "3711624.08363",
    "final_y": "564655.251937",
    "longitude": "-89.97170695841747",
    "latitude": "30.045655900485368",
    "geocoded_column": {
      "latitude": "30.045655900485368",
      "longitude": "-89.97170695841747"
    }
  },
  {
    "service_request": "2023-1055022",
    "request_type": "Abandoned Vehicles",
    "request_reason": "Abandoned/Junk Vehicles",
    "date_created": "2023-12-11T12:36:02.000",
    "date_modified": "2023-12-11T12:36:03.000",
    "request_status": "Pending",
    "responsible_agency": "Department of Public Works",
    "final_address": "2621 Cleveland Ave",
    "address_councildis": "B",
    "status": "Pending",
    "rowid": "1055022",
    "final_x": "3675451.5899",
    "final_y": "534589.078469",
    "longitude": "-90.08706363972269",
    "latitude": "29.96411687636315",
    "geocoded_column": {
      "latitude": "29.96411687636315",
      "longitude": "-90.08706363972269"
    }
  },
  {
    "service_request": "2023-1055021",
    "request_type": "Trash/Recycling",
    "request_reason": "Request a Large Item Pick Up",
    "date_created": "2023-12-11T12:34:01.000",
    "date_modified": "2023-12-11T12:34:02.000",
    "request_status": "Pending",
    "responsible_agency": "Department of Sanitation",
    "final_address": "11040 Willowbrae Dr",
    "address_councildis": "E",
    "status": "Assigned to Contractor",
    "contractor": "Waste Pro",
    "rowid": "1055021",
    "final_x": "3711624.08363",
    "final_y": "564655.251937",
    "longitude": "-89.97170695841747",
    "latitude": "30.045655900485368",
    "geocoded_column": {
      "latitude": "30.045655900485368",
      "longitude": "-89.97170695841747"
    }
  },
  {
    "service_request": "2023-1055020",
    "request_type": "Roads/Drainage",
    "request_reason": "Pothole",
    "date_created": "2023-12-11T12:33:17.000",
    "date_modified": "2023-12-11T12:33:17.000",
    "request_status": "Pending",
    "responsible_agency": "Department of Public Works",
    "final_address": "1625 Joseph St",
    "address_councildis": "A",
    "status": "Pending",
    "rowid": "1055020",
    "final_x": "3666927.67655",
    "final_y": "522129.349882",
    "longitude": "-90.11440008081586",
    "latitude": "29.930108828242663",
    "geocoded_column": {
      "latitude": "29.930108828242663",
      "longitude": "-90.11440008081586"
    }
  },
  {
    "service_request": "2023-1055019",
    "request_type": "Roads/Drainage",
    "request_reason": "Catch Basin - Broken/Damage",
    "date_created": "2023-12-11T12:31:35.000",
    "date_modified": "2023-12-11T12:31:35.000",
    "request_status": "Pending",
    "responsible_agency": "Department of Public Works",
    "final_address": "1625 Joseph St",
    "address_councildis": "A",
    "status": "Pending",
    "rowid": "1055019",
    "final_x": "3666927.67655",
    "final_y": "522129.349882",
    "longitude": "-90.11440008081586",
    "latitude": "29.930108828242663",
    "geocoded_column": {
      "latitude": "29.930108828242663",
      "longitude": "-90.11440008081586"
    }
  },
  {
    "service_request": "2023-1055018",
    "request_type": "Trash/Recycling",
    "request_reason": "Request a Large Item Pick Up",
    "date_created": "2023-12-11T12:31:34.000",
    "date_modified": "2023-12-11T12:31:34.000",
    "request_status": "Pending",
    "responsible_agency": "Department of Sanitation",
    "final_address": "6022 N Rampart St",
    "address_councildis": "E",
    "status": "Assigned to Contractor",
    "contractor": "Waste Pro",
    "rowid": "1055018",
    "final_x": "3699126.38672",
    "final_y": "532924.8553",
    "longitude": "-90.01236174122597",
    "latitude": "29.95881158681029",
    "geocoded_column": {
      "latitude": "29.95881158681029",
      "longitude": "-90.01236174122597"
    }
  },