[
  {
    "service_request": "2023-1024323",
    "request_type": "Trash/Recycling",
    "request_reason": "Order Recycling Cart",
    "date_created": "2023-08-08T01:50:44.000",
    "date_modified": "2023-08-08T01:50:44.000",
    "request_status": "Pending",
    "responsible_agency": "Department of Sanitation",
    "final_address": "7626 Plum St",
    "address_councildis": "A",
    "status": "Pending",
    "rowid": "1024323",
    "final_x": "3663408.92333",
    "final_y": "527489.261631",
    "longitude": "-90.12532987904314",
    "latitude": "29.944949340676065",
    "geocoded_column": {
      "latitude": "29.944949340676065",
      "longitude": "-90.12532987904314"
    }
  },
  {
    "service_request": "2023-1024321",
    "request_type": "Roads/Drainage",
    "request_reason": "Street Subsidence (Sinking)",
    "date_created": "2023-08-08T01:01:43.000",
    "date_modified": "2023-08-08T01:01:43.000",
    "request_status": "Pending",
    "responsible_agency": "Department of Public Works",
    "final_address": "4322 Fontainebleau Dr",
    "address_councildis": "A",
    "status": "Pending",
    "rowid": "1024321",
    "final_x": "3669266.16225",
    "final_y": "529417.978241",
    "longitude": "-90.10677154170361",
    "latitude": "29.950081590903878",
    "geocoded_column": {
      "latitude": "29.950081590903878",
      "longitude": "-90.10677154170361"
    }
  },
  {
    "service_request": "2023-1024320",
    "request_type": "Property Maintenance",
    "request_reason": "Property Maintenance",
    "date_created": "2023-08-08T00:39:21.000",
    "date_modified": "2023-08-08T00:39:21.000",
    "request_status": "Pending",
    "responsible_agency": "Department of Code Enforcement",
    "final_address": "1502 St Bernard Ave",
    "address_councildis": "C",
    "status": "Pending",
    "rowid": "1024320",
    "final_x": "3682339.62735",
    "final_y": "537425.071048",
    "longitude": "-90.06521272402449",
    "latitude": "29.971707083391763",
    "geocoded_column": {
      "latitude": "29.971707083391763",
      "longitude": "-90.06521272402449"
    }
  },
  {
    "service_request": "2023-1024319",
    "request_type": "Trash/Recycling",
    "request_reason": "Request a Large Item Pick Up",
    "date_created": "2023-08-08T00:21:01.000",
    "date_modified": "2023-08-08T00:21:02.000",
    "request_status": "Pending",
    "responsible_agency": "Department of Sanitation",
    "final_address": "521 S Murat St",
    "address_councildis": "A",
    "status": "Assigned to Contractor",
    "contractor": "Richards Disposal",
    "rowid": "1024319",
    "final_x": "3668582.17569",
    "final_y": "537979.211465",
    "longitude": "-90.10864229418348",
    "latitude": "29.973642263703177",
    "geocoded_column": {
      "latitude": "29.973642263703177",
      "longitude": "-90.10864229418348"
    }
  },
  {
    "service_request": "2023-1024318",
    "request_type": "Roads/Drainage",
    "request_reason": "Pothole",
    "date_created": "2023-08-07T23:39:43.000",
    "date_modified": "2023-08-07T23:39:43.000",
    "request_status": "Pending",
    "responsible_agency": "Department of Public Works",
    "final_address": "1315 Milan St",
    "address_councildis": "B",
    "status": "Pending",
    "rowid": "1024318",
    "final_x": "3671703.18324",
    "final_y": "520260.436728",
    "longitude": "-90.09938808639757",
    "latitude": "29.924829365152263",
    "geocoded_column": {
      "latitude": "29.924829365152263",
      "longitude": "-90.09938808639757"
    }
  },
  {
    "service_request": "2023-1024317",
    "request_type": "Roads/Drainage",
    "request_reason": "Pothole",
    "date_created": "2023-08-07T23:27:00.000",
    "date_modified": "2023-08-07T23:27:00.000",
    "request_status": "Pending",
    "responsible_agency": "Department of Public Works",
    "final_address": "1420 General Pershing St",
    "address_councildis": "B",
    "status": "Pending",
    "rowid": "1024317",
    "final_x": "3671242.41179",
    "final_y": "520513.52268",
    "longitude": "-90.10083399992165",
    "latitude": "29.925538906557254",
    "geocoded_column": {
      "latitude": "29.925538906557254",
      "longitude": "-90.10083399992165"
    }
  },
  {
    "service_request": "2023-1024315",
    "request_type": "Trash/Recycling",
    "request_reason": "Request a Large Item Pick Up",
    "date_created": "2023-08-07T22:18:56.000",
    "date_modified": "2023-08-07T22:18:56.000",
    "request_status": "Pending",
    "responsible_agency": "Department of Sanitation",
    "final_address": "7118 Panola St",
    "address_councildis": "A",
    "status": "Assigned to Contractor",
    "contractor": "Richards Disposal",
    "rowid": "1024315",
    "final_x": "3666049.73415",
    "final_y": "529033.494592",
    "longitude": "-90.1169402396785",
    "latitude": "29.94911866510208",
    "geocoded_column": {
      "latitude": "29.94911866510208",
      "longitude": "-90.1169402396785"
    }
  },
  {
    "service_request": "2023-1024314",
    "request_type": "Health Related Request",
    "request_reason": "Noise Ordinance Complaint",
    "date_created": "2023-08-07T21:50:14.000",
    "date_modified": "2023-08-07T21:50:14.000",
    "request_status": "Pending",
    "responsible_agency": "Health Department",
    "final_address": "3116 Washington Ave",
    "address_councildis": "B",
    "status": "Pending",
    "rowid": "1024314",
    "final_x": "3672795.23329",
    "final_y": "527121.305151",
    "longitude": "-90.09570691479465",
    "latitude": "29.943662148981783",
    "geocoded_column": {
      "latitude": "29.943662148981783",
      "longitude": "-90.09570691479465"
    }
  },
  {
    "service_request": "2023-1024313",
    "request_type": "Trash/Recycling",
    "request_reason": "Request a Large Item Pick Up",
    "date_created": "2023-08-07T21:31:33.000",
    "date_modified": "2023-08-07T21:31:33.000",
    "request_status": "Pending",
    "responsible_agency": "Department of Sanitation",
    "final_address": "7021 Wayside Dr",
    "address_councildis": "E",
    "status": "Assigned to Contractor",
    "contractor": "Waste Pro",
    "rowid": "1024313",
    "final_x": "3717762.22629",
    "final_y": "567773.500324",
    "longitude": "-89.95218883564827",
    "latitude": "30.05402781490846",
    "geocoded_column": {
      "latitude": "30.05402781490846",
      "longitude": "-89.95218883564827"
    }
  },
  {
    "service_request": "2023-1024312",
    "request_type": "Trash/Recycling",
    "request_reason": "Request a Large Item Pick Up",
    "date_created": "2023-08-07T21:11:17.000",
    "date_modified": "2023-08-07T21:11:17.000",
    "request_status": "Pending",
    "responsible_agency": "Department of Sanitation",
    "status": "Assigned to Contractor",
    "rowid": "1024312",
    "longitude": "0.0",
    "latitude": "0.0",
    "geocoded_column": {
      "latitude": "0.0",
      "longitude": "0.0"
    }
  },
  {
    "service_request": "2023-1024310",
    "request_type": "Roads/Drainage",
    "request_reason": "Street Subsidence (Sinking)",
    "date_created": "2023-08-07T20:49:50.000",
    "date_modified": "2023-08-07T20:49:50.000",
    "request_status": "Pending",
    "responsible_agency": "Department of Public Works",
    "final_address": "400 BLK Thayer St",
    "address_councildis": "C",
    "status": "Pending",
    "rowid": "1024310",
    "final_x": "3689531.18324",
    "final_y": "530048.637197",
    "longitude": "-90.04276314544005",
    "latitude": "29.95120365318",
    "geocoded_column": {
      "latitude": "29.95120365318",
      "longitude": "-90.04276314544005"
    }
  },
  {
    "service_request": "2023-1024309",
    "request_type": "Trash/Recycling",
    "request_reason": "Start Trash Service",
    "date_created": "2023-08-07T20:46:40.000",
    "date_modified": "2023-08-07T20:46:40.000",
    "request_status": "Pending",
    "responsible_agency": "Department of Sanitation",
    "final_address": "3537 Republic St",
    "address_councildis": "D",
    "status": "Assigned to Contractor",
    "contractor": "IV Waste",
    "rowid": "1024309",
    "final_x": "3680505.59976",
    "final_y": "545487.173648",
    "longitude": "-90.07072430093648",
    "latitude": "29.993930734999136",
    "geocoded_column": {
      "latitude": "29.993930734999136",
      "longitude": "-90.07072430093648"
    }
  },
  {
    "service_request": "2023-1024308",
    "request_type": "Traffic Signals/Signs/Striping/Streetlights",
    "request_reason": "Street Name Sign Damaged or Missing",
    "date_created": "2023-08-07T20:39:20.000",
    "date_modified": "2023-08-07T20:39:20.000",
    "request_status": "Pending",
    "responsible_agency": "Department of Public Works",
    "final_address": "4938 S Saratoga St",
    "address_councildis": "B",
    "status": "Pending",
    "rowid": "1024308",
    "final_x": "3668897.92014",
    "final_y": "522443.823354",
    "longitude": "-90.108169709465",
    "latitude": "29.930915751691288",
    "geocoded_column": {
      "latitude": "29.930915751691288",
      "longitude": "-90.108169709465"
    }
  },
  {
    "service_request": "2023-1024307",
    "request_type": "Traffic Signals/Signs/Striping/Streetlights",
    "request_reason": "Street Light Outage/Malfunction",
    "date_created": "2023-08-07T20:37:16.000",
    "date_modified": "2023-08-07T20:37:17.000",
    "request_status": "Pending",
    "responsible_agency": "Department of Public Works",
    "final_address": "4938 S Saratoga St",
    "address_councildis": "B",
    "status": "Assigned to Contractor",
    "contractor": "Legacy Professional Services",
    "rowid": "1024307",
    "final_x": "3668897.92014",
    "final_y": "522443.823354",
    "longitude": "-90.108169709465",
    "latitude": "29.930915751691288",
    "geocoded_column": {
      "latitude": "29.930915751691288",
      "longitude": "-90.108169709465"
    }
  },
  {
    "service_request": "2023-1024305",
    "request_type": "Trash/Recycling",
    "request_reason": "MIssed Recycling Pick-Up",
    "date_created": "2023-08-07T20:17:35.000",
    "date_modified": "2023-08-07T20:17:35.000",
    "request_status": "Pending",
    "responsible_agency": "Department of Sanitation",
    "final_address": "811 Behrman Ave",
    "address_councildis": "C",
    "status": "Assigned to Contractor",
    "contractor": "Richards Disposal",
    "rowid": "1024305",
    "final_x": "3691411.00809",
    "final_y": "528461.308992",
    "longitude": "-90.03688432059984",
    "latitude": "29.946780696786504",
    "geocoded_column": {
      "latitude": "29.946780696786504",
      "longitude": "-90.03688432059984"
    }
  },
  {
    "service_request": "2023-1024304",
    "request_type": "Traffic Signals/Signs/Striping/Streetlights",
    "request_reason": "Street Name Sign Damaged or Missing",
    "date_created": "2023-08-07T20:13:52.000",
    "date_modified": "2023-08-07T20:13:52.000",
    "request_status": "Pending",
    "responsible_agency": "Department of Public Works",
    "final_address": "4700 BLK MacArthur Blvd",
    "address_councildis": "C",
    "status": "Pending",
    "rowid": "1024304",
    "final_x": "3701129.38642",
    "final_y": "520175.955827",
    "longitude": "-90.00650298745465",
    "latitude": "29.923692937148456",
    "geocoded_column": {
      "latitude": "29.923692937148456",
      "longitude": "-90.00650298745465"
    }
  },
  {
    "service_request": "2023-1024303",
    "request_type": "Trash/Recycling",
    "request_reason": "Replace Trash Cart",
    "date_created": "2023-08-07T20:08:59.000",
    "date_modified": "2023-08-07T20:09:00.000",
    "request_status": "Pending",
    "responsible_agency": "Department of Sanitation",
    "final_address": "413 River Oaks Dr",
    "address_councildis": "C",
    "status": "Assigned to Contractor",
    "contractor": "Richards Disposal",
    "rowid": "1024303",
    "final_x": "3701503.69213",
    "final_y": "522034.36729",
    "longitude": "-90.00525345639703",
    "latitude": "29.928791003663655",
    "geocoded_column": {
      "latitude": "29.928791003663655",
      "longitude": "-90.00525345639703"
    }
  },
  {
    "service_request": "2023-1024302",
    "request_type": "Traffic Signals/Signs/Striping/Streetlights",
    "request_reason": "Traffic Sign Missing/Damaged",
    "date_created": "2023-08-07T20:08:29.000",
    "date_modified": "2023-08-07T20:08:29.000",
    "request_status": "Pending",
    "responsible_agency": "Department of Public Works",
    "final_address": "3541 Indiana St",
    "address_councildis": "C",
    "status": "Pending",
    "rowid": "1024302",
    "final_x": "3693457.32329",
    "final_y": "520207.088696",
    "longitude": "-90.03071965911933",
    "latitude": "29.924020590439394",
    "geocoded_column": {
      "latitude": "29.924020590439394",
      "longitude": "-90.03071965911933"
    }
  },
  {
    "service_request": "2023-1024301",
    "request_type": "Trash/Recycling",
    "request_reason": "Replace Trash Cart",
    "date_created": "2023-08-07T20:01:10.000",
    "date_modified": "2023-08-07T20:01:11.000",
    "request_status": "Pending",
    "responsible_agency": "Department of Sanitation",
    "final_address": "527 Joseph St",
    "address_councildis": "A",
    "status": "Assigned to Contractor",
    "contractor": "Richards Disposal",
    "rowid": "1024301",
    "final_x": "3665983.66861",
    "final_y": "518088.558838",
    "longitude": "-90.11751552322508",
    "latitude": "29.919025504580265",
    "geocoded_column": {
      "latitude": "29.919025504580265",
      "longitude": "-90.11751552322508"
    }
  },
  {
    "service_request": "2023-1024300",
    "request_type": "Trash/Recycling",
    "request_reason": "Illegal Dumping",
    "date_created": "2023-08-07T20:00:22.000",
    "date_modified": "2023-08-07T20:00:22.000",
    "request_status": "Pending",
    "responsible_agency": "Department of Sanitation",
    "final_address": "SISTER ST & ST CLAUDE AVE",
    "address_councildis": "E",
    "status": "Pending",
    "rowid": "1024300",
    "final_x": "3694658.9",
    "final_y": "534585.98",
    "longitude": "-90.02640902894048",
    "latitude": "29.96351995360696",
    "geocoded_column": {
      "latitude": "29.96351995360696",
      "longitude": "-90.02640902894048"
    }
  },
  {
    "service_request": "2023-1024299",
    "request_type": "Trash/Recycling",
    "request_reason": "Request a Large Item Pick Up",
    "date_created": "2023-08-07T19:52:21.000",
    "date_modified": "2023-08-07T19:52:21.000",
    "request_status": "Pending",
    "responsible_agency": "Department of Sanitation",
    "final_address": "4959 Rhodes Drive",
    "status": "Assigned to Contractor",
    "rowid": "1024299",
    "longitude": "0.0",
    "latitude": "0.0",
    "geocoded_column": {
      "latitude": "0.0",
      "longitude": "0.0"
    }
  },
  {
    "service_request": "2023-1024298",
    "request_type": "Trash/Recycling",
    "request_reason": "Repair Trash Cart",
    "date_created": "2023-08-07T19:46:41.000",
    "date_modified": "2023-08-07T19:46:41.000",
    "request_status": "Pending",
    "responsible_agency": "Department of Sanitation",
    "final_address": "527 Joseph St",
    "address_councildis": "A",
    "status": "Assigned to Contractor",
    "contractor": "Richards Disposal",
    "rowid": "1024298",
    "final_x": "3665983.66861",
    "final_y": "518088.558838",
    "longitude": "-90.11751552322508",
    "latitude": "29.919025504580265",
    "geocoded_column": {
      "latitude": "29.919025504580265",
      "longitude": "-90.11751552322508"
    }
  },
  {
    "service_request": "2023-1024297",
    "request_type": "Traffic Signals/Signs/Striping/Streetlights",
    "request_reason": "Street Light Outage/Malfunction",
    "date_created": "2023-08-07T19:46:29.000",
    "date_modified": "2023-08-07T19:46:29.000",
    "request_status": "Pending",
    "responsible_agency": "Department of Public Works",
    "final_address": "3400 BLK Saint Charles Ave",
    "address_councildis": "B",
    "status": "Assigned to Contractor",
    "contractor": "Legacy Professional Services",
    "rowid": "1024297",
    "final_x": "3674003.09815",
    "final_y": "521478.561817",
    "longitude": "-90.09208634907417",
    "latitude": "29.928110513650335",
    "geocoded_column": {
      "latitude": "29.928110513650335",
      "longitude": "-90.09208634907417"
    }
  },
  {
    "service_request": "2023-1024296",
    "request_type": "Trash/Recycling",
    "request_reason": "Request a Large Item Pick Up",
    "date_created": "2023-08-07T19:31:13.000",
    "date_modified": "2023-08-07T19:31:14.000",
    "request_status": "Pending",
    "responsible_agency": "Department of Sanitation",
    "final_address": "4959 Rhodes Dr",
    "address_councildis": "E",
    "status": "Assigned to Contractor",
    "contractor": "Waste Pro",
    "rowid": "1024296",
    "final_x": "3702463.37233",
    "final_y": "555553.334041",
    "longitude": "-90.00099362029654",
    "latitude": "30.02092530943456",
    "geocoded_column": {
      "latitude": "30.02092530943456",
      "longitude": "-90.00099362029654"
    }
  },
  {
    "service_request": "2023-1024295",
    "request_type": "Roads/Drainage",
    "request_reason": "Pothole",
    "date_created": "2023-08-07T19:26:53.000",
    "date_modified": "2023-08-07T19:26:53.000",
    "request_status": "Pending",
    "responsible_agency": "Department of Public Works",
    "final_address": "1300 Milan St",
    "address_councildis": "B",
    "status": "Pending",
    "rowid": "1024295",
    "final_x": "3671629.15374",
    "final_y": "520175.7502",
    "longitude": "-90.0996246518961",
    "latitude": "29.924598696141217",
    "geocoded_column": {
      "latitude": "29.924598696141217",
      "longitude": "-90.0996246518961"
    }
  },
  {
    "service_request": "2023-1024294",
    "request_type": "Trash/Recycling",
    "request_reason": "MIssed Recycling Pick-Up",
    "date_created": "2023-08-07T19:21:48.000",
    "date_modified": "2023-08-07T19:21:49.000",
    "request_status": "Pending",
    "responsible_agency": "Department of Sanitation",
    "final_address": "13939 Tu Do Dr",
    "address_councildis": "E",
    "status": "Assigned to Contractor",
    "contractor": "Waste Pro",
    "rowid": "1024294",
    "final_x": "3727890.50368",
    "final_y": "563068.849312",
    "longitude": "-89.92035964447491",
    "latitude": "30.040752428433002",
    "geocoded_column": {
      "latitude": "30.040752428433002",
      "longitude": "-89.92035964447491"
    }
  },
  {
    "service_request": "2023-1024293",
    "request_type": "Trash/Recycling",
    "request_reason": "Request a Large Item Pick Up",
    "date_created": "2023-08-07T19:19:00.000",
    "date_modified": "2023-08-07T19:19:01.000",
    "request_status": "Pending",
    "responsible_agency": "Department of Sanitation",
    "final_address": "5834 Catina St",
    "address_councildis": "A",
    "status": "Assigned to Contractor",
    "contractor": "IV Waste",
    "rowid": "1024293",
    "final_x": "3666683.81652",
    "final_y": "546649.185809",
    "longitude": "-90.11434644505248",
    "latitude": "29.997537409173344",
    "geocoded_column": {
      "latitude": "29.997537409173344",
      "longitude": "-90.11434644505248"
    }
  },
  {
    "service_request": "2023-1024292",
    "request_type": "Traffic Signals/Signs/Striping/Streetlights",
    "request_reason": "Request for Stop Sign",
    "date_created": "2023-08-07T19:10:28.000",
    "date_modified": "2023-08-07T19:10:28.000",
    "request_status": "Pending",
    "responsible_agency": "Department of Public Works",
    "final_address": "8950 Birch St",
    "address_councildis": "A",
    "status": "Pending",
    "rowid": "1024292",
    "final_x": "3660508.58547",
    "final_y": "531545.748355",
    "longitude": "-90.13435316872264",
    "latitude": "29.956187138199383",
    "geocoded_column": {
      "latitude": "29.956187138199383",
      "longitude": "-90.13435316872264"
    }
  },
  {
    "service_request": "2023-1024291",
    "request_type": "Trash/Recycling",
    "request_reason": "Replace Recycling Cart",
    "date_created": "2023-08-07T19:01:50.000",
    "date_modified": "2023-08-07T19:01:50.000",
    "request_status": "Pending",
    "responsible_agency": "Department of Sanitation",
    "final_address": "319 Eliza St",
    "address_councildis": "C",
    "status": "Pending",
    "rowid": "1024291",
    "final_x": "3686493.6831",
    "final_y": "529501.974849",
    "longitude": "-90.05237333958488",
    "latitude": "29.949794239230492",
    "geocoded_column": {
      "latitude": "29.949794239230492",
      "longitude": "-90.05237333958488"
    }
  },
  {
    "service_request": "2023-1024290",
    "request_type": "Trash/Recycling",
    "request_reason": "Missed Trash Pick-Up",
    "date_created": "2023-08-07T19:01:42.000",
    "date_modified": "2023-08-07T19:01:43.000",
    "request_status": "Pending",
    "responsible_agency": "Department of Sanitation",
    "final_address": "13601 Dwyer Blvd",
    "address_councildis": "E",
    "status": "Assigned to Contractor",
    "contractor": "Waste Pro",
    "rowid": "1024290",
    "final_x": "3726349.8231",
    "final_y": "562251.245919",
    "longitude": "-89.92526039733087",
    "latitude": "30.038556506516137",
    "geocoded_column": {
      "latitude": "30.038556506516137",
      "longitude": "-89.92526039733087"
    }
  },
  {
    "service_request": "2023-1024289",
    "request_type": "Roads/Drainage",
    "request_reason": "Damaged Sidewalk",
    "date_created": "2023-08-07T18:52:45.000",
    "date_modified": "2023-08-07T18:52:45.000",
    "request_status": "Pending",
    "responsible_agency": "Department of Public Works",
    "final_address": "4140 Washington Ave Ste A",
    "address_councildis": "B",
    "status": "Pending",
    "rowid": "1024289",
    "final_x": "3670872.02171",
    "final_y": "530143.139841",
    "longitude": "-90.10167646664256",
    "latitude": "29.95202818286692",
    "geocoded_column": {
      "latitude": "29.95202818286692",
      "longitude": "-90.10167646664256"
    }
  },
  {
    "service_request": "2023-1024288",
    "request_type": "Roads/Drainage",
    "request_reason": "Damaged Sidewalk",
    "date_created": "2023-08-07T18:50:28.000",
    "date_modified": "2023-08-07T18:50:28.000",
    "request_status": "Pending",
    "responsible_agency": "Department of Public Works",
    "final_address": "4140 Washington Ave Ste A",
    "address_councildis": "B",
    "status": "Pending",
    "rowid": "1024288",
    "final_x": "3670872.02171",
    "final_y": "530143.139841",
    "longitude": "-90.10167646664256",
    "latitude": "29.95202818286692",
    "geocoded_column": {
      "latitude": "29.95202818286692",
      "longitude": "-90.10167646664256"
    }
  },
  {
    "service_request": "2023-1024287",
    "request_type": "Traffic Signals/Signs/Striping/Streetlights",
    "request_reason": "Street Light Outage/Malfunction",
    "date_created": "2023-08-07T18:50:20.000",
    "date_modified": "2023-08-07T18:50:21.000",
    "request_status": "Pending",
    "responsible_agency": "Department of Public Works",
    "final_address": "700 General Taylor St",
    "address_councildis": "B",
    "status": "Assigned to Contractor",
    "contractor": "Legacy Professional Services",
    "rowid": "1024287",
    "final_x": "3673223.93006",
    "final_y": "518299.157046",
    "longitude": "-90.0946545093895",
    "latitude": "29.919391354993227",
    "geocoded_column": {
      "latitude": "29.919391354993227",
      "longitude": "-90.0946545093895"
    }
  },
  {
    "service_request": "2023-1024286",
    "request_type": "Roads/Drainage",
    "request_reason": "Street Subsidence (Sinking)",
    "date_created": "2023-08-07T18:43:52.000",
    "date_modified": "2023-08-07T18:43:52.000",
    "request_status": "Pending",
    "responsible_agency": "Department of Public Works",
    "final_address": "5500 BLK Fontainebleau Dr",
    "address_councildis": "A",
    "status": "Pending",
    "rowid": "1024286",
    "final_x": "3668701.92404",
    "final_y": "529715.540422",
    "longitude": "-90.10854306892163",
    "latitude": "29.950916385285858",
    "geocoded_column": {
      "latitude": "29.950916385285858",
      "longitude": "-90.10854306892163"
    }
  },
  {
    "service_request": "2023-1024285",
    "request_type": "Property Maintenance",
    "request_reason": "Property Maintenance",
    "date_created": "2023-08-07T18:38:25.000",
    "date_modified": "2023-08-07T18:38:25.000",
    "request_status": "Pending",
    "responsible_agency": "Department of Code Enforcement",
    "final_address": "5127 Arts St",
    "address_councildis": "D",
    "status": "Pending",
    "rowid": "1024285",
    "final_x": "3685866.0262",
    "final_y": "551802.718102",
    "longitude": "-90.05356870177522",
    "latitude": "30.01113269585791",
    "geocoded_column": {
      "latitude": "30.01113269585791",
      "longitude": "-90.05356870177522"
    }
  },
  {
    "service_request": "2023-1024284",
    "request_type": "Parks & Parkways",
    "request_reason": "Request Tree Service (Right of Way/Public Property)",
    "date_created": "2023-08-07T18:25:30.000",
    "date_modified": "2023-08-07T18:25:30.000",
    "request_status": "Pending",
    "responsible_agency": "Department of Parks & Parkway",
    "final_address": "FRANKLIN AVE & MYRTLE ST",
    "address_councildis": "D",
    "status": "Pending",
    "rowid": "1024284",
    "final_x": "3687130.1",
    "final_y": "546059.18",
    "longitude": "-90.04977826544432",
    "latitude": "29.99530117099799",
    "geocoded_column": {
      "latitude": "29.99530117099799",
      "longitude": "-90.04977826544432"
    }
  },
  {
    "service_request": "2023-1024283",
    "request_type": "Trash/Recycling",
    "request_reason": "Missed Trash Pick-Up",
    "date_created": "2023-08-07T18:13:19.000",
    "date_modified": "2023-08-07T18:13:20.000",
    "request_status": "Pending",
    "responsible_agency": "Department of Sanitation",
    "final_address": "13519 Dwyer Blvd",
    "address_councildis": "E",
    "status": "Assigned to Contractor",
    "contractor": "Waste Pro",
    "rowid": "1024283",
    "final_x": "3726010.95776",
    "final_y": "562128.166687",
    "longitude": "-89.92633606342557",
    "latitude": "30.038229534975272",
    "geocoded_column": {
      "latitude": "30.038229534975272",
      "longitude": "-89.92633606342557"
    }
  },
  {
    "service_request": "2023-1024282",
    "request_type": "Roads/Drainage",
    "request_reason": "Debris in Roadway",
    "date_created": "2023-08-07T18:12:35.000",
    "date_modified": "2023-08-07T18:12:35.000",
    "request_status": "Pending",
    "responsible_agency": "Department of Public Works",
    "final_address": "LAKE FOREST BLVD & PARC BRITTANY BLVD",
    "address_councildis": "E",
    "status": "Pending",
    "rowid": "1024282",
    "final_x": "3703013.1",
    "final_y": "556785.28",
    "longitude": "-89.99921133030972",
    "latitude": "30.024295099116646",
    "geocoded_column": {
      "latitude": "30.024295099116646",
      "longitude": "-89.99921133030972"
    }
  },
  {
    "service_request": "2023-1024281",
    "request_type": "Roads/Drainage",
    "request_reason": "Pothole",
    "date_created": "2023-08-07T18:12:26.000",
    "date_modified": "2023-08-07T18:12:26.000",
    "request_status": "Pending",
    "responsible_agency": "Department of Public Works",
    "final_address": "1027 Austerlitz St",
    "address_councildis": "B",
    "status": "Pending",
    "rowid": "1024281",
    "final_x": "3672843.04724",
    "final_y": "519596.245624",
    "longitude": "-90.09581254903978",
    "latitude": "29.922969250568517",
    "geocoded_column": {
      "latitude": "29.922969250568517",
      "longitude": "-90.09581254903978"
    }
  },
  {
    "service_request": "2023-1024280",
    "request_type": "Trash/Recycling",
    "request_reason": "Missed Trash Pick-Up",
    "date_created": "2023-08-07T18:12:03.000",
    "date_modified": "2023-08-07T18:12:03.000",
    "request_status": "Pending",
    "responsible_agency": "Department of Sanitation",
    "final_address": "13551 Dwyer Blvd",
    "address_councildis": "E",
    "status": "Assigned to Contractor",
    "contractor": "Waste Pro",
    "rowid": "1024280",
    "final_x": "3726236.7984",
    "final_y": "562210.228575",
    "longitude": "-89.92561917303681",
    "latitude": "30.038447544260848",
    "geocoded_column": {
      "latitude": "30.038447544260848",
      "longitude": "-89.92561917303681"
    }
  },
  {
    "service_request": "2023-1024279",
    "request_type": "Property Maintenance",
    "request_reason": "Property Maintenance",
    "date_created": "2023-08-07T18:11:41.000",
    "date_modified": "2023-08-07T18:11:41.000",
    "request_status": "Pending",
    "responsible_agency": "Department of Code Enforcement",
    "final_address": "1726 Feliciana St",
    "address_councildis": "D",
    "status": "Pending",
    "rowid": "1024279",
    "final_x": "3689313.78339",
    "final_y": "538536.687561",
    "longitude": "-90.04314781187668",
    "latitude": "29.974549564129543",
    "geocoded_column": {
      "latitude": "29.974549564129543",
      "longitude": "-90.04314781187668"
    }
  },
  {
    "service_request": "2023-1024278",
    "request_type": "Trash/Recycling",
    "request_reason": "Request a Large Item Pick Up",
    "date_created": "2023-08-07T18:07:58.000",
    "date_modified": "2023-08-07T18:07:59.000",
    "request_status": "Pending",
    "responsible_agency": "Department of Sanitation",
    "final_address": "7569 Avalon Way",
    "address_councildis": "E",
    "status": "Assigned to Contractor",
    "contractor": "Waste Pro",
    "rowid": "1024278",
    "final_x": "3709173.9155",
    "final_y": "564402.016289",
    "longitude": "-89.97946008676786",
    "latitude": "30.04503943378443",
    "geocoded_column": {
      "latitude": "30.04503943378443",
      "longitude": "-89.97946008676786"
    }
  },
  {
    "service_request": "2023-1024277",
    "request_type": "Trash/Recycling",
    "request_reason": "Missed Trash Pick-Up",
    "date_created": "2023-08-07T18:05:52.000",
    "date_modified": "2023-08-07T18:05:52.000",
    "request_status": "Pending",
    "responsible_agency": "Department of Sanitation",
    "final_address": "3500 Gibson St",
    "address_councildis": "D",
    "status": "Assigned to Contractor",
    "contractor": "IV Waste",
    "rowid": "1024277",
    "final_x": "3678893.67266",
    "final_y": "545107.370319",
    "longitude": "-90.07582931443193",
    "latitude": "29.992935150121717",
    "geocoded_column": {
      "latitude": "29.992935150121717",
      "longitude": "-90.07582931443193"
    }
  },
  {
    "service_request": "2023-1024276",
    "request_type": "Trash/Recycling",
    "request_reason": "Replace Trash Cart",
    "date_created": "2023-08-07T18:04:02.000",
    "date_modified": "2023-08-07T18:04:02.000",
    "request_status": "Pending",
    "responsible_agency": "Department of Sanitation",
    "final_address": "234 Moqueur Ln",
    "address_councildis": "A",
    "status": "Assigned to Contractor",
    "contractor": "Richards Disposal",
    "rowid": "1024276",
    "final_x": "3661506.74125",
    "final_y": "521278.193465",
    "longitude": "-90.1315413604505",
    "latitude": "29.92792586792205",
    "geocoded_column": {
      "latitude": "29.92792586792205",
      "longitude": "-90.1315413604505"
    }
  },
  {
    "service_request": "2023-1024275",
    "request_type": "Roads/Drainage",
    "request_reason": "Street Subsidence (Sinking)",
    "date_created": "2023-08-07T18:03:09.000",
    "date_modified": "2023-08-07T18:03:09.000",
    "request_status": "Pending",
    "responsible_agency": "Department of Public Works",
    "final_address": "2844 Annunciation St",
    "address_councildis": "B",
    "status": "Pending",
    "rowid": "1024275",
    "final_x": "3677373.5419",
    "final_y": "519660.974712",
    "longitude": "-90.08150929928735",
    "latitude": "29.923011915964793",
    "geocoded_column": {
      "latitude": "29.923011915964793",
      "longitude": "-90.08150929928735"
    }
  },
  {
    "service_request": "2023-1024274",
    "request_type": "Trash/Recycling",
    "request_reason": "Illegal Dumping",
    "date_created": "2023-08-07T18:02:49.000",
    "date_modified": "2023-08-07T18:02:49.000",
    "request_status": "Pending",
    "responsible_agency": "Department of Sanitation",
    "final_address": "4400 Woodland Dr",
    "address_councildis": "C",
    "status": "Pending",
    "rowid": "1024274",
    "final_x": "3705720.00503",
    "final_y": "514122.752114",
    "longitude": "-89.99223584201249",
    "latitude": "29.906901753606423",
    "geocoded_column": {
      "latitude": "29.906901753606423",
      "longitude": "-89.99223584201249"
    }
  },
  {
    "service_request": "2023-1024273",
    "request_type": "Roads/Drainage",
    "request_reason": "Street Flooding / Drainage",
    "date_created": "2023-08-07T18:01:55.000",
    "date_modified": "2023-08-07T18:01:55.000",
    "request_status": "Pending",
    "responsible_agency": "Department of Public Works",
    "final_address": "3602 Camp St",
    "address_councildis": "B",
    "status": "Pending",
    "rowid": "1024273",
    "final_x": "3674006.78184",
    "final_y": "519580.313464",
    "longitude": "-90.09213963055338",
    "latitude": "29.922890831731827",
    "geocoded_column": {
      "latitude": "29.922890831731827",
      "longitude": "-90.09213963055338"
    }
  },
  {
    "service_request": "2023-1024272",
    "request_type": "Health Related Request",
    "request_reason": "Noise Ordinance Complaint",
    "date_created": "2023-08-07T17:43:29.000",
    "date_modified": "2023-08-07T17:43:29.000",
    "request_status": "Pending",
    "responsible_agency": "Health Department",
    "final_address": "1355 St Bernard Ave",
    "address_councildis": "C",
    "status": "Pending",
    "rowid": "1024272",
    "final_x": "3682740.64648",
    "final_y": "536936.85716",
    "longitude": "-90.06396332640323",
    "latitude": "29.970352454742336",
    "geocoded_column": {
      "latitude": "29.970352454742336",
      "longitude": "-90.06396332640323"
    }
  },
  {
    "service_request": "2023-1024271",
    "request_type": "Trash/Recycling",
    "request_reason": "Request a Large Item Pick Up",
    "date_created": "2023-08-07T17:39:03.000",
    "date_modified": "2023-08-07T17:39:04.000",
    "request_status": "Pending",
    "responsible_agency": "Department of Sanitation",
    "final_address": "710 Pauline St",
    "address_councildis": "C",
    "status": "Assigned to Contractor",
    "contractor": "IV Waste",
    "rowid": "1024271",
    "final_x": "3690826.67977",
    "final_y": "534068.464261",
    "longitude": "-90.03852919755374",
    "latitude": "29.962216596267215",
    "geocoded_column": {
      "latitude": "29.962216596267215",
      "longitude": "-90.03852919755374"
    }
  },
  {
    "service_request": "2023-1024270",
    "request_type": "Trash/Recycling",
    "request_reason": "Missed Trash Pick-Up",
    "date_created": "2023-08-07T17:34:05.000",
    "date_modified": "2023-08-07T17:34:27.000",
    "request_status": "Pending",
    "responsible_agency": "Department of Sanitation",
    "final_address": "7860 Tulsa St",
    "address_councildis": "E",
    "rowid": "1024270",
    "final_x": "3704330.45098",
    "final_y": "553459.666775",
    "longitude": "-89.99517149373516",
    "latitude": "30.015108703422385",
    "geocoded_column": {
      "latitude": "30.015108703422385",
      "longitude": "-89.99517149373516"
    }
  },
  {
    "service_request": "2023-1024269",
    "request_type": "Trash/Recycling",
    "request_reason": "Request a Large Item Pick Up",
    "date_created": "2023-08-07T17:29:27.000",
    "date_modified": "2023-08-07T17:29:28.000",
    "request_status": "Pending",
    "responsible_agency": "Department of Sanitation",
    "final_address": "4310 Paris Ave",
    "address_councildis": "D",
    "status": "Assigned to Contractor",
    "contractor": "IV Waste",
    "rowid": "1024269",
    "final_x": "3679343.77787",
    "final_y": "548190.683922",
    "longitude": "-90.07430049309023",
    "latitude": "30.00139958102129",
    "geocoded_column": {
      "latitude": "30.00139958102129",
      "longitude": "-90.07430049309023"
    }
  },
  {
    "service_request": "2023-1024268",
    "request_type": "Roads/Drainage",
    "request_reason": "Pothole",
    "date_created": "2023-08-07T17:29:03.000",
    "date_modified": "2023-08-07T17:29:03.000",
    "request_status": "Pending",
    "responsible_agency": "Department of Public Works",
    "final_address": "3821 Coliseum St",
    "address_councildis": "B",
    "status": "Pending",
    "rowid": "1024268",
    "final_x": "3672942.99668",
    "final_y": "520070.047352",
    "longitude": "-90.09548088986583",
    "latitude": "29.924269085044312",
    "geocoded_column": {
      "latitude": "29.924269085044312",
      "longitude": "-90.09548088986583"
    }
  },
  {
    "service_request": "2023-1024267",
    "request_type": "Trash/Recycling",
    "request_reason": "Missed Trash Pick-Up",
    "date_created": "2023-08-07T17:28:29.000",
    "date_modified": "2023-08-07T17:29:48.000",
    "request_status": "Pending",
    "responsible_agency": "Department of Sanitation",
    "final_address": "13619 Dwyer Blvd",
    "address_councildis": "E",
    "status": "Assigned to Contractor",
    "contractor": "Waste Pro",
    "rowid": "1024267",
    "final_x": "3726462.87117",
    "final_y": "562292.361759",
    "longitude": "-89.92490154316016",
    "latitude": "30.038665737825536",
    "geocoded_column": {
      "latitude": "30.038665737825536",
      "longitude": "-89.92490154316016"
    }
  },
  {
    "service_request": "2023-1024266",
    "request_type": "Trash/Recycling",
    "request_reason": "Request a Large Item Pick Up",
    "date_created": "2023-08-07T17:27:55.000",
    "date_modified": "2023-08-07T17:27:55.000",
    "request_status": "Pending",
    "responsible_agency": "Department of Sanitation",
    "final_address": "7721 Oak St",
    "address_councildis": "A",
    "status": "Assigned to Contractor",
    "contractor": "Richards Disposal",
    "rowid": "1024266",
    "final_x": "3662941.75482",
    "final_y": "527536.196863",
    "longitude": "-90.12680331982291",
    "latitude": "29.945091931763542",
    "geocoded_column": {
      "latitude": "29.945091931763542",
      "longitude": "-90.12680331982291"
    }
  },
  {
    "service_request": "2023-1024265",
    "request_type": "Roads/Drainage",
    "request_reason": "Pothole",
    "date_created": "2023-08-07T17:23:51.000",
    "date_modified": "2023-08-07T17:23:51.000",
    "request_status": "Pending",
    "responsible_agency": "Department of Public Works",
    "final_address": "1000 Poland Ave",
    "address_councildis": "C",
    "status": "Pending",
    "rowid": "1024265",
    "final_x": "3692887.71689",
    "final_y": "534630.660166",
    "longitude": "-90.03200061116067",
    "latitude": "29.963698237428737",
    "geocoded_column": {
      "latitude": "29.963698237428737",
      "longitude": "-90.03200061116067"
    }
  },
  {
    "service_request": "2023-1024264",
    "request_type": "Trash/Recycling",
    "request_reason": "Replace Trash Cart",
    "date_created": "2023-08-07T17:21:59.000",
    "date_modified": "2023-08-07T17:22:00.000",
    "request_status": "Pending",
    "responsible_agency": "Department of Sanitation",
    "final_address": "3120 Dumaine St",
    "address_councildis": "A",
    "status": "Assigned to Contractor",
    "contractor": "Richards Disposal",
    "rowid": "1024264",
    "final_x": "3675531.95969",
    "final_y": "538719.029897",
    "longitude": "-90.0866679423964",
    "latitude": "29.97547043604384",
    "geocoded_column": {
      "latitude": "29.97547043604384",
      "longitude": "-90.0866679423964"
    }
  },
  {
    "service_request": "2023-1024263",
    "request_type": "Trash/Recycling",
    "request_reason": "Missed Trash Pick-Up",
    "date_created": "2023-08-07T17:21:56.000",
    "date_modified": "2023-08-07T17:21:57.000",
    "request_status": "Pending",
    "responsible_agency": "Department of Sanitation",
    "final_address": "4848 Eastview Dr",
    "address_councildis": "E",
    "status": "Assigned to Contractor",
    "contractor": "Waste Pro",
    "rowid": "1024263",
    "final_x": "3704976.11012",
    "final_y": "556033.546457",
    "longitude": "-89.99303640942786",
    "latitude": "30.022165132281128",
    "geocoded_column": {
      "latitude": "30.022165132281128",
      "longitude": "-89.99303640942786"
    }
  },
  {
    "service_request": "2023-1024262",
    "request_type": "Trash/Recycling",
    "request_reason": "Missed Trash Pick-Up",
    "date_created": "2023-08-07T17:17:24.000",
    "date_modified": "2023-08-07T17:17:25.000",
    "request_status": "Pending",
    "responsible_agency": "Department of Sanitation",
    "final_address": "7641 Anne Marie Ct",
    "address_councildis": "E",
    "status": "Assigned to Contractor",
    "contractor": "Waste Pro",
    "rowid": "1024262",
    "final_x": "3717926.84575",
    "final_y": "571303.853736",
    "longitude": "-89.95153395534773",
    "latitude": "30.063729364279983",
    "geocoded_column": {
      "latitude": "30.063729364279983",
      "longitude": "-89.95153395534773"
    }
  },
  {
    "service_request": "2023-1024261",
    "request_type": "Trash/Recycling",
    "request_reason": "Order Recycling Cart",
    "date_created": "2023-08-07T17:14:26.000",
    "date_modified": "2023-08-07T17:14:26.000",
    "request_status": "Pending",
    "responsible_agency": "Department of Sanitation",
    "final_address": "718 Alvar St",
    "address_councildis": "C",
    "status": "Pending",
    "rowid": "1024261",
    "final_x": "3691122.61622",
    "final_y": "534048.592453",
    "longitude": "-90.03759538690754",
    "latitude": "29.962152757319082",
    "geocoded_column": {
      "latitude": "29.962152757319082",
      "longitude": "-90.03759538690754"
    }
  },
  {
    "service_request": "2023-1024260",
    "request_type": "Trash/Recycling",
    "request_reason": "Order Trash Cart",
    "date_created": "2023-08-07T17:13:43.000",
    "date_modified": "2023-08-07T17:13:43.000",
    "request_status": "Pending",
    "responsible_agency": "Department of Sanitation",
    "final_address": "718 Alvar St",
    "address_councildis": "C",
    "status": "Assigned to Contractor",
    "contractor": "IV Waste",
    "rowid": "1024260",
    "final_x": "3691122.61622",
    "final_y": "534048.592453",
    "longitude": "-90.03759538690754",
    "latitude": "29.962152757319082",
    "geocoded_column": {
      "latitude": "29.962152757319082",
      "longitude": "-90.03759538690754"
    }
  },
  {
    "service_request": "2023-1024259",
    "request_type": "Roads/Drainage",
    "request_reason": "Pothole",
    "date_created": "2023-08-07T17:12:52.000",
    "date_modified": "2023-08-07T17:12:52.000",
    "request_status": "Pending",
    "responsible_agency": "Department of Public Works",
    "final_address": "1421 Constantinople St",
    "address_councildis": "B",
    "status": "Pending",
    "rowid": "1024259",
    "final_x": "3672433.24257",
    "final_y": "520667.657465",
    "longitude": "-90.09706965638372",
    "latitude": "29.925927453713577",
    "geocoded_column": {
      "latitude": "29.925927453713577",
      "longitude": "-90.09706965638372"
    }
  },
  {
    "service_request": "2023-1024258",
    "request_type": "Traffic Signals/Signs/Striping/Streetlights",
    "request_reason": "Street Light Outage/Malfunction",
    "date_created": "2023-08-07T17:05:15.000",
    "date_modified": "2023-08-07T17:05:15.000",
    "request_status": "Pending",
    "responsible_agency": "Department of Public Works",
    "final_address": "GRAVIER ST & S CLAIBORNE AVE & S CLAIBORNE AV OVERPASS",
    "address_councildis": "B",
    "status": "Assigned to Contractor",
    "contractor": "Legacy Professional Services",
    "rowid": "1024258",
    "final_x": "3677409.4",
    "final_y": "531610.08",
    "longitude": "-90.0809838615513",
    "latitude": "29.955866939021757",
    "geocoded_column": {
      "latitude": "29.955866939021757",
      "longitude": "-90.0809838615513"
    }
  },
  {
    "service_request": "2023-1024257",
    "request_type": "Trash/Recycling",
    "request_reason": "Replace Recycling Cart",
    "date_created": "2023-08-07T17:05:01.000",
    "date_modified": "2023-08-07T17:05:01.000",
    "request_status": "Pending",
    "responsible_agency": "Department of Sanitation",
    "final_address": "1316 Joliet St, New Orleans, Louisiana, 70118",
    "address_councildis": "A",
    "status": "Pending",
    "rowid": "1024257",
    "final_x": "3661219.72493",
    "final_y": "529742.253377",
    "longitude": "-90.13216731692994",
    "latitude": "29.951207627496068",
    "geocoded_column": {
      "latitude": "29.951207627496068",
      "longitude": "-90.13216731692994"
    }
  },
  {
    "service_request": "2023-1024256",
    "request_type": "Property Maintenance",
    "request_reason": "Property Maintenance",
    "date_created": "2023-08-07T17:01:39.000",
    "date_modified": "2023-08-07T17:01:40.000",
    "request_status": "Pending",
    "responsible_agency": "Department of Code Enforcement",
    "final_address": "WILL STUTLEY DR & ROBIN HOOD DR",
    "address_councildis": "E",
    "status": "Pending",
    "rowid": "1024256",
    "final_x": "3717368.3",
    "final_y": "558243.68",
    "longitude": "-89.95379657402495",
    "latitude": "30.02783773115171",
    "geocoded_column": {
      "latitude": "30.02783773115171",
      "longitude": "-89.95379657402495"
    }
  },
  {
    "service_request": "2023-1024255",
    "request_type": "Trash/Recycling",
    "request_reason": "Missed Trash Pick-Up",
    "date_created": "2023-08-07T16:58:29.000",
    "date_modified": "2023-08-07T16:58:30.000",
    "request_status": "Pending",
    "responsible_agency": "Department of Sanitation",
    "final_address": "13611 Dwyer Blvd",
    "address_councildis": "E",
    "status": "Assigned to Contractor",
    "contractor": "Waste Pro",
    "rowid": "1024255",
    "final_x": "3726406.50688",
    "final_y": "562271.818783",
    "longitude": "-89.92508046493339",
    "latitude": "30.03861115798485",
    "geocoded_column": {
      "latitude": "30.03861115798485",
      "longitude": "-89.92508046493339"
    }
  },
  {
    "service_request": "2023-1024254",
    "request_type": "Trash/Recycling",
    "request_reason": "Order Recycling Cart",
    "date_created": "2023-08-07T16:58:28.000",
    "date_modified": "2023-08-07T16:58:28.000",
    "request_status": "Pending",
    "responsible_agency": "Department of Sanitation",
    "final_address": "5670 New England Dr",
    "address_councildis": "E",
    "status": "Pending",
    "rowid": "1024254",
    "final_x": "3723553.15507",
    "final_y": "564478.714849",
    "longitude": "-89.9340125325536",
    "latitude": "30.04477532708266",
    "geocoded_column": {
      "latitude": "30.04477532708266",
      "longitude": "-89.9340125325536"
    }
  },
  {
    "service_request": "2023-1024253",
    "request_type": "Trash/Recycling",
    "request_reason": "MIssed Recycling Pick-Up",
    "date_created": "2023-08-07T16:57:25.000",
    "date_modified": "2023-08-07T16:57:26.000",
    "request_status": "Pending",
    "responsible_agency": "Department of Sanitation",
    "final_address": "13035 Lemans St",
    "address_councildis": "E",
    "status": "Assigned to Contractor",
    "contractor": "Waste Pro",
    "rowid": "1024253",
    "final_x": "3723837.79935",
    "final_y": "562815.307744",
    "longitude": "-89.93317717564759",
    "latitude": "30.04019208340101",
    "geocoded_column": {
      "latitude": "30.04019208340101",
      "longitude": "-89.93317717564759"
    }
  },
  {
    "service_request": "2023-1024252",
    "request_type": "Trash/Recycling",
    "request_reason": "Repair Trash Cart",
    "date_created": "2023-08-07T16:56:03.000",
    "date_modified": "2023-08-07T16:56:03.000",
    "request_status": "Pending",
    "responsible_agency": "Department of Sanitation",
    "final_address": "8533 Freret St",
    "address_councildis": "A",
    "status": "Assigned to Contractor",
    "contractor": "Richards Disposal",
    "rowid": "1024252",
    "final_x": "3660254.16666",
    "final_y": "529032.740352",
    "longitude": "-90.13523951290054",
    "latitude": "29.949284489825473",
    "geocoded_column": {
      "latitude": "29.949284489825473",
      "longitude": "-90.13523951290054"
    }
  },
  {
    "service_request": "2023-1024251",
    "request_type": "Trash/Recycling",
    "request_reason": "Replace Trash Cart",
    "date_created": "2023-08-07T16:55:35.000",
    "date_modified": "2023-08-07T16:55:35.000",
    "request_status": "Pending",
    "responsible_agency": "Department of Sanitation",
    "final_address": "20033 Victory Rd, New Orleans, Louisiana, 70129",
    "address_councildis": "E",
    "status": "Assigned to Contractor",
    "contractor": "Waste Pro",
    "rowid": "1024251",
    "final_x": "3756204.82326",
    "final_y": "573907.880682",
    "longitude": "-89.83042976679712",
    "latitude": "30.069564456786853",
    "geocoded_column": {
      "latitude": "30.069564456786853",
      "longitude": "-89.83042976679712"
    }
  },
  {
    "service_request": "2023-1024250",
    "request_type": "Trash/Recycling",
    "request_reason": "Return Trash Cart",
    "date_created": "2023-08-07T16:55:29.000",
    "date_modified": "2023-08-07T16:55:30.000",
    "request_status": "Pending",
    "responsible_agency": "Department of Sanitation",
    "final_address": "2536 Dumaine St",
    "address_councildis": "D",
    "status": "Assigned to Contractor",
    "contractor": "Richards Disposal",
    "rowid": "1024250",
    "final_x": "3677701.66869",
    "final_y": "537057.388488",
    "longitude": "-90.07987281607777",
    "latitude": "29.970836404295397",
    "geocoded_column": {
      "latitude": "29.970836404295397",
      "longitude": "-90.07987281607777"
    }
  },
  {
    "service_request": "2023-1024249",
    "request_type": "Trash/Recycling",
    "request_reason": "Return Trash Cart",
    "date_created": "2023-08-07T16:54:15.000",
    "date_modified": "2023-08-07T16:54:16.000",
    "request_status": "Pending",
    "responsible_agency": "Department of Sanitation",
    "final_address": "2534 Dumaine St",
    "address_councildis": "D",
    "status": "Assigned to Contractor",
    "contractor": "Richards Disposal",
    "rowid": "1024249",
    "final_x": "3677709.72424",
    "final_y": "537051.277384",
    "longitude": "-90.0798475867567",
    "latitude": "29.970819358542503",
    "geocoded_column": {
      "latitude": "29.970819358542503",
      "longitude": "-90.0798475867567"
    }
  },
  {
    "service_request": "2023-1024248",
    "request_type": "Traffic Signals/Signs/Striping/Streetlights",
    "request_reason": "Traffic Signal Malfunctioning/Damaged",
    "date_created": "2023-08-07T16:53:56.000",
    "date_modified": "2023-08-07T16:53:56.000",
    "request_status": "Pending",
    "responsible_agency": "Department of Public Works",
    "final_address": "401 S Claiborne Ave",
    "address_councildis": "B",
    "status": "Pending",
    "rowid": "1024248",
    "final_x": "3677317.24686",
    "final_y": "531602.846339",
    "longitude": "-90.08127509881906",
    "latitude": "29.955849817994906",
    "geocoded_column": {
      "latitude": "29.955849817994906",
      "longitude": "-90.08127509881906"
    }
  },
  {
    "service_request": "2023-1024247",
    "request_type": "Property Maintenance",
    "request_reason": "Property Maintenance",
    "date_created": "2023-08-07T16:47:54.000",
    "date_modified": "2023-08-07T16:47:54.000",
    "request_status": "Pending",
    "responsible_agency": "Department of Code Enforcement",
    "final_address": "1549 Gordon St",
    "address_councildis": "E",
    "status": "Pending",
    "rowid": "1024247",
    "final_x": "3699869.32567",
    "final_y": "535120.600006",
    "longitude": "-90.00993566465405",
    "latitude": "29.964825528888856",
    "geocoded_column": {
      "latitude": "29.964825528888856",
      "longitude": "-90.00993566465405"
    }
  },
  {
    "service_request": "2023-1024246",
    "request_type": "Trash/Recycling",
    "request_reason": "Request a Large Item Pick Up",
    "date_created": "2023-08-07T16:47:40.000",
    "date_modified": "2023-08-07T16:47:40.000",
    "request_status": "Pending",
    "responsible_agency": "Department of Sanitation",
    "final_address": "819 Wilson Dr",
    "address_councildis": "A",
    "status": "Assigned to Contractor",
    "contractor": "Richards Disposal",
    "rowid": "1024246",
    "final_x": "3674006.79131",
    "final_y": "539396.851018",
    "longitude": "-90.09146164501325",
    "latitude": "29.977379751789883",
    "geocoded_column": {
      "latitude": "29.977379751789883",
      "longitude": "-90.09146164501325"
    }
  },
  {
    "service_request": "2023-1024245",
    "request_type": "Roads/Drainage",
    "request_reason": "Catch Basin - Broken/Damage",
    "date_created": "2023-08-07T16:37:34.000",
    "date_modified": "2023-08-07T16:37:34.000",
    "request_status": "Pending",
    "responsible_agency": "Department of Public Works",
    "final_address": "11251 N Idlewood Ct",
    "address_councildis": "E",
    "status": "Pending",
    "rowid": "1024245",
    "final_x": "3716228.04671",
    "final_y": "560430.345694",
    "longitude": "-89.95731667589614",
    "latitude": "30.03388788334282",
    "geocoded_column": {
      "latitude": "30.03388788334282",
      "longitude": "-89.95731667589614"
    }
  },
  {
    "service_request": "2023-1024244",
    "request_type": "Trash/Recycling",
    "request_reason": "Request a Large Item Pick Up",
    "date_created": "2023-08-07T16:35:35.000",
    "date_modified": "2023-08-07T16:35:35.000",
    "request_status": "Pending",
    "responsible_agency": "Department of Sanitation",
    "final_address": "1700 Alvar St",
    "address_councildis": "D",
    "status": "Assigned to Contractor",
    "contractor": "IV Waste",
    "rowid": "1024244",
    "final_x": "3692014.50998",
    "final_y": "537670.35636",
    "longitude": "-90.03464930532225",
    "latitude": "29.972083569009335",
    "geocoded_column": {
      "latitude": "29.972083569009335",
      "longitude": "-90.03464930532225"
    }
  },
  {
    "service_request": "2023-1024243",
    "request_type": "Traffic Signals/Signs/Striping/Streetlights",
    "request_reason": "Street Light Outage/Malfunction",
    "date_created": "2023-08-07T16:35:32.000",
    "date_modified": "2023-08-07T16:35:33.000",
    "request_status": "Pending",
    "responsible_agency": "Department of Public Works",
    "final_address": "6042 Boeing St",
    "address_councildis": "D",
    "status": "Assigned to Contractor",
    "contractor": "Legacy Professional Services",
    "rowid": "1024243",
    "final_x": "3696686.81911",
    "final_y": "553038.619095",
    "longitude": "-90.0193368818609",
    "latitude": "30.014194213554017",
    "geocoded_column": {
      "latitude": "30.014194213554017",
      "longitude": "-90.0193368818609"
    }
  },
  {
    "service_request": "2023-1024242",
    "request_type": "Trash/Recycling",
    "request_reason": "Order Recycling Cart",
    "date_created": "2023-08-07T16:35:27.000",
    "date_modified": "2023-08-07T16:35:27.000",
    "request_status": "Pending",
    "responsible_agency": "Department of Sanitation",
    "final_address": "2331 Ursulines Ave",
    "address_councildis": "D",
    "status": "Pending",
    "rowid": "1024242",
    "final_x": "3678825.70459",
    "final_y": "537304.261512",
    "longitude": "-90.0763144163318",
    "latitude": "29.97148136256616",
    "geocoded_column": {
      "latitude": "29.97148136256616",
      "longitude": "-90.0763144163318"
    }
  },
  {
    "service_request": "2023-1024241",
    "request_type": "Trash/Recycling",
    "request_reason": "Request a Large Item Pick Up",
    "date_created": "2023-08-07T16:30:37.000",
    "date_modified": "2023-08-07T16:30:38.000",
    "request_status": "Pending",
    "responsible_agency": "Department of Sanitation",
    "final_address": "5670 New England Dr",
    "address_councildis": "E",
    "status": "Assigned to Contractor",
    "contractor": "Waste Pro",
    "rowid": "1024241",
    "final_x": "3723553.15507",
    "final_y": "564478.714849",
    "longitude": "-89.9340125325536",
    "latitude": "30.04477532708266",
    "geocoded_column": {
      "latitude": "30.04477532708266",
      "longitude": "-89.9340125325536"
    }
  },
  {
    "service_request": "2023-1024240",
    "request_type": "Abandoned Vehicles",
    "request_reason": "Abandoned/Junk Vehicles",
    "date_created": "2023-08-07T16:29:43.000",
    "date_modified": "2023-08-07T16:29:43.000",
    "request_status": "Pending",
    "responsible_agency": "Department of Public Works",
    "final_address": "821 Washington Ave",
    "address_councildis": "B",
    "status": "Pending",
    "rowid": "1024240",
    "final_x": "3677628.84802",
    "final_y": "520034.669688",
    "longitude": "-90.08069050083319",
    "latitude": "29.924031784183395",
    "geocoded_column": {
      "latitude": "29.924031784183395",
      "longitude": "-90.08069050083319"
    }
  },
  {
    "service_request": "2023-1024239",
    "request_type": "Roads/Drainage",
    "request_reason": "Debris in Roadway",
    "date_created": "2023-08-07T16:28:38.000",
    "date_modified": "2023-08-07T16:28:38.000",
    "request_status": "Pending",
    "responsible_agency": "Department of Public Works",
    "final_address": "CURRAN BLVD & LAFOURCHE ST",
    "address_councildis": "E",
    "status": "Pending",
    "rowid": "1024239",
    "final_x": "3710031.7",
    "final_y": "565827.18",
    "longitude": "-89.9766957779748",
    "latitude": "30.04893016466292",
    "geocoded_column": {
      "latitude": "30.04893016466292",
      "longitude": "-89.9766957779748"
    }
  },
  {
    "service_request": "2023-1024238",
    "request_type": "Trash/Recycling",
    "request_reason": "Order Recycling Cart",
    "date_created": "2023-08-07T16:27:12.000",
    "date_modified": "2023-08-07T16:27:13.000",
    "request_status": "Pending",
    "responsible_agency": "Department of Sanitation",
    "final_address": "4943 Brittany Ct",
    "address_councildis": "E",
    "status": "Pending",
    "rowid": "1024238",
    "final_x": "3727077.85075",
    "final_y": "561667.833823",
    "longitude": "-89.9229823620433",
    "latitude": "30.036927745400114",
    "geocoded_column": {
      "latitude": "30.036927745400114",
      "longitude": "-89.9229823620433"
    }
  },
  {
    "service_request": "2023-1024237",
    "request_type": "Roads/Drainage",
    "request_reason": "Catch Basin - Broken/Damage",
    "date_created": "2023-08-07T16:22:26.000",
    "date_modified": "2023-08-07T16:22:26.000",
    "request_status": "Pending",
    "responsible_agency": "Department of Public Works",
    "final_address": "11251 N Idlewood Ct",
    "address_councildis": "E",
    "status": "Pending",
    "rowid": "1024237",
    "final_x": "3716228.04671",
    "final_y": "560430.345694",
    "longitude": "-89.95731667589614",
    "latitude": "30.03388788334282",
    "geocoded_column": {
      "latitude": "30.03388788334282",
      "longitude": "-89.95731667589614"
    }
  },
  {
    "service_request": "2023-1024236",
    "request_type": "Roads/Drainage",
    "request_reason": "Pothole",
    "date_created": "2023-08-07T16:21:29.000",
    "date_modified": "2023-08-07T16:21:29.000",
    "request_status": "Pending",
    "responsible_agency": "Department of Public Works",
    "final_address": "1015 Peniston St",
    "address_councildis": "B",
    "status": "Pending",
    "rowid": "1024236",
    "final_x": "3673297.29384",
    "final_y": "519566.473592",
    "longitude": "-90.09437968280942",
    "latitude": "29.922873889520673",
    "geocoded_column": {
      "latitude": "29.922873889520673",
      "longitude": "-90.09437968280942"
    }
  },
  {
    "service_request": "2023-1024235",
    "request_type": "Traffic Signals/Signs/Striping/Streetlights",
    "request_reason": "Street Light Outage/Malfunction",
    "date_created": "2023-08-07T16:20:03.000",
    "date_modified": "2023-08-07T16:20:04.000",
    "request_status": "Pending",
    "responsible_agency": "Department of Public Works",
    "final_address": "624 Spain St",
    "address_councildis": "C",
    "status": "Assigned to Contractor",
    "contractor": "Legacy Professional Services",
    "rowid": "1024235",
    "final_x": "3686228.7286",
    "final_y": "534837.076166",
    "longitude": "-90.05302169831994",
    "latitude": "29.964472075978964",
    "geocoded_column": {
      "latitude": "29.964472075978964",
      "longitude": "-90.05302169831994"
    }
  },
  {
    "service_request": "2023-1024234",
    "request_type": "Trash/Recycling",
    "request_reason": "Return Trash Cart",
    "date_created": "2023-08-07T16:19:59.000",
    "date_modified": "2023-08-07T16:20:00.000",
    "request_status": "Pending",
    "responsible_agency": "Department of Sanitation",
    "final_address": "2257 New York St",
    "address_councildis": "D",
    "status": "Assigned to Contractor",
    "contractor": "IV Waste",
    "rowid": "1024234",
    "final_x": "3683910.35049",
    "final_y": "556697.045274",
    "longitude": "-90.05957556338103",
    "latitude": "30.024650215003824",
    "geocoded_column": {
      "latitude": "30.024650215003824",
      "longitude": "-90.05957556338103"
    }
  },
  {
    "service_request": "2023-1024233",
    "request_type": "Roads/Drainage",
    "request_reason": "Pothole",
    "date_created": "2023-08-07T16:16:00.000",
    "date_modified": "2023-08-07T16:16:00.000",
    "request_status": "Pending",
    "responsible_agency": "Department of Public Works",
    "final_address": "1315 Peniston St",
    "address_councildis": "B",
    "status": "Pending",
    "rowid": "1024233",
    "final_x": "3673101.31451",
    "final_y": "520423.11276",
    "longitude": "-90.09496908964098",
    "latitude": "29.925235197927364",
    "geocoded_column": {
      "latitude": "29.925235197927364",
      "longitude": "-90.09496908964098"
    }
  },
  {
    "service_request": "2023-1024232",
    "request_type": "Trash/Recycling",
    "request_reason": "Request a Large Item Pick Up",
    "date_created": "2023-08-07T16:15:50.000",
    "date_modified": "2023-08-07T16:15:51.000",
    "request_status": "Pending",
    "responsible_agency": "Department of Sanitation",
    "final_address": "254 Abalon Ct",
    "address_councildis": "C",
    "status": "Assigned to Contractor",
    "contractor": "Richards Disposal",
    "rowid": "1024232",
    "final_x": "3689295.76207",
    "final_y": "530867.054146",
    "longitude": "-90.04347739702484",
    "latitude": "29.95346130669547",
    "geocoded_column": {
      "latitude": "29.95346130669547",
      "longitude": "-90.04347739702484"
    }
  },
  {
    "service_request": "2023-1024231",
    "request_type": "Trash/Recycling",
    "request_reason": "Illegal Dumping",
    "date_created": "2023-08-07T16:15:17.000",
    "date_modified": "2023-08-07T16:15:17.000",
    "request_status": "Pending",
    "responsible_agency": "Department of Sanitation",
    "final_address": "2776 Dreux Ave",
    "address_councildis": "D",
    "status": "Pending",
    "rowid": "1024231",
    "final_x": "3688006.84265",
    "final_y": "552296.080982",
    "longitude": "-90.04678752035544",
    "latitude": "30.0124233440232",
    "geocoded_column": {
      "latitude": "30.0124233440232",
      "longitude": "-90.04678752035544"
    }
  },
  {
    "service_request": "2023-1024230",
    "request_type": "Trash/Recycling",
    "request_reason": "Request a Large Item Pick Up",
    "date_created": "2023-08-07T16:15:07.000",
    "date_modified": "2023-08-07T16:15:07.000",
    "request_status": "Pending",
    "responsible_agency": "Department of Sanitation",
    "final_address": "4519 Banks St",
    "address_councildis": "A",
    "status": "Assigned to Contractor",
    "contractor": "Richards Disposal",
    "rowid": "1024230",
    "final_x": "3668853.01761",
    "final_y": "538618.232969",
    "longitude": "-90.10776532881624",
    "latitude": "29.975391395576526",
    "geocoded_column": {
      "latitude": "29.975391395576526",
      "longitude": "-90.10776532881624"
    }
  },
  {
    "service_request": "2023-1024229",
    "request_type": "Roads/Drainage",
    "request_reason": "Debris in Roadway",
    "date_created": "2023-08-07T16:14:55.000",
    "date_modified": "2023-08-07T16:14:55.000",
    "request_status": "Pending",
    "responsible_agency": "Department of Public Works",
    "final_address": "245 Atlantic Ave",
    "address_councildis": "C",
    "status": "Pending",
    "rowid": "1024229",
    "final_x": "3688795.08278",
    "final_y": "530776.666882",
    "longitude": "-90.0450615338681",
    "latitude": "29.953228260645208",
    "geocoded_column": {
      "latitude": "29.953228260645208",
      "longitude": "-90.0450615338681"
    }
  },
  {
    "service_request": "2023-1024228",
    "request_type": "Trash/Recycling",
    "request_reason": "Request a Large Item Pick Up",
    "date_created": "2023-08-07T16:12:35.000",
    "date_modified": "2023-08-07T16:12:35.000",
    "request_status": "Pending",
    "responsible_agency": "Department of Sanitation",
    "final_address": "3842 Mimosa Dr",
    "address_councildis": "C",
    "status": "Assigned to Contractor",
    "contractor": "Richards Disposal",
    "rowid": "1024228",
    "final_x": "3704218.54231",
    "final_y": "513146.916658",
    "longitude": "-89.99701049434523",
    "latitude": "29.904266773584823",
    "geocoded_column": {
      "latitude": "29.904266773584823",
      "longitude": "-89.99701049434523"
    }
  },
  {
    "service_request": "2023-1024227",
    "request_type": "Trash/Recycling",
    "request_reason": "Order Recycling Cart",
    "date_created": "2023-08-07T16:12:23.000",
    "date_modified": "2023-08-07T16:12:23.000",
    "request_status": "Pending",
    "responsible_agency": "Department of Sanitation",
    "final_address": "254 Abalon Ct",
    "address_councildis": "C",
    "status": "Pending",
    "rowid": "1024227",
    "final_x": "3689295.76207",
    "final_y": "530867.054146",
    "longitude": "-90.04347739702484",
    "latitude": "29.95346130669547",
    "geocoded_column": {
      "latitude": "29.95346130669547",
      "longitude": "-90.04347739702484"
    }
  },
  {
    "service_request": "2023-1024226",
    "request_type": "Roads/Drainage",
    "request_reason": "Pothole",
    "date_created": "2023-08-07T16:11:14.000",
    "date_modified": "2023-08-07T16:11:14.000",
    "request_status": "Pending",
    "responsible_agency": "Department of Public Works",
    "final_address": "245 Atlantic Ave",
    "address_councildis": "C",
    "status": "Pending",
    "rowid": "1024226",
    "final_x": "3688795.08278",
    "final_y": "530776.666882",
    "longitude": "-90.0450615338681",
    "latitude": "29.953228260645208",
    "geocoded_column": {
      "latitude": "29.953228260645208",
      "longitude": "-90.0450615338681"
    }
  },
  {
    "service_request": "2023-1024225",
    "request_type": "Trash/Recycling",
    "request_reason": "Request a Large Item Pick Up",
    "date_created": "2023-08-07T16:10:25.000",
    "date_modified": "2023-08-07T16:10:26.000",
    "request_status": "Pending",
    "responsible_agency": "Department of Sanitation",
    "final_address": "2459 Royal St",
    "address_councildis": "C",
    "status": "Assigned to Contractor",
    "contractor": "IV Waste",
    "rowid": "1024225",
    "final_x": "3686396.84649",
    "final_y": "534994.811654",
    "longitude": "-90.05248522791058",
    "latitude": "29.964900627640272",
    "geocoded_column": {
      "latitude": "29.964900627640272",
      "longitude": "-90.05248522791058"
    }
  },
  {
    "service_request": "2023-1024224",
    "request_type": "Trash/Recycling",
    "request_reason": "Request a Large Item Pick Up",
    "date_created": "2023-08-07T16:08:25.000",
    "date_modified": "2023-08-07T16:08:25.000",
    "request_status": "Pending",
    "responsible_agency": "Department of Sanitation",
    "final_address": "254 Abalon Ct",
    "address_councildis": "C",
    "status": "Assigned to Contractor",
    "contractor": "Richards Disposal",
    "rowid": "1024224",
    "final_x": "3689295.76207",
    "final_y": "530867.054146",
    "longitude": "-90.04347739702484",
    "latitude": "29.95346130669547",
    "geocoded_column": {
      "latitude": "29.95346130669547",
      "longitude": "-90.04347739702484"
    }
  },
  {
    "service_request": "2023-1024223",
    "request_type": "Traffic Signals/Signs/Striping/Streetlights",
    "request_reason": "Traffic Signal Malfunctioning/Damaged",
    "date_created": "2023-08-07T16:08:14.000",
    "date_modified": "2023-08-07T16:08:14.000",
    "request_status": "Pending",
    "responsible_agency": "Department of Public Works",
    "final_address": "5900 BLK General Meyer Ave",
    "address_councildis": "C",
    "status": "Pending",
    "rowid": "1024223",
    "final_x": "3705865.49145",
    "final_y": "521364.418673",
    "longitude": "-89.99150903019263",
    "latitude": "29.926809148814666",
    "geocoded_column": {
      "latitude": "29.926809148814666",
      "longitude": "-89.99150903019263"
    }
  },
  {
    "service_request": "2023-1024222",
    "request_type": "Roads/Drainage",
    "request_reason": "Catch Basin - Broken/Damage",
    "date_created": "2023-08-07T16:08:13.000",
    "date_modified": "2023-08-07T16:08:13.000",
    "request_status": "Pending",
    "responsible_agency": "Department of Public Works",
    "final_address": "11251 N Idlewood Ct",
    "address_councildis": "E",
    "status": "Pending",
    "rowid": "1024222",
    "final_x": "3716228.04671",
    "final_y": "560430.345694",
    "longitude": "-89.95731667589614",
    "latitude": "30.03388788334282",
    "geocoded_column": {
      "latitude": "30.03388788334282",
      "longitude": "-89.95731667589614"
    }
  },
  {
    "service_request": "2023-1024221",
    "request_type": "Trash/Recycling",
    "request_reason": "Request a Large Item Pick Up",
    "date_created": "2023-08-07T16:06:07.000",
    "date_modified": "2023-08-07T16:06:08.000",
    "request_status": "Pending",
    "responsible_agency": "Department of Sanitation",
    "final_address": "5521 Patio Way",
    "address_councildis": "E",
    "status": "Assigned to Contractor",
    "contractor": "Waste Pro",
    "rowid": "1024221",
    "final_x": "3725433.21203",
    "final_y": "564037.521057",
    "longitude": "-89.92808786239462",
    "latitude": "30.043498963333835",
    "geocoded_column": {
      "latitude": "30.043498963333835",
      "longitude": "-89.92808786239462"
    }
  },
  {
    "service_request": "2023-1024220",
    "request_type": "Trash/Recycling",
    "request_reason": "Order Trash Cart",
    "date_created": "2023-08-07T16:06:01.000",
    "date_modified": "2023-08-07T16:06:02.000",
    "request_status": "Pending",
    "responsible_agency": "Department of Sanitation",
    "final_address": "254 Abalon Ct",
    "address_councildis": "C",
    "status": "Assigned to Contractor",
    "contractor": "Richards Disposal",
    "rowid": "1024220",
    "final_x": "3689295.76207",
    "final_y": "530867.054146",
    "longitude": "-90.04347739702484",
    "latitude": "29.95346130669547",
    "geocoded_column": {
      "latitude": "29.95346130669547",
      "longitude": "-90.04347739702484"
    }
  },
  {
    "service_request": "2023-1024219",
    "request_type": "Trash/Recycling",
    "request_reason": "Repair Trash Cart",
    "date_created": "2023-08-07T16:04:05.000",
    "date_modified": "2023-08-07T16:04:05.000",
    "request_status": "Pending",
    "responsible_agency": "Department of Sanitation",
    "final_address": "4733 Stemway Dr",
    "address_councildis": "D",
    "status": "Assigned to Contractor",
    "contractor": "Waste Pro",
    "rowid": "1024219",
    "final_x": "3696979.90647",
    "final_y": "554268.631512",
    "longitude": "-90.01836627972656",
    "latitude": "30.01756703926937",
    "geocoded_column": {
      "latitude": "30.01756703926937",
      "longitude": "-90.01836627972656"
    }
  },
  {
    "service_request": "2023-1024218",
    "request_type": "Property Maintenance",
    "request_reason": "Property Maintenance",
    "date_created": "2023-08-07T16:03:52.000",
    "date_modified": "2023-08-07T16:03:52.000",
    "request_status": "Pending",
    "responsible_agency": "Department of Code Enforcement",
    "final_address": "2651 Poydras St Apt 3317",
    "address_councildis": "B",
    "status": "Pending",
    "rowid": "1024218",
    "final_x": "3674354.394",
    "final_y": "532473.7785",
    "longitude": "-90.09060094157256",
    "latitude": "29.958333278641174",
    "geocoded_column": {
      "latitude": "29.958333278641174",
      "longitude": "-90.09060094157256"
    }
  },
  {
    "service_request": "2023-1024216",
    "request_type": "Trash/Recycling",
    "request_reason": "Missed Trash Pick-Up",
    "date_created": "2023-08-07T15:59:43.000",
    "date_modified": "2023-08-07T15:59:44.000",
    "request_status": "Pending",
    "responsible_agency": "Department of Sanitation",
    "final_address": "4733 Stemway Dr",
    "address_councildis": "D",
    "status": "Assigned to Contractor",
    "contractor": "Waste Pro",
    "rowid": "1024216",
    "final_x": "3696979.90647",
    "final_y": "554268.631512",
    "longitude": "-90.01836627972656",
    "latitude": "30.01756703926937",
    "geocoded_column": {
      "latitude": "30.01756703926937",
      "longitude": "-90.01836627972656"
    }
  },
  {
    "service_request": "2023-1024215",
    "request_type": "Trash/Recycling",
    "request_reason": "Request a Large Item Pick Up",
    "date_created": "2023-08-07T15:58:00.000",
    "date_modified": "2023-08-07T15:58:01.000",
    "request_status": "Pending",
    "responsible_agency": "Department of Sanitation",
    "final_address": "407 Elmira Ave",
    "address_councildis": "C",
    "status": "Assigned to Contractor",
    "contractor": "Richards Disposal",
    "rowid": "1024215",
    "final_x": "3688177.21123",
    "final_y": "530250.337985",
    "longitude": "-90.04703115647249",
    "latitude": "29.95180012375341",
    "geocoded_column": {
      "latitude": "29.95180012375341",
      "longitude": "-90.04703115647249"
    }
  },
  {
    "service_request": "2023-1024214",
    "request_type": "Roads/Drainage",
    "request_reason": "Pothole",
    "date_created": "2023-08-07T15:51:25.000",
    "date_modified": "2023-08-07T15:51:25.000",
    "request_status": "Pending",
    "responsible_agency": "Department of Public Works",
    "final_address": "1422 General Pershing St",
    "address_councildis": "B",
    "status": "Pending",
    "rowid": "1024214",
    "final_x": "3671239.44116",
    "final_y": "520532.324984",
    "longitude": "-90.10084273889387",
    "latitude": "29.925590694745555",
    "geocoded_column": {
      "latitude": "29.925590694745555",
      "longitude": "-90.10084273889387"
    }
  },
  {
    "service_request": "2023-1024213",
    "request_type": "Trash/Recycling",
    "request_reason": "Request a Large Item Pick Up",
    "date_created": "2023-08-07T15:51:21.000",
    "date_modified": "2023-08-07T15:51:22.000",
    "request_status": "Pending",
    "responsible_agency": "Department of Sanitation",
    "final_address": "4901 S Saratoga St",
    "address_councildis": "B",
    "status": "Assigned to Contractor",
    "contractor": "Richards Disposal",
    "rowid": "1024213",
    "final_x": "3669084.5595",
    "final_y": "522527.717306",
    "longitude": "-90.10757767978481",
    "latitude": "29.931140944669394",
    "geocoded_column": {
      "latitude": "29.931140944669394",
      "longitude": "-90.10757767978481"
    }
  },
  {
    "service_request": "2023-1024212",
    "request_type": "Traffic Signals/Signs/Striping/Streetlights",
    "request_reason": "Traffic Signal Malfunctioning/Damaged",
    "date_created": "2023-08-07T15:46:18.000",
    "date_modified": "2023-08-07T15:46:18.000",
    "request_status": "Pending",
    "responsible_agency": "Department of Public Works",
    "final_address": "4332 Magazine St",
    "address_councildis": "B",
    "status": "Pending",
    "rowid": "1024212",
    "final_x": "3671176.36513",
    "final_y": "518713.323255",
    "longitude": "-90.10110360059795",
    "latitude": "29.92059088488764",
    "geocoded_column": {
      "latitude": "29.92059088488764",
      "longitude": "-90.10110360059795"
    }
  },
  {
    "service_request": "2023-1024211",
    "request_type": "Trash/Recycling",
    "request_reason": "Order Trash Cart",
    "date_created": "2023-08-07T15:41:19.000",
    "date_modified": "2023-08-07T15:41:19.000",
    "request_status": "Pending",
    "responsible_agency": "Department of Sanitation",
    "final_address": "4319 Perrier St",
    "address_councildis": "B",
    "status": "Assigned to Contractor",
    "contractor": "Richards Disposal",
    "rowid": "1024211",
    "final_x": "3671158.14542",
    "final_y": "520165.856056",
    "longitude": "-90.10111180569133",
    "latitude": "29.924585426360945",
    "geocoded_column": {
      "latitude": "29.924585426360945",
      "longitude": "-90.10111180569133"
    }
  },
  {
    "service_request": "2023-1024210",
    "request_type": "Trash/Recycling",
    "request_reason": "Request a Large Item Pick Up",
    "date_created": "2023-08-07T15:38:59.000",
    "date_modified": "2023-08-07T15:38:59.000",
    "request_status": "Pending",
    "responsible_agency": "Department of Sanitation",
    "final_address": "742 Jefferson Ave",
    "address_councildis": "A",
    "status": "Assigned to Contractor",
    "contractor": "Richards Disposal",
    "rowid": "1024210",
    "final_x": "3666536.2969",
    "final_y": "518267.560118",
    "longitude": "-90.11576514913773",
    "latitude": "29.919501566913905",
    "geocoded_column": {
      "latitude": "29.919501566913905",
      "longitude": "-90.11576514913773"
    }
  },
  {
    "service_request": "2023-1024209",
    "request_type": "Trash/Recycling",
    "request_reason": "Replace Trash Cart",
    "date_created": "2023-08-07T15:38:57.000",
    "date_modified": "2023-08-07T15:38:58.000",
    "request_status": "Pending",
    "responsible_agency": "Department of Sanitation",
    "final_address": "3619 Iberville St",
    "address_councildis": "B",
    "status": "Assigned to Contractor",
    "contractor": "Richards Disposal",
    "rowid": "1024209",
    "final_x": "3672756.59579",
    "final_y": "537670.222152",
    "longitude": "-90.09546909811347",
    "latitude": "29.97266930644409",
    "geocoded_column": {
      "latitude": "29.97266930644409",
      "longitude": "-90.09546909811347"
    }
  },
  {
    "service_request": "2023-1024208",
    "request_type": "Parks & Parkways",
    "request_reason": "Request Tree Service (Right of Way/Public Property)",
    "date_created": "2023-08-07T15:38:35.000",
    "date_modified": "2023-08-07T15:38:35.000",
    "request_status": "Pending",
    "responsible_agency": "Department of Parks & Parkway",
    "final_address": "3101 State Street Dr",
    "address_councildis": "A",
    "status": "Pending",
    "rowid": "1024208",
    "final_x": "3667405.77082",
    "final_y": "527313.908927",
    "longitude": "-90.1127164608465",
    "latitude": "29.944350709938462",
    "geocoded_column": {
      "latitude": "29.944350709938462",
      "longitude": "-90.1127164608465"
    }
  },
  {
    "service_request": "2023-1024207",
    "request_type": "Trash/Recycling",
    "request_reason": "Replace Trash Cart",
    "date_created": "2023-08-07T15:38:34.000",
    "date_modified": "2023-08-07T15:38:34.000",
    "request_status": "Pending",
    "responsible_agency": "Department of Sanitation",
    "final_address": "3617 Iberville St",
    "address_councildis": "B",
    "status": "Assigned to Contractor",
    "contractor": "Richards Disposal",
    "rowid": "1024207",
    "final_x": "3672745.13748",
    "final_y": "537677.1666",
    "longitude": "-90.09550504870256",
    "latitude": "29.972688741687655",
    "geocoded_column": {
      "latitude": "29.972688741687655",
      "longitude": "-90.09550504870256"
    }
  },
  {
    "service_request": "2023-1024206",
    "request_type": "Trash/Recycling",
    "request_reason": "Request a Large Item Pick Up",
    "date_created": "2023-08-07T15:32:34.000",
    "date_modified": "2023-08-07T16:06:56.000",
    "case_close_date": "2023-08-07T11:06:56.000",
    "request_status": "Closed",
    "responsible_agency": "Department of Sanitation",
    "final_address": "7010 Wayside Dr",
    "address_councildis": "E",
    "status": "Duplicate Request",
    "contractor": "Waste Pro",
    "contractor_action": "duplicate",
    "rowid": "1024206",
    "final_x": "3717633.2686",
    "final_y": "567697.243492",
    "longitude": "-89.95259933945253",
    "latitude": "30.05382241343707",
    "geocoded_column": {
      "latitude": "30.05382241343707",
      "longitude": "-89.95259933945253"
    }
  },
  {
    "service_request": "2023-1024205",
    "request_type": "Roads/Drainage",
    "request_reason": "Pothole",
    "date_created": "2023-08-07T15:32:04.000",
    "date_modified": "2023-08-07T15:32:04.000",
    "request_status": "Pending",
    "responsible_agency": "Department of Public Works",
    "final_address": "1312 Milan St",
    "address_councildis": "B",
    "status": "Pending",
    "rowid": "1024205",
    "final_x": "3671625.82823",
    "final_y": "520286.919608",
    "longitude": "-90.09963137110304",
    "latitude": "29.92490447494246",
    "geocoded_column": {
      "latitude": "29.92490447494246",
      "longitude": "-90.09963137110304"
    }
  },
  {
    "service_request": "2023-1024204",
    "request_type": "Trash/Recycling",
    "request_reason": "Replace Trash Cart",
    "date_created": "2023-08-07T15:30:03.000",
    "date_modified": "2023-08-07T15:30:03.000",
    "request_status": "Pending",
    "responsible_agency": "Department of Sanitation",
    "final_address": "2003 Broadway St",
    "address_councildis": "A",
    "status": "Assigned to Contractor",
    "contractor": "Richards Disposal",
    "rowid": "1024204",
    "final_x": "3665832.52532",
    "final_y": "528845.403968",
    "longitude": "-90.11763236678837",
    "latitude": "29.9486078152536",
    "geocoded_column": {
      "latitude": "29.9486078152536",
      "longitude": "-90.11763236678837"
    }
  },
  {
    "service_request": "2023-1024203",
    "request_type": "Traffic Signals/Signs/Striping/Streetlights",
    "request_reason": "Street Light Outage/Malfunction",
    "date_created": "2023-08-07T15:29:14.000",
    "date_modified": "2023-08-07T15:29:15.000",
    "request_status": "Pending",
    "responsible_agency": "Department of Public Works",
    "final_address": "CONSTANCE ST & GENERAL TAYLOR",
    "address_councildis": "B",
    "status": "Assigned to Contractor",
    "contractor": "Legacy Professional Services",
    "rowid": "1024203",
    "final_x": "3673204.3",
    "final_y": "518627.08",
    "longitude": "-90.09470528266617",
    "latitude": "29.92029362196211",
    "geocoded_column": {
      "latitude": "29.92029362196211",
      "longitude": "-90.09470528266617"
    }
  },
  {
    "service_request": "2023-1024202",
    "request_type": "Trash/Recycling",
    "request_reason": "Order Trash Cart",
    "date_created": "2023-08-07T15:29:05.000",
    "date_modified": "2023-08-07T15:29:06.000",
    "request_status": "Pending",
    "responsible_agency": "Department of Sanitation",
    "final_address": "6215 N Roman St",
    "address_councildis": "E",
    "status": "Assigned to Contractor",
    "contractor": "Waste Pro",
    "rowid": "1024202",
    "final_x": "3700998.19921",
    "final_y": "535633.13703",
    "longitude": "-90.00635203514689",
    "latitude": "29.966198923052893",
    "geocoded_column": {
      "latitude": "29.966198923052893",
      "longitude": "-90.00635203514689"
    }
  },
  {
    "service_request": "2023-1024201",
    "request_type": "Trash/Recycling",
    "request_reason": "Start Trash Service",
    "date_created": "2023-08-07T15:28:26.000",
    "date_modified": "2023-08-07T15:28:27.000",
    "request_status": "Pending",
    "responsible_agency": "Department of Sanitation",
    "final_address": "6215 N Roman St",
    "address_councildis": "E",
    "status": "Assigned to Contractor",
    "contractor": "Waste Pro",
    "rowid": "1024201",
    "final_x": "3700998.19921",
    "final_y": "535633.13703",
    "longitude": "-90.00635203514689",
    "latitude": "29.966198923052893",
    "geocoded_column": {
      "latitude": "29.966198923052893",
      "longitude": "-90.00635203514689"
    }
  },
  {
    "service_request": "2023-1024200",
    "request_type": "Traffic Signals/Signs/Striping/Streetlights",
    "request_reason": "Street Light Outage/Malfunction",
    "date_created": "2023-08-07T15:28:10.000",
    "date_modified": "2023-08-07T15:28:11.000",
    "request_status": "Pending",
    "responsible_agency": "Department of Public Works",
    "final_address": "GENERAL TAYLOR & LAUREL ST",
    "address_councildis": "B",
    "status": "Assigned to Contractor",
    "contractor": "Legacy Professional Services",
    "rowid": "1024200",
    "final_x": "3673287.2",
    "final_y": "518269.48",
    "longitude": "-90.09445581041595",
    "latitude": "29.91930787175648",
    "geocoded_column": {
      "latitude": "29.91930787175648",
      "longitude": "-90.09445581041595"
    }
  },
  {
    "service_request": "2023-1024199",
    "request_type": "Abandoned Vehicles",
    "request_reason": "Abandoned/Junk Vehicles",
    "date_created": "2023-08-07T15:26:54.000",
    "date_modified": "2023-08-07T15:26:54.000",
    "request_status": "Pending",
    "responsible_agency": "Department of Public Works",
    "final_address": "1400 BLK Poland Ave",
    "address_councildis": "D",
    "status": "Inspected",
    "rowid": "1024199",
    "final_x": "3693340.26092",
    "final_y": "536301.528891",
    "longitude": "-90.03051153580371",
    "latitude": "29.968278396515785",
    "geocoded_column": {
      "latitude": "29.968278396515785",
      "longitude": "-90.03051153580371"
    }
  },
  {
    "service_request": "2023-1024198",
    "request_type": "Trash/Recycling",
    "request_reason": "Order Recycling Cart",
    "date_created": "2023-08-07T15:21:27.000",
    "date_modified": "2023-08-07T15:21:28.000",
    "request_status": "Pending",
    "responsible_agency": "Department of Sanitation",
    "final_address": "2000 Barracks St",
    "address_councildis": "D",
    "status": "Pending",
    "rowid": "1024198",
    "final_x": "3680190.54645",
    "final_y": "537010.502536",
    "longitude": "-90.07201426035476",
    "latitude": "29.97063238609173",
    "geocoded_column": {
      "latitude": "29.97063238609173",
      "longitude": "-90.07201426035476"
    }
  },
  {
    "service_request": "2023-1024197",
    "request_type": "Trash/Recycling",
    "request_reason": "Request a Large Item Pick Up",
    "date_created": "2023-08-07T15:20:12.000",
    "date_modified": "2023-08-07T15:20:12.000",
    "request_status": "Pending",
    "responsible_agency": "Department of Sanitation",
    "final_address": "2000 Barracks St",
    "address_councildis": "D",
    "status": "Assigned to Contractor",
    "contractor": "Richards Disposal",
    "rowid": "1024197",
    "final_x": "3680190.54645",
    "final_y": "537010.502536",
    "longitude": "-90.07201426035476",
    "latitude": "29.97063238609173",
    "geocoded_column": {
      "latitude": "29.97063238609173",
      "longitude": "-90.07201426035476"
    }
  },
  {
    "service_request": "2023-1024196",
    "request_type": "Trash/Recycling",
    "request_reason": "Repair Trash Cart",
    "date_created": "2023-08-07T15:19:27.000",
    "date_modified": "2023-08-07T15:19:27.000",
    "request_status": "Pending",
    "responsible_agency": "Department of Sanitation",
    "final_address": "8137 Pritchard Pl",
    "address_councildis": "A",
    "status": "Assigned to Contractor",
    "contractor": "Richards Disposal",
    "rowid": "1024196",
    "final_x": "3665892.25658",
    "final_y": "533120.974852",
    "longitude": "-90.11730050149758",
    "latitude": "29.96036249912106",
    "geocoded_column": {
      "latitude": "29.96036249912106",
      "longitude": "-90.11730050149758"
    }
  },
  {
    "service_request": "2023-1024195",
    "request_type": "Abandoned Vehicles",
    "request_reason": "Abandoned/Junk Vehicles",
    "date_created": "2023-08-07T15:16:41.000",
    "date_modified": "2023-08-07T15:16:41.000",
    "request_status": "Pending",
    "responsible_agency": "Department of Public Works",
    "final_address": "4910 Toulon St",
    "address_councildis": "E",
    "status": "Pending",
    "rowid": "1024195",
    "final_x": "3723673.95455",
    "final_y": "560741.833758",
    "longitude": "-89.93377500835112",
    "latitude": "30.034496385032803",
    "geocoded_column": {
      "latitude": "30.034496385032803",
      "longitude": "-89.93377500835112"
    }
  },
  {
    "service_request": "2023-1024194",
    "request_type": "Property Maintenance",
    "request_reason": "Property Maintenance",
    "date_created": "2023-08-07T15:14:16.000",
    "date_modified": "2023-08-07T15:14:16.000",
    "request_status": "Pending",
    "responsible_agency": "Department of Code Enforcement",
    "final_address": "1001 Henry Clay Ave",
    "address_councildis": "A",
    "status": "Pending",
    "rowid": "1024194",
    "final_x": "3664114.85536",
    "final_y": "520229.992632",
    "longitude": "-90.12334305472245",
    "latitude": "29.924968170625775",
    "geocoded_column": {
      "latitude": "29.924968170625775",
      "longitude": "-90.12334305472245"
    }
  },
  {
    "service_request": "2023-1024193",
    "request_type": "Safety & Permits",
    "request_reason": "Safety & Permits Request (Cyber Incident Back Up)",
    "date_created": "2023-08-07T15:12:46.000",
    "date_modified": "2023-08-07T15:12:46.000",
    "request_status": "Pending",
    "responsible_agency": "Safety and Permits",
    "final_address": "1931 Orleans Ave",
    "address_councildis": "D",
    "status": "Pending",
    "rowid": "1024193",
    "final_x": "3679105.96098",
    "final_y": "535350.26855",
    "longitude": "-90.07549706731277",
    "latitude": "29.966100093909354",
    "geocoded_column": {
      "latitude": "29.966100093909354",
      "longitude": "-90.07549706731277"
    }
  },
  {
    "service_request": "2023-1024191",
    "request_type": "Trash/Recycling",
    "request_reason": "Replace Recycling Cart",
    "date_created": "2023-08-07T15:12:04.000",
    "date_modified": "2023-08-07T15:12:04.000",
    "request_status": "Pending",
    "responsible_agency": "Department of Sanitation",
    "final_address": "6300 Stratford Pl",
    "address_councildis": "C",
    "status": "Pending",
    "rowid": "1024191",
    "final_x": "3707257.9244",
    "final_y": "516236.67218",
    "longitude": "-89.98730367914291",
    "latitude": "29.912664721844667",
    "geocoded_column": {
      "latitude": "29.912664721844667",
      "longitude": "-89.98730367914291"
    }
  },
  {
    "service_request": "2023-1024189",
    "request_type": "Trash/Recycling",
    "request_reason": "Order Recycling Cart",
    "date_created": "2023-08-07T15:10:00.000",
    "date_modified": "2023-08-07T15:10:01.000",
    "request_status": "Pending",
    "responsible_agency": "Department of Sanitation",
    "final_address": "1006 Kerlerec St",
    "address_councildis": "C",
    "status": "Pending",
    "rowid": "1024189",
    "final_x": "3683316.30479",
    "final_y": "535390.855558",
    "longitude": "-90.06219949954834",
    "latitude": "29.966083936936197",
    "geocoded_column": {
      "latitude": "29.966083936936197",
      "longitude": "-90.06219949954834"
    }
  },
  {
    "service_request": "2023-1024188",
    "request_type": "Traffic Signals/Signs/Striping/Streetlights",
    "request_reason": "Street Light Outage/Malfunction",
    "date_created": "2023-08-07T15:09:24.000",
    "date_modified": "2023-08-07T15:09:25.000",
    "request_status": "Pending",
    "responsible_agency": "Department of Public Works",
    "final_address": "8003 Haney Dr",
    "address_councildis": "E",
    "status": "Assigned to Contractor",
    "contractor": "Legacy Professional Services",
    "rowid": "1024188",
    "final_x": "3711961.91307",
    "final_y": "568265.448933",
    "longitude": "-89.9705035541899",
    "latitude": "30.055571434362086",
    "geocoded_column": {
      "latitude": "30.055571434362086",
      "longitude": "-89.9705035541899"
    }
  },
  {
    "service_request": "2023-1024187",
    "request_type": "Traffic Signals/Signs/Striping/Streetlights",
    "request_reason": "Street Light Knocked Down/Leaning",
    "date_created": "2023-08-07T15:08:33.000",
    "date_modified": "2023-08-07T15:10:53.000",
    "request_status": "Pending",
    "responsible_agency": "Department of Public Works",
    "final_address": "8003 Haney Dr",
    "address_councildis": "E",
    "contractor": "Legacy Professional Services",
    "rowid": "1024187",
    "final_x": "3711961.91307",
    "final_y": "568265.448933",
    "longitude": "-89.9705035541899",
    "latitude": "30.055571434362086",
    "geocoded_column": {
      "latitude": "30.055571434362086",
      "longitude": "-89.9705035541899"
    }
  },
  {
    "service_request": "2023-1024186",
    "request_type": "Trash/Recycling",
    "request_reason": "Missed Trash Pick-Up",
    "date_created": "2023-08-07T15:07:24.000",
    "date_modified": "2023-08-07T15:57:10.000",
    "case_close_date": "2023-08-07T10:57:10.000",
    "request_status": "Closed",
    "responsible_agency": "Department of Sanitation",
    "final_address": "4910 Toulon St",
    "address_councildis": "E",
    "status": "Invalid Request",
    "contractor": "Waste Pro",
    "contractor_action": "Invalid Pick-Up",
    "rowid": "1024186",
    "final_x": "3723673.95455",
    "final_y": "560741.833758",
    "longitude": "-89.93377500835112",
    "latitude": "30.034496385032803",
    "geocoded_column": {
      "latitude": "30.034496385032803",
      "longitude": "-89.93377500835112"
    }
  },
  {
    "service_request": "2023-1024184",
    "request_type": "Trash/Recycling",
    "request_reason": "Order Trash Cart",
    "date_created": "2023-08-07T15:05:25.000",
    "date_modified": "2023-08-07T15:05:25.000",
    "request_status": "Pending",
    "responsible_agency": "Department of Sanitation",
    "final_address": "1350 Camp St",
    "address_councildis": "B",
    "status": "Assigned to Contractor",
    "contractor": "Richards Disposal",
    "rowid": "1024184",
    "final_x": "3680083.09602",
    "final_y": "524906.663036",
    "longitude": "-90.07277412542939",
    "latitude": "29.937354162686432",
    "geocoded_column": {
      "latitude": "29.937354162686432",
      "longitude": "-90.07277412542939"
    }
  },
  {
    "service_request": "2023-1024183",
    "request_type": "Trash/Recycling",
    "request_reason": "Illegal Dumping",
    "date_created": "2023-08-07T15:05:07.000",
    "date_modified": "2023-08-07T15:05:07.000",
    "request_status": "Pending",
    "responsible_agency": "Department of Sanitation",
    "final_address": "1820 Andry St B",
    "address_councildis": "E",
    "status": "Pending",
    "rowid": "1024183",
    "final_x": "3697907.51651",
    "final_y": "536783.40788",
    "longitude": "-90.01607052876352",
    "latitude": "29.969459811899334",
    "geocoded_column": {
      "latitude": "29.969459811899334",
      "longitude": "-90.01607052876352"
    }
  },
  {
    "service_request": "2023-1024180",
    "request_type": "Abandoned Vehicles",
    "request_reason": "Abandoned/Junk Vehicles",
    "date_created": "2023-08-07T15:01:44.000",
    "date_modified": "2023-08-07T15:05:21.000",
    "request_status": "Pending",
    "responsible_agency": "Department of Public Works",
    "final_address": "1930 Evergreen Ave",
    "address_councildis": "C",
    "status": "Pending",
    "rowid": "1024180",
    "final_x": "3688191.59606",
    "final_y": "524615.107708",
    "longitude": "-90.04718545753586",
    "latitude": "29.9363047147188",
    "geocoded_column": {
      "latitude": "29.9363047147188",
      "longitude": "-90.04718545753586"
    }
  },
  {
    "service_request": "2023-1024179",
    "request_type": "Trash/Recycling",
    "request_reason": "MIssed Recycling Pick-Up",
    "date_created": "2023-08-07T15:00:25.000",
    "date_modified": "2023-08-07T15:00:26.000",
    "request_status": "Pending",
    "responsible_agency": "Department of Sanitation",
    "final_address": "6526 Maumus Ave",
    "address_councildis": "C",
    "status": "Assigned to Contractor",
    "contractor": "Richards Disposal",
    "rowid": "1024179",
    "final_x": "3708030.07544",
    "final_y": "516738.182453",
    "longitude": "-89.9848479437465",
    "latitude": "29.914018737730416",
    "geocoded_column": {
      "latitude": "29.914018737730416",
      "longitude": "-89.9848479437465"
    }
  },
  {
    "service_request": "2023-1024178",
    "request_type": "Abandoned Vehicles",
    "request_reason": "Abandoned/Junk Vehicles",
    "date_created": "2023-08-07T14:59:05.000",
    "date_modified": "2023-08-07T14:59:05.000",
    "request_status": "Pending",
    "responsible_agency": "Department of Public Works",
    "final_address": "3436 Danneel St",
    "address_councildis": "B",
    "status": "Pending",
    "rowid": "1024178",
    "final_x": "3673368.48552",
    "final_y": "522722.450746",
    "longitude": "-90.09404721193376",
    "latitude": "29.93154969413919",
    "geocoded_column": {
      "latitude": "29.93154969413919",
      "longitude": "-90.09404721193376"
    }
  },
  {
    "service_request": "2023-1024177",
    "request_type": "Roads/Drainage",
    "request_reason": "Accessibility Ramps, Curbs and Sidewalk Repair",
    "date_created": "2023-08-07T14:59:01.000",
    "date_modified": "2023-08-07T14:59:01.000",
    "request_status": "Pending",
    "responsible_agency": "Department of Public Works",
    "final_address": "4216 Vincennes Pl",
    "address_councildis": "B",
    "status": "Pending",
    "rowid": "1024177",
    "final_x": "3668718.65633",
    "final_y": "531306.802626",
    "longitude": "-90.10843652600788",
    "latitude": "29.95529134318676",
    "geocoded_column": {
      "latitude": "29.95529134318676",
      "longitude": "-90.10843652600788"
    }
  },
  {
    "service_request": "2023-1024176",
    "request_type": "Abandoned Vehicles",
    "request_reason": "Abandoned/Junk Vehicles",
    "date_created": "2023-08-07T14:57:19.000",
    "date_modified": "2023-08-07T14:57:19.000",
    "request_status": "Pending",
    "responsible_agency": "Department of Public Works",
    "final_address": "3432 Danneel St",
    "address_councildis": "B",
    "status": "Pending",
    "rowid": "1024176",
    "final_x": "3673381.48296",
    "final_y": "522727.992442",
    "longitude": "-90.09400599125402",
    "latitude": "29.93156454547169",
    "geocoded_column": {
      "latitude": "29.93156454547169",
      "longitude": "-90.09400599125402"
    }
  },
  {
    "service_request": "2023-1024175",
    "request_type": "Trash/Recycling",
    "request_reason": "Repair Recycling Cart",
    "date_created": "2023-08-07T14:56:02.000",
    "date_modified": "2023-08-07T14:56:02.000",
    "request_status": "Pending",
    "responsible_agency": "Department of Sanitation",
    "final_address": "340 Nashville Ave",
    "address_councildis": "A",
    "status": "Pending",
    "rowid": "1024175",
    "final_x": "3665164.16442",
    "final_y": "517597.950902",
    "longitude": "-90.12011868437541",
    "latitude": "29.91770037031156",
    "geocoded_column": {
      "latitude": "29.91770037031156",
      "longitude": "-90.12011868437541"
    }
  },