[
  {
    "service_request": "2024-1121553",
    "request_type": "Trash/Recycling",
    "request_reason": "Request a Large Item Pick Up",
    "date_created": "2024-08-13T23:46:56.000",
    "date_modified": "2024-08-13T23:46:57.000",
    "request_status": "Pending",
    "responsible_agency": "Department of Sanitation",
    "final_address": "4827 Longfellow Dr",
    "address_councildis": "E",
    "status": "Assigned to Contractor",
    "contractor": "Waste Pro",
    "rowid": "1121553",
    "final_x": "3709634.35089",
    "final_y": "556371.908954",
    "longitude": "-89.97830502697984",
    "latitude": "30.022944853199533",
    "geocoded_column": {
      "latitude": "30.022944853199533",
      "longitude": "-89.97830502697984"
    }
  },
  {
    "service_request": "2024-1121552",
    "request_type": "Trash/Recycling",
    "request_reason": "Request a Large Item Pick Up",
    "date_created": "2024-08-13T23:45:04.000",
    "date_modified": "2024-08-13T23:45:05.000",
    "request_status": "Pending",
    "responsible_agency": "Department of Sanitation",
    "final_address": "4827 Longfellow Dr",
    "address_councildis": "E",
    "status": "Assigned to Contractor",
    "contractor": "Waste Pro",
    "rowid": "1121552",
    "final_x": "3709634.35089",
    "final_y": "556371.908954",
    "longitude": "-89.97830502697984",
    "latitude": "30.022944853199533",
    "geocoded_column": {
      "latitude": "30.022944853199533",
      "longitude": "-89.97830502697984"
    }
  },
  {
    "service_request": "2024-1121551",
    "request_type": "Abandoned Vehicles",
    "request_reason": "Abandoned/Junk Vehicles",
    "date_created": "2024-08-13T23:44:02.000",
    "date_modified": "2024-08-13T23:44:02.000",
    "request_status": "Pending",
    "responsible_agency": "Department of Public Works",
    "final_address": "7724 Willow St",
    "address_councildis": "A",
    "status": "Pending",
    "rowid": "1121551",
    "final_x": "3663353.88365",
    "final_y": "528001.403007",
    "longitude": "-90.12548661206665",
    "latitude": "29.946359160711342",
    "geocoded_column": {
      "latitude": "29.946359160711342",
      "longitude": "-90.12548661206665"
    }
  },
  {
    "service_request": "2024-1121550",
    "request_type": "Trash/Recycling",
    "request_reason": "Request a Large Item Pick Up",
    "date_created": "2024-08-13T23:18:07.000",
    "date_modified": "2024-08-13T23:18:08.000",
    "request_status": "Pending",
    "responsible_agency": "Department of Sanitation",
    "final_address": "5413 Burgundy St",
    "address_councildis": "E",
    "status": "Assigned to Contractor",
    "contractor": "Waste Pro",
    "rowid": "1121550",
    "final_x": "3697069.76682",
    "final_y": "533200.837316",
    "longitude": "-90.0188459887216",
    "latitude": "29.95963547257295",
    "geocoded_column": {
      "latitude": "29.95963547257295",
      "longitude": "-90.0188459887216"
    }
  },
  {
    "service_request": "2024-1121549",
    "request_type": "Traffic Signals/Signs/Striping/Streetlights",
    "request_reason": "Street Light Outage/Malfunction",
    "date_created": "2024-08-13T22:57:56.000",
    "date_modified": "2024-08-13T22:57:57.000",
    "request_status": "Pending",
    "responsible_agency": "Department of Public Works",
    "final_address": "24 Yosemite Dr",
    "address_councildis": "C",
    "status": "Assigned to Contractor",
    "contractor": "Legacy Professional Services",
    "rowid": "1121549",
    "final_x": "3699911.74276",
    "final_y": "517583.98047",
    "longitude": "-90.01044107953516",
    "latitude": "29.916604604388432",
    "geocoded_column": {
      "latitude": "29.916604604388432",
      "longitude": "-90.01044107953516"
    }
  },
  {
    "service_request": "2024-1121548",
    "request_type": "Trash/Recycling",
    "request_reason": "Replace Trash Cart",
    "date_created": "2024-08-13T22:47:18.000",
    "date_modified": "2024-08-13T22:47:19.000",
    "request_status": "Pending",
    "responsible_agency": "Department of Sanitation",
    "final_address": "6333 St Claude Ave",
    "address_councildis": "E",
    "status": "Assigned to Contractor",
    "contractor": "Waste Pro",
    "rowid": "1121548",
    "final_x": "3700424.03671",
    "final_y": "533042.174596",
    "longitude": "-90.0082598365813",
    "latitude": "29.959092974833766",
    "geocoded_column": {
      "latitude": "29.959092974833766",
      "longitude": "-90.0082598365813"
    }
  },
  {
    "service_request": "2024-1121547",
    "request_type": "Trash/Recycling",
    "request_reason": "Replace Trash Cart",
    "date_created": "2024-08-13T22:44:05.000",
    "date_modified": "2024-08-13T22:44:06.000",
    "request_status": "Pending",
    "responsible_agency": "Department of Sanitation",
    "final_address": "6329 St Claude Ave",
    "address_councildis": "E",
    "status": "Assigned to Contractor",
    "contractor": "Waste Pro",
    "rowid": "1121547",
    "final_x": "3700396.40509",
    "final_y": "533053.976196",
    "longitude": "-90.00834665892916",
    "latitude": "29.959126303614386",
    "geocoded_column": {
      "latitude": "29.959126303614386",
      "longitude": "-90.00834665892916"
    }
  },
  {
    "service_request": "2024-1121546",
    "request_type": "Trash/Recycling",
    "request_reason": "Request a Large Item Pick Up",
    "date_created": "2024-08-13T22:42:11.000",
    "date_modified": "2024-08-13T22:42:12.000",
    "request_status": "Pending",
    "responsible_agency": "Department of Sanitation",
    "final_address": "4715 Rhodes Dr",
    "address_councildis": "E",
    "status": "Assigned to Contractor",
    "contractor": "Waste Pro",
    "rowid": "1121546",
    "final_x": "3702603.64113",
    "final_y": "554175.997976",
    "longitude": "-90.00060103259554",
    "latitude": "30.017133677784727",
    "geocoded_column": {
      "latitude": "30.017133677784727",
      "longitude": "-90.00060103259554"
    }
  },
  {
    "service_request": "2024-1121545",
    "request_type": "Roads/Drainage",
    "request_reason": "Catch Basin - Clogged",
    "date_created": "2024-08-13T22:41:52.000",
    "date_modified": "2024-08-13T22:41:52.000",
    "request_status": "Pending",
    "responsible_agency": "Department of Public Works",
    "final_address": "930 Louisa St",
    "address_councildis": "C",
    "status": "Pending",
    "rowid": "1121545",
    "final_x": "3689392.36783",
    "final_y": "535360.460038",
    "longitude": "-90.04301258533728",
    "latitude": "29.96581362156598",
    "geocoded_column": {
      "latitude": "29.96581362156598",
      "longitude": "-90.04301258533728"
    }
  },
  {
    "service_request": "2024-1121544",
    "request_type": "Traffic Signals/Signs/Striping/Streetlights",
    "request_reason": "Street Light Outage/Malfunction",
    "date_created": "2024-08-13T22:21:29.000",
    "date_modified": "2024-08-13T22:21:30.000",
    "request_status": "Pending",
    "responsible_agency": "Department of Public Works",
    "final_address": "2064 Chippewa St",
    "address_councildis": "B",
    "status": "Assigned to Contractor",
    "contractor": "Legacy Professional Services",
    "rowid": "1121544",
    "final_x": "3680128.78779",
    "final_y": "521149.086521",
    "longitude": "-90.07276038097599",
    "latitude": "29.927020682162233",
    "geocoded_column": {
      "latitude": "29.927020682162233",
      "longitude": "-90.07276038097599"
    }
  },
  {
    "service_request": "2024-1121543",
    "request_type": "Trash/Recycling",
    "request_reason": "Replace Trash Cart",
    "date_created": "2024-08-13T21:46:40.000",
    "date_modified": "2024-08-13T21:46:40.000",
    "request_status": "Pending",
    "responsible_agency": "Department of Sanitation",
    "final_address": "6317 Story St",
    "address_councildis": "A",
    "status": "Assigned to Contractor",
    "contractor": "IV Waste",
    "rowid": "1121543",
    "final_x": "3666316.69114",
    "final_y": "526729.581246",
    "longitude": "-90.11617460869354",
    "latitude": "29.94277585245672",
    "geocoded_column": {
      "latitude": "29.94277585245672",
      "longitude": "-90.11617460869354"
    }
  },
  {
    "service_request": "2024-1121542",
    "request_type": "Trash/Recycling",
    "request_reason": "Order Recycling Cart",
    "date_created": "2024-08-13T21:39:14.000",
    "date_modified": "2024-08-13T21:39:14.000",
    "request_status": "Pending",
    "responsible_agency": "Department of Sanitation",
    "final_address": "2018 Cambronne St",
    "address_councildis": "A",
    "status": "Pending",
    "rowid": "1121542",
    "final_x": "3663143.28243",
    "final_y": "531326.667842",
    "longitude": "-90.12604093603818",
    "latitude": "29.955508669672373",
    "geocoded_column": {
      "latitude": "29.955508669672373",
      "longitude": "-90.12604093603818"
    }
  },
  {
    "service_request": "2024-1121541",
    "request_type": "Trash/Recycling",
    "request_reason": "Replace Trash Cart",
    "date_created": "2024-08-13T21:37:54.000",
    "date_modified": "2024-08-13T21:37:55.000",
    "request_status": "Pending",
    "responsible_agency": "Department of Sanitation",
    "final_address": "2018 Cambronne St",
    "address_councildis": "A",
    "status": "Assigned to Contractor",
    "contractor": "IV Waste",
    "rowid": "1121541",
    "final_x": "3663143.28243",
    "final_y": "531326.667842",
    "longitude": "-90.12604093603818",
    "latitude": "29.955508669672373",
    "geocoded_column": {
      "latitude": "29.955508669672373",
      "longitude": "-90.12604093603818"
    }
  },
  {
    "service_request": "2024-1121540",
    "request_type": "Traffic Signals/Signs/Striping/Streetlights",
    "request_reason": "Street Light Outage/Malfunction",
    "date_created": "2024-08-13T21:12:20.000",
    "date_modified": "2024-08-13T21:12:21.000",
    "request_status": "Pending",
    "responsible_agency": "Department of Public Works",
    "final_address": "PITT ST & NASHVILLE AVE",
    "address_councildis": "A",
    "status": "Assigned to Contractor",
    "contractor": "Legacy Professional Services",
    "rowid": "1121540",
    "final_x": "3665970.4",
    "final_y": "521003.58",
    "longitude": "-90.11745976947148",
    "latitude": "29.927041283553713",
    "geocoded_column": {
      "latitude": "29.927041283553713",
      "longitude": "-90.11745976947148"
    }
  },
  {
    "service_request": "2024-1121539",
    "request_type": "Property Maintenance",
    "request_reason": "Property Maintenance",
    "date_created": "2024-08-13T21:02:07.000",
    "date_modified": "2024-08-13T21:02:07.000",
    "request_status": "Pending",
    "responsible_agency": "Department of Code Enforcement",
    "final_address": "607 Lang St",
    "address_councildis": "C",
    "status": "Pending",
    "rowid": "1121539",
    "final_x": "3702005.96106",
    "final_y": "520722.266937",
    "longitude": "-90.0037159709561",
    "latitude": "29.92516716499408",
    "geocoded_column": {
      "latitude": "29.92516716499408",
      "longitude": "-90.0037159709561"
    }
  },
  {
    "service_request": "2024-1121537",
    "request_type": "Trash/Recycling",
    "request_reason": "Request a Large Item Pick Up",
    "date_created": "2024-08-13T20:22:03.000",
    "date_modified": "2024-08-13T20:22:04.000",
    "request_status": "Pending",
    "responsible_agency": "Department of Sanitation",
    "final_address": "2538 DAbadie St",
    "address_councildis": "D",
    "status": "Assigned to Contractor",
    "contractor": "IV Waste",
    "rowid": "1121537",
    "final_x": "3679690.68002",
    "final_y": "540588.856907",
    "longitude": "-90.0734686433955",
    "latitude": "29.98048674485679",
    "geocoded_column": {
      "latitude": "29.98048674485679",
      "longitude": "-90.0734686433955"
    }
  },
  {
    "service_request": "2024-1121536",
    "request_type": "Roads/Drainage",
    "request_reason": "Pothole",
    "date_created": "2024-08-13T20:14:37.000",
    "date_modified": "2024-08-13T20:14:37.000",
    "request_status": "Pending",
    "responsible_agency": "Department of Public Works",
    "final_address": "MORGAN ST & BOUNY ST",
    "address_councildis": "C",
    "status": "Pending",
    "rowid": "1121536",
    "final_x": "3685629.52",
    "final_y": "530769.69",
    "longitude": "-90.05505724029611",
    "latitude": "29.953306558824757",
    "geocoded_column": {
      "latitude": "29.953306558824757",
      "longitude": "-90.05505724029611"
    }
  },
  {
    "service_request": "2024-1121535",
    "request_type": "Roads/Drainage",
    "request_reason": "Pothole",
    "date_created": "2024-08-13T20:12:18.000",
    "date_modified": "2024-08-13T20:12:18.000",
    "request_status": "Pending",
    "responsible_agency": "Department of Public Works",
    "final_address": "MORGAN ST & BOUNY ST",
    "address_councildis": "C",
    "status": "Pending",
    "rowid": "1121535",
    "final_x": "3685629.52",
    "final_y": "530769.69",
    "longitude": "-90.05505724029611",
    "latitude": "29.953306558824757",
    "geocoded_column": {
      "latitude": "29.953306558824757",
      "longitude": "-90.05505724029611"
    }
  },
  {
    "service_request": "2024-1121534",
    "request_type": "Property Maintenance",
    "request_reason": "Property Maintenance",
    "date_created": "2024-08-13T20:08:08.000",
    "date_modified": "2024-08-13T20:08:08.000",
    "request_status": "Pending",
    "responsible_agency": "Department of Code Enforcement",
    "final_address": "4762 Perrault Walk",
    "address_councildis": "E",
    "status": "Pending",
    "rowid": "1121534",
    "final_x": "3709865.02366",
    "final_y": "555866.241305",
    "longitude": "-89.97759506462184",
    "latitude": "30.021546962367218",
    "geocoded_column": {
      "latitude": "30.021546962367218",
      "longitude": "-89.97759506462184"
    }
  },
  {
    "service_request": "2024-1121533",
    "request_type": "Property Maintenance",
    "request_reason": "Property Maintenance",
    "date_created": "2024-08-13T19:52:36.000",
    "date_modified": "2024-08-13T19:52:36.000",
    "request_status": "Pending",
    "responsible_agency": "Department of Code Enforcement",
    "final_address": "2100 Mirabeau Ave",
    "address_councildis": "D",
    "status": "Pending",
    "rowid": "1121533",
    "final_x": "3683132.25295",
    "final_y": "550564.339092",
    "longitude": "-90.06224918013726",
    "latitude": "30.007811273564865",
    "geocoded_column": {
      "latitude": "30.007811273564865",
      "longitude": "-90.06224918013726"
    }
  },
  {
    "service_request": "2024-1121532",
    "request_type": "Trash/Recycling",
    "request_reason": "Order Recycling Cart",
    "date_created": "2024-08-13T19:51:45.000",
    "date_modified": "2024-08-13T19:51:45.000",
    "request_status": "Pending",
    "responsible_agency": "Department of Sanitation",
    "final_address": "2814 Palmer Ave",
    "address_councildis": "A",
    "status": "Pending",
    "rowid": "1121532",
    "final_x": "3666851.50989",
    "final_y": "526969.93011",
    "longitude": "-90.11447798073934",
    "latitude": "29.943421102460675",
    "geocoded_column": {
      "latitude": "29.943421102460675",
      "longitude": "-90.11447798073934"
    }
  },
  {
    "service_request": "2024-1121531",
    "request_type": "Property Maintenance",
    "request_reason": "Property Maintenance",
    "date_created": "2024-08-13T19:45:47.000",
    "date_modified": "2024-08-13T19:45:47.000",
    "request_status": "Pending",
    "responsible_agency": "Department of Code Enforcement",
    "final_address": "1300 St Bernard Ave",
    "address_councildis": "C",
    "status": "Pending",
    "rowid": "1121531",
    "final_x": "3682811.5492",
    "final_y": "536558.891399",
    "longitude": "-90.06375263366567",
    "latitude": "29.969311019635704",
    "geocoded_column": {
      "latitude": "29.969311019635704",
      "longitude": "-90.06375263366567"
    }
  },
  {
    "service_request": "2024-1121530",
    "request_type": "Trash/Recycling",
    "request_reason": "Request a Large Item Pick Up",
    "date_created": "2024-08-13T19:35:56.000",
    "date_modified": "2024-08-13T19:35:57.000",
    "request_status": "Pending",
    "responsible_agency": "Department of Sanitation",
    "final_address": "7015 Lake Willow Dr",
    "address_councildis": "E",
    "status": "Assigned to Contractor",
    "contractor": "Waste Pro",
    "rowid": "1121530",
    "final_x": "3702522.84855",
    "final_y": "558959.186396",
    "longitude": "-90.00068053410376",
    "latitude": "30.030288186723276",
    "geocoded_column": {
      "latitude": "30.030288186723276",
      "longitude": "-90.00068053410376"
    }
  },
  {
    "service_request": "2024-1121529",
    "request_type": "Trash/Recycling",
    "request_reason": "Request a Large Item Pick Up",
    "date_created": "2024-08-13T19:18:50.000",
    "date_modified": "2024-08-13T19:18:51.000",
    "request_status": "Pending",
    "responsible_agency": "Department of Sanitation",
    "final_address": "8005 Plum St",
    "address_councildis": "A",
    "status": "Assigned to Contractor",
    "contractor": "IV Waste",
    "rowid": "1121529",
    "final_x": "3662504.24909",
    "final_y": "528411.142592",
    "longitude": "-90.1281556128474",
    "latitude": "29.947510412351736",
    "geocoded_column": {
      "latitude": "29.947510412351736",
      "longitude": "-90.1281556128474"
    }
  },
  {
    "service_request": "2024-1121528",
    "request_type": "Trash/Recycling",
    "request_reason": "Request a Large Item Pick Up",
    "date_created": "2024-08-13T18:29:47.000",
    "date_modified": "2024-08-13T18:29:48.000",
    "request_status": "Pending",
    "responsible_agency": "Department of Sanitation",
    "final_address": "1719 Marais St",
    "address_councildis": "C",
    "status": "Assigned to Contractor",
    "contractor": "IV Waste",
    "rowid": "1121528",
    "final_x": "3683268.21858",
    "final_y": "536564.995847",
    "longitude": "-90.06231022449465",
    "latitude": "29.969313883991664",
    "geocoded_column": {
      "latitude": "29.969313883991664",
      "longitude": "-90.06231022449465"
    }
  },
  {
    "service_request": "2024-1121524",
    "request_type": "Trash/Recycling",
    "request_reason": "Replace Trash Cart",
    "date_created": "2024-08-13T17:50:44.000",
    "date_modified": "2024-08-13T17:50:45.000",
    "request_status": "Pending",
    "responsible_agency": "Department of Sanitation",
    "final_address": "4852 Constance St",
    "address_councildis": "B",
    "status": "Assigned to Contractor",
    "contractor": "IV Waste",
    "rowid": "1121524",
    "final_x": "3669168.36673",
    "final_y": "518184.48383",
    "longitude": "-90.10745979754064",
    "latitude": "29.91919596702823",
    "geocoded_column": {
      "latitude": "29.91919596702823",
      "longitude": "-90.10745979754064"
    }
  },
  {
    "service_request": "2024-1121523",
    "request_type": "Abandoned Vehicles",
    "request_reason": "Abandoned/Junk Vehicles",
    "date_created": "2024-08-13T17:44:59.000",
    "date_modified": "2024-08-13T17:44:59.000",
    "request_status": "Pending",
    "responsible_agency": "Department of Public Works",
    "final_address": "2833 DAbadie St",
    "address_councildis": "D",
    "status": "Pending",
    "rowid": "1121523",
    "final_x": "3678783.59886",
    "final_y": "541378.354828",
    "longitude": "-90.07630624148166",
    "latitude": "29.98268498247671",
    "geocoded_column": {
      "latitude": "29.98268498247671",
      "longitude": "-90.07630624148166"
    }
  },
  {
    "service_request": "2024-1121522",
    "request_type": "Property Maintenance",
    "request_reason": "Property Maintenance",
    "date_created": "2024-08-13T17:40:47.000",
    "date_modified": "2024-08-13T17:40:47.000",
    "request_status": "Pending",
    "responsible_agency": "Department of Code Enforcement",
    "final_address": "1600 BLK Allen Toussaint Blvd",
    "address_councildis": "D",
    "status": "Pending",
    "rowid": "1121522",
    "final_x": "3679267.71492",
    "final_y": "555362.034077",
    "longitude": "-90.0742918518711",
    "latitude": "30.021120510750432",
    "geocoded_column": {
      "latitude": "30.021120510750432",
      "longitude": "-90.0742918518711"
    }
  },
  {
    "service_request": "2024-1121520",
    "request_type": "Trash/Recycling",
    "request_reason": "Missed Trash Pick-Up",
    "date_created": "2024-08-13T17:17:42.000",
    "date_modified": "2024-08-13T17:17:43.000",
    "request_status": "Pending",
    "responsible_agency": "Department of Sanitation",
    "final_address": "732 City Park Ave",
    "address_councildis": "A",
    "status": "Assigned to Contractor",
    "contractor": "IV Waste",
    "rowid": "1121520",
    "final_x": "3670348.97671",
    "final_y": "541694.462092",
    "longitude": "-90.10293634902916",
    "latitude": "29.983805901099217",
    "geocoded_column": {
      "latitude": "29.983805901099217",
      "longitude": "-90.10293634902916"
    }
  },
  {
    "service_request": "2024-1121519",
    "request_type": "Trash/Recycling",
    "request_reason": "Replace Trash Cart",
    "date_created": "2024-08-13T17:11:27.000",
    "date_modified": "2024-08-13T17:11:28.000",
    "request_status": "Pending",
    "responsible_agency": "Department of Sanitation",
    "final_address": "7511 Branch Dr",
    "address_councildis": "E",
    "status": "Assigned to Contractor",
    "contractor": "Waste Pro",
    "rowid": "1121519",
    "final_x": "3715205.41048",
    "final_y": "568125.461093",
    "longitude": "-89.9602568955529",
    "latitude": "30.05508005401182",
    "geocoded_column": {
      "latitude": "30.05508005401182",
      "longitude": "-89.9602568955529"
    }
  },
  {
    "service_request": "2024-1121518",
    "request_type": "Trash/Recycling",
    "request_reason": "Order Recycling Cart",
    "date_created": "2024-08-13T17:01:17.000",
    "date_modified": "2024-08-13T17:01:17.000",
    "request_status": "Pending",
    "responsible_agency": "Department of Sanitation",
    "final_address": "3568 Roger Williams St",
    "address_councildis": "D",
    "status": "Pending",
    "rowid": "1121518",
    "final_x": "3675766.12533",
    "final_y": "543960.642958",
    "longitude": "-90.08574813889268",
    "latitude": "29.989876055970292",
    "geocoded_column": {
      "latitude": "29.989876055970292",
      "longitude": "-90.08574813889268"
    }
  },
  {
    "service_request": "2024-1121517",
    "request_type": "Trash/Recycling",
    "request_reason": "Request a Large Item Pick Up",
    "date_created": "2024-08-13T16:59:19.000",
    "date_modified": "2024-08-13T16:59:20.000",
    "request_status": "Pending",
    "responsible_agency": "Department of Sanitation",
    "final_address": "4623 Dart St",
    "address_councildis": "B",
    "status": "Assigned to Contractor",
    "contractor": "IV Waste",
    "rowid": "1121517",
    "final_x": "3669207.88385",
    "final_y": "531658.224579",
    "longitude": "-90.106879842914",
    "latitude": "29.956243248612864",
    "geocoded_column": {
      "latitude": "29.956243248612864",
      "longitude": "-90.106879842914"
    }
  },
  {
    "service_request": "2024-1121516",
    "request_type": "Trash/Recycling",
    "request_reason": "Order Trash Cart",
    "date_created": "2024-08-13T16:48:48.000",
    "date_modified": "2024-08-13T16:48:49.000",
    "request_status": "Pending",
    "responsible_agency": "Department of Sanitation",
    "final_address": "6030 Hurst St",
    "address_councildis": "A",
    "status": "Assigned to Contractor",
    "contractor": "IV Waste",
    "rowid": "1121516",
    "final_x": "3665256.5074",
    "final_y": "521786.983866",
    "longitude": "-90.11968715854152",
    "latitude": "29.92921620713637",
    "geocoded_column": {
      "latitude": "29.92921620713637",
      "longitude": "-90.11968715854152"
    }
  },
  {
    "service_request": "2024-1121515",
    "request_type": "Trash/Recycling",
    "request_reason": "Repair Trash Cart",
    "date_created": "2024-08-13T16:47:03.000",
    "date_modified": "2024-08-13T16:47:04.000",
    "request_status": "Pending",
    "responsible_agency": "Department of Sanitation",
    "final_address": "6030 Hurst St",
    "address_councildis": "A",
    "status": "Assigned to Contractor",
    "contractor": "IV Waste",
    "rowid": "1121515",
    "final_x": "3665256.5074",
    "final_y": "521786.983866",
    "longitude": "-90.11968715854152",
    "latitude": "29.92921620713637",
    "geocoded_column": {
      "latitude": "29.92921620713637",
      "longitude": "-90.11968715854152"
    }
  },
  {
    "service_request": "2024-1121514",
    "request_type": "Traffic Signals/Signs/Striping/Streetlights",
    "request_reason": "Street Light Outage/Malfunction",
    "date_created": "2024-08-13T16:45:29.000",
    "date_modified": "2024-08-13T16:45:30.000",
    "request_status": "Pending",
    "responsible_agency": "Department of Public Works",
    "final_address": "5860 W Louis Prima Dr",
    "address_councildis": "E",
    "status": "Assigned to Contractor",
    "contractor": "Legacy Professional Services",
    "rowid": "1121514",
    "final_x": "3715168.22885",
    "final_y": "562951.864224",
    "longitude": "-89.96057032858108",
    "latitude": "30.040855996101165",
    "geocoded_column": {
      "latitude": "30.040855996101165",
      "longitude": "-89.96057032858108"
    }
  },
  {
    "service_request": "2024-1121513",
    "request_type": "Trash/Recycling",
    "request_reason": "Request a Large Item Pick Up",
    "date_created": "2024-08-13T16:42:44.000",
    "date_modified": "2024-08-13T16:42:44.000",
    "request_status": "Pending",
    "responsible_agency": "Department of Sanitation",
    "final_address": "2311 New Orleans St",
    "address_councildis": "D",
    "status": "Assigned to Contractor",
    "contractor": "IV Waste",
    "rowid": "1121513",
    "final_x": "3682081.27938",
    "final_y": "540628.059083",
    "longitude": "-90.06591673768328",
    "latitude": "29.980522046188902",
    "geocoded_column": {
      "latitude": "29.980522046188902",
      "longitude": "-90.06591673768328"
    }
  },
  {
    "service_request": "2024-1121512",
    "request_type": "Property Maintenance",
    "request_reason": "Property Maintenance",
    "date_created": "2024-08-13T16:38:07.000",
    "date_modified": "2024-08-13T16:38:07.000",
    "request_status": "Pending",
    "responsible_agency": "Department of Code Enforcement",
    "final_address": "2766 Jonquil St",
    "address_councildis": "D",
    "status": "Pending",
    "rowid": "1121512",
    "final_x": "3688301.16399",
    "final_y": "547235.478737",
    "longitude": "-90.04603725656494",
    "latitude": "29.99849944530731",
    "geocoded_column": {
      "latitude": "29.99849944530731",
      "longitude": "-90.04603725656494"
    }
  },
  {
    "service_request": "2024-1121511",
    "request_type": "Trash/Recycling",
    "request_reason": "Replace Recycling Cart",
    "date_created": "2024-08-13T16:35:04.000",
    "date_modified": "2024-08-13T16:35:04.000",
    "request_status": "Pending",
    "responsible_agency": "Department of Sanitation",
    "final_address": "7715 Hampson St",
    "address_councildis": "A",
    "status": "Pending",
    "rowid": "1121511",
    "final_x": "3661811.6377",
    "final_y": "526215.51379",
    "longitude": "-90.13041524437823",
    "latitude": "29.941493145815716",
    "geocoded_column": {
      "latitude": "29.941493145815716",
      "longitude": "-90.13041524437823"
    }
  },
  {
    "service_request": "2024-1121510",
    "request_type": "Trash/Recycling",
    "request_reason": "Replace Recycling Cart",
    "date_created": "2024-08-13T16:32:40.000",
    "date_modified": "2024-08-13T16:32:40.000",
    "request_status": "Pending",
    "responsible_agency": "Department of Sanitation",
    "final_address": "7713 Hampson St",
    "address_councildis": "A",
    "status": "Pending",
    "rowid": "1121510",
    "final_x": "3661821.72134",
    "final_y": "526206.190078",
    "longitude": "-90.13038371721734",
    "latitude": "29.941467217487762",
    "geocoded_column": {
      "latitude": "29.941467217487762",
      "longitude": "-90.13038371721734"
    }
  },
  {
    "service_request": "2024-1121509",
    "request_type": "Trash/Recycling",
    "request_reason": "Missed Trash Pick-Up",
    "date_created": "2024-08-13T16:32:27.000",
    "date_modified": "2024-08-13T16:32:28.000",
    "request_status": "Pending",
    "responsible_agency": "Department of Sanitation",
    "final_address": "44 E Blue Ridge Ct",
    "address_councildis": "E",
    "status": "Assigned to Contractor",
    "contractor": "Waste Pro",
    "rowid": "1121509",
    "final_x": "3714301.4188",
    "final_y": "567489.161188",
    "longitude": "-89.96313824530559",
    "latitude": "30.053360244530438",
    "geocoded_column": {
      "latitude": "30.053360244530438",
      "longitude": "-89.96313824530559"
    }
  },
  {
    "service_request": "2024-1121508",
    "request_type": "Trash/Recycling",
    "request_reason": "Replace Trash Cart",
    "date_created": "2024-08-13T16:31:59.000",
    "date_modified": "2024-08-13T16:32:00.000",
    "request_status": "Pending",
    "responsible_agency": "Department of Sanitation",
    "final_address": "7713 Hampson St",
    "address_councildis": "A",
    "status": "Assigned to Contractor",
    "contractor": "IV Waste",
    "rowid": "1121508",
    "final_x": "3661821.72134",
    "final_y": "526206.190078",
    "longitude": "-90.13038371721734",
    "latitude": "29.941467217487762",
    "geocoded_column": {
      "latitude": "29.941467217487762",
      "longitude": "-90.13038371721734"
    }
  },
  {
    "service_request": "2024-1121507",
    "request_type": "Trash/Recycling",
    "request_reason": "Replace Trash Cart",
    "date_created": "2024-08-13T16:29:58.000",
    "date_modified": "2024-08-13T16:29:59.000",
    "request_status": "Pending",
    "responsible_agency": "Department of Sanitation",
    "final_address": "7715 Hampson St",
    "address_councildis": "A",
    "status": "Assigned to Contractor",
    "contractor": "IV Waste",
    "rowid": "1121507",
    "final_x": "3661811.6377",
    "final_y": "526215.51379",
    "longitude": "-90.13041524437823",
    "latitude": "29.941493145815716",
    "geocoded_column": {
      "latitude": "29.941493145815716",
      "longitude": "-90.13041524437823"
    }
  },
  {
    "service_request": "2024-1121506",
    "request_type": "Abandoned Vehicles",
    "request_reason": "Abandoned/Junk Vehicles",
    "date_created": "2024-08-13T16:29:11.000",
    "date_modified": "2024-08-13T16:29:11.000",
    "request_status": "Pending",
    "responsible_agency": "Department of Public Works",
    "final_address": "1621 Clio St",
    "address_councildis": "B",
    "status": "Pending",
    "rowid": "1121506",
    "final_x": "3679572.99176",
    "final_y": "526571.85523",
    "longitude": "-90.07432679477306",
    "latitude": "29.941948309782834",
    "geocoded_column": {
      "latitude": "29.941948309782834",
      "longitude": "-90.07432679477306"
    }
  },
  {
    "service_request": "2024-1121505",
    "request_type": "Roads/Drainage",
    "request_reason": "Road Shoulder Repair",
    "date_created": "2024-08-13T16:25:53.000",
    "date_modified": "2024-08-13T16:26:18.000",
    "case_close_date": "2024-08-13T11:26:18.000",
    "request_status": "Closed",
    "responsible_agency": "Department of Public Works",
    "final_address": "545 Delacroix Rd",
    "address_councildis": "C",
    "status": "Resolved",
    "rowid": "1121505",
    "final_x": "3724315.76185",
    "final_y": "514631.836403",
    "longitude": "-89.93352693131052",
    "latitude": "29.907690003901877",
    "geocoded_column": {
      "latitude": "29.907690003901877",
      "longitude": "-89.93352693131052"
    }
  },
  {
    "service_request": "2024-1121504",
    "request_type": "Trash/Recycling",
    "request_reason": "Request a Large Item Pick Up",
    "date_created": "2024-08-13T16:25:26.000",
    "date_modified": "2024-08-13T16:25:27.000",
    "request_status": "Pending",
    "responsible_agency": "Department of Sanitation",
    "final_address": "5723 Canal Blvd",
    "address_councildis": "A",
    "status": "Assigned to Contractor",
    "contractor": "IV Waste",
    "rowid": "1121504",
    "final_x": "3668442.10318",
    "final_y": "545619.71528",
    "longitude": "-90.10882680448029",
    "latitude": "29.994655169761177",
    "geocoded_column": {
      "latitude": "29.994655169761177",
      "longitude": "-90.10882680448029"
    }
  },
  {
    "service_request": "2024-1121503",
    "request_type": "Trash/Recycling",
    "request_reason": "Request a Large Item Pick Up",
    "date_created": "2024-08-13T16:23:25.000",
    "date_modified": "2024-08-13T16:23:26.000",
    "request_status": "Pending",
    "responsible_agency": "Department of Sanitation",
    "final_address": "630 Jefferson Ave",
    "address_councildis": "A",
    "status": "Assigned to Contractor",
    "contractor": "IV Waste",
    "rowid": "1121503",
    "final_x": "3666490.48948",
    "final_y": "517803.138486",
    "longitude": "-90.11592531597557",
    "latitude": "29.9182258912494",
    "geocoded_column": {
      "latitude": "29.9182258912494",
      "longitude": "-90.11592531597557"
    }
  },
  {
    "service_request": "2024-1121502",
    "request_type": "Roads/Drainage",
    "request_reason": "Catch Basin - Broken/Damage",
    "date_created": "2024-08-13T16:20:57.000",
    "date_modified": "2024-08-13T16:20:57.000",
    "request_status": "Pending",
    "responsible_agency": "Department of Public Works",
    "final_address": "1300 BLK Audubon St",
    "address_councildis": "A",
    "status": "Pending",
    "rowid": "1121502",
    "final_x": "3664709.80735",
    "final_y": "526764.084711",
    "longitude": "-90.12124679193",
    "latitude": "29.94291756219088",
    "geocoded_column": {
      "latitude": "29.94291756219088",
      "longitude": "-90.12124679193"
    }
  },
  {
    "service_request": "2024-1121501",
    "request_type": "Roads/Drainage",
    "request_reason": "Road Shoulder Repair",
    "date_created": "2024-08-13T16:15:08.000",
    "date_modified": "2024-08-13T16:15:08.000",
    "request_status": "Pending",
    "responsible_agency": "Department of Public Works",
    "final_address": "4700 BLK Mandeville St",
    "address_councildis": "D",
    "status": "Pending",
    "rowid": "1121501",
    "final_x": "3684699.06331",
    "final_y": "550448.686948",
    "longitude": "-90.05730323950169",
    "latitude": "30.007445388480637",
    "geocoded_column": {
      "latitude": "30.007445388480637",
      "longitude": "-90.05730323950169"
    }
  },
  {
    "service_request": "2024-1121499",
    "request_type": "Roads/Drainage",
    "request_reason": "Road Shoulder Repair",
    "date_created": "2024-08-13T16:13:19.000",
    "date_modified": "2024-08-13T16:13:19.000",
    "request_status": "Pending",
    "responsible_agency": "Department of Public Works",
    "final_address": "4700 BLK Mandeville St",
    "address_councildis": "D",
    "status": "Pending",
    "rowid": "1121499",
    "final_x": "3684699.06331",
    "final_y": "550448.686948",
    "longitude": "-90.05730323950169",
    "latitude": "30.007445388480637",
    "geocoded_column": {
      "latitude": "30.007445388480637",
      "longitude": "-90.05730323950169"
    }
  },
  {
    "service_request": "2024-1121498",
    "request_type": "Roads/Drainage",
    "request_reason": "Road Shoulder Repair",
    "date_created": "2024-08-13T16:10:21.000",
    "date_modified": "2024-08-13T16:10:21.000",
    "request_status": "Pending",
    "responsible_agency": "Department of Public Works",
    "final_address": "4700 BLK Mandeville St",
    "address_councildis": "D",
    "status": "Pending",
    "rowid": "1121498",
    "final_x": "3684699.06331",
    "final_y": "550448.686948",
    "longitude": "-90.05730323950169",
    "latitude": "30.007445388480637",
    "geocoded_column": {
      "latitude": "30.007445388480637",
      "longitude": "-90.05730323950169"
    }
  },
  {
    "service_request": "2024-1121497",
    "request_type": "Abandoned Vehicles",
    "request_reason": "Abandoned/Junk Vehicles",
    "date_created": "2024-08-13T16:01:25.000",
    "date_modified": "2024-08-13T16:01:59.000",
    "request_status": "Pending",
    "responsible_agency": "Department of Public Works",
    "final_address": "6017 Craigie Rd",
    "address_councildis": "E",
    "status": "Pending",
    "rowid": "1121497",
    "final_x": "3695357.80586",
    "final_y": "558709.61014",
    "longitude": "-90.02333103141439",
    "latitude": "30.029829132647986",
    "geocoded_column": {
      "latitude": "30.029829132647986",
      "longitude": "-90.02333103141439"
    }
  },
  {
    "service_request": "2024-1121496",
    "request_type": "Parks & Parkways",
    "request_reason": "Request Grass Cutting Service (City Owned Property)",
    "date_created": "2024-08-13T15:59:12.000",
    "date_modified": "2024-08-13T15:59:12.000",
    "request_status": "Pending",
    "responsible_agency": "Department of Parks & Parkway",
    "final_address": "7800 BLK Star St",
    "address_councildis": "E",
    "status": "Pending",
    "rowid": "1121496",
    "final_x": "3720600.76874",
    "final_y": "574569.116397",
    "longitude": "-89.94295636945121",
    "latitude": "30.072618525031217",
    "geocoded_column": {
      "latitude": "30.072618525031217",
      "longitude": "-89.94295636945121"
    }
  },
  {
    "service_request": "2024-1121494",
    "request_type": "Trash/Recycling",
    "request_reason": "Order Recycling Cart",
    "date_created": "2024-08-13T15:56:45.000",
    "date_modified": "2024-08-13T15:56:46.000",
    "request_status": "Pending",
    "responsible_agency": "Department of Sanitation",
    "final_address": "8530 Dinkins St",
    "address_councildis": "E",
    "status": "Pending",
    "rowid": "1121494",
    "final_x": "3703686.73124",
    "final_y": "562840.55664",
    "longitude": "-89.99685962664172",
    "latitude": "30.040923163701216",
    "geocoded_column": {
      "latitude": "30.040923163701216",
      "longitude": "-89.99685962664172"
    }
  },
  {
    "service_request": "2024-1121493",
    "request_type": "Trash/Recycling",
    "request_reason": "Repair Trash Cart",
    "date_created": "2024-08-13T15:56:07.000",
    "date_modified": "2024-08-13T15:56:08.000",
    "request_status": "Pending",
    "responsible_agency": "Department of Sanitation",
    "final_address": "8530 Dinkins St",
    "address_councildis": "E",
    "status": "Assigned to Contractor",
    "contractor": "Waste Pro",
    "rowid": "1121493",
    "final_x": "3703686.73124",
    "final_y": "562840.55664",
    "longitude": "-89.99685962664172",
    "latitude": "30.040923163701216",
    "geocoded_column": {
      "latitude": "30.040923163701216",
      "longitude": "-89.99685962664172"
    }
  },
  {
    "service_request": "2024-1121492",
    "request_type": "Trash/Recycling",
    "request_reason": "Request a Large Item Pick Up",
    "date_created": "2024-08-13T15:56:02.000",
    "date_modified": "2024-08-13T15:56:03.000",
    "request_status": "Pending",
    "responsible_agency": "Department of Sanitation",
    "final_address": "4727 Warren Dr",
    "address_councildis": "E",
    "status": "Assigned to Contractor",
    "contractor": "Waste Pro",
    "rowid": "1121492",
    "final_x": "3713537.7445",
    "final_y": "556198.971738",
    "longitude": "-89.96597783398602",
    "latitude": "30.022341843506457",
    "geocoded_column": {
      "latitude": "30.022341843506457",
      "longitude": "-89.96597783398602"
    }
  },
  {
    "service_request": "2024-1121491",
    "request_type": "Property Maintenance",
    "request_reason": "Property Maintenance",
    "date_created": "2024-08-13T15:55:11.000",
    "date_modified": "2024-08-13T15:55:11.000",
    "request_status": "Pending",
    "responsible_agency": "Department of Code Enforcement",
    "final_address": "812 Thayer St",
    "address_councildis": "C",
    "status": "Pending",
    "rowid": "1121491",
    "final_x": "3689505.64483",
    "final_y": "528523.854784",
    "longitude": "-90.04289800330895",
    "latitude": "29.947011816070788",
    "geocoded_column": {
      "latitude": "29.947011816070788",
      "longitude": "-90.04289800330895"
    }
  },
  {
    "service_request": "2024-1121490",
    "request_type": "Abandoned Vehicles",
    "request_reason": "Abandoned/Junk Vehicles",
    "date_created": "2024-08-13T15:51:27.000",
    "date_modified": "2024-08-13T15:51:27.000",
    "request_status": "Pending",
    "responsible_agency": "Department of Public Works",
    "final_address": "4491 De Montluzin St",
    "address_councildis": "D",
    "status": "Pending",
    "rowid": "1121490",
    "final_x": "3687282.11618",
    "final_y": "549639.346131",
    "longitude": "-90.04917131671253",
    "latitude": "30.005140648890734",
    "geocoded_column": {
      "latitude": "30.005140648890734",
      "longitude": "-90.04917131671253"
    }
  },
  {
    "service_request": "2024-1121489",
    "request_type": "Property Maintenance",
    "request_reason": "Property Maintenance",
    "date_created": "2024-08-13T15:49:55.000",
    "date_modified": "2024-08-13T15:49:55.000",
    "request_status": "Pending",
    "responsible_agency": "Department of Code Enforcement",
    "final_address": "8830 Stroelitz St",
    "address_councildis": "A",
    "status": "Pending",
    "rowid": "1121489",
    "final_x": "3665883.47872",
    "final_y": "536790.598856",
    "longitude": "-90.11720523274704",
    "latitude": "29.97045300989812",
    "geocoded_column": {
      "latitude": "29.97045300989812",
      "longitude": "-90.11720523274704"
    }
  },
  {
    "service_request": "2024-1121488",
    "request_type": "Traffic Signals/Signs/Striping/Streetlights",
    "request_reason": "Traffic Sign Missing/Damaged",
    "date_created": "2024-08-13T15:48:06.000",
    "date_modified": "2024-08-13T15:48:07.000",
    "request_status": "Pending",
    "responsible_agency": "Department of Public Works",
    "final_address": "CASTIGLIONE ST & N SALCEDO ST",
    "address_councildis": "A",
    "status": "Pending",
    "rowid": "1121488",
    "final_x": "3677358.6",
    "final_y": "542807.18",
    "longitude": "-90.0807577702243",
    "latitude": "29.986656663276666",
    "geocoded_column": {
      "latitude": "29.986656663276666",
      "longitude": "-90.0807577702243"
    }
  },
  {
    "service_request": "2024-1121487",
    "request_type": "Property Maintenance",
    "request_reason": "Property Maintenance",
    "date_created": "2024-08-13T15:47:58.000",
    "date_modified": "2024-08-13T15:47:58.000",
    "request_status": "Pending",
    "responsible_agency": "Department of Code Enforcement",
    "final_address": "8830 Stroelitz St",
    "address_councildis": "A",
    "status": "Pending",
    "rowid": "1121487",
    "final_x": "3665883.47872",
    "final_y": "536790.598856",
    "longitude": "-90.11720523274704",
    "latitude": "29.97045300989812",
    "geocoded_column": {
      "latitude": "29.97045300989812",
      "longitude": "-90.11720523274704"
    }
  },
  {
    "service_request": "2024-1121486",
    "request_type": "Abandoned Vehicles",
    "request_reason": "Abandoned/Junk Vehicles",
    "date_created": "2024-08-13T15:46:47.000",
    "date_modified": "2024-08-13T15:46:47.000",
    "request_status": "Pending",
    "responsible_agency": "Department of Public Works",
    "final_address": "8830 Stroelitz St",
    "address_councildis": "A",
    "status": "Pending",
    "rowid": "1121486",
    "final_x": "3665883.47872",
    "final_y": "536790.598856",
    "longitude": "-90.11720523274704",
    "latitude": "29.97045300989812",
    "geocoded_column": {
      "latitude": "29.97045300989812",
      "longitude": "-90.11720523274704"
    }
  },
  {
    "service_request": "2024-1121485",
    "request_type": "Property Maintenance",
    "request_reason": "Property Maintenance",
    "date_created": "2024-08-13T15:45:02.000",
    "date_modified": "2024-08-13T15:45:02.000",
    "request_status": "Pending",
    "responsible_agency": "Department of Code Enforcement",
    "final_address": "8830 Stroelitz St",
    "address_councildis": "A",
    "status": "Pending",
    "rowid": "1121485",
    "final_x": "3665883.47872",
    "final_y": "536790.598856",
    "longitude": "-90.11720523274704",
    "latitude": "29.97045300989812",
    "geocoded_column": {
      "latitude": "29.97045300989812",
      "longitude": "-90.11720523274704"
    }
  },
  {
    "service_request": "2024-1121484",
    "request_type": "Safety & Permits",
    "request_reason": "Licenses & Permits",
    "date_created": "2024-08-13T15:42:14.000",
    "date_modified": "2024-08-13T15:42:14.000",
    "request_status": "Pending",
    "responsible_agency": "Safety and Permits",
    "final_address": "8326 Green St",
    "address_councildis": "A",
    "status": "Pending",
    "rowid": "1121484",
    "final_x": "3662414.10701",
    "final_y": "530279.004289",
    "longitude": "-90.12837820939558",
    "latitude": "29.95264903828684",
    "geocoded_column": {
      "latitude": "29.95264903828684",
      "longitude": "-90.12837820939558"
    }
  },
  {
    "service_request": "2024-1121483",
    "request_type": "Abandoned Vehicles",
    "request_reason": "Abandoned/Junk Vehicles",
    "date_created": "2024-08-13T15:41:49.000",
    "date_modified": "2024-08-13T15:41:49.000",
    "request_status": "Pending",
    "responsible_agency": "Department of Public Works",
    "final_address": "4400 BLK Mendez St",
    "address_councildis": "D",
    "status": "Pending",
    "rowid": "1121483",
    "final_x": "3690327.09241",
    "final_y": "553813.431203",
    "longitude": "-90.03940271488845",
    "latitude": "30.01652365802747",
    "geocoded_column": {
      "latitude": "30.01652365802747",
      "longitude": "-90.03940271488845"
    }
  },
  {
    "service_request": "2024-1121482",
    "request_type": "Trash/Recycling",
    "request_reason": "Request a Large Item Pick Up",
    "date_created": "2024-08-13T15:39:04.000",
    "date_modified": "2024-08-13T15:39:05.000",
    "request_status": "Pending",
    "responsible_agency": "Department of Sanitation",
    "final_address": "1316 Hendee St",
    "address_councildis": "C",
    "status": "Assigned to Contractor",
    "contractor": "Richards Disposal",
    "rowid": "1121482",
    "final_x": "3690789.15523",
    "final_y": "526474.210366",
    "longitude": "-90.03891860454172",
    "latitude": "29.941336188052773",
    "geocoded_column": {
      "latitude": "29.941336188052773",
      "longitude": "-90.03891860454172"
    }
  },
  {
    "service_request": "2024-1121481",
    "request_type": "Trash/Recycling",
    "request_reason": "MIssed Recycling Pick-Up",
    "date_created": "2024-08-13T15:34:36.000",
    "date_modified": "2024-08-13T16:28:06.000",
    "case_close_date": "2024-08-13T11:28:06.000",
    "request_status": "Closed",
    "responsible_agency": "Department of Sanitation",
    "final_address": "5888 Sylvia Dr",
    "address_councildis": "A",
    "status": "Invalid Request",
    "contractor": "IV Waste",
    "contractor_action": "Invalid",
    "rowid": "1121481",
    "final_x": "3664441.50247",
    "final_y": "547024.842641",
    "longitude": "-90.12141732932521",
    "latitude": "29.99863573800932",
    "geocoded_column": {
      "latitude": "29.99863573800932",
      "longitude": "-90.12141732932521"
    }
  },
  {
    "service_request": "2024-1121480",
    "request_type": "Trash/Recycling",
    "request_reason": "Illegal Dumping",
    "date_created": "2024-08-13T15:29:04.000",
    "date_modified": "2024-08-13T21:44:21.000",
    "request_status": "Pending",
    "responsible_agency": "Department of Sanitation",
    "final_address": "ALVAR ST & FRANCE ROAD PKWY & BENEFIT ST",
    "address_councildis": "D",
    "status": "Pending",
    "rowid": "1121480",
    "final_x": "3693553.6",
    "final_y": "543643.88",
    "longitude": "-90.02957397338808",
    "latitude": "29.988460559660233",
    "geocoded_column": {
      "latitude": "29.988460559660233",
      "longitude": "-90.02957397338808"
    }
  },
  {
    "service_request": "2024-1121479",
    "request_type": "Trash/Recycling",
    "request_reason": "Request a Large Item Pick Up",
    "date_created": "2024-08-13T15:28:05.000",
    "date_modified": "2024-08-13T15:28:08.000",
    "request_status": "Pending",
    "responsible_agency": "Department of Sanitation",
    "final_address": "11420 N Easterlyn Cir",
    "address_councildis": "E",
    "status": "Assigned to Contractor",
    "contractor": "Waste Pro",
    "rowid": "1121479",
    "final_x": "3718473.54213",
    "final_y": "560889.173918",
    "longitude": "-89.95020322226243",
    "latitude": "30.03507513882866",
    "geocoded_column": {
      "latitude": "30.03507513882866",
      "longitude": "-89.95020322226243"
    }
  },
  {
    "service_request": "2024-1121478",
    "request_type": "Abandoned Vehicles",
    "request_reason": "Abandoned/Junk Vehicles",
    "date_created": "2024-08-13T15:27:08.000",
    "date_modified": "2024-08-13T15:29:30.000",
    "request_status": "Pending",
    "responsible_agency": "Department of Public Works",
    "final_address": "401 St Joseph St",
    "address_councildis": "B",
    "status": "Pending",
    "rowid": "1121478",
    "final_x": "3681281.52002",
    "final_y": "527260.582271",
    "longitude": "-90.06890861851",
    "latitude": "29.94379034985457",
    "geocoded_column": {
      "latitude": "29.94379034985457",
      "longitude": "-90.06890861851"
    }
  },
  {
    "service_request": "2024-1121477",
    "request_type": "Trash/Recycling",
    "request_reason": "Request a Large Item Pick Up",
    "date_created": "2024-08-13T15:23:51.000",
    "date_modified": "2024-08-13T15:26:47.000",
    "request_status": "Pending",
    "responsible_agency": "Department of Sanitation",
    "final_address": "918 Fats Domino Ave",
    "address_councildis": "E",
    "status": "Assigned to Contractor",
    "contractor": "Waste Pro",
    "rowid": "1121477",
    "final_x": "3697794.97168",
    "final_y": "533166.429572",
    "longitude": "-90.01655721970569",
    "latitude": "29.95951796801149",
    "geocoded_column": {
      "latitude": "29.95951796801149",
      "longitude": "-90.01655721970569"
    }
  },
  {
    "service_request": "2024-1121476",
    "request_type": "Trash/Recycling",
    "request_reason": "Return Recycling Cart",
    "date_created": "2024-08-13T15:22:09.000",
    "date_modified": "2024-08-13T15:22:32.000",
    "request_status": "Pending",
    "responsible_agency": "Department of Sanitation",
    "final_address": "2303 Mendez St",
    "address_councildis": "D",
    "status": "Pending",
    "rowid": "1121476",
    "final_x": "3684444.29327",
    "final_y": "553508.701783",
    "longitude": "-90.05800052945739",
    "latitude": "30.01586711290517",
    "geocoded_column": {
      "latitude": "30.01586711290517",
      "longitude": "-90.05800052945739"
    }
  },
  {
    "service_request": "2024-1121475",
    "request_type": "Trash/Recycling",
    "request_reason": "Request a Large Item Pick Up",
    "date_created": "2024-08-13T15:19:58.000",
    "date_modified": "2024-08-13T15:19:59.000",
    "request_status": "Pending",
    "responsible_agency": "Department of Sanitation",
    "final_address": "78 Neron Pl",
    "address_councildis": "A",
    "status": "Assigned to Contractor",
    "contractor": "IV Waste",
    "rowid": "1121475",
    "final_x": "3666011.17696",
    "final_y": "529898.856193",
    "longitude": "-90.11703297864487",
    "latitude": "29.951499254202492",
    "geocoded_column": {
      "latitude": "29.951499254202492",
      "longitude": "-90.11703297864487"
    }
  },
  {
    "service_request": "2024-1121474",
    "request_type": "Trash/Recycling",
    "request_reason": "Request a Large Item Pick Up",
    "date_created": "2024-08-13T15:19:55.000",
    "date_modified": "2024-08-13T15:19:55.000",
    "request_status": "Pending",
    "responsible_agency": "Department of Sanitation",
    "final_address": "7923 Forshey St",
    "address_councildis": "B",
    "status": "Assigned to Contractor",
    "contractor": "IV Waste",
    "rowid": "1121474",
    "final_x": "3667459.30772",
    "final_y": "533554.005125",
    "longitude": "-90.11233748853374",
    "latitude": "29.961507368403353",
    "geocoded_column": {
      "latitude": "29.961507368403353",
      "longitude": "-90.11233748853374"
    }
  },
  {
    "service_request": "2024-1121473",
    "request_type": "Property Maintenance",
    "request_reason": "Property Maintenance",
    "date_created": "2024-08-13T15:18:00.000",
    "date_modified": "2024-08-13T15:18:00.000",
    "request_status": "Pending",
    "responsible_agency": "Department of Code Enforcement",
    "final_address": "2969 Law St",
    "address_councildis": "D",
    "status": "Pending",
    "rowid": "1121473",
    "final_x": "3689742.11958",
    "final_y": "541852.728972",
    "longitude": "-90.0416769705922",
    "latitude": "29.983654231318106",
    "geocoded_column": {
      "latitude": "29.983654231318106",
      "longitude": "-90.0416769705922"
    }
  },
  {
    "service_request": "2024-1121472",
    "request_type": "Trash/Recycling",
    "request_reason": "Illegal Dumping",
    "date_created": "2024-08-13T15:17:04.000",
    "date_modified": "2024-08-13T15:17:05.000",
    "request_status": "Pending",
    "responsible_agency": "Department of Sanitation",
    "final_address": "7670 Branch Dr",
    "address_councildis": "E",
    "status": "Pending",
    "rowid": "1121472",
    "final_x": "3714555.95851",
    "final_y": "568863.263397",
    "longitude": "-89.9622817526227",
    "latitude": "30.057130090056642",
    "geocoded_column": {
      "latitude": "30.057130090056642",
      "longitude": "-89.9622817526227"
    }
  },
  {
    "service_request": "2024-1121471",
    "request_type": "Safety & Permits",
    "request_reason": "Licenses & Permits",
    "date_created": "2024-08-13T15:15:29.000",
    "date_modified": "2024-08-13T15:15:30.000",
    "request_status": "Pending",
    "responsible_agency": "Safety and Permits",
    "final_address": "4511 Knight Dr",
    "address_councildis": "E",
    "status": "Pending",
    "rowid": "1121471",
    "final_x": "3708346.486",
    "final_y": "554159.302232",
    "longitude": "-89.98245677715242",
    "latitude": "30.016902858339122",
    "geocoded_column": {
      "latitude": "30.016902858339122",
      "longitude": "-89.98245677715242"
    }
  },
  {
    "service_request": "2024-1121470",
    "request_type": "Trash/Recycling",
    "request_reason": "Replace Recycling Cart",
    "date_created": "2024-08-13T15:15:10.000",
    "date_modified": "2024-08-13T15:15:11.000",
    "request_status": "Pending",
    "responsible_agency": "Department of Sanitation",
    "final_address": "506 N Rendon St",
    "address_councildis": "A",
    "status": "Pending",
    "rowid": "1121470",
    "final_x": "3674590.31169",
    "final_y": "537655.418312",
    "longitude": "-90.08967838641742",
    "latitude": "29.972574003229298",
    "geocoded_column": {
      "latitude": "29.972574003229298",
      "longitude": "-90.08967838641742"
    }
  },
  {
    "service_request": "2024-1121469",
    "request_type": "Traffic Signals/Signs/Striping/Streetlights",
    "request_reason": "Street Light Outage/Malfunction",
    "date_created": "2024-08-13T15:14:58.000",
    "date_modified": "2024-08-13T15:14:59.000",
    "request_status": "Pending",
    "responsible_agency": "Department of Public Works",
    "final_address": "7670 Branch Dr",
    "address_councildis": "E",
    "status": "Assigned to Contractor",
    "contractor": "Legacy Professional Services",
    "rowid": "1121469",
    "final_x": "3714555.95851",
    "final_y": "568863.263397",
    "longitude": "-89.9622817526227",
    "latitude": "30.057130090056642",
    "geocoded_column": {
      "latitude": "30.057130090056642",
      "longitude": "-89.9622817526227"
    }
  },
  {
    "service_request": "2024-1121468",
    "request_type": "Trash/Recycling",
    "request_reason": "Repair Trash Cart",
    "date_created": "2024-08-13T15:14:22.000",
    "date_modified": "2024-08-13T15:14:22.000",
    "request_status": "Pending",
    "responsible_agency": "Department of Sanitation",
    "final_address": "6087 Wildair Dr",
    "address_councildis": "D",
    "status": "Assigned to Contractor",
    "contractor": "IV Waste",
    "rowid": "1121468",
    "final_x": "3681494.45429",
    "final_y": "555324.692761",
    "longitude": "-90.06725729260071",
    "latitude": "30.020950371778262",
    "geocoded_column": {
      "latitude": "30.020950371778262",
      "longitude": "-90.06725729260071"
    }
  },
  {
    "service_request": "2024-1121467",
    "request_type": "Trash/Recycling",
    "request_reason": "Request a Large Item Pick Up",
    "date_created": "2024-08-13T15:13:29.000",
    "date_modified": "2024-08-13T15:13:29.000",
    "request_status": "Pending",
    "responsible_agency": "Department of Sanitation",
    "final_address": "1023 St Ann St",
    "address_councildis": "C",
    "status": "Assigned to Contractor",
    "contractor": "Empire Services",
    "rowid": "1121467",
    "final_x": "3681788.37845",
    "final_y": "533556.193413",
    "longitude": "-90.0670886751806",
    "latitude": "29.961085762560717",
    "geocoded_column": {
      "latitude": "29.961085762560717",
      "longitude": "-90.0670886751806"
    }
  },
  {
    "service_request": "2024-1121466",
    "request_type": "Trash/Recycling",
    "request_reason": "Order Recycling Cart",
    "date_created": "2024-08-13T15:13:20.000",
    "date_modified": "2024-08-13T15:13:21.000",
    "request_status": "Pending",
    "responsible_agency": "Department of Sanitation",
    "final_address": "5925 Annunciation St, New Orleans, Louisiana, 70115",
    "address_councildis": "A",
    "status": "Pending",
    "rowid": "1121466",
    "final_x": "3664731.27917",
    "final_y": "517857.040758",
    "longitude": "-90.12147641929081",
    "latitude": "29.918425382428893",
    "geocoded_column": {
      "latitude": "29.918425382428893",
      "longitude": "-90.12147641929081"
    }
  },
  {
    "service_request": "2024-1121465",
    "request_type": "Trash/Recycling",
    "request_reason": "Request a Large Item Pick Up",
    "date_created": "2024-08-13T15:12:23.000",
    "date_modified": "2024-08-13T15:12:24.000",
    "request_status": "Pending",
    "responsible_agency": "Department of Sanitation",
    "final_address": "13200 Maple Wood Dr",
    "address_councildis": "E",
    "status": "Assigned to Contractor",
    "contractor": "Waste Pro",
    "rowid": "1121465",
    "final_x": "3724421.32876",
    "final_y": "563704.204001",
    "longitude": "-89.93129868867888",
    "latitude": "30.042616562169073",
    "geocoded_column": {
      "latitude": "30.042616562169073",
      "longitude": "-89.93129868867888"
    }
  },
  {
    "service_request": "2024-1121464",
    "request_type": "Trash/Recycling",
    "request_reason": "Repair Trash Cart",
    "date_created": "2024-08-13T15:10:56.000",
    "date_modified": "2024-08-13T15:10:57.000",
    "request_status": "Pending",
    "responsible_agency": "Department of Sanitation",
    "final_address": "7670 Branch Dr",
    "address_councildis": "E",
    "status": "Assigned to Contractor",
    "contractor": "Waste Pro",
    "rowid": "1121464",
    "final_x": "3714555.95851",
    "final_y": "568863.263397",
    "longitude": "-89.9622817526227",
    "latitude": "30.057130090056642",
    "geocoded_column": {
      "latitude": "30.057130090056642",
      "longitude": "-89.9622817526227"
    }
  },
  {
    "service_request": "2024-1121463",
    "request_type": "Property Maintenance",
    "request_reason": "Property Maintenance",
    "date_created": "2024-08-13T15:10:40.000",
    "date_modified": "2024-08-13T15:10:42.000",
    "request_status": "Pending",
    "responsible_agency": "Department of Code Enforcement",
    "final_address": "N RAMPART ST & ST LOUIS ST",
    "address_councildis": "C",
    "status": "Pending",
    "rowid": "1121463",
    "final_x": "3680943.9",
    "final_y": "532744.38",
    "longitude": "-90.06978365106",
    "latitude": "29.958879185214794",
    "geocoded_column": {
      "latitude": "29.958879185214794",
      "longitude": "-90.06978365106"
    }
  },
  {
    "service_request": "2024-1121462",
    "request_type": "Traffic Signals/Signs/Striping/Streetlights",
    "request_reason": "Street Light Outage/Malfunction",
    "date_created": "2024-08-13T15:09:56.000",
    "date_modified": "2024-08-13T15:09:57.000",
    "request_status": "Pending",
    "responsible_agency": "Department of Public Works",
    "final_address": "7239 Benson Ct",
    "address_councildis": "E",
    "status": "Assigned to Contractor",
    "contractor": "Legacy Professional Services",
    "rowid": "1121462",
    "final_x": "3705079.47166",
    "final_y": "561116.207774",
    "longitude": "-89.99252188956794",
    "latitude": "30.036137144193226",
    "geocoded_column": {
      "latitude": "30.036137144193226",
      "longitude": "-89.99252188956794"
    }
  },
  {
    "service_request": "2024-1121461",
    "request_type": "Trash/Recycling",
    "request_reason": "Request a Large Item Pick Up",
    "date_created": "2024-08-13T15:05:52.000",
    "date_modified": "2024-08-13T15:06:11.000",
    "request_status": "Pending",
    "responsible_agency": "Department of Sanitation",
    "final_address": "6131 Warwick Ct",
    "address_councildis": "C",
    "status": "Assigned to Contractor",
    "contractor": "Richards Disposal",
    "rowid": "1121461",
    "final_x": "3706589.82737",
    "final_y": "515825.255284",
    "longitude": "-89.9894275959667",
    "latitude": "29.911555030328827",
    "geocoded_column": {
      "latitude": "29.911555030328827",
      "longitude": "-89.9894275959667"
    }
  },
  {
    "service_request": "2024-1121460",
    "request_type": "Traffic Signals/Signs/Striping/Streetlights",
    "request_reason": "Traffic Sign Missing/Damaged",
    "date_created": "2024-08-13T15:05:13.000",
    "date_modified": "2024-08-13T15:05:52.000",
    "request_status": "Pending",
    "responsible_agency": "Department of Public Works",
    "final_address": "ARABELLA ST & MAGAZINE ST",
    "address_councildis": "A",
    "status": "Pending",
    "rowid": "1121460",
    "final_x": "3665828.3",
    "final_y": "518937.78",
    "longitude": "-90.11797751225912",
    "latitude": "29.921365128902156",
    "geocoded_column": {
      "latitude": "29.921365128902156",
      "longitude": "-90.11797751225912"
    }
  },
  {
    "service_request": "2024-1121459",
    "request_type": "Trash/Recycling",
    "request_reason": "Damaged Caused By Contractor",
    "date_created": "2024-08-13T15:04:18.000",
    "date_modified": "2024-08-13T15:11:16.000",
    "case_close_date": "2024-08-13T10:11:16.000",
    "request_status": "Closed",
    "responsible_agency": "Department of Sanitation",
    "final_address": "ARABELLA ST & MAGAZINE ST",
    "address_councildis": "A",
    "status": "Invalid Request",
    "contractor": "IV Waste",
    "contractor_action": "Invalid",
    "rowid": "1121459",
    "final_x": "3665828.3",
    "final_y": "518937.78",
    "longitude": "-90.11797751225912",
    "latitude": "29.921365128902156",
    "geocoded_column": {
      "latitude": "29.921365128902156",
      "longitude": "-90.11797751225912"
    }
  },
  {
    "service_request": "2024-1121457",
    "request_type": "Roads/Drainage",
    "request_reason": "Pothole",
    "date_created": "2024-08-13T14:58:31.000",
    "date_modified": "2024-08-13T14:59:02.000",
    "case_close_date": "2024-08-13T09:59:02.000",
    "request_status": "Closed",
    "responsible_agency": "Department of Public Works",
    "final_address": "1500 BLK Soniat St",
    "address_councildis": "B",
    "status": "Resolved",
    "rowid": "1121457",
    "final_x": "3668410.3262",
    "final_y": "520842.461712",
    "longitude": "-90.10976296355264",
    "latitude": "29.92652684336663",
    "geocoded_column": {
      "latitude": "29.92652684336663",
      "longitude": "-90.10976296355264"
    }
  },
  {
    "service_request": "2024-1121456",
    "request_type": "Traffic Signals/Signs/Striping/Streetlights",
    "request_reason": "Disabled Parking Sign ",
    "date_created": "2024-08-13T14:55:56.000",
    "date_modified": "2024-08-13T14:55:57.000",
    "request_status": "Pending",
    "responsible_agency": "Department of Public Works",
    "final_address": "3325 Delachaise St",
    "address_councildis": "B",
    "status": "Pending",
    "rowid": "1121456",
    "final_x": "3671549.43175",
    "final_y": "527295.157631",
    "longitude": "-90.09963434019897",
    "latitude": "29.944177127150713",
    "geocoded_column": {
      "latitude": "29.944177127150713",
      "longitude": "-90.09963434019897"
    }
  },
  {
    "service_request": "2024-1121455",
    "request_type": "Roads/Drainage",
    "request_reason": "Catch Basin - Broken/Damage",
    "date_created": "2024-08-13T14:54:50.000",
    "date_modified": "2024-08-13T14:54:50.000",
    "request_status": "Pending",
    "responsible_agency": "Department of Public Works",
    "final_address": "500 Lake Marina Ave",
    "address_councildis": "A",
    "status": "Pending",
    "rowid": "1121455",
    "final_x": "3665086.84116",
    "final_y": "555262.967193",
    "longitude": "-90.11910291645061",
    "latitude": "30.021268932165952",
    "geocoded_column": {
      "latitude": "30.021268932165952",
      "longitude": "-90.11910291645061"
    }
  },
  {
    "service_request": "2024-1121454",
    "request_type": "Utility Poles",
    "request_reason": "Utility Pole Leaning",
    "date_created": "2024-08-13T14:50:18.000",
    "date_modified": "2024-08-13T14:50:23.000",
    "request_status": "Pending",
    "responsible_agency": "Utility Company Collective",
    "final_address": "500 Lake Marina Ave",
    "address_councildis": "A",
    "status": "Pending",
    "rowid": "1121454",
    "final_x": "3665086.84116",
    "final_y": "555262.967193",
    "longitude": "-90.11910291645061",
    "latitude": "30.021268932165952",
    "geocoded_column": {
      "latitude": "30.021268932165952",
      "longitude": "-90.11910291645061"
    }
  },
  {
    "service_request": "2024-1121453",
    "request_type": "Healthy Homes",
    "request_reason": "Healthy Homes",
    "date_created": "2024-08-13T14:49:15.000",
    "date_modified": "2024-08-13T14:50:30.000",
    "request_status": "Pending",
    "responsible_agency": "Department of Code Enforcement",
    "final_address": "700 N Galvez St Apt 107",
    "address_councildis": "D",
    "status": "Pending",
    "rowid": "1121453",
    "final_x": "3678392.13064",
    "final_y": "535490.884486",
    "longitude": "-90.07774646064031",
    "latitude": "29.96650826687331",
    "geocoded_column": {
      "latitude": "29.96650826687331",
      "longitude": "-90.07774646064031"
    }
  },
  {
    "service_request": "2024-1121452",
    "request_type": "Parks & Parkways",
    "request_reason": "Request Tree Service (Right of Way/Public Property)",
    "date_created": "2024-08-13T14:44:58.000",
    "date_modified": "2024-08-13T14:44:59.000",
    "request_status": "Pending",
    "responsible_agency": "Department of Parks & Parkway",
    "final_address": "6053 Vermillion Blvd",
    "address_councildis": "D",
    "status": "Pending",
    "rowid": "1121452",
    "final_x": "3683167.14741",
    "final_y": "555504.733017",
    "longitude": "-90.06196575794591",
    "latitude": "30.02139449115145",
    "geocoded_column": {
      "latitude": "30.02139449115145",
      "longitude": "-90.06196575794591"
    }
  },
  {
    "service_request": "2024-1121450",
    "request_type": "Property Maintenance",
    "request_reason": "Property Maintenance",
    "date_created": "2024-08-13T14:41:05.000",
    "date_modified": "2024-08-13T14:41:05.000",
    "request_status": "Pending",
    "responsible_agency": "Department of Code Enforcement",
    "final_address": "2025 Mazant St",
    "address_councildis": "D",
    "status": "Pending",
    "rowid": "1121450",
    "final_x": "3693032.95766",
    "final_y": "538792.677321",
    "longitude": "-90.03139261996587",
    "latitude": "29.975137773665143",
    "geocoded_column": {
      "latitude": "29.975137773665143",
      "longitude": "-90.03139261996587"
    }
  },
  {
    "service_request": "2024-1121449",
    "request_type": "Traffic Signals/Signs/Striping/Streetlights",
    "request_reason": "Street Light Outage/Malfunction",
    "date_created": "2024-08-13T14:40:21.000",
    "date_modified": "2024-08-13T14:40:22.000",
    "request_status": "Pending",
    "responsible_agency": "Department of Public Works",
    "final_address": "7575 Avalon Way",
    "address_councildis": "E",
    "status": "Assigned to Contractor",
    "contractor": "Legacy Professional Services",
    "rowid": "1121449",
    "final_x": "3709154.51512",
    "final_y": "564436.679969",
    "longitude": "-89.9795201062446",
    "latitude": "30.0451353752817",
    "geocoded_column": {
      "latitude": "30.0451353752817",
      "longitude": "-89.9795201062446"
    }
  },
  {
    "service_request": "2024-1121448",
    "request_type": "Property Maintenance",
    "request_reason": "Property Maintenance",
    "date_created": "2024-08-13T14:39:26.000",
    "date_modified": "2024-08-13T14:39:43.000",
    "request_status": "Pending",
    "responsible_agency": "Department of Code Enforcement",
    "final_address": "7617 Woodbine Dr",
    "address_councildis": "E",
    "status": "Pending",
    "rowid": "1121448",
    "final_x": "3702016.18583",
    "final_y": "561372.302494",
    "longitude": "-90.00219299505524",
    "latitude": "30.036939509632514",
    "geocoded_column": {
      "latitude": "30.036939509632514",
      "longitude": "-90.00219299505524"
    }
  },
  {
    "service_request": "2024-1121447",
    "request_type": "Parks & Parkways",
    "request_reason": "Request Grass Cutting Service (City Owned Property)",
    "date_created": "2024-08-13T14:38:42.000",
    "date_modified": "2024-08-13T14:38:43.000",
    "request_status": "Pending",
    "responsible_agency": "Department of Parks & Parkway",
    "final_address": "LAKE FOREST BLVD & MAYO RD",
    "address_councildis": "E",
    "status": "Pending",
    "rowid": "1121447",
    "final_x": "3702502.5",
    "final_y": "556568.19",
    "longitude": "-90.00083269889926",
    "latitude": "30.023714521944257",
    "geocoded_column": {
      "latitude": "30.023714521944257",
      "longitude": "-90.00083269889926"
    }
  },
  {
    "service_request": "2024-1121446",
    "request_type": "Trash/Recycling",
    "request_reason": "Request a Large Item Pick Up",
    "date_created": "2024-08-13T14:37:02.000",
    "date_modified": "2024-08-13T14:37:03.000",
    "request_status": "Pending",
    "responsible_agency": "Department of Sanitation",
    "final_address": "4608 Mithra St",
    "address_councildis": "D",
    "status": "Assigned to Contractor",
    "contractor": "IV Waste",
    "rowid": "1121446",
    "final_x": "3690888.47792",
    "final_y": "553389.579799",
    "longitude": "-90.03764412648434",
    "latitude": "30.0153407812493",
    "geocoded_column": {
      "latitude": "30.0153407812493",
      "longitude": "-90.03764412648434"
    }
  },
  {
    "service_request": "2024-1121445",
    "request_type": "Property Maintenance",
    "request_reason": "Property Maintenance",
    "date_created": "2024-08-13T14:33:43.000",
    "date_modified": "2024-08-13T14:33:43.000",
    "request_status": "Pending",
    "responsible_agency": "Department of Code Enforcement",
    "final_address": "RIVER OAKS DR & ANSON ST",
    "address_councildis": "C",
    "status": "Pending",
    "rowid": "1121445",
    "final_x": "3701535.9",
    "final_y": "521642.58",
    "longitude": "-90.00516611933361",
    "latitude": "29.927712697725372",
    "geocoded_column": {
      "latitude": "29.927712697725372",
      "longitude": "-90.00516611933361"
    }
  },
  {
    "service_request": "2024-1121444",
    "request_type": "Trash/Recycling",
    "request_reason": "Illegal Dumping",
    "date_created": "2024-08-13T14:31:47.000",
    "date_modified": "2024-08-13T14:31:48.000",
    "request_status": "Pending",
    "responsible_agency": "Department of Sanitation",
    "final_address": "6865 Mayo Rd",
    "address_councildis": "E",
    "status": "Pending",
    "rowid": "1121444",
    "final_x": "3702001.94173",
    "final_y": "557689.060955",
    "longitude": "-90.0023732125034",
    "latitude": "30.026812481083823",
    "geocoded_column": {
      "latitude": "30.026812481083823",
      "longitude": "-90.0023732125034"
    }
  },
  {
    "service_request": "2024-1121443",
    "request_type": "Trash/Recycling",
    "request_reason": "Order Recycling Cart",
    "date_created": "2024-08-13T14:31:02.000",
    "date_modified": "2024-08-13T14:31:02.000",
    "request_status": "Pending",
    "responsible_agency": "Department of Sanitation",
    "final_address": "6110 Willow St",
    "address_councildis": "A",
    "status": "Pending",
    "rowid": "1121443",
    "final_x": "3666650.71053",
    "final_y": "525777.045245",
    "longitude": "-90.11515199873772",
    "latitude": "29.94014692447272",
    "geocoded_column": {
      "latitude": "29.94014692447272",
      "longitude": "-90.11515199873772"
    }
  },
  {
    "service_request": "2024-1121442",
    "request_type": "Trash/Recycling",
    "request_reason": "Missed Trash Pick-Up",
    "date_created": "2024-08-13T14:30:31.000",
    "date_modified": "2024-08-13T15:56:33.000",
    "case_close_date": "2024-08-13T10:56:33.000",
    "request_status": "Closed",
    "responsible_agency": "Department of Sanitation",
    "final_address": "2108 Brutus St",
    "address_councildis": "D",
    "status": "Invalid Request",
    "contractor": "IV Waste",
    "contractor_action": "Invalid Request",
    "rowid": "1121442",
    "final_x": "3683207.16271",
    "final_y": "550211.498196",
    "longitude": "-90.06202488620987",
    "latitude": "30.006838803557034",
    "geocoded_column": {
      "latitude": "30.006838803557034",
      "longitude": "-90.06202488620987"
    }
  },
  {
    "service_request": "2024-1121441",
    "request_type": "Trash/Recycling",
    "request_reason": "Replace Trash Cart",
    "date_created": "2024-08-13T14:22:38.000",
    "date_modified": "2024-08-13T15:10:41.000",
    "request_status": "Pending",
    "responsible_agency": "Department of Sanitation",
    "final_address": "5925 Annunciation St, New Orleans, Louisiana, 70115",
    "address_councildis": "A",
    "contractor": "IV Waste",
    "rowid": "1121441",
    "final_x": "3664731.27917",
    "final_y": "517857.040758",
    "longitude": "-90.12147641929081",
    "latitude": "29.918425382428893",
    "geocoded_column": {
      "latitude": "29.918425382428893",
      "longitude": "-90.12147641929081"
    }
  },
  {
    "service_request": "2024-1121440",
    "request_type": "Abandoned Vehicles",
    "request_reason": "Abandoned/Junk Vehicles",
    "date_created": "2024-08-13T14:20:42.000",
    "date_modified": "2024-08-13T14:20:42.000",
    "request_status": "Pending",
    "responsible_agency": "Department of Public Works",
    "final_address": "142 N Alexander St",
    "address_councildis": "A",
    "status": "Pending",
    "rowid": "1121440",
    "final_x": "3670333.62113",
    "final_y": "539421.099018",
    "longitude": "-90.10306194629837",
    "latitude": "29.977555378471028",
    "geocoded_column": {
      "latitude": "29.977555378471028",
      "longitude": "-90.10306194629837"
    }
  },
  {
    "service_request": "2024-1121439",
    "request_type": "Trash/Recycling",
    "request_reason": "Order Trash Cart",
    "date_created": "2024-08-13T14:20:33.000",
    "date_modified": "2024-08-13T14:20:34.000",
    "request_status": "Pending",
    "responsible_agency": "Department of Sanitation",
    "final_address": "3920 Erato St",
    "address_councildis": "B",
    "status": "Assigned to Contractor",
    "contractor": "IV Waste",
    "rowid": "1121439",
    "final_x": "3672516.95015",
    "final_y": "530419.255682",
    "longitude": "-90.09647313401825",
    "latitude": "29.95273869018302",
    "geocoded_column": {
      "latitude": "29.95273869018302",
      "longitude": "-90.09647313401825"
    }
  },
  {
    "service_request": "2024-1121438",
    "request_type": "Traffic Signals/Signs/Striping/Streetlights",
    "request_reason": "Traffic Signal Malfunctioning/Damaged",
    "date_created": "2024-08-13T14:19:53.000",
    "date_modified": "2024-08-13T14:20:45.000",
    "request_status": "Pending",
    "responsible_agency": "Department of Public Works",
    "final_address": "WASHINGTON AVE & ST CHARLES AVE",
    "address_councildis": "B",
    "status": "Pending",
    "rowid": "1121438",
    "final_x": "3675909.8",
    "final_y": "522558.48",
    "longitude": "-90.08603020771396",
    "latitude": "29.931023006797286",
    "geocoded_column": {
      "latitude": "29.931023006797286",
      "longitude": "-90.08603020771396"
    }
  },
  {
    "service_request": "2024-1121437",
    "request_type": "Trash/Recycling",
    "request_reason": "Illegal Dumping",
    "date_created": "2024-08-13T14:19:45.000",
    "date_modified": "2024-08-13T14:19:45.000",
    "request_status": "Pending",
    "responsible_agency": "Department of Sanitation",
    "final_address": "3522 Vespasian St",
    "address_councildis": "C",
    "status": "Pending",
    "rowid": "1121437",
    "final_x": "3696462.36362",
    "final_y": "522700.090618",
    "longitude": "-90.02114374656956",
    "latitude": "29.93078121875063",
    "geocoded_column": {
      "latitude": "29.93078121875063",
      "longitude": "-90.02114374656956"
    }
  },
  {
    "service_request": "2024-1121436",
    "request_type": "Trash/Recycling",
    "request_reason": "Repair Trash Cart",
    "date_created": "2024-08-13T14:19:32.000",
    "date_modified": "2024-08-13T14:19:33.000",
    "request_status": "Pending",
    "responsible_agency": "Department of Sanitation",
    "final_address": "1798 Rosiere St",
    "address_councildis": "D",
    "status": "Assigned to Contractor",
    "contractor": "IV Waste",
    "rowid": "1121436",
    "final_x": "3678856.95547",
    "final_y": "542167.698317",
    "longitude": "-90.07604718829758",
    "latitude": "29.984853189362333",
    "geocoded_column": {
      "latitude": "29.984853189362333",
      "longitude": "-90.07604718829758"
    }
  },
  {
    "service_request": "2024-1121435",
    "request_type": "Trash/Recycling",
    "request_reason": "Request a Large Item Pick Up",
    "date_created": "2024-08-13T14:15:13.000",
    "date_modified": "2024-08-13T14:15:15.000",
    "request_status": "Pending",
    "responsible_agency": "Department of Sanitation",
    "final_address": "7111 Salem Dr",
    "address_councildis": "E",
    "status": "Assigned to Contractor",
    "contractor": "Waste Pro",
    "rowid": "1121435",
    "final_x": "3706538.09041",
    "final_y": "561179.27075",
    "longitude": "-89.98791007144129",
    "latitude": "30.03626353099959",
    "geocoded_column": {
      "latitude": "30.03626353099959",
      "longitude": "-89.98791007144129"
    }
  },
  {
    "service_request": "2024-1121434",
    "request_type": "Trash/Recycling",
    "request_reason": "Repair Trash Cart",
    "date_created": "2024-08-13T14:13:56.000",
    "date_modified": "2024-08-13T14:13:56.000",
    "request_status": "Pending",
    "responsible_agency": "Department of Sanitation",
    "final_address": "234 W Harrison Ave",
    "address_councildis": "A",
    "status": "Assigned to Contractor",
    "contractor": "IV Waste",
    "rowid": "1121434",
    "final_x": "3665543.91495",
    "final_y": "549549.006739",
    "longitude": "-90.11785020310981",
    "latitude": "30.005544212546855",
    "geocoded_column": {
      "latitude": "30.005544212546855",
      "longitude": "-90.11785020310981"
    }
  },
  {
    "service_request": "2024-1121433",
    "request_type": "Abandoned Vehicles",
    "request_reason": "Abandoned/Junk Vehicles",
    "date_created": "2024-08-13T14:12:21.000",
    "date_modified": "2024-08-13T14:12:21.000",
    "request_status": "Pending",
    "responsible_agency": "Department of Public Works",
    "final_address": "2400 BLK Laharpe St",
    "address_councildis": "D",
    "status": "Inspected",
    "rowid": "1121433",
    "final_x": "3679522.76526",
    "final_y": "539358.81838",
    "longitude": "-90.07404168700135",
    "latitude": "29.977109640683402",
    "geocoded_column": {
      "latitude": "29.977109640683402",
      "longitude": "-90.07404168700135"
    }
  },
  {
    "service_request": "2024-1121432",
    "request_type": "Trash/Recycling",
    "request_reason": "Request a Large Item Pick Up",
    "date_created": "2024-08-13T14:11:00.000",
    "date_modified": "2024-08-13T14:11:01.000",
    "request_status": "Pending",
    "responsible_agency": "Department of Sanitation",
    "final_address": "722 Wagner St",
    "address_councildis": "C",
    "status": "Assigned to Contractor",
    "contractor": "Richards Disposal",
    "rowid": "1121432",
    "final_x": "3690599.40169",
    "final_y": "528804.619072",
    "longitude": "-90.03943460845481",
    "latitude": "29.947749906268523",
    "geocoded_column": {
      "latitude": "29.947749906268523",
      "longitude": "-90.03943460845481"
    }
  },
  {
    "service_request": "2024-1121431",
    "request_type": "Trash/Recycling",
    "request_reason": "Request a Large Item Pick Up",
    "date_created": "2024-08-13T14:06:28.000",
    "date_modified": "2024-08-13T14:06:29.000",
    "request_status": "Pending",
    "responsible_agency": "Department of Sanitation",
    "final_address": "5463 Royal St",
    "address_councildis": "E",
    "status": "Assigned to Contractor",
    "contractor": "Waste Pro",
    "rowid": "1121431",
    "final_x": "3697189.43978",
    "final_y": "532422.027779",
    "longitude": "-90.01849631115263",
    "latitude": "29.957490246316308",
    "geocoded_column": {
      "latitude": "29.957490246316308",
      "longitude": "-90.01849631115263"
    }
  },
  {
    "service_request": "2024-1121430",
    "request_type": "Trash/Recycling",
    "request_reason": "Order Trash Cart",
    "date_created": "2024-08-13T14:06:15.000",
    "date_modified": "2024-08-13T14:06:16.000",
    "request_status": "Pending",
    "responsible_agency": "Department of Sanitation",
    "final_address": "1209 Milton St",
    "address_councildis": "D",
    "status": "Assigned to Contractor",
    "contractor": "IV Waste",
    "rowid": "1121430",
    "final_x": "3677078.11061",
    "final_y": "546082.347856",
    "longitude": "-90.08153071496119",
    "latitude": "29.995670657770408",
    "geocoded_column": {
      "latitude": "29.995670657770408",
      "longitude": "-90.08153071496119"
    }
  },
  {
    "service_request": "2024-1121429",
    "request_type": "Trash/Recycling",
    "request_reason": "Request a Large Item Pick Up",
    "date_created": "2024-08-13T14:04:33.000",
    "date_modified": "2024-08-13T14:04:35.000",
    "request_status": "Pending",
    "responsible_agency": "Department of Sanitation",
    "final_address": "4630 Mendez St",
    "address_councildis": "D",
    "status": "Assigned to Contractor",
    "contractor": "IV Waste",
    "rowid": "1121429",
    "final_x": "3690951.17097",
    "final_y": "553935.561304",
    "longitude": "-90.0374265366581",
    "latitude": "30.016840077944074",
    "geocoded_column": {
      "latitude": "30.016840077944074",
      "longitude": "-90.0374265366581"
    }
  },
  {
    "service_request": "2024-1121428",
    "request_type": "Roads/Drainage",
    "request_reason": "Man hole cover issue",
    "date_created": "2024-08-13T14:02:34.000",
    "date_modified": "2024-08-13T14:02:34.000",
    "request_status": "Pending",
    "responsible_agency": "Department of Public Works",
    "final_address": "1300 BLK Alix St",
    "address_councildis": "C",
    "status": "Pending",
    "rowid": "1121428",
    "final_x": "3689703.24556",
    "final_y": "530262.570168",
    "longitude": "-90.04221224831714",
    "latitude": "29.95178656531644",
    "geocoded_column": {
      "latitude": "29.95178656531644",
      "longitude": "-90.04221224831714"
    }
  },
  {
    "service_request": "2024-1121427",
    "request_type": "Abandoned Vehicles",
    "request_reason": "Abandoned/Junk Vehicles",
    "date_created": "2024-08-13T14:00:18.000",
    "date_modified": "2024-08-13T14:01:56.000",
    "request_status": "Pending",
    "responsible_agency": "Department of Public Works",
    "final_address": "2417 Jonquil St",
    "address_councildis": "D",
    "status": "Pending",
    "rowid": "1121427",
    "final_x": "3685895.38556",
    "final_y": "547160.161425",
    "longitude": "-90.05363975515361",
    "latitude": "29.99836644712251",
    "geocoded_column": {
      "latitude": "29.99836644712251",
      "longitude": "-90.05363975515361"
    }
  },
  {
    "service_request": "2024-1121426",
    "request_type": "Property Maintenance",
    "request_reason": "Property Maintenance",
    "date_created": "2024-08-13T13:57:38.000",
    "date_modified": "2024-08-13T13:57:39.000",
    "request_status": "Pending",
    "responsible_agency": "Department of Code Enforcement",
    "final_address": "7665 Kingsport Blvd",
    "address_councildis": "E",
    "status": "Pending",
    "rowid": "1121426",
    "final_x": "3719750.059",
    "final_y": "573150.251753",
    "longitude": "-89.9457000464243",
    "latitude": "30.0687456022521",
    "geocoded_column": {
      "latitude": "30.0687456022521",
      "longitude": "-89.9457000464243"
    }
  },
  {
    "service_request": "2024-1121425",
    "request_type": "Roads/Drainage",
    "request_reason": "Street Flooding / Drainage",
    "date_created": "2024-08-13T13:55:37.000",
    "date_modified": "2024-08-13T13:55:37.000",
    "request_status": "Pending",
    "responsible_agency": "Department of Public Works",
    "final_address": "3600 BLK Saint Charles Ave",
    "address_councildis": "B",
    "status": "Pending",
    "rowid": "1121425",
    "final_x": "3673189.06927",
    "final_y": "521094.560945",
    "longitude": "-90.09466916267402",
    "latitude": "29.927078856581257",
    "geocoded_column": {
      "latitude": "29.927078856581257",
      "longitude": "-90.09466916267402"
    }
  },
  {
    "service_request": "2024-1121424",
    "request_type": "Trash/Recycling",
    "request_reason": "Request a Large Item Pick Up",
    "date_created": "2024-08-13T13:54:50.000",
    "date_modified": "2024-08-13T13:54:51.000",
    "request_status": "Pending",
    "responsible_agency": "Department of Sanitation",
    "final_address": "8551 Huntington Park Dr",
    "address_councildis": "E",
    "status": "Assigned to Contractor",
    "contractor": "Waste Pro",
    "rowid": "1121424",
    "final_x": "3705328.02462",
    "final_y": "560272.266141",
    "longitude": "-89.991767646262",
    "latitude": "30.03380863667343",
    "geocoded_column": {
      "latitude": "30.03380863667343",
      "longitude": "-89.991767646262"
    }
  },
  {
    "service_request": "2024-1121423",
    "request_type": "Trash/Recycling",
    "request_reason": "Request a Large Item Pick Up",
    "date_created": "2024-08-13T13:52:17.000",
    "date_modified": "2024-08-13T13:52:18.000",
    "request_status": "Pending",
    "responsible_agency": "Department of Sanitation",
    "final_address": "1011 Piety St",
    "address_councildis": "C",
    "status": "Assigned to Contractor",
    "contractor": "IV Waste",
    "rowid": "1121423",
    "final_x": "3689779.46889",
    "final_y": "535454.070214",
    "longitude": "-90.04178680507383",
    "latitude": "29.966059025042473",
    "geocoded_column": {
      "latitude": "29.966059025042473",
      "longitude": "-90.04178680507383"
    }
  },
  {
    "service_request": "2024-1121422",
    "request_type": "Roads/Drainage",
    "request_reason": "Catch Basin - Broken/Damage",
    "date_created": "2024-08-13T13:49:19.000",
    "date_modified": "2024-08-13T13:49:20.000",
    "request_status": "Pending",
    "responsible_agency": "Department of Public Works",
    "final_address": "7900 Arcadia Ln",
    "address_councildis": "E",
    "status": "Pending",
    "rowid": "1121422",
    "final_x": "3711861.32158",
    "final_y": "567786.174052",
    "longitude": "-89.97083951470594",
    "latitude": "30.054256913138698",
    "geocoded_column": {
      "latitude": "30.054256913138698",
      "longitude": "-89.97083951470594"
    }
  },
  {
    "service_request": "2024-1121421",
    "request_type": "Trash/Recycling",
    "request_reason": "Request a Large Item Pick Up",
    "date_created": "2024-08-13T13:47:30.000",
    "date_modified": "2024-08-13T13:47:31.000",
    "request_status": "Pending",
    "responsible_agency": "Department of Sanitation",
    "final_address": "7850 Arcadia Ln",
    "address_councildis": "E",
    "status": "Assigned to Contractor",
    "contractor": "Waste Pro",
    "rowid": "1121421",
    "final_x": "3711893.46635",
    "final_y": "567741.9249",
    "longitude": "-89.97073957677236",
    "latitude": "30.05413419498688",
    "geocoded_column": {
      "latitude": "30.05413419498688",
      "longitude": "-89.97073957677236"
    }
  },
  {
    "service_request": "2024-1121420",
    "request_type": "Trash/Recycling",
    "request_reason": "Request a Large Item Pick Up",
    "date_created": "2024-08-13T13:46:58.000",
    "date_modified": "2024-08-13T13:46:58.000",
    "request_status": "Pending",
    "responsible_agency": "Department of Sanitation",
    "final_address": "7722 Lafourche St",
    "address_councildis": "E",
    "status": "Assigned to Contractor",
    "contractor": "Waste Pro",
    "rowid": "1121420",
    "final_x": "3709897.31813",
    "final_y": "565964.938403",
    "longitude": "-89.97711534771119",
    "latitude": "30.04931331876745",
    "geocoded_column": {
      "latitude": "30.04931331876745",
      "longitude": "-89.97711534771119"
    }
  },
  {
    "service_request": "2024-1121419",
    "request_type": "Trash/Recycling",
    "request_reason": "Request a Large Item Pick Up",
    "date_created": "2024-08-13T13:46:04.000",
    "date_modified": "2024-08-13T13:46:05.000",
    "request_status": "Pending",
    "responsible_agency": "Department of Sanitation",
    "final_address": "3446 Vespasian St",
    "address_councildis": "C",
    "status": "Assigned to Contractor",
    "contractor": "Richards Disposal",
    "rowid": "1121419",
    "final_x": "3695926.74461",
    "final_y": "522696.704826",
    "longitude": "-90.02283473329499",
    "latitude": "29.930788763976558",
    "geocoded_column": {
      "latitude": "29.930788763976558",
      "longitude": "-90.02283473329499"
    }
  },
  {
    "service_request": "2024-1121418",
    "request_type": "Trash/Recycling",
    "request_reason": "Request a Large Item Pick Up",
    "date_created": "2024-08-13T13:45:00.000",
    "date_modified": "2024-08-13T13:45:01.000",
    "request_status": "Pending",
    "responsible_agency": "Department of Sanitation",
    "final_address": "5302 Tullis Dr",
    "address_councildis": "C",
    "status": "Assigned to Contractor",
    "contractor": "Richards Disposal",
    "rowid": "1121418",
    "final_x": "3703392.94769",
    "final_y": "511981.664688",
    "longitude": "-89.99965887167302",
    "latitude": "29.90108917462635",
    "geocoded_column": {
      "latitude": "29.90108917462635",
      "longitude": "-89.99965887167302"
    }
  },
  {
    "service_request": "2024-1121417",
    "request_type": "Trash/Recycling",
    "request_reason": "MIssed Recycling Pick-Up",
    "date_created": "2024-08-13T13:44:41.000",
    "date_modified": "2024-08-13T13:50:12.000",
    "case_close_date": "2024-08-13T08:50:12.000",
    "request_status": "Closed",
    "responsible_agency": "Department of Sanitation",
    "final_address": "1516 Spain St",
    "address_councildis": "C",
    "status": "Invalid Request",
    "contractor": "IV Waste",
    "contractor_action": "Invalid",
    "rowid": "1121417",
    "final_x": "3685971.54114",
    "final_y": "538018.394185",
    "longitude": "-90.05372168292024",
    "latitude": "29.973227492481417",
    "geocoded_column": {
      "latitude": "29.973227492481417",
      "longitude": "-90.05372168292024"
    }
  },
  {
    "service_request": "2024-1121416",
    "request_type": "Trash/Recycling",
    "request_reason": "Request a Large Item Pick Up",
    "date_created": "2024-08-13T13:43:18.000",
    "date_modified": "2024-08-13T13:43:19.000",
    "request_status": "Pending",
    "responsible_agency": "Department of Sanitation",
    "final_address": "1481 Farragut St",
    "address_councildis": "C",
    "status": "Assigned to Contractor",
    "contractor": "Richards Disposal",
    "rowid": "1121416",
    "final_x": "3692271.84381",
    "final_y": "525560.369533",
    "longitude": "-90.03427020062955",
    "latitude": "29.938777300142437",
    "geocoded_column": {
      "latitude": "29.938777300142437",
      "longitude": "-90.03427020062955"
    }
  },
  {
    "service_request": "2024-1121415",
    "request_type": "Trash/Recycling",
    "request_reason": "Replace Trash Cart",
    "date_created": "2024-08-13T13:40:21.000",
    "date_modified": "2024-08-13T13:40:22.000",
    "request_status": "Pending",
    "responsible_agency": "Department of Sanitation",
    "final_address": "4512 Banks St",
    "address_councildis": "A",
    "status": "Assigned to Contractor",
    "contractor": "IV Waste",
    "rowid": "1121415",
    "final_x": "3668833.71438",
    "final_y": "538466.861897",
    "longitude": "-90.1078314068862",
    "latitude": "29.97497574373266",
    "geocoded_column": {
      "latitude": "29.97497574373266",
      "longitude": "-90.1078314068862"
    }
  },
  {
    "service_request": "2024-1121414",
    "request_type": "Trash/Recycling",
    "request_reason": "Order Trash Cart",
    "date_created": "2024-08-13T13:40:12.000",
    "date_modified": "2024-08-13T13:40:13.000",
    "request_status": "Pending",
    "responsible_agency": "Department of Sanitation",
    "final_address": "7007 Read Blvd Ste A",
    "address_councildis": "E",
    "status": "Assigned to Contractor",
    "contractor": "Waste Pro",
    "rowid": "1121414",
    "final_x": "3710024.07224",
    "final_y": "562074.229855",
    "longitude": "-89.97686030566658",
    "latitude": "30.038611304851425",
    "geocoded_column": {
      "latitude": "30.038611304851425",
      "longitude": "-89.97686030566658"
    }
  },
  {
    "service_request": "2024-1121413",
    "request_type": "Trash/Recycling",
    "request_reason": "Repair Trash Cart",
    "date_created": "2024-08-13T13:31:40.000",
    "date_modified": "2024-08-13T13:31:41.000",
    "request_status": "Pending",
    "responsible_agency": "Department of Sanitation",
    "final_address": "3811 Magazine St",
    "address_councildis": "B",
    "status": "Assigned to Contractor",
    "contractor": "IV Waste",
    "rowid": "1121413",
    "final_x": "3673265.15886",
    "final_y": "519070.493687",
    "longitude": "-90.09449804730887",
    "latitude": "29.92151105885295",
    "geocoded_column": {
      "latitude": "29.92151105885295",
      "longitude": "-90.09449804730887"
    }
  },
  {
    "service_request": "2024-1121412",
    "request_type": "Trash/Recycling",
    "request_reason": "Request a Large Item Pick Up",
    "date_created": "2024-08-13T13:31:12.000",
    "date_modified": "2024-08-13T13:31:12.000",
    "request_status": "Pending",
    "responsible_agency": "Department of Sanitation",
    "final_address": "8803 Olive St",
    "address_councildis": "A",
    "status": "Assigned to Contractor",
    "contractor": "IV Waste",
    "rowid": "1121412",
    "final_x": "3665401.99636",
    "final_y": "535901.590663",
    "longitude": "-90.11875557496711",
    "latitude": "29.9680225742866",
    "geocoded_column": {
      "latitude": "29.9680225742866",
      "longitude": "-90.11875557496711"
    }
  },
  {
    "service_request": "2024-1121411",
    "request_type": "Property Maintenance",
    "request_reason": "Property Maintenance",
    "date_created": "2024-08-13T13:30:05.000",
    "date_modified": "2024-08-13T13:30:05.000",
    "request_status": "Pending",
    "responsible_agency": "Department of Code Enforcement",
    "final_address": "4949 Toulon St",
    "address_councildis": "E",
    "status": "Pending",
    "rowid": "1121411",
    "final_x": "3723793.78079",
    "final_y": "561098.998814",
    "longitude": "-89.93338255594287",
    "latitude": "30.035474417819856",
    "geocoded_column": {
      "latitude": "30.035474417819856",
      "longitude": "-89.93338255594287"
    }
  },
  {
    "service_request": "2024-1121410",
    "request_type": "Property Maintenance",
    "request_reason": "Property Maintenance",
    "date_created": "2024-08-13T13:29:09.000",
    "date_modified": "2024-08-13T13:29:10.000",
    "request_status": "Pending",
    "responsible_agency": "Department of Code Enforcement",
    "final_address": "4950 N Rampart St",
    "address_councildis": "E",
    "status": "Pending",
    "rowid": "1121410",
    "final_x": "3695540.56342",
    "final_y": "533819.486597",
    "longitude": "-90.02365250952403",
    "latitude": "29.96138468764177",
    "geocoded_column": {
      "latitude": "29.96138468764177",
      "longitude": "-90.02365250952403"
    }
  },
  {
    "service_request": "2024-1121409",
    "request_type": "Traffic Signals/Signs/Striping/Streetlights",
    "request_reason": "Street Light Outage/Malfunction",
    "date_created": "2024-08-13T13:28:52.000",
    "date_modified": "2024-08-13T13:28:53.000",
    "request_status": "Pending",
    "responsible_agency": "Department of Public Works",
    "final_address": "MARIGNY ST & DREUX AVE",
    "address_councildis": "D",
    "status": "Assigned to Contractor",
    "contractor": "Legacy Professional Services",
    "rowid": "1121409",
    "final_x": "3684281.8",
    "final_y": "552031.38",
    "longitude": "-90.05856586314636",
    "latitude": "30.01180998944286",
    "geocoded_column": {
      "latitude": "30.01180998944286",
      "longitude": "-90.05856586314636"
    }
  },
  {
    "service_request": "2024-1121408",
    "request_type": "Traffic Signals/Signs/Striping/Streetlights",
    "request_reason": "Street Light Outage/Malfunction",
    "date_created": "2024-08-13T13:27:08.000",
    "date_modified": "2024-08-13T13:27:09.000",
    "request_status": "Pending",
    "responsible_agency": "Department of Public Works",
    "final_address": "4123 General Pershing St",
    "address_councildis": "B",
    "status": "Assigned to Contractor",
    "contractor": "Legacy Professional Services",
    "rowid": "1121408",
    "final_x": "3670120.37806",
    "final_y": "529432.638273",
    "longitude": "-90.10407387818942",
    "latitude": "29.950096730778423",
    "geocoded_column": {
      "latitude": "29.950096730778423",
      "longitude": "-90.10407387818942"
    }
  },
  {
    "service_request": "2024-1121407",
    "request_type": "Roads/Drainage",
    "request_reason": "Pothole",
    "date_created": "2024-08-13T13:26:38.000",
    "date_modified": "2024-08-13T13:27:00.000",
    "case_close_date": "2024-08-13T08:27:00.000",
    "request_status": "Closed",
    "responsible_agency": "Department of Public Works",
    "final_address": "5900 BLK Laurel St",
    "address_councildis": "A",
    "status": "Resolved",
    "rowid": "1121407",
    "final_x": "3664831.25068",
    "final_y": "518107.233258",
    "longitude": "-90.12115250665221",
    "latitude": "29.91911042611226",
    "geocoded_column": {
      "latitude": "29.91911042611226",
      "longitude": "-90.12115250665221"
    }
  },