[
  {
    "service_request": "2023-1021929",
    "request_type": "Roads/Drainage",
    "request_reason": "Pothole",
    "date_created": "2023-07-31T01:50:12.000",
    "date_modified": "2023-07-31T01:50:12.000",
    "request_status": "Pending",
    "responsible_agency": "Department of Public Works",
    "final_address": "1501 Antonine St",
    "address_councildis": "B",
    "status": "Pending",
    "rowid": "1021929",
    "final_x": "3673384.60955",
    "final_y": "520731.365497",
    "longitude": "-90.0940642915535",
    "latitude": "29.926074372179546",
    "geocoded_column": {
      "latitude": "29.926074372179546",
      "longitude": "-90.0940642915535"
    }
  },
  {
    "service_request": "2023-1021928",
    "request_type": "Roads/Drainage",
    "request_reason": "Road Shoulder Repair",
    "date_created": "2023-07-31T01:12:53.000",
    "date_modified": "2023-07-31T01:12:53.000",
    "request_status": "Pending",
    "responsible_agency": "Department of Public Works",
    "final_address": "3601 Coliseum St",
    "address_councildis": "B",
    "status": "Pending",
    "rowid": "1021928",
    "final_x": "3673660.91604",
    "final_y": "520279.949048",
    "longitude": "-90.09320749331103",
    "latitude": "29.924824902150238",
    "geocoded_column": {
      "latitude": "29.924824902150238",
      "longitude": "-90.09320749331103"
    }
  },
  {
    "service_request": "2023-1021927",
    "request_type": "Trash/Recycling",
    "request_reason": "Request a Large Item Pick Up",
    "date_created": "2023-07-30T23:29:34.000",
    "date_modified": "2023-07-30T23:29:35.000",
    "request_status": "Pending",
    "responsible_agency": "Department of Sanitation",
    "final_address": "6141 Vicksburg St",
    "address_councildis": "A",
    "status": "Assigned to Contractor",
    "contractor": "IV Waste",
    "rowid": "1021927",
    "final_x": "3669050.33754",
    "final_y": "548242.775762",
    "longitude": "-90.1068167662959",
    "latitude": "30.001849792062426",
    "geocoded_column": {
      "latitude": "30.001849792062426",
      "longitude": "-90.1068167662959"
    }
  },
  {
    "service_request": "2023-1021926",
    "request_type": "Roads/Drainage",
    "request_reason": "Road Shoulder Repair",
    "date_created": "2023-07-30T23:01:00.000",
    "date_modified": "2023-07-30T23:01:00.000",
    "request_status": "Pending",
    "responsible_agency": "Department of Public Works",
    "final_address": "4901 Franklin Ave",
    "address_councildis": "D",
    "status": "Pending",
    "rowid": "1021926",
    "final_x": "3686871.25506",
    "final_y": "551004.348437",
    "longitude": "-90.05042102891811",
    "latitude": "30.008906562279577",
    "geocoded_column": {
      "latitude": "30.008906562279577",
      "longitude": "-90.05042102891811"
    }
  },
  {
    "service_request": "2023-1021925",
    "request_type": "Trash/Recycling",
    "request_reason": "Request a Large Item Pick Up",
    "date_created": "2023-07-30T22:49:22.000",
    "date_modified": "2023-07-30T22:49:22.000",
    "request_status": "Pending",
    "responsible_agency": "Department of Sanitation",
    "final_address": "1628 Duels St",
    "address_councildis": "D",
    "status": "Assigned to Contractor",
    "contractor": "IV Waste",
    "rowid": "1021925",
    "final_x": "3680220.72162",
    "final_y": "542114.827084",
    "longitude": "-90.07174147869976",
    "latitude": "29.984666595482704",
    "geocoded_column": {
      "latitude": "29.984666595482704",
      "longitude": "-90.07174147869976"
    }
  },
  {
    "service_request": "2023-1021924",
    "request_type": "Trash/Recycling",
    "request_reason": "Replace Trash Cart",
    "date_created": "2023-07-30T22:16:13.000",
    "date_modified": "2023-07-30T22:16:14.000",
    "request_status": "Pending",
    "responsible_agency": "Department of Sanitation",
    "final_address": "3130 De Soto St",
    "address_councildis": "A",
    "status": "Assigned to Contractor",
    "contractor": "Richards Disposal",
    "rowid": "1021924",
    "final_x": "3676148.66613",
    "final_y": "539872.799114",
    "longitude": "-90.08468050514858",
    "latitude": "29.97862444172509",
    "geocoded_column": {
      "latitude": "29.97862444172509",
      "longitude": "-90.08468050514858"
    }
  },
  {
    "service_request": "2023-1021923",
    "request_type": "Trash/Recycling",
    "request_reason": "Request a Large Item Pick Up",
    "date_created": "2023-07-30T21:51:39.000",
    "date_modified": "2023-07-30T21:51:39.000",
    "request_status": "Pending",
    "responsible_agency": "Department of Sanitation",
    "final_address": "117 12Th St",
    "address_councildis": "A",
    "status": "Assigned to Contractor",
    "contractor": "IV Waste",
    "rowid": "1021923",
    "final_x": "3665927.10317",
    "final_y": "547842.678738",
    "longitude": "-90.1166968582282",
    "latitude": "30.000841217855484",
    "geocoded_column": {
      "latitude": "30.000841217855484",
      "longitude": "-90.1166968582282"
    }
  },
  {
    "service_request": "2023-1021922",
    "request_type": "Traffic Signals/Signs/Striping/Streetlights",
    "request_reason": "Street Light Outage/Malfunction",
    "date_created": "2023-07-30T20:44:16.000",
    "date_modified": "2023-07-30T20:44:17.000",
    "request_status": "Pending",
    "responsible_agency": "Department of Public Works",
    "final_address": "5404 Hawthorne Pl",
    "address_councildis": "A",
    "status": "Assigned to Contractor",
    "contractor": "Legacy Professional Services",
    "rowid": "1021922",
    "final_x": "3667701.97959",
    "final_y": "543122.445261",
    "longitude": "-90.11124890860475",
    "latitude": "29.98781025839443",
    "geocoded_column": {
      "latitude": "29.98781025839443",
      "longitude": "-90.11124890860475"
    }
  },
  {
    "service_request": "2023-1021921",
    "request_type": "Trash/Recycling",
    "request_reason": "Illegal Dumping",
    "date_created": "2023-07-30T20:41:57.000",
    "date_modified": "2023-07-30T20:41:57.000",
    "request_status": "Pending",
    "responsible_agency": "Department of Sanitation",
    "final_address": "7617 Gannon Rd",
    "address_councildis": "E",
    "status": "Pending",
    "rowid": "1021921",
    "final_x": "3716446.48031",
    "final_y": "569914.57463",
    "longitude": "-89.95626621426389",
    "latitude": "30.059958426728546",
    "geocoded_column": {
      "latitude": "30.059958426728546",
      "longitude": "-89.95626621426389"
    }
  },
  {
    "service_request": "2023-1021920",
    "request_type": "Parks & Parkways",
    "request_reason": "Request Tree Service (Right of Way/Public Property)",
    "date_created": "2023-07-30T20:10:49.000",
    "date_modified": "2023-07-30T20:17:01.000",
    "request_status": "Pending",
    "responsible_agency": "Department of Parks & Parkway",
    "final_address": "4000 BLK Tall Timbers Dr",
    "address_councildis": "C",
    "status": "Pending",
    "rowid": "1021920",
    "final_x": "3704258.89131",
    "final_y": "513683.590859",
    "longitude": "-89.99686339776568",
    "latitude": "29.905741151007355",
    "geocoded_column": {
      "latitude": "29.905741151007355",
      "longitude": "-89.99686339776568"
    }
  },
  {
    "service_request": "2023-1021919",
    "request_type": "Trash/Recycling",
    "request_reason": "Replace Trash Cart",
    "date_created": "2023-07-30T20:03:32.000",
    "date_modified": "2023-07-30T20:03:33.000",
    "request_status": "Pending",
    "responsible_agency": "Department of Sanitation",
    "final_address": "521 N Hennessey St",
    "address_councildis": "A",
    "status": "Assigned to Contractor",
    "contractor": "Richards Disposal",
    "rowid": "1021919",
    "final_x": "3671288.80993",
    "final_y": "540324.223179",
    "longitude": "-90.10001442865405",
    "latitude": "29.980010428770342",
    "geocoded_column": {
      "latitude": "29.980010428770342",
      "longitude": "-90.10001442865405"
    }
  },
  {
    "service_request": "2023-1021918",
    "request_type": "Abandoned Vehicles",
    "request_reason": "Abandoned/Junk Vehicles",
    "date_created": "2023-07-30T19:32:49.000",
    "date_modified": "2023-07-30T19:32:50.000",
    "request_status": "Pending",
    "responsible_agency": "Department of Public Works",
    "final_address": "1118 N Prieur St",
    "address_councildis": "D",
    "status": "Pending",
    "rowid": "1021918",
    "final_x": "3679959.45576",
    "final_y": "536580.119431",
    "longitude": "-90.07275902505575",
    "latitude": "29.969455972930458",
    "geocoded_column": {
      "latitude": "29.969455972930458",
      "longitude": "-90.07275902505575"
    }
  },
  {
    "service_request": "2023-1021917",
    "request_type": "Property Maintenance",
    "request_reason": "Property Maintenance",
    "date_created": "2023-07-30T19:30:23.000",
    "date_modified": "2023-07-30T19:30:23.000",
    "request_status": "Pending",
    "responsible_agency": "Department of Code Enforcement",
    "final_address": "8436 Chef Menteur Hwy",
    "address_councildis": "E",
    "status": "Pending",
    "rowid": "1021917",
    "final_x": "3706643.49156",
    "final_y": "553103.069079",
    "longitude": "-89.98787667134025",
    "latitude": "30.014053719281",
    "geocoded_column": {
      "latitude": "30.014053719281",
      "longitude": "-89.98787667134025"
    }
  },
  {
    "service_request": "2023-1021916",
    "request_type": "Trash/Recycling",
    "request_reason": "Request a Large Item Pick Up",
    "date_created": "2023-07-30T19:28:11.000",
    "date_modified": "2023-07-30T19:28:11.000",
    "request_status": "Pending",
    "responsible_agency": "Department of Sanitation",
    "final_address": "7532 Chef Menteur Hwy",
    "address_councildis": "E",
    "status": "Assigned to Contractor",
    "contractor": "Waste Pro",
    "rowid": "1021916",
    "final_x": "3703179.16446",
    "final_y": "552310.765078",
    "longitude": "-89.99885126354637",
    "latitude": "30.011986581111163",
    "geocoded_column": {
      "latitude": "30.011986581111163",
      "longitude": "-89.99885126354637"
    }
  },
  {
    "service_request": "2023-1021915",
    "request_type": "Abandoned Vehicles",
    "request_reason": "Vehicle Blocking Your Driveway",
    "date_created": "2023-07-30T19:18:43.000",
    "date_modified": "2023-07-30T19:18:43.000",
    "request_status": "Pending",
    "responsible_agency": "Department of Public Works",
    "final_address": "Congress St, New Orleans, Louisiana, 70117",
    "address_councildis": "C",
    "status": "Pending",
    "rowid": "1021915",
    "final_x": "3690406.65558",
    "final_y": "534176.332485",
    "longitude": "-90.03985172224485",
    "latitude": "29.962526240191387",
    "geocoded_column": {
      "latitude": "29.962526240191387",
      "longitude": "-90.03985172224485"
    }
  },
  {
    "service_request": "2023-1021914",
    "request_type": "Property Maintenance",
    "request_reason": "Property Maintenance",
    "date_created": "2023-07-30T19:06:27.000",
    "date_modified": "2023-07-30T19:06:27.000",
    "request_status": "Pending",
    "responsible_agency": "Department of Code Enforcement",
    "final_address": "3707 Danneel St",
    "address_councildis": "B",
    "status": "Pending",
    "rowid": "1021914",
    "final_x": "3672677.33857",
    "final_y": "522634.610682",
    "longitude": "-90.0962320797198",
    "latitude": "29.931328698347716",
    "geocoded_column": {
      "latitude": "29.931328698347716",
      "longitude": "-90.0962320797198"
    }
  },
  {
    "service_request": "2023-1021913",
    "request_type": "Property Maintenance",
    "request_reason": "Property Maintenance",
    "date_created": "2023-07-30T19:05:45.000",
    "date_modified": "2023-07-30T19:05:45.000",
    "request_status": "Pending",
    "responsible_agency": "Department of Code Enforcement",
    "final_address": "3507 Danneel St",
    "address_councildis": "B",
    "status": "Pending",
    "rowid": "1021913",
    "final_x": "3673178.49019",
    "final_y": "522722.380474",
    "longitude": "-90.09464700833146",
    "latitude": "29.93155514984597",
    "geocoded_column": {
      "latitude": "29.93155514984597",
      "longitude": "-90.09464700833146"
    }
  },
  {
    "service_request": "2023-1021912",
    "request_type": "Property Maintenance",
    "request_reason": "Property Maintenance",
    "date_created": "2023-07-30T18:39:25.000",
    "date_modified": "2023-07-30T18:39:25.000",
    "request_status": "Pending",
    "responsible_agency": "Department of Code Enforcement",
    "final_address": "5521 Pasteur Blvd",
    "address_councildis": "D",
    "status": "Pending",
    "rowid": "1021912",
    "final_x": "3682991.41493",
    "final_y": "553240.538071",
    "longitude": "-90.0626003640672",
    "latitude": "30.015174144054374",
    "geocoded_column": {
      "latitude": "30.015174144054374",
      "longitude": "-90.0626003640672"
    }
  },
  {
    "service_request": "2023-1021911",
    "request_type": "Trash/Recycling",
    "request_reason": "Replace Trash Cart",
    "date_created": "2023-07-30T18:08:46.000",
    "date_modified": "2023-07-30T18:08:47.000",
    "request_status": "Pending",
    "responsible_agency": "Department of Sanitation",
    "final_address": "4708 Bonita Dr",
    "address_councildis": "E",
    "status": "Assigned to Contractor",
    "contractor": "Waste Pro",
    "rowid": "1021911",
    "final_x": "3704470.64369",
    "final_y": "555042.767897",
    "longitude": "-89.99467011904031",
    "latitude": "30.019457120811442",
    "geocoded_column": {
      "latitude": "30.019457120811442",
      "longitude": "-89.99467011904031"
    }
  },
  {
    "service_request": "2023-1021910",
    "request_type": "Trash/Recycling",
    "request_reason": "Missed Trash Pick-Up",
    "date_created": "2023-07-30T18:07:38.000",
    "date_modified": "2023-07-30T18:07:39.000",
    "request_status": "Pending",
    "responsible_agency": "Department of Sanitation",
    "final_address": "4708 Bonita Dr",
    "address_councildis": "E",
    "status": "Assigned to Contractor",
    "contractor": "Waste Pro",
    "rowid": "1021910",
    "final_x": "3704470.64369",
    "final_y": "555042.767897",
    "longitude": "-89.99467011904031",
    "latitude": "30.019457120811442",
    "geocoded_column": {
      "latitude": "30.019457120811442",
      "longitude": "-89.99467011904031"
    }
  },
  {
    "service_request": "2023-1021909",
    "request_type": "Abandoned Vehicles",
    "request_reason": "Abandoned/Junk Vehicles",
    "date_created": "2023-07-30T18:02:23.000",
    "date_modified": "2023-07-30T18:02:23.000",
    "request_status": "Pending",
    "responsible_agency": "Department of Public Works",
    "final_address": "1576 N Dorgenois St",
    "address_councildis": "D",
    "status": "Pending",
    "rowid": "1021909",
    "final_x": "3679550.34479",
    "final_y": "539729.380554",
    "longitude": "-90.07394171856173",
    "latitude": "29.978127724941505",
    "geocoded_column": {
      "latitude": "29.978127724941505",
      "longitude": "-90.07394171856173"
    }
  },
  {
    "service_request": "2023-1021908",
    "request_type": "Traffic Signals/Signs/Striping/Streetlights",
    "request_reason": "Street Light Outage/Malfunction",
    "date_created": "2023-07-30T17:53:15.000",
    "date_modified": "2023-07-30T17:53:15.000",
    "request_status": "Pending",
    "responsible_agency": "Department of Public Works",
    "final_address": "HAYNE BLVD & TRAPIER AVE",
    "address_councildis": "E",
    "status": "Assigned to Contractor",
    "contractor": "Legacy Professional Services",
    "rowid": "1021908",
    "final_x": "3705846.9",
    "final_y": "564891.18",
    "longitude": "-89.98995682569775",
    "latitude": "30.04649210833992",
    "geocoded_column": {
      "latitude": "30.04649210833992",
      "longitude": "-89.98995682569775"
    }
  },
  {
    "service_request": "2023-1021907",
    "request_type": "Trash/Recycling",
    "request_reason": "Replace Trash Cart",
    "date_created": "2023-07-30T17:50:45.000",
    "date_modified": "2023-07-30T17:50:45.000",
    "request_status": "Pending",
    "responsible_agency": "Department of Sanitation",
    "final_address": "4920 Dryades St",
    "address_councildis": "B",
    "status": "Assigned to Contractor",
    "contractor": "Richards Disposal",
    "rowid": "1021907",
    "final_x": "3668904.73338",
    "final_y": "521685.405177",
    "longitude": "-90.1081738005452",
    "latitude": "29.928830143455674",
    "geocoded_column": {
      "latitude": "29.928830143455674",
      "longitude": "-90.1081738005452"
    }
  },
  {
    "service_request": "2023-1021906",
    "request_type": "Abandoned Vehicles",
    "request_reason": "Abandoned/Junk Vehicles",
    "date_created": "2023-07-30T17:43:39.000",
    "date_modified": "2023-07-30T17:43:39.000",
    "request_status": "Pending",
    "responsible_agency": "Department of Public Works",
    "final_address": "2900 Dumaine St",
    "address_councildis": "A",
    "status": "Pending",
    "rowid": "1021906",
    "final_x": "3676379.18075",
    "final_y": "538053.834121",
    "longitude": "-90.08401509145128",
    "latitude": "29.973616002637257",
    "geocoded_column": {
      "latitude": "29.973616002637257",
      "longitude": "-90.08401509145128"
    }
  },
  {
    "service_request": "2023-1021905",
    "request_type": "Abandoned Vehicles",
    "request_reason": "Abandoned/Junk Vehicles",
    "date_created": "2023-07-30T17:34:49.000",
    "date_modified": "2023-07-30T17:34:49.000",
    "request_status": "Pending",
    "responsible_agency": "Department of Public Works",
    "final_address": "812 N Dupre St",
    "address_councildis": "A",
    "status": "Pending",
    "rowid": "1021905",
    "final_x": "3676297.76603",
    "final_y": "537826.48628",
    "longitude": "-90.08428004362302",
    "latitude": "29.972993314300705",
    "geocoded_column": {
      "latitude": "29.972993314300705",
      "longitude": "-90.08428004362302"
    }
  },
  {
    "service_request": "2023-1021904",
    "request_type": "Trash/Recycling",
    "request_reason": "Request a Large Item Pick Up",
    "date_created": "2023-07-30T17:33:03.000",
    "date_modified": "2023-07-30T17:33:03.000",
    "request_status": "Pending",
    "responsible_agency": "Department of Sanitation",
    "final_address": "10340 Brookfield Dr",
    "address_councildis": "E",
    "status": "Assigned to Contractor",
    "contractor": "Waste Pro",
    "rowid": "1021904",
    "final_x": "3710674.78533",
    "final_y": "563265.635552",
    "longitude": "-89.97475925389885",
    "latitude": "30.041865996865702",
    "geocoded_column": {
      "latitude": "30.041865996865702",
      "longitude": "-89.97475925389885"
    }
  },
  {
    "service_request": "2023-1021903",
    "request_type": "Trash/Recycling",
    "request_reason": "Order Trash Cart",
    "date_created": "2023-07-30T17:32:39.000",
    "date_modified": "2023-07-30T17:32:39.000",
    "request_status": "Pending",
    "responsible_agency": "Department of Sanitation",
    "final_address": "7419 Zimple St",
    "address_councildis": "A",
    "status": "Assigned to Contractor",
    "contractor": "Richards Disposal",
    "rowid": "1021903",
    "final_x": "3663381.78157",
    "final_y": "526650.722302",
    "longitude": "-90.12544348327553",
    "latitude": "29.942644412489933",
    "geocoded_column": {
      "latitude": "29.942644412489933",
      "longitude": "-90.12544348327553"
    }
  },
  {
    "service_request": "2023-1021902",
    "request_type": "Trash/Recycling",
    "request_reason": "Request a Large Item Pick Up",
    "date_created": "2023-07-30T17:26:43.000",
    "date_modified": "2023-07-30T17:26:44.000",
    "request_status": "Pending",
    "responsible_agency": "Department of Sanitation",
    "final_address": "1416 Laharpe St",
    "address_councildis": "C",
    "status": "Assigned to Contractor",
    "contractor": "IV Waste",
    "rowid": "1021902",
    "final_x": "3682370.10536",
    "final_y": "537108.384584",
    "longitude": "-90.06512753940274",
    "latitude": "29.970835377668568",
    "geocoded_column": {
      "latitude": "29.970835377668568",
      "longitude": "-90.06512753940274"
    }
  },
  {
    "service_request": "2023-1021901",
    "request_type": "Roads/Drainage",
    "request_reason": "Debris in Roadway",
    "date_created": "2023-07-30T17:06:05.000",
    "date_modified": "2023-07-30T17:06:05.000",
    "request_status": "Pending",
    "responsible_agency": "Department of Public Works",
    "final_address": "1633 Third St",
    "address_councildis": "B",
    "status": "Pending",
    "rowid": "1021901",
    "final_x": "3676298.84629",
    "final_y": "523147.287867",
    "longitude": "-90.08478178566985",
    "latitude": "29.932630386043655",
    "geocoded_column": {
      "latitude": "29.932630386043655",
      "longitude": "-90.08478178566985"
    }
  },
  {
    "service_request": "2023-1021900",
    "request_type": "Abandoned Vehicles",
    "request_reason": "Abandoned/Junk Vehicles",
    "date_created": "2023-07-30T17:05:24.000",
    "date_modified": "2023-07-30T17:05:24.000",
    "request_status": "Pending",
    "responsible_agency": "Department of Public Works",
    "final_address": "812 N Dupre St",
    "address_councildis": "A",
    "status": "Pending",
    "rowid": "1021900",
    "final_x": "3676297.76603",
    "final_y": "537826.48628",
    "longitude": "-90.08428004362302",
    "latitude": "29.972993314300705",
    "geocoded_column": {
      "latitude": "29.972993314300705",
      "longitude": "-90.08428004362302"
    }
  },
  {
    "service_request": "2023-1021899",
    "request_type": "Traffic Signals/Signs/Striping/Streetlights",
    "request_reason": "Street Light Outage/Malfunction",
    "date_created": "2023-07-30T16:58:56.000",
    "date_modified": "2023-07-30T16:58:56.000",
    "request_status": "Pending",
    "responsible_agency": "Department of Public Works",
    "final_address": "5524 Dayna Ct",
    "address_councildis": "A",
    "status": "Assigned to Contractor",
    "contractor": "Legacy Professional Services",
    "rowid": "1021899",
    "final_x": "3664368.24064",
    "final_y": "544067.054542",
    "longitude": "-90.12174756285931",
    "latitude": "29.99050495874657",
    "geocoded_column": {
      "latitude": "29.99050495874657",
      "longitude": "-90.12174756285931"
    }
  },
  {
    "service_request": "2023-1021898",
    "request_type": "Traffic Signals/Signs/Striping/Streetlights",
    "request_reason": "Street Light Outage/Malfunction",
    "date_created": "2023-07-30T16:56:13.000",
    "date_modified": "2023-07-30T16:56:14.000",
    "request_status": "Pending",
    "responsible_agency": "Department of Public Works",
    "final_address": "5524 Dayna Ct",
    "address_councildis": "A",
    "status": "Assigned to Contractor",
    "contractor": "Legacy Professional Services",
    "rowid": "1021898",
    "final_x": "3664368.24064",
    "final_y": "544067.054542",
    "longitude": "-90.12174756285931",
    "latitude": "29.99050495874657",
    "geocoded_column": {
      "latitude": "29.99050495874657",
      "longitude": "-90.12174756285931"
    }
  },
  {
    "service_request": "2023-1021897",
    "request_type": "Trash/Recycling",
    "request_reason": "Request a Large Item Pick Up",
    "date_created": "2023-07-30T16:50:43.000",
    "date_modified": "2023-07-30T16:50:44.000",
    "request_status": "Pending",
    "responsible_agency": "Department of Sanitation",
    "final_address": "339 40Th St",
    "address_councildis": "A",
    "status": "Assigned to Contractor",
    "contractor": "IV Waste",
    "rowid": "1021897",
    "final_x": "3665118.55469",
    "final_y": "553416.291287",
    "longitude": "-90.11906454458766",
    "latitude": "30.016190298539307",
    "geocoded_column": {
      "latitude": "30.016190298539307",
      "longitude": "-90.11906454458766"
    }
  },
  {
    "service_request": "2023-1021896",
    "request_type": "Trash/Recycling",
    "request_reason": "Request a Large Item Pick Up",
    "date_created": "2023-07-30T16:41:17.000",
    "date_modified": "2023-07-30T16:41:18.000",
    "request_status": "Pending",
    "responsible_agency": "Department of Sanitation",
    "status": "Assigned to Contractor",
    "rowid": "1021896",
    "longitude": "0.0",
    "latitude": "0.0",
    "geocoded_column": {
      "latitude": "0.0",
      "longitude": "0.0"
    }
  },
  {
    "service_request": "2023-1021895",
    "request_type": "Abandoned Vehicles",
    "request_reason": "Vehicle Blocking Your Driveway",
    "date_created": "2023-07-30T16:26:55.000",
    "date_modified": "2023-07-30T16:26:55.000",
    "request_status": "Pending",
    "responsible_agency": "Department of Public Works",
    "final_address": "3505 Baudin St, New Orleans, Louisiana, 70119",
    "status": "Pending",
    "rowid": "1021895",
    "longitude": "0.0",
    "latitude": "0.0",
    "geocoded_column": {
      "latitude": "0.0",
      "longitude": "0.0"
    }
  },
  {
    "service_request": "2023-1021894",
    "request_type": "Trash/Recycling",
    "request_reason": "Replace Trash Cart",
    "date_created": "2023-07-30T16:25:12.000",
    "date_modified": "2023-07-30T16:25:13.000",
    "request_status": "Pending",
    "responsible_agency": "Department of Sanitation",
    "final_address": "1012 Harding Dr",
    "address_councildis": "A",
    "status": "Assigned to Contractor",
    "contractor": "Richards Disposal",
    "rowid": "1021894",
    "final_x": "3674607.56756",
    "final_y": "540346.413323",
    "longitude": "-90.0895316369324",
    "latitude": "29.979972805522312",
    "geocoded_column": {
      "latitude": "29.979972805522312",
      "longitude": "-90.0895316369324"
    }
  },
  {
    "service_request": "2023-1021893",
    "request_type": "Abandoned Vehicles",
    "request_reason": "Abandoned/Junk Vehicles",
    "date_created": "2023-07-30T15:50:01.000",
    "date_modified": "2023-07-30T15:50:01.000",
    "request_status": "Pending",
    "responsible_agency": "Department of Public Works",
    "final_address": "6026 Vermillion Blvd",
    "address_councildis": "D",
    "status": "Pending",
    "rowid": "1021893",
    "final_x": "3682972.74453",
    "final_y": "555078.823833",
    "longitude": "-90.06259494160464",
    "latitude": "30.020229326789416",
    "geocoded_column": {
      "latitude": "30.020229326789416",
      "longitude": "-90.06259494160464"
    }
  },
  {
    "service_request": "2023-1021892",
    "request_type": "Safety & Permits",
    "request_reason": "Construction permit",
    "date_created": "2023-07-30T15:45:47.000",
    "date_modified": "2023-07-30T15:45:47.000",
    "request_status": "Pending",
    "responsible_agency": "Department of Code Enforcement",
    "final_address": "2001 St Ann St",
    "address_councildis": "D",
    "status": "Pending",
    "rowid": "1021892",
    "final_x": "3679119.85045",
    "final_y": "535586.625094",
    "longitude": "-90.07544501073703",
    "latitude": "29.966749574479906",
    "geocoded_column": {
      "latitude": "29.966749574479906",
      "longitude": "-90.07544501073703"
    }
  },
  {
    "service_request": "2023-1021891",
    "request_type": "Trash/Recycling",
    "request_reason": "Request a Large Item Pick Up",
    "date_created": "2023-07-30T15:32:23.000",
    "date_modified": "2023-07-30T15:32:23.000",
    "request_status": "Pending",
    "responsible_agency": "Department of Sanitation",
    "final_address": "25800 Chef Menteur Hwy",
    "address_councildis": "E",
    "status": "Assigned to Contractor",
    "contractor": "Waste Pro",
    "rowid": "1021891",
    "final_x": "3782064.82898",
    "final_y": "601184.608004",
    "longitude": "-89.74748923034238",
    "latitude": "30.143603796421992",
    "geocoded_column": {
      "latitude": "30.143603796421992",
      "longitude": "-89.74748923034238"
    }
  },
  {
    "service_request": "2023-1021890",
    "request_type": "Roads/Drainage",
    "request_reason": "Pothole",
    "date_created": "2023-07-30T15:19:34.000",
    "date_modified": "2023-07-30T15:19:34.000",
    "request_status": "Pending",
    "responsible_agency": "Department of Public Works",
    "final_address": "1576 Henry Clay Ave",
    "address_councildis": "A",
    "status": "Pending",
    "rowid": "1021890",
    "final_x": "3664947.16416",
    "final_y": "522750.836474",
    "longitude": "-90.12063149759432",
    "latitude": "29.931875502670692",
    "geocoded_column": {
      "latitude": "29.931875502670692",
      "longitude": "-90.12063149759432"
    }
  },
  {
    "service_request": "2023-1021887",
    "request_type": "Parks & Parkways",
    "request_reason": "Request Tree Service (Right of Way/Public Property)",
    "date_created": "2023-07-30T14:56:49.000",
    "date_modified": "2023-07-30T14:56:49.000",
    "request_status": "Pending",
    "responsible_agency": "Department of Parks & Parkway",
    "final_address": "7320 Hickory St",
    "address_councildis": "A",
    "status": "Pending",
    "rowid": "1021887",
    "final_x": "3664910.47053",
    "final_y": "528464.296192",
    "longitude": "-90.12055643135372",
    "latitude": "29.94758675886324",
    "geocoded_column": {
      "latitude": "29.94758675886324",
      "longitude": "-90.12055643135372"
    }
  },
  {
    "service_request": "2023-1021886",
    "request_type": "Traffic Signals/Signs/Striping/Streetlights",
    "request_reason": "Traffic Sign Missing/Damaged",
    "date_created": "2023-07-30T14:54:03.000",
    "date_modified": "2023-07-30T14:54:03.000",
    "request_status": "Pending",
    "responsible_agency": "Department of Public Works",
    "final_address": "27100 Chef Menteur Hwy",
    "address_councildis": "E",
    "status": "Pending",
    "rowid": "1021886",
    "final_x": "3785092.82124",
    "final_y": "609482.206091",
    "longitude": "-89.73754463553338",
    "latitude": "30.166302214645142",
    "geocoded_column": {
      "latitude": "30.166302214645142",
      "longitude": "-89.73754463553338"
    }
  },
  {
    "service_request": "2023-1021885",
    "request_type": "Roads/Drainage",
    "request_reason": "Damaged Sidewalk",
    "date_created": "2023-07-30T14:53:47.000",
    "date_modified": "2023-07-30T14:53:47.000",
    "request_status": "Pending",
    "responsible_agency": "Department of Public Works",
    "final_address": "516 Pelican Ave",
    "address_councildis": "C",
    "status": "Pending",
    "rowid": "1021885",
    "final_x": "3687011.45078",
    "final_y": "530808.27693",
    "longitude": "-90.05069234277701",
    "latitude": "29.95337019704115",
    "geocoded_column": {
      "latitude": "29.95337019704115",
      "longitude": "-90.05069234277701"
    }
  },
  {
    "service_request": "2023-1021884",
    "request_type": "Trash/Recycling",
    "request_reason": "Replace Trash Cart",
    "date_created": "2023-07-30T14:16:08.000",
    "date_modified": "2023-07-30T14:16:08.000",
    "request_status": "Pending",
    "responsible_agency": "Department of Sanitation",
    "final_address": "3808 Peach Tree Ct",
    "address_councildis": "C",
    "status": "Assigned to Contractor",
    "contractor": "Richards Disposal",
    "rowid": "1021884",
    "final_x": "3703874.3427",
    "final_y": "512711.407345",
    "longitude": "-89.99811280317881",
    "latitude": "29.90308030408361",
    "geocoded_column": {
      "latitude": "29.90308030408361",
      "longitude": "-89.99811280317881"
    }
  },
  {
    "service_request": "2023-1021883",
    "request_type": "Trash/Recycling",
    "request_reason": "Order Recycling Cart",
    "date_created": "2023-07-30T14:10:46.000",
    "date_modified": "2023-07-30T14:10:47.000",
    "request_status": "Pending",
    "responsible_agency": "Department of Sanitation",
    "final_address": "8927 Willow St",
    "address_councildis": "A",
    "status": "Pending",
    "rowid": "1021883",
    "final_x": "3660209.40627",
    "final_y": "530975.683074",
    "longitude": "-90.135316701187",
    "latitude": "29.95462824662377",
    "geocoded_column": {
      "latitude": "29.95462824662377",
      "longitude": "-90.135316701187"
    }
  },
  {
    "service_request": "2023-1021881",
    "request_type": "Traffic Signals/Signs/Striping/Streetlights",
    "request_reason": "Street Name Sign Damaged or Missing",
    "date_created": "2023-07-30T14:03:24.000",
    "date_modified": "2023-07-30T14:03:24.000",
    "request_status": "Pending",
    "responsible_agency": "Department of Public Works",
    "final_address": "AUDUBON BLVD & HICKORY ST",
    "address_councildis": "A",
    "status": "Pending",
    "rowid": "1021881",
    "final_x": "3665958.5",
    "final_y": "527855.88",
    "longitude": "-90.11726776830344",
    "latitude": "29.94588326847609",
    "geocoded_column": {
      "latitude": "29.94588326847609",
      "longitude": "-90.11726776830344"
    }
  },
  {
    "service_request": "2023-1021880",
    "request_type": "Traffic Signals/Signs/Striping/Streetlights",
    "request_reason": "Disabled Parking Sign ",
    "date_created": "2023-07-30T14:01:42.000",
    "date_modified": "2023-07-30T14:01:42.000",
    "request_status": "Pending",
    "responsible_agency": "Department of Public Works",
    "final_address": "9118 Dixon St",
    "address_councildis": "A",
    "status": "Pending",
    "rowid": "1021880",
    "final_x": "3665664.91738",
    "final_y": "537919.925833",
    "longitude": "-90.11785764404529",
    "latitude": "29.97356466007521",
    "geocoded_column": {
      "latitude": "29.97356466007521",
      "longitude": "-90.11785764404529"
    }
  },
  {
    "service_request": "2023-1021879",
    "request_type": "Abandoned Vehicles",
    "request_reason": "Abandoned/Junk Vehicles",
    "date_created": "2023-07-30T13:47:11.000",
    "date_modified": "2023-07-30T13:47:11.000",
    "request_status": "Pending",
    "responsible_agency": "Department of Public Works",
    "final_address": "Leonidas Street & South Claiborne Avenue",
    "address_councildis": "A",
    "status": "Pending",
    "rowid": "1021879",
    "final_x": "3663561.67111",
    "final_y": "532773.568644",
    "longitude": "-90.1246716160918",
    "latitude": "29.959475048478655",
    "geocoded_column": {
      "latitude": "29.959475048478655",
      "longitude": "-90.1246716160918"
    }
  },
  {
    "service_request": "2023-1021878",
    "request_type": "Trash/Recycling",
    "request_reason": "Request a Large Item Pick Up",
    "date_created": "2023-07-30T13:47:08.000",
    "date_modified": "2023-07-30T13:47:08.000",
    "request_status": "Pending",
    "responsible_agency": "Department of Sanitation",
    "status": "Assigned to Contractor",
    "rowid": "1021878",
    "longitude": "0.0",
    "latitude": "0.0",
    "geocoded_column": {
      "latitude": "0.0",
      "longitude": "0.0"
    }
  },
  {
    "service_request": "2023-1021877",
    "request_type": "Trash/Recycling",
    "request_reason": "Missed Trash Pick-Up",
    "date_created": "2023-07-30T13:45:31.000",
    "date_modified": "2023-07-30T13:45:31.000",
    "request_status": "Pending",
    "responsible_agency": "Department of Sanitation",
    "final_address": "11030 Roger Dr Apt C",
    "address_councildis": "E",
    "status": "Assigned to Contractor",
    "contractor": "Waste Pro",
    "rowid": "1021877",
    "final_x": "3712389.25131",
    "final_y": "563495.839008",
    "longitude": "-89.96933229457852",
    "latitude": "30.0424429589216",
    "geocoded_column": {
      "latitude": "30.0424429589216",
      "longitude": "-89.96933229457852"
    }
  },
  {
    "service_request": "2023-1021876",
    "request_type": "Trash/Recycling",
    "request_reason": "Replace Trash Cart",
    "date_created": "2023-07-30T13:25:25.000",
    "date_modified": "2023-07-30T13:25:26.000",
    "request_status": "Pending",
    "responsible_agency": "Department of Sanitation",
    "final_address": "937 Pacific Ave",
    "address_councildis": "C",
    "status": "Assigned to Contractor",
    "contractor": "Richards Disposal",
    "rowid": "1021876",
    "final_x": "3688370.83043",
    "final_y": "528015.825535",
    "longitude": "-90.04649903798935",
    "latitude": "29.945650001483344",
    "geocoded_column": {
      "latitude": "29.945650001483344",
      "longitude": "-90.04649903798935"
    }
  },
  {
    "service_request": "2023-1021875",
    "request_type": "Abandoned Vehicles",
    "request_reason": "Abandoned/Junk Vehicles",
    "date_created": "2023-07-30T13:22:14.000",
    "date_modified": "2023-07-30T13:22:14.000",
    "request_status": "Pending",
    "responsible_agency": "Department of Public Works",
    "final_address": "719 S Dupre St",
    "address_councildis": "B",
    "status": "Pending",
    "rowid": "1021875",
    "final_x": "3673011.51131",
    "final_y": "533619.045125",
    "longitude": "-90.09480232008228",
    "latitude": "29.96152235837982",
    "geocoded_column": {
      "latitude": "29.96152235837982",
      "longitude": "-90.09480232008228"
    }
  },
  {
    "service_request": "2023-1021874",
    "request_type": "Roads/Drainage",
    "request_reason": "Pothole",
    "date_created": "2023-07-30T13:22:06.000",
    "date_modified": "2023-07-30T14:41:12.000",
    "case_close_date": "2023-07-30T09:41:12.000",
    "request_status": "Closed",
    "responsible_agency": "Department of Public Works",
    "final_address": " & FOREST ISLE DR",
    "address_councildis": "C",
    "status": "Not Enough Information- Resubmittal Required",
    "rowid": "1021874",
    "final_x": "3705393.54",
    "final_y": "512286.2",
    "longitude": "-89.99333397589517",
    "latitude": "29.901862364219546",
    "geocoded_column": {
      "latitude": "29.901862364219546",
      "longitude": "-89.99333397589517"
    }
  },
  {
    "service_request": "2023-1021873",
    "request_type": "Trash/Recycling",
    "request_reason": "Replace Trash Cart",
    "date_created": "2023-07-30T13:19:59.000",
    "date_modified": "2023-07-30T13:19:59.000",
    "request_status": "Pending",
    "responsible_agency": "Department of Sanitation",
    "final_address": "734 Foucher St",
    "address_councildis": "B",
    "status": "Assigned to Contractor",
    "contractor": "Richards Disposal",
    "rowid": "1021873",
    "final_x": "3674515.94049",
    "final_y": "518138.925942",
    "longitude": "-90.090581760838",
    "latitude": "29.91891230297588",
    "geocoded_column": {
      "latitude": "29.91891230297588",
      "longitude": "-90.090581760838"
    }
  },
  {
    "service_request": "2023-1021872",
    "request_type": "Abandoned Vehicles",
    "request_reason": "Abandoned/Junk Vehicles",
    "date_created": "2023-07-30T13:17:03.000",
    "date_modified": "2023-07-30T13:17:55.000",
    "request_status": "Pending",
    "responsible_agency": "Department of Public Works",
    "final_address": "3400 BLK S Saratoga St",
    "address_councildis": "B",
    "status": "Inspected",
    "rowid": "1021872",
    "final_x": "3673295.84169",
    "final_y": "523107.495239",
    "longitude": "-90.09426339595507",
    "latitude": "29.932610602080718",
    "geocoded_column": {
      "latitude": "29.932610602080718",
      "longitude": "-90.09426339595507"
    }
  },
  {
    "service_request": "2023-1021871",
    "request_type": "Trash/Recycling",
    "request_reason": "Request a Large Item Pick Up",
    "date_created": "2023-07-30T12:59:32.000",
    "date_modified": "2023-07-30T12:59:32.000",
    "request_status": "Pending",
    "responsible_agency": "Department of Sanitation",
    "final_address": "5414 Marcia Ave",
    "address_councildis": "A",
    "status": "Assigned to Contractor",
    "contractor": "IV Waste",
    "rowid": "1021871",
    "final_x": "3664708.74477",
    "final_y": "543846.184718",
    "longitude": "-90.12067937501692",
    "latitude": "29.989887737349584",
    "geocoded_column": {
      "latitude": "29.989887737349584",
      "longitude": "-90.12067937501692"
    }
  },
  {
    "service_request": "2023-1021870",
    "request_type": "Taxi Issues",
    "request_reason": "Taxi Lost & Found Item",
    "date_created": "2023-07-30T12:58:53.000",
    "date_modified": "2023-07-30T12:58:54.000",
    "request_status": "Pending",
    "responsible_agency": "Ground Transportation Bureau",
    "final_address": "1037 Esplanade Ave",
    "address_councildis": "C",
    "status": "Pending",
    "rowid": "1021870",
    "final_x": "3682990.3254",
    "final_y": "535312.719942",
    "longitude": "-90.06323166820695",
    "latitude": "29.965879030297984",
    "geocoded_column": {
      "latitude": "29.965879030297984",
      "longitude": "-90.06323166820695"
    }
  },
  {
    "service_request": "2023-1021869",
    "request_type": "Property Maintenance",
    "request_reason": "Property Maintenance",
    "date_created": "2023-07-30T12:45:30.000",
    "date_modified": "2023-07-30T12:45:30.000",
    "request_status": "Pending",
    "responsible_agency": "Department of Code Enforcement",
    "final_address": "13545 St Marie Ct",
    "address_councildis": "E",
    "status": "Pending",
    "rowid": "1021869",
    "final_x": "3724106.53363",
    "final_y": "569330.799142",
    "longitude": "-89.93207609262069",
    "latitude": "30.05809794051616",
    "geocoded_column": {
      "latitude": "30.05809794051616",
      "longitude": "-89.93207609262069"
    }
  },
  {
    "service_request": "2023-1021868",
    "request_type": "Abandoned Vehicles",
    "request_reason": "Abandoned/Junk Vehicles",
    "date_created": "2023-07-30T12:40:40.000",
    "date_modified": "2023-07-30T12:40:59.000",
    "request_status": "Pending",
    "responsible_agency": "Department of Public Works",
    "final_address": "2600 BLK Cambronne St",
    "address_councildis": "A",
    "status": "Inspected",
    "rowid": "1021868",
    "final_x": "3664678.58366",
    "final_y": "532955.51557",
    "longitude": "-90.12113857442075",
    "latitude": "29.959942900655232",
    "geocoded_column": {
      "latitude": "29.959942900655232",
      "longitude": "-90.12113857442075"
    }
  },
  {
    "service_request": "2023-1021867",
    "request_type": "Trash/Recycling",
    "request_reason": "Order Trash Cart",
    "date_created": "2023-07-30T12:29:24.000",
    "date_modified": "2023-07-30T12:29:24.000",
    "request_status": "Pending",
    "responsible_agency": "Department of Sanitation",
    "final_address": "3300 Metropolitan St",
    "address_councildis": "D",
    "status": "Assigned to Contractor",
    "contractor": "IV Waste",
    "rowid": "1021867",
    "final_x": "3691426.03984",
    "final_y": "544653.972495",
    "longitude": "-90.036258120184",
    "latitude": "29.991304340492864",
    "geocoded_column": {
      "latitude": "29.991304340492864",
      "longitude": "-90.036258120184"
    }
  },
  {
    "service_request": "2023-1021866",
    "request_type": "Traffic Signals/Signs/Striping/Streetlights",
    "request_reason": "Traffic Sign Missing/Damaged",
    "date_created": "2023-07-30T12:25:44.000",
    "date_modified": "2023-07-30T12:25:44.000",
    "request_status": "Pending",
    "responsible_agency": "Department of Public Works",
    "final_address": "BARTHOLOMEW ST & ST CLAUDE AVE",
    "address_councildis": "C",
    "status": "Pending",
    "rowid": "1021866",
    "final_x": "3691819.1",
    "final_y": "535366.28",
    "longitude": "-90.03534886818322",
    "latitude": "29.965754260844882",
    "geocoded_column": {
      "latitude": "29.965754260844882",
      "longitude": "-90.03534886818322"
    }
  },
  {
    "service_request": "2023-1021864",
    "request_type": "Abandoned Vehicles",
    "request_reason": "Vehicle Blocking Your Driveway",
    "date_created": "2023-07-30T12:17:03.000",
    "date_modified": "2023-07-30T12:17:03.000",
    "request_status": "Pending",
    "responsible_agency": "Department of Public Works",
    "final_address": "126 S Bernadotte St",
    "address_councildis": "A",
    "status": "Pending",
    "rowid": "1021864",
    "final_x": "3668636.74503",
    "final_y": "539759.378186",
    "longitude": "-90.10840985017066",
    "latitude": "29.9785355192202",
    "geocoded_column": {
      "latitude": "29.9785355192202",
      "longitude": "-90.10840985017066"
    }
  },
  {
    "service_request": "2023-1021863",
    "request_type": "Trash/Recycling",
    "request_reason": "Missed Trash Pick-Up",
    "date_created": "2023-07-30T11:58:59.000",
    "date_modified": "2023-07-30T11:58:59.000",
    "request_status": "Pending",
    "responsible_agency": "Department of Sanitation",
    "final_address": "9025 Pritchard Pl",
    "address_councildis": "A",
    "status": "Assigned to Contractor",
    "contractor": "Richards Disposal",
    "rowid": "1021863",
    "final_x": "3663627.03392",
    "final_y": "535157.009606",
    "longitude": "-90.12438580595648",
    "latitude": "29.966026835160967",
    "geocoded_column": {
      "latitude": "29.966026835160967",
      "longitude": "-90.12438580595648"
    }
  },
  {
    "service_request": "2023-1021862",
    "request_type": "Trash/Recycling",
    "request_reason": "MIssed Recycling Pick-Up",
    "date_created": "2023-07-30T11:51:17.000",
    "date_modified": "2023-07-30T11:51:17.000",
    "request_status": "Pending",
    "responsible_agency": "Department of Sanitation",
    "final_address": "1408 Peniston St",
    "address_councildis": "B",
    "status": "Assigned to Contractor",
    "contractor": "Richards Disposal",
    "rowid": "1021862",
    "final_x": "3672963.21825",
    "final_y": "520630.58508",
    "longitude": "-90.09539794090338",
    "latitude": "29.925809783318766",
    "geocoded_column": {
      "latitude": "29.925809783318766",
      "longitude": "-90.09539794090338"
    }
  },
  {
    "service_request": "2023-1021861",
    "request_type": "Trash/Recycling",
    "request_reason": "Illegal Dumping",
    "date_created": "2023-07-30T11:48:39.000",
    "date_modified": "2023-07-30T11:48:40.000",
    "request_status": "Pending",
    "responsible_agency": "Department of Sanitation",
    "final_address": "CONTI ST & N WHITE ST",
    "address_councildis": "B",
    "status": "Pending",
    "rowid": "1021861",
    "final_x": "3675589.9",
    "final_y": "536388.98",
    "longitude": "-90.08656502216805",
    "latitude": "29.96906185924351",
    "geocoded_column": {
      "latitude": "29.96906185924351",
      "longitude": "-90.08656502216805"
    }
  },
  {
    "service_request": "2023-1021860",
    "request_type": "Trash/Recycling",
    "request_reason": "Request a Large Item Pick Up",
    "date_created": "2023-07-30T11:46:48.000",
    "date_modified": "2023-07-30T11:46:49.000",
    "request_status": "Pending",
    "responsible_agency": "Department of Sanitation",
    "final_address": "2530 Calhoun St",
    "address_councildis": "A",
    "status": "Assigned to Contractor",
    "contractor": "Richards Disposal",
    "rowid": "1021860",
    "final_x": "3666242.07418",
    "final_y": "526278.572478",
    "longitude": "-90.11642531566282",
    "latitude": "29.941537902565965",
    "geocoded_column": {
      "latitude": "29.941537902565965",
      "longitude": "-90.11642531566282"
    }
  },
  {
    "service_request": "2023-1021859",
    "request_type": "Trash/Recycling",
    "request_reason": "Order Recycling Cart",
    "date_created": "2023-07-30T11:37:45.000",
    "date_modified": "2023-07-30T11:37:45.000",
    "request_status": "Pending",
    "responsible_agency": "Department of Sanitation",
    "final_address": "3227 Pittari Pl",
    "address_councildis": "C",
    "status": "Pending",
    "rowid": "1021859",
    "final_x": "3709652.14283",
    "final_y": "518847.226743",
    "longitude": "-89.97964957297762",
    "latitude": "29.919765283874032",
    "geocoded_column": {
      "latitude": "29.919765283874032",
      "longitude": "-89.97964957297762"
    }
  },
  {
    "service_request": "2023-1021858",
    "request_type": "Trash/Recycling",
    "request_reason": "Order Recycling Cart",
    "date_created": "2023-07-30T11:36:36.000",
    "date_modified": "2023-07-30T11:36:36.000",
    "request_status": "Pending",
    "responsible_agency": "Department of Sanitation",
    "final_address": "3227 Pittari Pl",
    "address_councildis": "C",
    "status": "Pending",
    "rowid": "1021858",
    "final_x": "3709652.14283",
    "final_y": "518847.226743",
    "longitude": "-89.97964957297762",
    "latitude": "29.919765283874032",
    "geocoded_column": {
      "latitude": "29.919765283874032",
      "longitude": "-89.97964957297762"
    }
  },
  {
    "service_request": "2023-1021857",
    "request_type": "Trash/Recycling",
    "request_reason": "Request a Large Item Pick Up",
    "date_created": "2023-07-30T11:36:17.000",
    "date_modified": "2023-07-30T11:36:17.000",
    "request_status": "Pending",
    "responsible_agency": "Department of Sanitation",
    "final_address": "3816 Camp St",
    "address_councildis": "B",
    "status": "Assigned to Contractor",
    "contractor": "Richards Disposal",
    "rowid": "1021857",
    "final_x": "3673168.14216",
    "final_y": "519332.749175",
    "longitude": "-90.09479533940439",
    "latitude": "29.922235061373424",
    "geocoded_column": {
      "latitude": "29.922235061373424",
      "longitude": "-90.09479533940439"
    }
  },
  {
    "service_request": "2023-1021856",
    "request_type": "Abandoned Vehicles",
    "request_reason": "Abandoned/Junk Vehicles",
    "date_created": "2023-07-30T11:29:12.000",
    "date_modified": "2023-07-30T13:27:20.000",
    "request_status": "Pending",
    "responsible_agency": "Department of Public Works",
    "final_address": "625 S Dupre St",
    "address_councildis": "B",
    "status": "Pending",
    "rowid": "1021856",
    "final_x": "3673264.59009",
    "final_y": "534031.239621",
    "longitude": "-90.0939890601532",
    "latitude": "29.962648231082316",
    "geocoded_column": {
      "latitude": "29.962648231082316",
      "longitude": "-90.0939890601532"
    }
  },
  {
    "service_request": "2023-1021854",
    "request_type": "Property Maintenance",
    "request_reason": "Property Maintenance",
    "date_created": "2023-07-30T11:08:33.000",
    "date_modified": "2023-07-30T11:08:33.000",
    "request_status": "Pending",
    "responsible_agency": "Department of Code Enforcement",
    "final_address": "3406 Clematis St",
    "address_councildis": "D",
    "status": "Pending",
    "rowid": "1021854",
    "final_x": "3686659.11183",
    "final_y": "545469.817616",
    "longitude": "-90.05128689693727",
    "latitude": "29.993695134605144",
    "geocoded_column": {
      "latitude": "29.993695134605144",
      "longitude": "-90.05128689693727"
    }
  },
  {
    "service_request": "2023-1021853",
    "request_type": "Abandoned Vehicles",
    "request_reason": "Abandoned/Junk Vehicles",
    "date_created": "2023-07-30T11:07:51.000",
    "date_modified": "2023-07-30T11:07:51.000",
    "request_status": "Pending",
    "responsible_agency": "Department of Public Works",
    "final_address": "2500 BLK Perdido St",
    "address_councildis": "B",
    "status": "Pending",
    "rowid": "1021853",
    "final_x": "3674421.67146",
    "final_y": "532571.829985",
    "longitude": "-90.09038513863476",
    "latitude": "29.958600880938935",
    "geocoded_column": {
      "latitude": "29.958600880938935",
      "longitude": "-90.09038513863476"
    }
  },
  {
    "service_request": "2023-1021852",
    "request_type": "Trash/Recycling",
    "request_reason": "Order Recycling Cart",
    "date_created": "2023-07-30T10:54:15.000",
    "date_modified": "2023-07-30T10:54:15.000",
    "request_status": "Pending",
    "responsible_agency": "Department of Sanitation",
    "final_address": "2411 Jonquil St",
    "address_councildis": "D",
    "status": "Pending",
    "rowid": "1021852",
    "final_x": "3685866.20662",
    "final_y": "547158.634641",
    "longitude": "-90.05373198501042",
    "latitude": "29.998363145024637",
    "geocoded_column": {
      "latitude": "29.998363145024637",
      "longitude": "-90.05373198501042"
    }
  },
  {
    "service_request": "2023-1021851",
    "request_type": "Trash/Recycling",
    "request_reason": "Repair Trash Cart",
    "date_created": "2023-07-30T10:47:45.000",
    "date_modified": "2023-07-30T10:47:46.000",
    "request_status": "Pending",
    "responsible_agency": "Department of Sanitation",
    "final_address": "127 S Murat St",
    "address_councildis": "A",
    "status": "Assigned to Contractor",
    "contractor": "Richards Disposal",
    "rowid": "1021851",
    "final_x": "3669500.31777",
    "final_y": "539201.472458",
    "longitude": "-90.1057012393438",
    "latitude": "29.976976054610677",
    "geocoded_column": {
      "latitude": "29.976976054610677",
      "longitude": "-90.1057012393438"
    }
  },
  {
    "service_request": "2023-1021850",
    "request_type": "Abandoned Vehicles",
    "request_reason": "Abandoned/Junk Vehicles",
    "date_created": "2023-07-30T10:45:15.000",
    "date_modified": "2023-07-30T10:45:15.000",
    "request_status": "Pending",
    "responsible_agency": "Department of Public Works",
    "final_address": "2808 Seine St",
    "address_councildis": "C",
    "status": "Pending",
    "rowid": "1021850",
    "final_x": "3693363.14576",
    "final_y": "521041.724089",
    "longitude": "-90.03098699779967",
    "latitude": "29.926318499274164",
    "geocoded_column": {
      "latitude": "29.926318499274164",
      "longitude": "-90.03098699779967"
    }
  },
  {
    "service_request": "2023-1021849",
    "request_type": "Abandoned Vehicles",
    "request_reason": "Abandoned/Junk Vehicles",
    "date_created": "2023-07-30T10:43:28.000",
    "date_modified": "2023-07-30T10:43:28.000",
    "request_status": "Pending",
    "responsible_agency": "Department of Public Works",
    "final_address": "500 BLK S dOrgenois St",
    "address_councildis": "B",
    "status": "Pending",
    "rowid": "1021849",
    "final_x": "3674686.33169",
    "final_y": "533261.467385",
    "longitude": "-90.08952577095398",
    "latitude": "29.960489256118688",
    "geocoded_column": {
      "latitude": "29.960489256118688",
      "longitude": "-90.08952577095398"
    }
  },
  {
    "service_request": "2023-1021848",
    "request_type": "Abandoned Vehicles",
    "request_reason": "Abandoned/Junk Vehicles",
    "date_created": "2023-07-30T10:39:31.000",
    "date_modified": "2023-07-30T10:39:31.000",
    "request_status": "Pending",
    "responsible_agency": "Department of Public Works",
    "final_address": "2814 Seine St",
    "address_councildis": "C",
    "status": "Pending",
    "rowid": "1021848",
    "final_x": "3693417.14537",
    "final_y": "521015.798969",
    "longitude": "-90.03081746734189",
    "latitude": "29.926245526240336",
    "geocoded_column": {
      "latitude": "29.926245526240336",
      "longitude": "-90.03081746734189"
    }
  },
  {
    "service_request": "2023-1021847",
    "request_type": "Trash/Recycling",
    "request_reason": "Illegal Dumping",
    "date_created": "2023-07-30T10:32:51.000",
    "date_modified": "2023-07-30T10:32:52.000",
    "request_status": "Pending",
    "responsible_agency": "Department of Sanitation",
    "final_address": "4958 Maid Marion Dr",
    "address_councildis": "E",
    "status": "Pending",
    "rowid": "1021847",
    "final_x": "3716788.32607",
    "final_y": "558018.759323",
    "longitude": "-89.95563777495244",
    "latitude": "30.02723847597956",
    "geocoded_column": {
      "latitude": "30.02723847597956",
      "longitude": "-89.95563777495244"
    }
  },
  {
    "service_request": "2023-1021846",
    "request_type": "Trash/Recycling",
    "request_reason": "Request a Large Item Pick Up",
    "date_created": "2023-07-30T10:26:40.000",
    "date_modified": "2023-07-30T10:26:41.000",
    "request_status": "Pending",
    "responsible_agency": "Department of Sanitation",
    "final_address": "560 Chapelle St",
    "address_councildis": "A",
    "status": "Assigned to Contractor",
    "contractor": "IV Waste",
    "rowid": "1021846",
    "final_x": "3668800.90401",
    "final_y": "552637.474966",
    "longitude": "-90.10745622513073",
    "latitude": "30.013941016437947",
    "geocoded_column": {
      "latitude": "30.013941016437947",
      "longitude": "-90.10745622513073"
    }
  },
  {
    "service_request": "2023-1021845",
    "request_type": "Roads/Drainage",
    "request_reason": "Street Subsidence (Sinking)",
    "date_created": "2023-07-30T10:16:35.000",
    "date_modified": "2023-07-30T10:16:35.000",
    "request_status": "Pending",
    "responsible_agency": "Department of Public Works",
    "final_address": "CANAL ST & N NORMAN C FRANCIS PKWY & S NORMAN C FRANCIS PKWY",
    "address_councildis": "B",
    "status": "Pending",
    "rowid": "1021845",
    "final_x": "3673171.0",
    "final_y": "536825.08",
    "longitude": "-90.09418919581252",
    "latitude": "29.97033313521366",
    "geocoded_column": {
      "latitude": "29.97033313521366",
      "longitude": "-90.09418919581252"
    }
  },
  {
    "service_request": "2023-1021844",
    "request_type": "Traffic Signals/Signs/Striping/Streetlights",
    "request_reason": "Street Light Outage/Malfunction",
    "date_created": "2023-07-30T10:15:49.000",
    "date_modified": "2023-07-30T10:15:50.000",
    "request_status": "Pending",
    "responsible_agency": "Department of Public Works",
    "final_address": "600 BLK S Pierce St",
    "address_councildis": "A",
    "status": "Assigned to Contractor",
    "contractor": "Legacy Professional Services",
    "rowid": "1021844",
    "final_x": "3669989.0235",
    "final_y": "536089.333449",
    "longitude": "-90.10426317705354",
    "latitude": "29.968404312956906",
    "geocoded_column": {
      "latitude": "29.968404312956906",
      "longitude": "-90.10426317705354"
    }
  },
  {
    "service_request": "2023-1021843",
    "request_type": "Property Maintenance",
    "request_reason": "Property Maintenance",
    "date_created": "2023-07-30T10:09:42.000",
    "date_modified": "2023-07-30T10:09:42.000",
    "request_status": "Pending",
    "responsible_agency": "Department of Code Enforcement",
    "final_address": "N VILLERE ST & CLOUET ST",
    "address_councildis": "C",
    "status": "Pending",
    "rowid": "1021843",
    "final_x": "3689281.1",
    "final_y": "537106.48",
    "longitude": "-90.04330188707848",
    "latitude": "29.9706180090909",
    "geocoded_column": {
      "latitude": "29.9706180090909",
      "longitude": "-90.04330188707848"
    }
  },
  {
    "service_request": "2023-1021842",
    "request_type": "Trash/Recycling",
    "request_reason": "Illegal Dumping",
    "date_created": "2023-07-30T10:07:57.000",
    "date_modified": "2023-07-30T10:07:57.000",
    "request_status": "Pending",
    "responsible_agency": "Department of Sanitation",
    "final_address": "URQUHART ST & CLOUET ST",
    "address_councildis": "C",
    "status": "Pending",
    "rowid": "1021842",
    "final_x": "3689181.4",
    "final_y": "536729.28",
    "longitude": "-90.04363015856622",
    "latitude": "29.969583927589408",
    "geocoded_column": {
      "latitude": "29.969583927589408",
      "longitude": "-90.04363015856622"
    }
  },
  {
    "service_request": "2023-1021841",
    "request_type": "Trash/Recycling",
    "request_reason": "Request a Large Item Pick Up",
    "date_created": "2023-07-30T10:03:37.000",
    "date_modified": "2023-07-30T10:03:38.000",
    "request_status": "Pending",
    "responsible_agency": "Department of Sanitation",
    "final_address": "4416 Iberville St",
    "address_councildis": "A",
    "status": "Assigned to Contractor",
    "contractor": "Richards Disposal",
    "rowid": "1021841",
    "final_x": "3670110.39694",
    "final_y": "539595.139274",
    "longitude": "-90.1037610672099",
    "latitude": "29.978040518552728",
    "geocoded_column": {
      "latitude": "29.978040518552728",
      "longitude": "-90.1037610672099"
    }
  },
  {
    "service_request": "2023-1021840",
    "request_type": "Trash/Recycling",
    "request_reason": "Request a Large Item Pick Up",
    "date_created": "2023-07-30T10:01:30.000",
    "date_modified": "2023-07-30T10:01:30.000",
    "request_status": "Pending",
    "responsible_agency": "Department of Sanitation",
    "final_address": "3110 Cleveland Ave",
    "address_councildis": "B",
    "status": "Assigned to Contractor",
    "contractor": "Richards Disposal",
    "rowid": "1021840",
    "final_x": "3673704.57908",
    "final_y": "535777.075527",
    "longitude": "-90.09253993171296",
    "latitude": "29.967435599880453",
    "geocoded_column": {
      "latitude": "29.967435599880453",
      "longitude": "-90.09253993171296"
    }
  },
  {
    "service_request": "2023-1021839",
    "request_type": "Trash/Recycling",
    "request_reason": "Request a Large Item Pick Up",
    "date_created": "2023-07-30T09:51:55.000",
    "date_modified": "2023-07-30T09:51:55.000",
    "request_status": "Pending",
    "responsible_agency": "Department of Sanitation",
    "final_address": "104 S Olympia St",
    "address_councildis": "A",
    "status": "Assigned to Contractor",
    "contractor": "Richards Disposal",
    "rowid": "1021839",
    "final_x": "3669386.91578",
    "final_y": "539522.734986",
    "longitude": "-90.10604853243132",
    "latitude": "29.977862758329984",
    "geocoded_column": {
      "latitude": "29.977862758329984",
      "longitude": "-90.10604853243132"
    }
  },
  {
    "service_request": "2023-1021838",
    "request_type": "Abandoned Vehicles",
    "request_reason": "Abandoned/Junk Vehicles",
    "date_created": "2023-07-30T09:35:28.000",
    "date_modified": "2023-07-30T09:35:28.000",
    "request_status": "Pending",
    "responsible_agency": "Department of Public Works",
    "final_address": "1400 BLK N White St",
    "address_councildis": "A",
    "status": "Pending",
    "rowid": "1021838",
    "final_x": "3677671.61181",
    "final_y": "540037.7934",
    "longitude": "-90.07986477347953",
    "latitude": "29.979032398075127",
    "geocoded_column": {
      "latitude": "29.979032398075127",
      "longitude": "-90.07986477347953"
    }
  },
  {
    "service_request": "2023-1021837",
    "request_type": "Abandoned Vehicles",
    "request_reason": "Abandoned/Junk Vehicles",
    "date_created": "2023-07-30T09:25:49.000",
    "date_modified": "2023-07-30T09:25:49.000",
    "request_status": "Pending",
    "responsible_agency": "Department of Public Works",
    "final_address": "4900 Hickerson Dr",
    "address_councildis": "E",
    "status": "Inspected",
    "rowid": "1021837",
    "final_x": "3710133.2988",
    "final_y": "556702.845402",
    "longitude": "-89.97671609859478",
    "latitude": "30.0238385654841",
    "geocoded_column": {
      "latitude": "30.0238385654841",
      "longitude": "-89.97671609859478"
    }
  },
  {
    "service_request": "2023-1021836",
    "request_type": "Roads/Drainage",
    "request_reason": "Damaged Sidewalk",
    "date_created": "2023-07-30T09:19:45.000",
    "date_modified": "2023-07-30T09:19:45.000",
    "request_status": "Pending",
    "responsible_agency": "Department of Public Works",
    "final_address": "2000 St Philip St",
    "address_councildis": "D",
    "status": "Pending",
    "rowid": "1021836",
    "final_x": "3679551.93237",
    "final_y": "536140.933639",
    "longitude": "-90.07406125995627",
    "latitude": "29.968260683709104",
    "geocoded_column": {
      "latitude": "29.968260683709104",
      "longitude": "-90.07406125995627"
    }
  },
  {
    "service_request": "2023-1021835",
    "request_type": "Parks & Parkways",
    "request_reason": "Request Tree Service (Right of Way/Public Property)",
    "date_created": "2023-07-30T09:18:55.000",
    "date_modified": "2023-07-30T09:18:56.000",
    "request_status": "Pending",
    "responsible_agency": "Department of Parks & Parkway",
    "final_address": "6447 Memphis St",
    "address_councildis": "A",
    "status": "Pending",
    "rowid": "1021835",
    "final_x": "3669540.29639",
    "final_y": "550344.400084",
    "longitude": "-90.10519776825834",
    "latitude": "30.00761409548703",
    "geocoded_column": {
      "latitude": "30.00761409548703",
      "longitude": "-90.10519776825834"
    }
  },
  {
    "service_request": "2023-1021834",
    "request_type": "Abandoned Vehicles",
    "request_reason": "Abandoned/Junk Vehicles",
    "date_created": "2023-07-30T09:16:12.000",
    "date_modified": "2023-07-30T09:16:12.000",
    "request_status": "Pending",
    "responsible_agency": "Department of Public Works",
    "final_address": "4800 Hickerson Dr",
    "address_councildis": "E",
    "status": "Inspected",
    "rowid": "1021834",
    "final_x": "3710181.45278",
    "final_y": "556222.785242",
    "longitude": "-89.976581903948",
    "latitude": "30.022517020449587",
    "geocoded_column": {
      "latitude": "30.022517020449587",
      "longitude": "-89.976581903948"
    }
  },
  {
    "service_request": "2023-1021833",
    "request_type": "Trash/Recycling",
    "request_reason": "Illegal Dumping",
    "date_created": "2023-07-30T09:06:57.000",
    "date_modified": "2023-07-30T09:06:57.000",
    "request_status": "Pending",
    "responsible_agency": "Department of Sanitation",
    "final_address": "2605 Laurel St",
    "address_councildis": "B",
    "status": "Pending",
    "rowid": "1021833",
    "final_x": "3677911.05902",
    "final_y": "520543.481848",
    "longitude": "-90.07978208944988",
    "latitude": "29.92542236622245",
    "geocoded_column": {
      "latitude": "29.92542236622245",
      "longitude": "-90.07978208944988"
    }
  },
  {
    "service_request": "2023-1021832",
    "request_type": "Trash/Recycling",
    "request_reason": "Order Recycling Cart",
    "date_created": "2023-07-30T08:51:32.000",
    "date_modified": "2023-07-30T08:51:32.000",
    "request_status": "Pending",
    "responsible_agency": "Department of Sanitation",
    "final_address": "5853 Milne Blvd",
    "address_councildis": "A",
    "status": "Pending",
    "rowid": "1021832",
    "final_x": "3667073.27335",
    "final_y": "546593.479505",
    "longitude": "-90.11311803185178",
    "latitude": "29.99737283795028",
    "geocoded_column": {
      "latitude": "29.99737283795028",
      "longitude": "-90.11311803185178"
    }
  },
  {
    "service_request": "2023-1021831",
    "request_type": "Abandoned Vehicles",
    "request_reason": "Abandoned/Junk Vehicles",
    "date_created": "2023-07-30T08:39:42.000",
    "date_modified": "2023-07-30T08:39:42.000",
    "request_status": "Pending",
    "responsible_agency": "Department of Public Works",
    "final_address": "2215 DAbadie St",
    "address_councildis": "D",
    "status": "Pending",
    "rowid": "1021831",
    "final_x": "3680848.77154",
    "final_y": "539776.376266",
    "longitude": "-90.06983918977407",
    "latitude": "29.978217642653302",
    "geocoded_column": {
      "latitude": "29.978217642653302",
      "longitude": "-90.06983918977407"
    }
  },
  {
    "service_request": "2023-1021830",
    "request_type": "Abandoned Vehicles",
    "request_reason": "Abandoned/Junk Vehicles",
    "date_created": "2023-07-30T08:36:49.000",
    "date_modified": "2023-07-30T08:36:49.000",
    "request_status": "Pending",
    "responsible_agency": "Department of Public Works",
    "final_address": "5700 BLK Canal Blvd",
    "address_councildis": "A",
    "status": "Pending",
    "rowid": "1021830",
    "final_x": "3668391.29507",
    "final_y": "545696.956622",
    "longitude": "-90.10898469455317",
    "latitude": "29.994869049741773",
    "geocoded_column": {
      "latitude": "29.994869049741773",
      "longitude": "-90.10898469455317"
    }
  },
  {
    "service_request": "2023-1021829",
    "request_type": "Roads/Drainage",
    "request_reason": "Pothole",
    "date_created": "2023-07-30T08:30:35.000",
    "date_modified": "2023-07-30T14:35:13.000",
    "case_close_date": "2023-07-30T09:35:13.000",
    "request_status": "Closed",
    "responsible_agency": "Department of Public Works",
    "final_address": " & FOREST ISLE DR",
    "address_councildis": "C",
    "status": "Not Enough Information- Resubmittal Required",
    "rowid": "1021829",
    "final_x": "3705689.64",
    "final_y": "512607.2",
    "longitude": "-89.9923876531597",
    "latitude": "29.90273548014554",
    "geocoded_column": {
      "latitude": "29.90273548014554",
      "longitude": "-89.9923876531597"
    }
  },
  {
    "service_request": "2023-1021828",
    "request_type": "Trash/Recycling",
    "request_reason": "Request a Large Item Pick Up",
    "date_created": "2023-07-30T08:30:28.000",
    "date_modified": "2023-07-30T08:30:29.000",
    "request_status": "Pending",
    "responsible_agency": "Department of Sanitation",
    "final_address": "1601 St Ann St",
    "address_councildis": "C",
    "status": "Assigned to Contractor",
    "contractor": "Richards Disposal",
    "rowid": "1021828",
    "final_x": "3680275.71087",
    "final_y": "534701.056646",
    "longitude": "-90.07182559856783",
    "latitude": "29.96427962334309",
    "geocoded_column": {
      "latitude": "29.96427962334309",
      "longitude": "-90.07182559856783"
    }
  },
  {
    "service_request": "2023-1021827",
    "request_type": "Abandoned Vehicles",
    "request_reason": "Abandoned/Junk Vehicles",
    "date_created": "2023-07-30T08:15:36.000",
    "date_modified": "2023-07-30T08:39:58.000",
    "request_status": "Pending",
    "responsible_agency": "Department of Public Works",
    "final_address": "3300 BLK Toledano St",
    "address_councildis": "B",
    "status": "Inspected",
    "rowid": "1021827",
    "final_x": "3671990.36727",
    "final_y": "527790.58233",
    "longitude": "-90.09822531892951",
    "latitude": "29.94552632170271",
    "geocoded_column": {
      "latitude": "29.94552632170271",
      "longitude": "-90.09822531892951"
    }
  },
  {
    "service_request": "2023-1021826",
    "request_type": "Abandoned Vehicles",
    "request_reason": "Vehicle Blocking Your Driveway",
    "date_created": "2023-07-30T07:56:49.000",
    "date_modified": "2023-07-30T07:56:49.000",
    "request_status": "Pending",
    "responsible_agency": "Department of Public Works",
    "final_address": "2000 BLK N Broad St",
    "address_councildis": "D",
    "status": "Pending",
    "rowid": "1021826",
    "final_x": "3680576.77595",
    "final_y": "542034.243147",
    "longitude": "-90.07061966398143",
    "latitude": "29.98443423378888",
    "geocoded_column": {
      "latitude": "29.98443423378888",
      "longitude": "-90.07061966398143"
    }
  },
  {
    "service_request": "2023-1021825",
    "request_type": "Trash/Recycling",
    "request_reason": "Request a Large Item Pick Up",
    "date_created": "2023-07-30T07:36:38.000",
    "date_modified": "2023-07-30T07:36:38.000",
    "request_status": "Pending",
    "responsible_agency": "Department of Sanitation",
    "final_address": "918 City Park Ave",
    "address_councildis": "A",
    "status": "Assigned to Contractor",
    "contractor": "Richards Disposal",
    "rowid": "1021825",
    "final_x": "3672009.43399",
    "final_y": "541549.64366",
    "longitude": "-90.09769665634106",
    "latitude": "29.98335856945366",
    "geocoded_column": {
      "latitude": "29.98335856945366",
      "longitude": "-90.09769665634106"
    }
  },
  {
    "service_request": "2023-1021824",
    "request_type": "Roads/Drainage",
    "request_reason": "Street Subsidence (Sinking)",
    "date_created": "2023-07-30T06:52:38.000",
    "date_modified": "2023-07-30T06:52:38.000",
    "request_status": "Pending",
    "responsible_agency": "Department of Public Works",
    "final_address": "1000 BLK Constantinople St",
    "address_councildis": "B",
    "status": "Pending",
    "rowid": "1021824",
    "final_x": "3672466.85582",
    "final_y": "519479.359123",
    "longitude": "-90.09700402247122",
    "latitude": "29.922659016369742",
    "geocoded_column": {
      "latitude": "29.922659016369742",
      "longitude": "-90.09700402247122"
    }
  },
  {
    "service_request": "2023-1021823",
    "request_type": "Roads/Drainage",
    "request_reason": "Pothole",
    "date_created": "2023-07-30T06:50:38.000",
    "date_modified": "2023-07-30T06:50:38.000",
    "request_status": "Pending",
    "responsible_agency": "Department of Public Works",
    "final_address": "2812 Dryades St",
    "address_councildis": "B",
    "status": "Pending",
    "rowid": "1021823",
    "final_x": "3675293.99041",
    "final_y": "523249.282427",
    "longitude": "-90.08795053599121",
    "latitude": "29.932940906611137",
    "geocoded_column": {
      "latitude": "29.932940906611137",
      "longitude": "-90.08795053599121"
    }
  },
  {
    "service_request": "2023-1021822",
    "request_type": "Trash/Recycling",
    "request_reason": "Order Trash Cart",
    "date_created": "2023-07-30T06:49:15.000",
    "date_modified": "2023-07-30T06:49:16.000",
    "request_status": "Pending",
    "responsible_agency": "Department of Sanitation",
    "final_address": "7721 Shaw Ave",
    "address_councildis": "E",
    "status": "Assigned to Contractor",
    "contractor": "Waste Pro",
    "rowid": "1021822",
    "final_x": "3707073.36644",
    "final_y": "564554.734177",
    "longitude": "-89.98609308809628",
    "latitude": "30.045527422846018",
    "geocoded_column": {
      "latitude": "30.045527422846018",
      "longitude": "-89.98609308809628"
    }
  },
  {
    "service_request": "2023-1021821",
    "request_type": "Trash/Recycling",
    "request_reason": "Order Trash Cart",
    "date_created": "2023-07-30T06:25:17.000",
    "date_modified": "2023-07-30T06:25:18.000",
    "request_status": "Pending",
    "responsible_agency": "Department of Sanitation",
    "final_address": "4256 Vendome Pl",
    "address_councildis": "B",
    "status": "Assigned to Contractor",
    "contractor": "Richards Disposal",
    "rowid": "1021821",
    "final_x": "3669057.08378",
    "final_y": "531486.060611",
    "longitude": "-90.1073618367837",
    "latitude": "29.955774291700784",
    "geocoded_column": {
      "latitude": "29.955774291700784",
      "longitude": "-90.1073618367837"
    }
  },
  {
    "service_request": "2023-1021820",
    "request_type": "Trash/Recycling",
    "request_reason": "Order Recycling Cart",
    "date_created": "2023-07-30T06:24:03.000",
    "date_modified": "2023-07-30T06:24:03.000",
    "request_status": "Pending",
    "responsible_agency": "Department of Sanitation",
    "final_address": "4256 Vendome Pl",
    "address_councildis": "B",
    "status": "Pending",
    "rowid": "1021820",
    "final_x": "3669057.08378",
    "final_y": "531486.060611",
    "longitude": "-90.1073618367837",
    "latitude": "29.955774291700784",
    "geocoded_column": {
      "latitude": "29.955774291700784",
      "longitude": "-90.1073618367837"
    }
  },
  {
    "service_request": "2023-1021818",
    "request_type": "Trash/Recycling",
    "request_reason": "Replace Trash Cart",
    "date_created": "2023-07-30T05:20:27.000",
    "date_modified": "2023-07-30T05:20:27.000",
    "request_status": "Pending",
    "responsible_agency": "Department of Sanitation",
    "final_address": "7100 Zimple St",
    "address_councildis": "A",
    "status": "Assigned to Contractor",
    "contractor": "Richards Disposal",
    "rowid": "1021818",
    "final_x": "3664121.18484",
    "final_y": "526038.721598",
    "longitude": "-90.12312941185598",
    "latitude": "29.940940153354806",
    "geocoded_column": {
      "latitude": "29.940940153354806",
      "longitude": "-90.12312941185598"
    }
  },
  {
    "service_request": "2023-1021817",
    "request_type": "Trash/Recycling",
    "request_reason": "Request a Large Item Pick Up",
    "date_created": "2023-07-30T01:08:04.000",
    "date_modified": "2023-07-30T01:08:04.000",
    "request_status": "Pending",
    "responsible_agency": "Department of Sanitation",
    "final_address": "4425 Laurel St",
    "address_councildis": "B",
    "status": "Assigned to Contractor",
    "contractor": "Richards Disposal",
    "rowid": "1021817",
    "final_x": "3670855.82113",
    "final_y": "518068.238902",
    "longitude": "-90.10213729091912",
    "latitude": "29.918826582040424",
    "geocoded_column": {
      "latitude": "29.918826582040424",
      "longitude": "-90.10213729091912"
    }
  },
  {
    "service_request": "2023-1021816",
    "request_type": "Trash/Recycling",
    "request_reason": "Replace Recycling Cart",
    "date_created": "2023-07-30T01:05:15.000",
    "date_modified": "2023-07-30T01:05:15.000",
    "request_status": "Pending",
    "responsible_agency": "Department of Sanitation",
    "final_address": "4425 Laurel St",
    "address_councildis": "B",
    "status": "Pending",
    "rowid": "1021816",
    "final_x": "3670855.82113",
    "final_y": "518068.238902",
    "longitude": "-90.10213729091912",
    "latitude": "29.918826582040424",
    "geocoded_column": {
      "latitude": "29.918826582040424",
      "longitude": "-90.10213729091912"
    }
  },
  {
    "service_request": "2023-1021815",
    "request_type": "Roads/Drainage",
    "request_reason": "Pothole",
    "date_created": "2023-07-30T01:03:54.000",
    "date_modified": "2023-07-30T14:36:03.000",
    "case_close_date": "2023-07-30T09:36:03.000",
    "request_status": "Closed",
    "responsible_agency": "Department of Public Works",
    "final_address": " & FOREST ISLE DR",
    "address_councildis": "C",
    "status": "Not Enough Information- Resubmittal Required",
    "rowid": "1021815",
    "final_x": "3705312.46",
    "final_y": "512136.21",
    "longitude": "-89.99359539233113",
    "latitude": "29.901452549698575",
    "geocoded_column": {
      "latitude": "29.901452549698575",
      "longitude": "-89.99359539233113"
    }
  },
  {
    "service_request": "2023-1021813",
    "request_type": "Traffic Signals/Signs/Striping/Streetlights",
    "request_reason": "Street Name Sign Damaged or Missing",
    "date_created": "2023-07-30T00:23:33.000",
    "date_modified": "2023-07-30T00:23:33.000",
    "request_status": "Pending",
    "responsible_agency": "Department of Public Works",
    "final_address": "1131 General Pershing St",
    "address_councildis": "B",
    "status": "Pending",
    "rowid": "1021813",
    "final_x": "3671416.3778",
    "final_y": "519794.4046",
    "longitude": "-90.10030926903697",
    "latitude": "29.923556415029356",
    "geocoded_column": {
      "latitude": "29.923556415029356",
      "longitude": "-90.10030926903697"
    }
  },
  {
    "service_request": "2023-1021812",
    "request_type": "Roads/Drainage",
    "request_reason": "Pothole",
    "date_created": "2023-07-30T00:07:53.000",
    "date_modified": "2023-07-30T14:36:32.000",
    "case_close_date": "2023-07-30T09:36:32.000",
    "request_status": "Closed",
    "responsible_agency": "Department of Public Works",
    "final_address": "1420 General Pershing St",
    "address_councildis": "B",
    "status": "Not Enough Information- Resubmittal Required",
    "rowid": "1021812",
    "final_x": "3671242.41179",
    "final_y": "520513.52268",
    "longitude": "-90.10083399992165",
    "latitude": "29.925538906557254",
    "geocoded_column": {
      "latitude": "29.925538906557254",
      "longitude": "-90.10083399992165"
    }
  },
  {
    "service_request": "2023-1021811",
    "request_type": "Roads/Drainage",
    "request_reason": "Pothole",
    "date_created": "2023-07-29T23:39:53.000",
    "date_modified": "2023-07-30T14:36:47.000",
    "case_close_date": "2023-07-30T09:36:47.000",
    "request_status": "Closed",
    "responsible_agency": "Department of Public Works",
    "final_address": "1419 General Pershing St",
    "address_councildis": "B",
    "status": "Not Enough Information- Resubmittal Required",
    "rowid": "1021811",
    "final_x": "3671361.78433",
    "final_y": "520550.771576",
    "longitude": "-90.10045591150714",
    "latitude": "29.925637797976027",
    "geocoded_column": {
      "latitude": "29.925637797976027",
      "longitude": "-90.10045591150714"
    }
  },
  {
    "service_request": "2023-1021810",
    "request_type": "Roads/Drainage",
    "request_reason": "Pothole",
    "date_created": "2023-07-29T23:35:39.000",
    "date_modified": "2023-07-30T14:37:07.000",
    "case_close_date": "2023-07-30T09:37:07.000",
    "request_status": "Closed",
    "responsible_agency": "Department of Public Works",
    "final_address": "1312 Milan St",
    "address_councildis": "B",
    "status": "Not Enough Information- Resubmittal Required",
    "rowid": "1021810",
    "final_x": "3671625.82823",
    "final_y": "520286.919608",
    "longitude": "-90.09963137110304",
    "latitude": "29.92490447494246",
    "geocoded_column": {
      "latitude": "29.92490447494246",
      "longitude": "-90.09963137110304"
    }
  },
  {
    "service_request": "2023-1021809",
    "request_type": "Roads/Drainage",
    "request_reason": "Pothole",
    "date_created": "2023-07-29T23:30:09.000",
    "date_modified": "2023-07-30T14:37:27.000",
    "case_close_date": "2023-07-30T09:37:27.000",
    "request_status": "Closed",
    "responsible_agency": "Department of Public Works",
    "final_address": "901 General Pershing St",
    "address_councildis": "B",
    "status": "Not Enough Information- Resubmittal Required",
    "rowid": "1021809",
    "final_x": "3671478.03118",
    "final_y": "518891.384311",
    "longitude": "-90.1001453296682",
    "latitude": "29.92107157249303",
    "geocoded_column": {
      "latitude": "29.92107157249303",
      "longitude": "-90.1001453296682"
    }
  },
  {
    "service_request": "2023-1021808",
    "request_type": "Traffic Signals/Signs/Striping/Streetlights",
    "request_reason": "Street Light Outage/Malfunction",
    "date_created": "2023-07-29T23:07:22.000",
    "date_modified": "2023-07-29T23:07:22.000",
    "request_status": "Pending",
    "responsible_agency": "Department of Public Works",
    "final_address": "5639 Charlotte Dr",
    "address_councildis": "D",
    "status": "Assigned to Contractor",
    "contractor": "Legacy Professional Services",
    "rowid": "1021808",
    "final_x": "3680083.96258",
    "final_y": "553407.289303",
    "longitude": "-90.07178074200907",
    "latitude": "30.015720987121252",
    "geocoded_column": {
      "latitude": "30.015720987121252",
      "longitude": "-90.07178074200907"
    }
  },
  {
    "service_request": "2023-1021807",
    "request_type": "Abandoned Vehicles",
    "request_reason": "Abandoned/Junk Vehicles",
    "date_created": "2023-07-29T21:54:40.000",
    "date_modified": "2023-07-30T07:52:38.000",
    "request_status": "Pending",
    "responsible_agency": "Department of Public Works",
    "final_address": "FLORIDA AVE & TENNESSEE ST",
    "address_councildis": "E",
    "status": "Inspected",
    "rowid": "1021807",
    "final_x": "3697353.8",
    "final_y": "540340.78",
    "longitude": "-90.01769020805206",
    "latitude": "29.97925879599551",
    "geocoded_column": {
      "latitude": "29.97925879599551",
      "longitude": "-90.01769020805206"
    }
  },
  {
    "service_request": "2023-1021806",
    "request_type": "Trash/Recycling",
    "request_reason": "Repair Trash Cart",
    "date_created": "2023-07-29T21:48:13.000",
    "date_modified": "2023-07-29T21:48:31.000",
    "request_status": "Pending",
    "responsible_agency": "Department of Sanitation",
    "final_address": "804 Opelousas Ave",
    "address_councildis": "C",
    "status": "Assigned to Contractor",
    "contractor": "Richards Disposal",
    "rowid": "1021806",
    "final_x": "3687888.47369",
    "final_y": "529190.460288",
    "longitude": "-90.04798038997696",
    "latitude": "29.948894732483637",
    "geocoded_column": {
      "latitude": "29.948894732483637",
      "longitude": "-90.04798038997696"
    }
  },
  {
    "service_request": "2023-1021805",
    "request_type": "Abandoned Vehicles",
    "request_reason": "Abandoned/Junk Vehicles",
    "date_created": "2023-07-29T21:03:14.000",
    "date_modified": "2023-07-29T21:03:14.000",
    "request_status": "Pending",
    "responsible_agency": "Department of Public Works",
    "status": "Pending",
    "rowid": "1021805",
    "longitude": "0.0",
    "latitude": "0.0",
    "geocoded_column": {
      "latitude": "0.0",
      "longitude": "0.0"
    }
  },
  {
    "service_request": "2023-1021804",
    "request_type": "Abandoned Vehicles",
    "request_reason": "Abandoned/Junk Vehicles",
    "date_created": "2023-07-29T20:53:57.000",
    "date_modified": "2023-07-30T10:12:48.000",
    "request_status": "Pending",
    "responsible_agency": "Department of Public Works",
    "final_address": "911 Fourth St",
    "address_councildis": "B",
    "status": "Inspected",
    "rowid": "1021804",
    "final_x": "3677701.42056",
    "final_y": "520493.963128",
    "longitude": "-90.08044556228042",
    "latitude": "29.925292510394176",
    "geocoded_column": {
      "latitude": "29.925292510394176",
      "longitude": "-90.08044556228042"
    }
  },
  {
    "service_request": "2023-1021803",
    "request_type": "Trash/Recycling",
    "request_reason": "Request a Large Item Pick Up",
    "date_created": "2023-07-29T20:46:36.000",
    "date_modified": "2023-07-29T20:46:36.000",
    "request_status": "Pending",
    "responsible_agency": "Department of Sanitation",
    "final_address": "7118 Panola St",
    "address_councildis": "A",
    "status": "Assigned to Contractor",
    "contractor": "Richards Disposal",
    "rowid": "1021803",
    "final_x": "3666049.73415",
    "final_y": "529033.494592",
    "longitude": "-90.1169402396785",
    "latitude": "29.94911866510208",
    "geocoded_column": {
      "latitude": "29.94911866510208",
      "longitude": "-90.1169402396785"
    }
  },
  {
    "service_request": "2023-1021802",
    "request_type": "Trash/Recycling",
    "request_reason": "Request a Large Item Pick Up",
    "date_created": "2023-07-29T20:40:50.000",
    "date_modified": "2023-07-29T20:40:50.000",
    "request_status": "Pending",
    "responsible_agency": "Department of Sanitation",
    "final_address": "8221 Green St",
    "address_councildis": "A",
    "status": "Assigned to Contractor",
    "contractor": "Richards Disposal",
    "rowid": "1021802",
    "final_x": "3662778.31066",
    "final_y": "530068.467841",
    "longitude": "-90.12723521002276",
    "latitude": "29.95205959490267",
    "geocoded_column": {
      "latitude": "29.95205959490267",
      "longitude": "-90.12723521002276"
    }
  },
  {
    "service_request": "2023-1021801",
    "request_type": "Trash/Recycling",
    "request_reason": "Request a Large Item Pick Up",
    "date_created": "2023-07-29T20:34:08.000",
    "date_modified": "2023-07-29T20:34:09.000",
    "request_status": "Pending",
    "responsible_agency": "Department of Sanitation",
    "final_address": "2301 Napoleon Ave",
    "address_councildis": "B",
    "status": "Assigned to Contractor",
    "contractor": "Richards Disposal",
    "rowid": "1021801",
    "final_x": "3670701.45345",
    "final_y": "523418.607099",
    "longitude": "-90.10244313188092",
    "latitude": "29.933542946062204",
    "geocoded_column": {
      "latitude": "29.933542946062204",
      "longitude": "-90.10244313188092"
    }
  },
  {
    "service_request": "2023-1021800",
    "request_type": "Abandoned Vehicles",
    "request_reason": "Abandoned/Junk Vehicles",
    "date_created": "2023-07-29T20:32:37.000",
    "date_modified": "2023-07-30T09:09:59.000",
    "request_status": "Pending",
    "responsible_agency": "Department of Public Works",
    "final_address": "1500 BLK Saint Mary St",
    "address_councildis": "B",
    "status": "Inspected",
    "rowid": "1021800",
    "final_x": "3678566.35215",
    "final_y": "524115.7301",
    "longitude": "-90.07758995214445",
    "latitude": "29.93522515142507",
    "geocoded_column": {
      "latitude": "29.93522515142507",
      "longitude": "-90.07758995214445"
    }
  },
  {
    "service_request": "2023-1021798",
    "request_type": "Roads/Drainage",
    "request_reason": "Pothole",
    "date_created": "2023-07-29T19:50:07.000",
    "date_modified": "2023-07-30T14:42:06.000",
    "case_close_date": "2023-07-30T09:42:06.000",
    "request_status": "Closed",
    "responsible_agency": "Department of Public Works",
    "final_address": " & ECONOMICS ST",
    "address_councildis": "D",
    "status": "Not Enough Information- Resubmittal Required",
    "rowid": "1021798",
    "final_x": "3688215.13",
    "final_y": "559340.33",
    "longitude": "-90.04587938571166",
    "latitude": "30.031785975160673",
    "geocoded_column": {
      "latitude": "30.031785975160673",
      "longitude": "-90.04587938571166"
    }
  },
  {
    "service_request": "2023-1021797",
    "request_type": "Parks & Parkways",
    "request_reason": "Request Tree Service (Right of Way/Public Property)",
    "date_created": "2023-07-29T19:28:47.000",
    "date_modified": "2023-07-29T19:33:08.000",
    "request_status": "Pending",
    "responsible_agency": "Department of Parks & Parkway",
    "final_address": "11109 Wales St",
    "address_councildis": "E",
    "status": "Pending",
    "rowid": "1021797",
    "final_x": "3710333.85963",
    "final_y": "566822.002596",
    "longitude": "-89.9757035280741",
    "latitude": "30.051655684531312",
    "geocoded_column": {
      "latitude": "30.051655684531312",
      "longitude": "-89.9757035280741"
    }
  },
  {
    "service_request": "2023-1021796",
    "request_type": "Safety & Permits",
    "request_reason": "Licenses & Permits",
    "date_created": "2023-07-29T19:27:19.000",
    "date_modified": "2023-07-29T19:27:20.000",
    "request_status": "Pending",
    "responsible_agency": "Safety and Permits",
    "final_address": "ST CLAUDE AVE & MARIGNY ST",
    "address_councildis": "C",
    "status": "Pending",
    "rowid": "1021796",
    "final_x": "3685412.3",
    "final_y": "536410.68",
    "longitude": "-90.05554449729408",
    "latitude": "29.968823999204748",
    "geocoded_column": {
      "latitude": "29.968823999204748",
      "longitude": "-90.05554449729408"
    }
  },
  {
    "service_request": "2023-1021795",
    "request_type": "Trash/Recycling",
    "request_reason": "Missed Trash Pick-Up",
    "date_created": "2023-07-29T19:23:06.000",
    "date_modified": "2023-07-29T19:23:07.000",
    "request_status": "Pending",
    "responsible_agency": "Department of Sanitation",
    "final_address": "8318 Birch St",
    "address_councildis": "A",
    "status": "Assigned to Contractor",
    "contractor": "Richards Disposal",
    "rowid": "1021795",
    "final_x": "3662218.44384",
    "final_y": "529976.318721",
    "longitude": "-90.12900607401582",
    "latitude": "29.951822406667947",
    "geocoded_column": {
      "latitude": "29.951822406667947",
      "longitude": "-90.12900607401582"
    }
  },
  {
    "service_request": "2023-1021794",
    "request_type": "Traffic Signals/Signs/Striping/Streetlights",
    "request_reason": "Street Light Outage/Malfunction",
    "date_created": "2023-07-29T19:10:33.000",
    "date_modified": "2023-07-29T19:10:34.000",
    "request_status": "Pending",
    "responsible_agency": "Department of Public Works",
    "final_address": "6628 Peony St",
    "address_councildis": "C",
    "status": "Assigned to Contractor",
    "contractor": "Legacy Professional Services",
    "rowid": "1021794",
    "final_x": "3708421.15204",
    "final_y": "516439.888245",
    "longitude": "-89.98362467925035",
    "latitude": "29.91318587131609",
    "geocoded_column": {
      "latitude": "29.91318587131609",
      "longitude": "-89.98362467925035"
    }
  },
  {
    "service_request": "2023-1021793",
    "request_type": "Parks & Parkways",
    "request_reason": "Request Tree Service (Right of Way/Public Property)",
    "date_created": "2023-07-29T19:03:15.000",
    "date_modified": "2023-07-29T19:03:15.000",
    "request_status": "Pending",
    "responsible_agency": "Department of Parks & Parkway",
    "final_address": "1640 N Dupre St",
    "address_councildis": "D",
    "status": "Pending",
    "rowid": "1021793",
    "final_x": "3678746.36386",
    "final_y": "540853.992203",
    "longitude": "-90.07644201538969",
    "latitude": "29.981244290456818",
    "geocoded_column": {
      "latitude": "29.981244290456818",
      "longitude": "-90.07644201538969"
    }
  },
  {
    "service_request": "2023-1021792",
    "request_type": "Trash/Recycling",
    "request_reason": "Order Recycling Cart",
    "date_created": "2023-07-29T19:00:58.000",
    "date_modified": "2023-07-29T19:00:58.000",
    "request_status": "Pending",
    "responsible_agency": "Department of Sanitation",
    "final_address": "1640 N Dupre St",
    "address_councildis": "D",
    "status": "Pending",
    "rowid": "1021792",
    "final_x": "3678746.36386",
    "final_y": "540853.992203",
    "longitude": "-90.07644201538969",
    "latitude": "29.981244290456818",
    "geocoded_column": {
      "latitude": "29.981244290456818",
      "longitude": "-90.07644201538969"
    }
  },
  {
    "service_request": "2023-1021791",
    "request_type": "Trash/Recycling",
    "request_reason": "Order Recycling Cart",
    "date_created": "2023-07-29T19:00:18.000",
    "date_modified": "2023-07-29T19:00:18.000",
    "request_status": "Pending",
    "responsible_agency": "Department of Sanitation",
    "final_address": "1640 N Dupre St",
    "address_councildis": "D",
    "status": "Pending",
    "rowid": "1021791",
    "final_x": "3678746.36386",
    "final_y": "540853.992203",
    "longitude": "-90.07644201538969",
    "latitude": "29.981244290456818",
    "geocoded_column": {
      "latitude": "29.981244290456818",
      "longitude": "-90.07644201538969"
    }
  },
  {
    "service_request": "2023-1021790",
    "request_type": "Traffic Signals/Signs/Striping/Streetlights",
    "request_reason": "Traffic Sign Missing/Damaged",
    "date_created": "2023-07-29T18:57:46.000",
    "date_modified": "2023-07-29T18:57:47.000",
    "request_status": "Pending",
    "responsible_agency": "Department of Public Works",
    "final_address": "JOHN CHURCHILL CHASE ST & S PETERS ST",
    "address_councildis": "B",
    "status": "Pending",
    "rowid": "1021790",
    "final_x": "3682299.9",
    "final_y": "526193.78",
    "longitude": "-90.06573058238982",
    "latitude": "29.940826061433985",
    "geocoded_column": {
      "latitude": "29.940826061433985",
      "longitude": "-90.06573058238982"
    }
  },
  {
    "service_request": "2023-1021789",
    "request_type": "Property Maintenance",
    "request_reason": "Property Maintenance",
    "date_created": "2023-07-29T18:47:53.000",
    "date_modified": "2023-07-29T18:47:53.000",
    "request_status": "Pending",
    "responsible_agency": "Department of Code Enforcement",
    "final_address": "1514 Rev. John Raphael, Jr. Way",
    "address_councildis": "B",
    "status": "Pending",
    "rowid": "1021789",
    "final_x": "3676610.06984",
    "final_y": "526976.91891",
    "longitude": "-90.08366742515913",
    "latitude": "29.943151285368664",
    "geocoded_column": {
      "latitude": "29.943151285368664",
      "longitude": "-90.08366742515913"
    }
  },
  {
    "service_request": "2023-1021788",
    "request_type": "Roads/Drainage",
    "request_reason": "Street Subsidence (Sinking)",
    "date_created": "2023-07-29T18:44:57.000",
    "date_modified": "2023-07-29T18:44:57.000",
    "request_status": "Pending",
    "responsible_agency": "Department of Public Works",
    "final_address": "HAGAN ST & ORLEANS AVE",
    "address_councildis": "A",
    "status": "Pending",
    "rowid": "1021788",
    "final_x": "3674749.8",
    "final_y": "538572.58",
    "longitude": "-90.0891432410853",
    "latitude": "29.97509112473975",
    "geocoded_column": {
      "latitude": "29.97509112473975",
      "longitude": "-90.0891432410853"
    }
  },
  {
    "service_request": "2023-1021787",
    "request_type": "Abandoned Vehicles",
    "request_reason": "Abandoned/Junk Vehicles",
    "date_created": "2023-07-29T18:39:02.000",
    "date_modified": "2023-07-30T09:29:22.000",
    "request_status": "Pending",
    "responsible_agency": "Department of Public Works",
    "final_address": "1500 BLK Rev. John Raphael, Jr. Way",
    "address_councildis": "B",
    "status": "Inspected",
    "rowid": "1021787",
    "final_x": "3676556.53136",
    "final_y": "526996.499929",
    "longitude": "-90.08383578547736",
    "latitude": "29.943206732115815",
    "geocoded_column": {
      "latitude": "29.943206732115815",
      "longitude": "-90.08383578547736"
    }
  },
  {
    "service_request": "2023-1021786",
    "request_type": "Trash/Recycling",
    "request_reason": "Request a Large Item Pick Up",
    "date_created": "2023-07-29T18:35:40.000",
    "date_modified": "2023-07-29T18:35:41.000",
    "request_status": "Pending",
    "responsible_agency": "Department of Sanitation",
    "final_address": "7016 W Tamaron Blvd",
    "address_councildis": "E",
    "status": "Assigned to Contractor",
    "contractor": "Waste Pro",
    "rowid": "1021786",
    "final_x": "3718778.62559",
    "final_y": "568007.516005",
    "longitude": "-89.94896734479637",
    "latitude": "30.054637535951493",
    "geocoded_column": {
      "latitude": "30.054637535951493",
      "longitude": "-89.94896734479637"
    }
  },
  {
    "service_request": "2023-1021785",
    "request_type": "Trash/Recycling",
    "request_reason": "Request a Large Item Pick Up",
    "date_created": "2023-07-29T18:35:05.000",
    "date_modified": "2023-07-29T18:35:06.000",
    "request_status": "Pending",
    "responsible_agency": "Department of Sanitation",
    "final_address": "7016 W Tamaron Blvd",
    "address_councildis": "E",
    "status": "Assigned to Contractor",
    "contractor": "Waste Pro",
    "rowid": "1021785",
    "final_x": "3718778.62559",
    "final_y": "568007.516005",
    "longitude": "-89.94896734479637",
    "latitude": "30.054637535951493",
    "geocoded_column": {
      "latitude": "30.054637535951493",
      "longitude": "-89.94896734479637"
    }
  },
  {
    "service_request": "2023-1021784",
    "request_type": "Health Related Request",
    "request_reason": "Noise Ordinance Complaint",
    "date_created": "2023-07-29T18:17:47.000",
    "date_modified": "2023-07-29T18:17:47.000",
    "request_status": "Pending",
    "responsible_agency": "Health Department",
    "final_address": "4323 Bienville Ave",
    "address_councildis": "A",
    "status": "Pending",
    "rowid": "1021784",
    "final_x": "3670596.79214",
    "final_y": "539777.576394",
    "longitude": "-90.10221866448664",
    "latitude": "29.978527798305635",
    "geocoded_column": {
      "latitude": "29.978527798305635",
      "longitude": "-90.10221866448664"
    }
  },
  {
    "service_request": "2023-1021783",
    "request_type": "Health Related Request",
    "request_reason": "Noise Ordinance Complaint",
    "date_created": "2023-07-29T18:13:02.000",
    "date_modified": "2023-07-29T18:13:02.000",
    "request_status": "Pending",
    "responsible_agency": "Health Department",
    "final_address": "4323 Bienville Ave",
    "address_councildis": "A",
    "status": "Pending",
    "rowid": "1021783",
    "final_x": "3670596.79214",
    "final_y": "539777.576394",
    "longitude": "-90.10221866448664",
    "latitude": "29.978527798305635",
    "geocoded_column": {
      "latitude": "29.978527798305635",
      "longitude": "-90.10221866448664"
    }
  },