[
  {
    "service_request": "2022-851672",
    "request_type": "EMS",
    "request_reason": "EMS Complaint",
    "date_created": "2022-01-04T01:58:59.000",
    "date_modified": "2022-01-04T01:58:59.000",
    "request_status": "Pending",
    "responsible_agency": "Emergency Medical Services",
    "final_address": "3640 Hamburg St",
    "address_councildis": "D",
    "status": "Pending",
    "rowid": "851672",
    "final_x": "3679202.74511",
    "final_y": "545707.65576",
    "longitude": "-90.07483218232399",
    "latitude": "29.99457639331493",
    "geocoded_column": {
      "latitude": "29.99457639331493",
      "longitude": "-90.07483218232399"
    }
  },
  {
    "service_request": "2022-851671",
    "request_type": "Trash/Recycling",
    "request_reason": "Illegal Dumping",
    "date_created": "2022-01-03T22:45:04.000",
    "date_modified": "2022-01-03T22:45:04.000",
    "request_status": "Pending",
    "responsible_agency": "Department of Sanitation",
    "final_address": "1700 Frenchmen St",
    "address_councildis": "D",
    "status": "Pending",
    "rowid": "851671",
    "final_x": "3684379.23957",
    "final_y": "538511.813833",
    "longitude": "-90.05873314920596",
    "latitude": "29.974633022584438",
    "geocoded_column": {
      "latitude": "29.974633022584438",
      "longitude": "-90.05873314920596"
    }
  },
  {
    "service_request": "2022-851670",
    "request_type": "Trash/Recycling",
    "request_reason": "Replace Trash Cart",
    "date_created": "2022-01-03T22:40:56.000",
    "date_modified": "2022-01-03T22:40:57.000",
    "request_status": "Pending",
    "responsible_agency": "Department of Sanitation",
    "final_address": "4534 Camp St",
    "address_councildis": "B",
    "status": "Assigned to Contractor",
    "contractor": "Richards Disposal",
    "rowid": "851670",
    "final_x": "3670347.47246",
    "final_y": "519045.540535",
    "longitude": "-90.10370878361823",
    "latitude": "29.921528861254522",
    "geocoded_column": {
      "latitude": "29.921528861254522",
      "longitude": "-90.10370878361823"
    }
  },
  {
    "service_request": "2022-851669",
    "request_type": "Trash/Recycling",
    "request_reason": "Missed Trash Pick-Up",
    "date_created": "2022-01-03T22:34:03.000",
    "date_modified": "2022-01-03T22:34:04.000",
    "request_status": "Pending",
    "responsible_agency": "Department of Sanitation",
    "final_address": "1315 St Philip St",
    "address_councildis": "C",
    "status": "Assigned to Contractor",
    "contractor": "Richards Disposal",
    "rowid": "851669",
    "final_x": "3681397.48066",
    "final_y": "534793.39239",
    "longitude": "-90.06827992481632",
    "latitude": "29.96449950885333",
    "geocoded_column": {
      "latitude": "29.96449950885333",
      "longitude": "-90.06827992481632"
    }
  },
  {
    "service_request": "2022-851668",
    "request_type": "Trash/Recycling",
    "request_reason": "Return Trash Cart",
    "date_created": "2022-01-03T22:22:57.000",
    "date_modified": "2022-01-03T22:22:58.000",
    "request_status": "Pending",
    "responsible_agency": "Department of Sanitation",
    "final_address": "4008 Annunciation St",
    "address_councildis": "B",
    "status": "Assigned to Contractor",
    "contractor": "Richards Disposal",
    "rowid": "851668",
    "final_x": "3672519.27323",
    "final_y": "517852.101686",
    "longitude": "-90.09689398873016",
    "latitude": "29.918183021840857",
    "geocoded_column": {
      "latitude": "29.918183021840857",
      "longitude": "-90.09689398873016"
    }
  },
  {
    "service_request": "2022-851667",
    "request_type": "Trash/Recycling",
    "request_reason": "Request a Large Item Pick Up",
    "date_created": "2022-01-03T22:14:57.000",
    "date_modified": "2022-01-03T22:14:57.000",
    "request_status": "Pending",
    "responsible_agency": "Department of Sanitation",
    "final_address": "1713 Desire St",
    "address_councildis": "D",
    "status": "Assigned to Contractor",
    "contractor": "Metro Disposal",
    "rowid": "851667",
    "final_x": "3690800.1935",
    "final_y": "538057.822217",
    "longitude": "-90.03847047503073",
    "latitude": "29.973186750520828",
    "geocoded_column": {
      "latitude": "29.973186750520828",
      "longitude": "-90.03847047503073"
    }
  },
  {
    "service_request": "2022-851666",
    "request_type": "Trash/Recycling",
    "request_reason": "Order Recycling Cart",
    "date_created": "2022-01-03T22:06:55.000",
    "date_modified": "2022-01-03T22:06:55.000",
    "request_status": "Pending",
    "responsible_agency": "Department of Sanitation",
    "final_address": "1233 Kerlerec St Unit A",
    "address_councildis": "C",
    "status": "Pending",
    "rowid": "851666",
    "final_x": "3682628.16866",
    "final_y": "536026.195847",
    "longitude": "-90.06435039382332",
    "latitude": "29.96785187629548",
    "geocoded_column": {
      "latitude": "29.96785187629548",
      "longitude": "-90.06435039382332"
    }
  },
  {
    "service_request": "2022-851665",
    "request_type": "Traffic Signals/Signs/Striping/Streetlights",
    "request_reason": "Street Light Outage/Malfunction",
    "date_created": "2022-01-03T21:44:50.000",
    "date_modified": "2022-01-03T21:44:51.000",
    "request_status": "Pending",
    "responsible_agency": "Department of Public Works",
    "final_address": "5670 Rosemary Pl",
    "address_councildis": "A",
    "status": "Pending",
    "contractor": "Royal Engineering",
    "rowid": "851665",
    "final_x": "3667117.12986",
    "final_y": "545258.179535",
    "longitude": "-90.11302441326724",
    "latitude": "29.993699937158567",
    "geocoded_column": {
      "latitude": "29.993699937158567",
      "longitude": "-90.11302441326724"
    }
  },
  {
    "service_request": "2022-851664",
    "request_type": "Traffic Signals/Signs/Striping/Streetlights",
    "request_reason": "Traffic Sign Missing/Damaged",
    "date_created": "2022-01-03T21:28:20.000",
    "date_modified": "2022-01-03T21:28:20.000",
    "request_status": "Pending",
    "responsible_agency": "Department of Public Works",
    "final_address": "8300 Palmetto St",
    "address_councildis": "A",
    "status": "Pending",
    "rowid": "851664",
    "final_x": "3667417.87937",
    "final_y": "535699.412999",
    "longitude": "-90.11239612413482",
    "latitude": "29.967407743776906",
    "geocoded_column": {
      "latitude": "29.967407743776906",
      "longitude": "-90.11239612413482"
    }
  },
  {
    "service_request": "2022-851663",
    "request_type": "Trash/Recycling",
    "request_reason": "Replace Trash Cart",
    "date_created": "2022-01-03T21:26:12.000",
    "date_modified": "2022-01-03T21:26:13.000",
    "request_status": "Pending",
    "responsible_agency": "Department of Sanitation",
    "final_address": "2517 Carondelet St",
    "address_councildis": "B",
    "status": "Assigned to Contractor",
    "contractor": "Richards Disposal",
    "rowid": "851663",
    "final_x": "3676328.37665",
    "final_y": "523314.216699",
    "longitude": "-90.08468281806941",
    "latitude": "29.93308850105249",
    "geocoded_column": {
      "latitude": "29.93308850105249",
      "longitude": "-90.08468281806941"
    }
  },
  {
    "service_request": "2022-851662",
    "request_type": "Trash/Recycling",
    "request_reason": "Replace Trash Cart",
    "date_created": "2022-01-03T21:23:09.000",
    "date_modified": "2022-01-03T21:23:09.000",
    "request_status": "Pending",
    "responsible_agency": "Department of Sanitation",
    "final_address": "2515 Carondelet St",
    "address_councildis": "B",
    "status": "Assigned to Contractor",
    "contractor": "Richards Disposal",
    "rowid": "851662",
    "final_x": "3676339.6955",
    "final_y": "523321.343867",
    "longitude": "-90.08464684001434",
    "latitude": "29.933107759276865",
    "geocoded_column": {
      "latitude": "29.933107759276865",
      "longitude": "-90.08464684001434"
    }
  },
  {
    "service_request": "2022-851661",
    "request_type": "Traffic Signals/Signs/Striping/Streetlights",
    "request_reason": "Street Light Outage/Malfunction",
    "date_created": "2022-01-03T20:20:23.000",
    "date_modified": "2022-01-03T20:20:24.000",
    "request_status": "Pending",
    "responsible_agency": "Department of Public Works",
    "final_address": "3400 BLK N Claiborne Ave",
    "address_councildis": "D",
    "status": "Pending",
    "contractor": "Royal Engineering",
    "rowid": "851661",
    "final_x": "3690786.35067",
    "final_y": "537538.271168",
    "longitude": "-90.03853273484832",
    "latitude": "29.97175859896029",
    "geocoded_column": {
      "latitude": "29.97175859896029",
      "longitude": "-90.03853273484832"
    }
  },
  {
    "service_request": "2022-851660",
    "request_type": "Trash/Recycling",
    "request_reason": "Missed Trash Pick-Up",
    "date_created": "2022-01-03T20:15:20.000",
    "date_modified": "2022-01-03T20:15:22.000",
    "request_status": "Pending",
    "responsible_agency": "Department of Sanitation",
    "final_address": "1222 Clouet St",
    "address_councildis": "C",
    "status": "Assigned to Contractor",
    "contractor": "Metro Disposal",
    "rowid": "851660",
    "final_x": "3689103.36719",
    "final_y": "536546.376583",
    "longitude": "-90.04388309230806",
    "latitude": "29.96908342216242",
    "geocoded_column": {
      "latitude": "29.96908342216242",
      "longitude": "-90.04388309230806"
    }
  },
  {
    "service_request": "2022-851659",
    "request_type": "Abandoned Vehicles",
    "request_reason": "Abandoned/Junk Vehicles",
    "date_created": "2022-01-03T19:57:04.000",
    "date_modified": "2022-01-03T19:57:04.000",
    "request_status": "Pending",
    "responsible_agency": "Department of Public Works",
    "final_address": "1319 St Anthony St",
    "address_councildis": "C",
    "status": "Pending",
    "rowid": "851659",
    "final_x": "3683506.24361",
    "final_y": "536713.069447",
    "longitude": "-90.06155333381501",
    "latitude": "29.969713773084187",
    "geocoded_column": {
      "latitude": "29.969713773084187",
      "longitude": "-90.06155333381501"
    }
  },
  {
    "service_request": "2022-851658",
    "request_type": "Traffic Signals/Signs/Striping/Streetlights",
    "request_reason": "Street Light Outage/Malfunction",
    "date_created": "2022-01-03T19:41:12.000",
    "date_modified": "2022-01-03T19:41:12.000",
    "request_status": "Pending",
    "responsible_agency": "Department of Public Works",
    "final_address": "5564 Rosemary Pl",
    "address_councildis": "A",
    "status": "Pending",
    "contractor": "Royal Engineering",
    "rowid": "851658",
    "final_x": "3667040.75245",
    "final_y": "544424.681935",
    "longitude": "-90.11329371276567",
    "latitude": "29.99141034017014",
    "geocoded_column": {
      "latitude": "29.99141034017014",
      "longitude": "-90.11329371276567"
    }
  },
  {
    "service_request": "2022-851657",
    "request_type": "Trash/Recycling",
    "request_reason": "Missed Trash Pick-Up",
    "date_created": "2022-01-03T19:33:08.000",
    "date_modified": "2022-01-03T19:33:08.000",
    "request_status": "Pending",
    "responsible_agency": "Department of Sanitation",
    "final_address": "1933 Mandeville St",
    "address_councildis": "D",
    "status": "Assigned to Contractor",
    "contractor": "Metro Disposal",
    "rowid": "851657",
    "final_x": "3685549.76182",
    "final_y": "539611.97089",
    "longitude": "-90.05499759636358",
    "latitude": "29.97762221487417",
    "geocoded_column": {
      "latitude": "29.97762221487417",
      "longitude": "-90.05499759636358"
    }
  },
  {
    "service_request": "2022-851656",
    "request_type": "Trash/Recycling",
    "request_reason": "Request a Large Item Pick Up",
    "date_created": "2022-01-03T19:24:51.000",
    "date_modified": "2022-01-03T19:24:52.000",
    "request_status": "Pending",
    "responsible_agency": "Department of Sanitation",
    "final_address": "1108 Milan St, New Orleans, Louisiana, 70115",
    "address_councildis": "B",
    "status": "Assigned to Contractor",
    "contractor": "Richards Disposal",
    "rowid": "851656",
    "final_x": "3671681.31124",
    "final_y": "519663.417016",
    "longitude": "-90.09947742280646",
    "latitude": "29.923188399219377",
    "geocoded_column": {
      "latitude": "29.923188399219377",
      "longitude": "-90.09947742280646"
    }
  },
  {
    "service_request": "2022-851655",
    "request_type": "Trash/Recycling",
    "request_reason": "Return Recycling Cart",
    "date_created": "2022-01-03T19:21:29.000",
    "date_modified": "2022-01-03T19:21:29.000",
    "request_status": "Pending",
    "responsible_agency": "Department of Sanitation",
    "final_address": "1537 Annunciation St",
    "address_councildis": "B",
    "status": "Pending",
    "rowid": "851655",
    "final_x": "3680756.33314",
    "final_y": "523389.453563",
    "longitude": "-90.07070145390342",
    "latitude": "29.933161956320887",
    "geocoded_column": {
      "latitude": "29.933161956320887",
      "longitude": "-90.07070145390342"
    }
  },
  {
    "service_request": "2022-851654",
    "request_type": "Trash/Recycling",
    "request_reason": "Missed Trash Pick-Up",
    "date_created": "2022-01-03T19:12:18.000",
    "date_modified": "2022-01-03T19:12:19.000",
    "request_status": "Pending",
    "responsible_agency": "Department of Sanitation",
    "final_address": "1332 Port St",
    "address_councildis": "C",
    "status": "Assigned to Contractor",
    "contractor": "Metro Disposal",
    "rowid": "851654",
    "final_x": "3687650.3615",
    "final_y": "537395.607496",
    "longitude": "-90.04844170008121",
    "latitude": "29.971463389879723",
    "geocoded_column": {
      "latitude": "29.971463389879723",
      "longitude": "-90.04844170008121"
    }
  },
  {
    "service_request": "2022-851653",
    "request_type": "Trash/Recycling",
    "request_reason": "Missed Trash Pick-Up",
    "date_created": "2022-01-03T19:11:28.000",
    "date_modified": "2022-01-03T19:11:29.000",
    "request_status": "Pending",
    "responsible_agency": "Department of Sanitation",
    "final_address": "2320 Killdeer St",
    "address_councildis": "D",
    "status": "Assigned to Contractor",
    "contractor": "Metro Disposal",
    "rowid": "851653",
    "final_x": "3684268.72866",
    "final_y": "557475.470555",
    "longitude": "-90.05841578349661",
    "latitude": "30.026779637176272",
    "geocoded_column": {
      "latitude": "30.026779637176272",
      "longitude": "-90.05841578349661"
    }
  },
  {
    "service_request": "2022-851652",
    "request_type": "Abandoned Vehicles",
    "request_reason": "Abandoned/Junk Vehicles",
    "date_created": "2022-01-03T18:59:33.000",
    "date_modified": "2022-01-03T18:59:33.000",
    "request_status": "Pending",
    "responsible_agency": "Department of Public Works",
    "final_address": "1721 St Philip St",
    "address_councildis": "D",
    "status": "Pending",
    "rowid": "851652",
    "final_x": "3680274.15599",
    "final_y": "535674.193927",
    "longitude": "-90.07179667496236",
    "latitude": "29.966955465142547",
    "geocoded_column": {
      "latitude": "29.966955465142547",
      "longitude": "-90.07179667496236"
    }
  },
  {
    "service_request": "2022-851651",
    "request_type": "Trash/Recycling",
    "request_reason": "Request a Large Item Pick Up",
    "date_created": "2022-01-03T18:54:31.000",
    "date_modified": "2022-01-03T18:54:32.000",
    "request_status": "Pending",
    "responsible_agency": "Department of Sanitation",
    "final_address": "4628 Crowder Blvd",
    "address_councildis": "E",
    "status": "Assigned to Contractor",
    "contractor": "Metro Disposal",
    "rowid": "851651",
    "final_x": "3706395.57918",
    "final_y": "554952.593176",
    "longitude": "-89.98859136330823",
    "latitude": "30.019147199286294",
    "geocoded_column": {
      "latitude": "30.019147199286294",
      "longitude": "-89.98859136330823"
    }
  },
  {
    "service_request": "2022-851650",
    "request_type": "Abandoned Vehicles",
    "request_reason": "Abandoned/Junk Vehicles",
    "date_created": "2022-01-03T18:50:45.000",
    "date_modified": "2022-01-03T18:50:45.000",
    "request_status": "Pending",
    "responsible_agency": "Department of Public Works",
    "final_address": "1721 St Philip St",
    "address_councildis": "D",
    "status": "Pending",
    "rowid": "851650",
    "final_x": "3680274.15599",
    "final_y": "535674.193927",
    "longitude": "-90.07179667496236",
    "latitude": "29.966955465142547",
    "geocoded_column": {
      "latitude": "29.966955465142547",
      "longitude": "-90.07179667496236"
    }
  },
  {
    "service_request": "2022-851649",
    "request_type": "Trash/Recycling",
    "request_reason": "Illegal Dumping",
    "date_created": "2022-01-03T18:49:22.000",
    "date_modified": "2022-01-03T18:49:22.000",
    "request_status": "Pending",
    "responsible_agency": "Department of Sanitation",
    "final_address": "6120 Perrier St",
    "address_councildis": "A",
    "status": "Pending",
    "rowid": "851649",
    "final_x": "3664406.45005",
    "final_y": "520693.849977",
    "longitude": "-90.12240710701921",
    "latitude": "29.92623516265062",
    "geocoded_column": {
      "latitude": "29.92623516265062",
      "longitude": "-90.12240710701921"
    }
  },
  {
    "service_request": "2022-851647",
    "request_type": "Trash/Recycling",
    "request_reason": "Request a Large Item Pick Up",
    "date_created": "2022-01-03T18:41:54.000",
    "date_modified": "2022-01-03T18:41:55.000",
    "request_status": "Pending",
    "responsible_agency": "Department of Sanitation",
    "final_address": "8020 Pebble Dr, New Orleans, Louisiana, 70128",
    "address_councildis": "E",
    "status": "Assigned to Contractor",
    "contractor": "Metro Disposal",
    "rowid": "851647",
    "final_x": "3714213.27794",
    "final_y": "570079.300711",
    "longitude": "-89.96331894861494",
    "latitude": "30.060484961864205",
    "geocoded_column": {
      "latitude": "30.060484961864205",
      "longitude": "-89.96331894861494"
    }
  },
  {
    "service_request": "2022-851645",
    "request_type": "Traffic Signals/Signs/Striping/Streetlights",
    "request_reason": "Street Light Outage/Malfunction",
    "date_created": "2022-01-03T18:19:57.000",
    "date_modified": "2022-01-03T18:19:58.000",
    "request_status": "Pending",
    "responsible_agency": "Department of Public Works",
    "final_address": "2408 Chelsea Dr",
    "address_councildis": "C",
    "status": "Pending",
    "contractor": "Royal Engineering",
    "rowid": "851645",
    "final_x": "3704873.20555",
    "final_y": "522572.848442",
    "longitude": "-89.99459681762286",
    "latitude": "29.93016382272805",
    "geocoded_column": {
      "latitude": "29.93016382272805",
      "longitude": "-89.99459681762286"
    }
  },
  {
    "service_request": "2022-851644",
    "request_type": "Traffic Signals/Signs/Striping/Streetlights",
    "request_reason": "Traffic Signal Malfunctioning/Damaged",
    "date_created": "2022-01-03T18:17:48.000",
    "date_modified": "2022-01-03T18:17:48.000",
    "request_status": "Pending",
    "responsible_agency": "Department of Public Works",
    "final_address": "MARAIS ST & LESSEPS ST",
    "address_councildis": "D",
    "status": "Pending",
    "rowid": "851644",
    "final_x": "3692790.6",
    "final_y": "535435.28",
    "longitude": "-90.03227844431703",
    "latitude": "29.965913690926847",
    "geocoded_column": {
      "latitude": "29.965913690926847",
      "longitude": "-90.03227844431703"
    }
  },
  {
    "service_request": "2022-851643",
    "request_type": "Trash/Recycling",
    "request_reason": "MIssed Recycling Pick-Up",
    "date_created": "2022-01-03T18:17:32.000",
    "date_modified": "2022-01-03T18:17:33.000",
    "request_status": "Pending",
    "responsible_agency": "Department of Sanitation",
    "final_address": "3551 Rue Denise",
    "address_councildis": "C",
    "status": "Assigned to Contractor",
    "contractor": "Richards Disposal",
    "rowid": "851643",
    "final_x": "3704214.48599",
    "final_y": "517492.120374",
    "longitude": "-89.99686334624792",
    "latitude": "29.91621472724445",
    "geocoded_column": {
      "latitude": "29.91621472724445",
      "longitude": "-89.99686334624792"
    }
  },
  {
    "service_request": "2022-851642",
    "request_type": "Traffic Signals/Signs/Striping/Streetlights",
    "request_reason": "Street Light Outage/Malfunction",
    "date_created": "2022-01-03T18:15:39.000",
    "date_modified": "2022-01-03T18:15:40.000",
    "request_status": "Pending",
    "responsible_agency": "Department of Public Works",
    "final_address": "8610 Pritchard Pl",
    "address_councildis": "A",
    "status": "Pending",
    "contractor": "Royal Engineering",
    "rowid": "851642",
    "final_x": "3664648.13095",
    "final_y": "534124.639237",
    "longitude": "-90.12119568333755",
    "latitude": "29.963158493523373",
    "geocoded_column": {
      "latitude": "29.963158493523373",
      "longitude": "-90.12119568333755"
    }
  },
  {
    "service_request": "2022-851641",
    "request_type": "Traffic Signals/Signs/Striping/Streetlights",
    "request_reason": "Traffic Signal Malfunctioning/Damaged",
    "date_created": "2022-01-03T18:12:14.000",
    "date_modified": "2022-01-03T18:12:14.000",
    "request_status": "Pending",
    "responsible_agency": "Department of Public Works",
    "final_address": "MIRABEAU AVE & ST ANTHONY AVE",
    "address_councildis": "D",
    "status": "Pending",
    "rowid": "851641",
    "final_x": "3682329.0",
    "final_y": "550551.88",
    "longitude": "-90.06478732741007",
    "latitude": "30.00780149179829",
    "geocoded_column": {
      "latitude": "30.00780149179829",
      "longitude": "-90.06478732741007"
    }
  },
  {
    "service_request": "2022-851640",
    "request_type": "Trash/Recycling",
    "request_reason": "Missed Trash Pick-Up",
    "date_created": "2022-01-03T18:04:16.000",
    "date_modified": "2022-01-03T18:06:24.000",
    "request_status": "Pending",
    "responsible_agency": "Department of Sanitation",
    "final_address": "N TONTI ST & BIENVILLE ST",
    "address_councildis": "B",
    "status": "Assigned to Contractor",
    "contractor": "Richards Disposal",
    "rowid": "851640",
    "final_x": "3676895.94",
    "final_y": "534924.0",
    "longitude": "-90.082490959272",
    "latitude": "29.964994522485437",
    "geocoded_column": {
      "latitude": "29.964994522485437",
      "longitude": "-90.082490959272"
    }
  },
  {
    "service_request": "2022-851638",
    "request_type": "Trash/Recycling",
    "request_reason": "Order Recycling Cart",
    "date_created": "2022-01-03T18:03:38.000",
    "date_modified": "2022-01-03T18:03:38.000",
    "request_status": "Pending",
    "responsible_agency": "Department of Sanitation",
    "final_address": "2116 S Gayoso St",
    "address_councildis": "B",
    "status": "Pending",
    "rowid": "851638",
    "final_x": "3669734.53646",
    "final_y": "528996.19968",
    "longitude": "-90.10530693339675",
    "latitude": "29.948908043506567",
    "geocoded_column": {
      "latitude": "29.948908043506567",
      "longitude": "-90.10530693339675"
    }
  },
  {
    "service_request": "2022-851637",
    "request_type": "COVID-19",
    "request_reason": "COVID-19 Business Non-Compliance",
    "date_created": "2022-01-03T18:02:31.000",
    "date_modified": "2022-01-03T18:02:33.000",
    "request_status": "Pending",
    "responsible_agency": "Safety and Permits",
    "final_address": "1121 N Roman St, New Orleans, Louisiana, 70116",
    "address_councildis": "D",
    "status": "Pending",
    "rowid": "851637",
    "final_x": "3680203.29423",
    "final_y": "536421.146695",
    "longitude": "-90.07199449002596",
    "latitude": "29.9690114741646",
    "geocoded_column": {
      "latitude": "29.9690114741646",
      "longitude": "-90.07199449002596"
    }
  },
  {
    "service_request": "2022-851636",
    "request_type": "Trash/Recycling",
    "request_reason": "Missed Trash Pick-Up",
    "date_created": "2022-01-03T18:02:12.000",
    "date_modified": "2022-01-03T18:02:13.000",
    "request_status": "Pending",
    "responsible_agency": "Department of Sanitation",
    "final_address": "1122 Ursulines Ave",
    "address_councildis": "C",
    "status": "Assigned to Contractor",
    "contractor": "Richards Disposal",
    "rowid": "851636",
    "final_x": "3682073.04469",
    "final_y": "534656.531846",
    "longitude": "-90.06615132589205",
    "latitude": "29.964102663686745",
    "geocoded_column": {
      "latitude": "29.964102663686745",
      "longitude": "-90.06615132589205"
    }
  },
  {
    "service_request": "2022-851633",
    "request_type": "Traffic Signals/Signs/Striping/Streetlights",
    "request_reason": "Street Light Knocked Down/Leaning",
    "date_created": "2022-01-03T17:59:49.000",
    "date_modified": "2022-01-03T17:59:50.000",
    "request_status": "Pending",
    "responsible_agency": "Department of Public Works",
    "final_address": "3530 River Oaks Dr",
    "address_councildis": "C",
    "status": "Pending",
    "contractor": "Royal Engineering",
    "rowid": "851633",
    "final_x": "3701437.33725",
    "final_y": "518002.990838",
    "longitude": "-90.00561038637325",
    "latitude": "29.917708220786324",
    "geocoded_column": {
      "latitude": "29.917708220786324",
      "longitude": "-90.00561038637325"
    }
  },
  {
    "service_request": "2022-851632",
    "request_type": "Mosquito, Termite & Rodent Control",
    "request_reason": "Rodent Complaint (Rats)",
    "date_created": "2022-01-03T17:54:04.000",
    "date_modified": "2022-01-03T17:54:04.000",
    "request_status": "Pending",
    "responsible_agency": "Mosquito, Termite & Rodent Control Board",
    "final_address": "5426 Vermillion Blvd",
    "address_councildis": "D",
    "status": "Pending",
    "rowid": "851632",
    "final_x": "3683156.56386",
    "final_y": "552800.229334",
    "longitude": "-90.0620940059551",
    "latitude": "30.01395841857109",
    "geocoded_column": {
      "latitude": "30.01395841857109",
      "longitude": "-90.0620940059551"
    }
  },
  {
    "service_request": "2022-851631",
    "request_type": "Trash/Recycling",
    "request_reason": "Request a Large Item Pick Up",
    "date_created": "2022-01-03T17:53:30.000",
    "date_modified": "2022-01-03T17:53:30.000",
    "request_status": "Pending",
    "responsible_agency": "Department of Sanitation",
    "final_address": "214 Porteous St",
    "address_councildis": "A",
    "status": "Assigned to Contractor",
    "contractor": "Metro Disposal",
    "rowid": "851631",
    "final_x": "3667369.57978",
    "final_y": "551619.140373",
    "longitude": "-90.11201278973255",
    "latitude": "30.011182981097097",
    "geocoded_column": {
      "latitude": "30.011182981097097",
      "longitude": "-90.11201278973255"
    }
  },
  {
    "service_request": "2022-851630",
    "request_type": "Trash/Recycling",
    "request_reason": "Missed Trash Pick-Up",
    "date_created": "2022-01-03T17:51:35.000",
    "date_modified": "2022-01-03T17:51:35.000",
    "request_status": "Pending",
    "responsible_agency": "Department of Sanitation",
    "final_address": "6038 St Roch Ave",
    "address_councildis": "D",
    "status": "Assigned to Contractor",
    "contractor": "Metro Disposal",
    "rowid": "851630",
    "final_x": "3684849.52105",
    "final_y": "555387.567513",
    "longitude": "-90.05665405152598",
    "latitude": "30.02102089510698",
    "geocoded_column": {
      "latitude": "30.02102089510698",
      "longitude": "-90.05665405152598"
    }
  },
  {
    "service_request": "2022-851629",
    "request_type": "Trash/Recycling",
    "request_reason": "Replace Trash Cart",
    "date_created": "2022-01-03T17:43:21.000",
    "date_modified": "2022-01-03T17:43:22.000",
    "request_status": "Pending",
    "responsible_agency": "Department of Sanitation",
    "final_address": "5640 Hawthorne Pl",
    "address_councildis": "A",
    "status": "Assigned to Contractor",
    "contractor": "Metro Disposal",
    "rowid": "851629",
    "final_x": "3667766.19687",
    "final_y": "544956.823887",
    "longitude": "-90.11098425646227",
    "latitude": "29.992852289517405",
    "geocoded_column": {
      "latitude": "29.992852289517405",
      "longitude": "-90.11098425646227"
    }
  },
  {
    "service_request": "2022-851628",
    "request_type": "Trash/Recycling",
    "request_reason": "Missed Trash Pick-Up",
    "date_created": "2022-01-03T17:35:42.000",
    "date_modified": "2022-01-03T17:35:43.000",
    "request_status": "Pending",
    "responsible_agency": "Department of Sanitation",
    "final_address": "2546 Dumaine St",
    "address_councildis": "D",
    "status": "Assigned to Contractor",
    "contractor": "Richards Disposal",
    "rowid": "851628",
    "final_x": "3677637.75342",
    "final_y": "537106.053896",
    "longitude": "-90.08007298761224",
    "latitude": "29.97097213989023",
    "geocoded_column": {
      "latitude": "29.97097213989023",
      "longitude": "-90.08007298761224"
    }
  },
  {
    "service_request": "2022-851627",
    "request_type": "Trash/Recycling",
    "request_reason": "Missed Trash Pick-Up",
    "date_created": "2022-01-03T17:27:01.000",
    "date_modified": "2022-01-03T17:27:02.000",
    "request_status": "Pending",
    "responsible_agency": "Department of Sanitation",
    "final_address": "4000 BLK Fairmont Dr",
    "address_councildis": "D",
    "status": "Assigned to Contractor",
    "contractor": "Metro Disposal",
    "rowid": "851627",
    "final_x": "3684779.22358",
    "final_y": "547051.573992",
    "longitude": "-90.05716952188897",
    "latitude": "29.998102099080505",
    "geocoded_column": {
      "latitude": "29.998102099080505",
      "longitude": "-90.05716952188897"
    }
  },
  {
    "service_request": "2022-851626",
    "request_type": "Trash/Recycling",
    "request_reason": "Request a Large Item Pick Up",
    "date_created": "2022-01-03T17:26:15.000",
    "date_modified": "2022-01-03T17:26:16.000",
    "request_status": "Pending",
    "responsible_agency": "Department of Sanitation",
    "final_address": "330 Verret St",
    "address_councildis": "C",
    "status": "Assigned to Contractor",
    "contractor": "Richards Disposal",
    "rowid": "851626",
    "final_x": "3686944.77314",
    "final_y": "530504.178946",
    "longitude": "-90.05091362840874",
    "latitude": "29.95253608392804",
    "geocoded_column": {
      "latitude": "29.95253608392804",
      "longitude": "-90.05091362840874"
    }
  },
  {
    "service_request": "2022-851625",
    "request_type": "Trash/Recycling",
    "request_reason": "Illegal Dumping",
    "date_created": "2022-01-03T17:23:02.000",
    "date_modified": "2022-01-03T21:26:38.000",
    "request_status": "Pending",
    "responsible_agency": "Department of Sanitation",
    "final_address": "4732 St Claude Ave",
    "address_councildis": "E",
    "rowid": "851625",
    "final_x": "3694923.81027",
    "final_y": "534435.078213",
    "longitude": "-90.02557791317464",
    "latitude": "29.963096716249932",
    "geocoded_column": {
      "latitude": "29.963096716249932",
      "longitude": "-90.02557791317464"
    }
  },
  {
    "service_request": "2022-851624",
    "request_type": "Trash/Recycling",
    "request_reason": "Request a Large Item Pick Up",
    "date_created": "2022-01-03T17:20:36.000",
    "date_modified": "2022-01-03T17:20:36.000",
    "request_status": "Pending",
    "responsible_agency": "Department of Sanitation",
    "final_address": "7660 Inlet Ln",
    "address_councildis": "E",
    "status": "Assigned to Contractor",
    "contractor": "Metro Disposal",
    "rowid": "851624",
    "final_x": "3714414.65343",
    "final_y": "568610.150949",
    "longitude": "-89.9627379628669",
    "latitude": "30.056438783072103",
    "geocoded_column": {
      "latitude": "30.056438783072103",
      "longitude": "-89.9627379628669"
    }
  },
  {
    "service_request": "2022-851622",
    "request_type": "COVID-19",
    "request_reason": "COVID-19 Business Non-Compliance",
    "date_created": "2022-01-03T17:18:12.000",
    "date_modified": "2022-01-03T17:18:13.000",
    "request_status": "Pending",
    "responsible_agency": "Safety and Permits",
    "final_address": "1100 Convention Center Blvd",
    "address_councildis": "B",
    "status": "Pending",
    "rowid": "851622",
    "final_x": "3682761.44616",
    "final_y": "526246.766206",
    "longitude": "-90.06427154883076",
    "latitude": "29.940957708113416",
    "geocoded_column": {
      "latitude": "29.940957708113416",
      "longitude": "-90.06427154883076"
    }
  },
  {
    "service_request": "2022-851621",
    "request_type": "Trash/Recycling",
    "request_reason": "Request a Large Item Pick Up",
    "date_created": "2022-01-03T17:13:46.000",
    "date_modified": "2022-01-03T17:13:47.000",
    "request_status": "Pending",
    "responsible_agency": "Department of Sanitation",
    "final_address": "5105 Painters St, New Orleans, Louisiana, 70122",
    "address_councildis": "D",
    "status": "Assigned to Contractor",
    "contractor": "Metro Disposal",
    "rowid": "851621",
    "final_x": "3686204.80828",
    "final_y": "551641.295445",
    "longitude": "-90.05250405632113",
    "latitude": "30.01067843417299",
    "geocoded_column": {
      "latitude": "30.01067843417299",
      "longitude": "-90.05250405632113"
    }
  },
  {
    "service_request": "2022-851620",
    "request_type": "Trash/Recycling",
    "request_reason": "Missed Trash Pick-Up",
    "date_created": "2022-01-03T17:13:30.000",
    "date_modified": "2022-01-03T17:13:31.000",
    "request_status": "Pending",
    "responsible_agency": "Department of Sanitation",
    "final_address": "4816 Pauline Dr, New Orleans, Louisiana, 70126",
    "address_councildis": "D",
    "status": "Assigned to Contractor",
    "contractor": "Metro Disposal",
    "rowid": "851620",
    "final_x": "3692727.83408",
    "final_y": "551868.674006",
    "longitude": "-90.03188722037561",
    "latitude": "30.01110153837615",
    "geocoded_column": {
      "latitude": "30.01110153837615",
      "longitude": "-90.03188722037561"
    }
  },
  {
    "service_request": "2022-851619",
    "request_type": "Health Related Questions",
    "request_reason": "Noise Ordinance Complaint",
    "date_created": "2022-01-03T17:07:56.000",
    "date_modified": "2022-01-03T17:07:56.000",
    "request_status": "Pending",
    "responsible_agency": "Health Department",
    "final_address": "2318 Eads St",
    "address_councildis": "D",
    "status": "Pending",
    "rowid": "851619",
    "final_x": "3687873.64796",
    "final_y": "541152.071436",
    "longitude": "-90.04760341297154",
    "latitude": "29.98178545407927",
    "geocoded_column": {
      "latitude": "29.98178545407927",
      "longitude": "-90.04760341297154"
    }
  },
  {
    "service_request": "2022-851618",
    "request_type": "Trash/Recycling",
    "request_reason": "Request a Large Item Pick Up",
    "date_created": "2022-01-03T17:01:48.000",
    "date_modified": "2022-01-03T17:01:49.000",
    "request_status": "Pending",
    "responsible_agency": "Department of Sanitation",
    "final_address": "6025 Constance St",
    "address_councildis": "A",
    "status": "Assigned to Contractor",
    "contractor": "Richards Disposal",
    "rowid": "851618",
    "final_x": "3664395.1984",
    "final_y": "519062.125047",
    "longitude": "-90.12249705614619",
    "latitude": "29.921748757473562",
    "geocoded_column": {
      "latitude": "29.921748757473562",
      "longitude": "-90.12249705614619"
    }
  },
  {
    "service_request": "2022-851617",
    "request_type": "Trash/Recycling",
    "request_reason": "Order Trash Cart",
    "date_created": "2022-01-03T16:59:13.000",
    "date_modified": "2022-01-03T16:59:14.000",
    "request_status": "Pending",
    "responsible_agency": "Department of Sanitation",
    "final_address": "6325 Patton St",
    "address_councildis": "A",
    "status": "Assigned to Contractor",
    "contractor": "Richards Disposal",
    "rowid": "851617",
    "final_x": "3663018.44141",
    "final_y": "519279.211639",
    "longitude": "-90.12683569494435",
    "latitude": "29.92238560989945",
    "geocoded_column": {
      "latitude": "29.92238560989945",
      "longitude": "-90.12683569494435"
    }
  },
  {
    "service_request": "2022-851616",
    "request_type": "Trash/Recycling",
    "request_reason": "Replace Trash Cart",
    "date_created": "2022-01-03T16:57:22.000",
    "date_modified": "2022-01-03T16:57:23.000",
    "request_status": "Pending",
    "responsible_agency": "Department of Sanitation",
    "final_address": "2612 S Dorgenois St, New Orleans, Louisiana, 70125",
    "address_councildis": "B",
    "status": "Assigned to Contractor",
    "contractor": "Richards Disposal",
    "rowid": "851616",
    "final_x": "3671924.66503",
    "final_y": "529474.364289",
    "longitude": "-90.09837546547699",
    "latitude": "29.95015811654856",
    "geocoded_column": {
      "latitude": "29.95015811654856",
      "longitude": "-90.09837546547699"
    }
  },
  {
    "service_request": "2022-851615",
    "request_type": "Trash/Recycling",
    "request_reason": "MIssed Recycling Pick-Up",
    "date_created": "2022-01-03T16:56:37.000",
    "date_modified": "2022-01-03T16:56:38.000",
    "request_status": "Pending",
    "responsible_agency": "Department of Sanitation",
    "final_address": "3146 Toulouse St",
    "address_councildis": "A",
    "status": "Assigned to Contractor",
    "contractor": "Richards Disposal",
    "rowid": "851615",
    "final_x": "3674869.16853",
    "final_y": "537708.572936",
    "longitude": "-90.08879588175324",
    "latitude": "29.972711835259854",
    "geocoded_column": {
      "latitude": "29.972711835259854",
      "longitude": "-90.08879588175324"
    }
  },
  {
    "service_request": "2022-851614",
    "request_type": "Trash/Recycling",
    "request_reason": "Replace Trash Cart",
    "date_created": "2022-01-03T16:55:35.000",
    "date_modified": "2022-01-03T16:55:35.000",
    "request_status": "Pending",
    "responsible_agency": "Department of Sanitation",
    "final_address": "7734 Cohn St",
    "address_councildis": "A",
    "status": "Assigned to Contractor",
    "contractor": "Richards Disposal",
    "rowid": "851614",
    "final_x": "3664461.03284",
    "final_y": "529365.685057",
    "longitude": "-90.12194539901492",
    "latitude": "29.950078359776125",
    "geocoded_column": {
      "latitude": "29.950078359776125",
      "longitude": "-90.12194539901492"
    }
  },
  {
    "service_request": "2022-851613",
    "request_type": "Trash/Recycling",
    "request_reason": "Request a Large Item Pick Up",
    "date_created": "2022-01-03T16:55:34.000",
    "date_modified": "2022-01-03T16:55:35.000",
    "request_status": "Pending",
    "responsible_agency": "Department of Sanitation",
    "final_address": "1209 Desire St",
    "address_councildis": "C",
    "status": "Assigned to Contractor",
    "contractor": "Metro Disposal",
    "rowid": "851613",
    "final_x": "3690328.73584",
    "final_y": "536152.907655",
    "longitude": "-90.0400273308647",
    "latitude": "29.967963547815195",
    "geocoded_column": {
      "latitude": "29.967963547815195",
      "longitude": "-90.0400273308647"
    }
  },
  {
    "service_request": "2022-851612",
    "request_type": "Parks & Parkways",
    "request_reason": "Request Tree Service (Right of Way/Public Property)",
    "date_created": "2022-01-03T16:54:07.000",
    "date_modified": "2022-01-03T16:54:07.000",
    "request_status": "Pending",
    "responsible_agency": "Department of Parks & Parkway",
    "final_address": "1836 Desire St",
    "address_councildis": "D",
    "status": "Pending",
    "rowid": "851612",
    "final_x": "3690869.49225",
    "final_y": "538632.959561",
    "longitude": "-90.0382310864434",
    "latitude": "29.974766021005358",
    "geocoded_column": {
      "latitude": "29.974766021005358",
      "longitude": "-90.0382310864434"
    }
  },
  {
    "service_request": "2022-851611",
    "request_type": "Trash/Recycling",
    "request_reason": "Missed Trash Pick-Up",
    "date_created": "2022-01-03T16:51:36.000",
    "date_modified": "2022-01-03T16:51:36.000",
    "request_status": "Pending",
    "responsible_agency": "Department of Sanitation",
    "final_address": "3743 Fairmont Dr",
    "address_councildis": "D",
    "status": "Assigned to Contractor",
    "contractor": "Metro Disposal",
    "rowid": "851611",
    "final_x": "3685236.98498",
    "final_y": "546428.269073",
    "longitude": "-90.0557454155728",
    "latitude": "29.996374207964745",
    "geocoded_column": {
      "latitude": "29.996374207964745",
      "longitude": "-90.0557454155728"
    }
  },
  {
    "service_request": "2022-851610",
    "request_type": "Traffic Signals/Signs/Striping/Streetlights",
    "request_reason": "Street Light Outage/Malfunction",
    "date_created": "2022-01-03T16:50:46.000",
    "date_modified": "2022-01-03T16:50:47.000",
    "request_status": "Pending",
    "responsible_agency": "Department of Public Works",
    "final_address": "315 22Nd St",
    "address_councildis": "A",
    "status": "Pending",
    "contractor": "Royal Engineering",
    "rowid": "851610",
    "final_x": "3665132.5346",
    "final_y": "549383.435475",
    "longitude": "-90.11915539408395",
    "latitude": "30.00510094141325",
    "geocoded_column": {
      "latitude": "30.00510094141325",
      "longitude": "-90.11915539408395"
    }
  },
  {
    "service_request": "2022-851609",
    "request_type": "Trash/Recycling",
    "request_reason": "Start Trash Service",
    "date_created": "2022-01-03T16:49:58.000",
    "date_modified": "2022-01-03T16:49:58.000",
    "request_status": "Pending",
    "responsible_agency": "Department of Sanitation",
    "final_address": "4107 Erato St",
    "address_councildis": "B",
    "status": "Assigned to Contractor",
    "contractor": "Richards Disposal",
    "rowid": "851609",
    "final_x": "3671372.13313",
    "final_y": "531227.705218",
    "longitude": "-90.10006048745569",
    "latitude": "29.954995589032162",
    "geocoded_column": {
      "latitude": "29.954995589032162",
      "longitude": "-90.10006048745569"
    }
  },
  {
    "service_request": "2022-851608",
    "request_type": "Trash/Recycling",
    "request_reason": "Request a Large Item Pick Up",
    "date_created": "2022-01-03T16:49:00.000",
    "date_modified": "2022-01-03T16:49:00.000",
    "request_status": "Pending",
    "responsible_agency": "Department of Sanitation",
    "final_address": "10241 Flossmoor Dr, New Orleans, Louisiana, 70127",
    "address_councildis": "E",
    "status": "Assigned to Contractor",
    "contractor": "Metro Disposal",
    "rowid": "851608",
    "final_x": "3709860.64798",
    "final_y": "563855.878177",
    "longitude": "-89.97731013299357",
    "latitude": "30.043515444393392",
    "geocoded_column": {
      "latitude": "30.043515444393392",
      "longitude": "-89.97731013299357"
    }
  },
  {
    "service_request": "2022-851607",
    "request_type": "Trash/Recycling",
    "request_reason": "Order Recycling Cart",
    "date_created": "2022-01-03T16:46:19.000",
    "date_modified": "2022-01-03T16:46:19.000",
    "request_status": "Pending",
    "responsible_agency": "Department of Sanitation",
    "final_address": "2721 Baronne St",
    "address_councildis": "B",
    "status": "Pending",
    "rowid": "851607",
    "final_x": "3675597.2187",
    "final_y": "523240.372667",
    "longitude": "-90.08699357150044",
    "latitude": "29.93290734208012",
    "geocoded_column": {
      "latitude": "29.93290734208012",
      "longitude": "-90.08699357150044"
    }
  },
  {
    "service_request": "2022-851606",
    "request_type": "Trash/Recycling",
    "request_reason": "Order Recycling Cart",
    "date_created": "2022-01-03T16:45:57.000",
    "date_modified": "2022-01-03T16:45:57.000",
    "request_status": "Pending",
    "responsible_agency": "Department of Sanitation",
    "final_address": "5607 Laurel St",
    "address_councildis": "A",
    "status": "Pending",
    "rowid": "851606",
    "final_x": "3665798.07412",
    "final_y": "517943.065142",
    "longitude": "-90.11810622263216",
    "latitude": "29.91863085602474",
    "geocoded_column": {
      "latitude": "29.91863085602474",
      "longitude": "-90.11810622263216"
    }
  },
  {
    "service_request": "2022-851605",
    "request_type": "Trash/Recycling",
    "request_reason": "Order Trash Cart",
    "date_created": "2022-01-03T16:45:44.000",
    "date_modified": "2022-01-03T16:45:44.000",
    "request_status": "Pending",
    "responsible_agency": "Department of Sanitation",
    "final_address": "2721 Baronne St",
    "address_councildis": "B",
    "status": "Assigned to Contractor",
    "contractor": "Richards Disposal",
    "rowid": "851605",
    "final_x": "3675597.2187",
    "final_y": "523240.372667",
    "longitude": "-90.08699357150044",
    "latitude": "29.93290734208012",
    "geocoded_column": {
      "latitude": "29.93290734208012",
      "longitude": "-90.08699357150044"
    }
  },
  {
    "service_request": "2022-851604",
    "request_type": "Trash/Recycling",
    "request_reason": "Missed Trash Pick-Up",
    "date_created": "2022-01-03T16:44:05.000",
    "date_modified": "2022-01-03T16:44:06.000",
    "request_status": "Pending",
    "responsible_agency": "Department of Sanitation",
    "final_address": "2233 St Ann St",
    "address_councildis": "D",
    "status": "Assigned to Contractor",
    "contractor": "Richards Disposal",
    "rowid": "851604",
    "final_x": "3678373.58741",
    "final_y": "536164.386951",
    "longitude": "-90.07778171436611",
    "latitude": "29.968360727610758",
    "geocoded_column": {
      "latitude": "29.968360727610758",
      "longitude": "-90.07778171436611"
    }
  },
  {
    "service_request": "2022-851603",
    "request_type": "Abandoned Vehicles",
    "request_reason": "Abandoned/Junk Vehicles",
    "date_created": "2022-01-03T16:42:08.000",
    "date_modified": "2022-01-03T16:42:08.000",
    "request_status": "Pending",
    "responsible_agency": "Department of Public Works",
    "final_address": "ESPLANADE AVE & BOURBON ST & PAUGER ST",
    "address_councildis": "C",
    "status": "Pending",
    "rowid": "851603",
    "final_x": "3683741.9",
    "final_y": "534619.78",
    "longitude": "-90.06088252335391",
    "latitude": "29.963950756012366",
    "geocoded_column": {
      "latitude": "29.963950756012366",
      "longitude": "-90.06088252335391"
    }
  },
  {
    "service_request": "2022-851602",
    "request_type": "Abandoned Vehicles",
    "request_reason": "Abandoned/Junk Vehicles",
    "date_created": "2022-01-03T16:40:02.000",
    "date_modified": "2022-01-03T16:40:02.000",
    "request_status": "Pending",
    "responsible_agency": "Department of Public Works",
    "final_address": "6300 Bellaire Dr",
    "address_councildis": "A",
    "status": "Pending",
    "rowid": "851602",
    "final_x": "3664308.2105",
    "final_y": "549781.931668",
    "longitude": "-90.12174630705076",
    "latitude": "30.00622066038696",
    "geocoded_column": {
      "latitude": "30.00622066038696",
      "longitude": "-90.12174630705076"
    }
  },
  {
    "service_request": "2022-851601",
    "request_type": "Abandoned Vehicles",
    "request_reason": "Abandoned/Junk Vehicles",
    "date_created": "2022-01-03T16:36:47.000",
    "date_modified": "2022-01-03T16:36:47.000",
    "request_status": "Pending",
    "responsible_agency": "Department of Public Works",
    "final_address": "417 W Harrison Ave",
    "address_councildis": "A",
    "status": "Pending",
    "rowid": "851601",
    "final_x": "3664709.72602",
    "final_y": "549704.074708",
    "longitude": "-90.12048041894244",
    "latitude": "30.005994900827602",
    "geocoded_column": {
      "latitude": "30.005994900827602",
      "longitude": "-90.12048041894244"
    }
  },
  {
    "service_request": "2022-851600",
    "request_type": "Trash/Recycling",
    "request_reason": "Request a Large Item Pick Up",
    "date_created": "2022-01-03T16:36:07.000",
    "date_modified": "2022-01-03T16:36:08.000",
    "request_status": "Pending",
    "responsible_agency": "Department of Sanitation",
    "final_address": "12000 Morrison Rd",
    "address_councildis": "E",
    "status": "Assigned to Contractor",
    "contractor": "Metro Disposal",
    "rowid": "851600",
    "final_x": "3713980.47653",
    "final_y": "566861.843364",
    "longitude": "-89.96417634117556",
    "latitude": "30.051645925430783",
    "geocoded_column": {
      "latitude": "30.051645925430783",
      "longitude": "-89.96417634117556"
    }
  },
  {
    "service_request": "2022-851599",
    "request_type": "Trash/Recycling",
    "request_reason": "Illegal Dumping",
    "date_created": "2022-01-03T16:35:46.000",
    "date_modified": "2022-01-03T21:26:06.000",
    "request_status": "Pending",
    "responsible_agency": "Department of Sanitation",
    "final_address": "4600 St Claude Ave",
    "address_councildis": "C",
    "rowid": "851599",
    "final_x": "3693821.53392",
    "final_y": "534718.93223",
    "longitude": "-90.02904855115517",
    "latitude": "29.963911760299002",
    "geocoded_column": {
      "latitude": "29.963911760299002",
      "longitude": "-90.02904855115517"
    }
  },
  {
    "service_request": "2022-851598",
    "request_type": "Trash/Recycling",
    "request_reason": "Replace Trash Cart",
    "date_created": "2022-01-03T16:34:16.000",
    "date_modified": "2022-01-03T16:34:16.000",
    "request_status": "Pending",
    "responsible_agency": "Department of Sanitation",
    "final_address": "3605 Frenchmen St",
    "address_councildis": "D",
    "status": "Assigned to Contractor",
    "contractor": "Metro Disposal",
    "rowid": "851598",
    "final_x": "3683863.8262",
    "final_y": "545963.217872",
    "longitude": "-90.06009945116011",
    "latitude": "29.995137510054473",
    "geocoded_column": {
      "latitude": "29.995137510054473",
      "longitude": "-90.06009945116011"
    }
  },
  {
    "service_request": "2022-851597",
    "request_type": "Trash/Recycling",
    "request_reason": "Missed Trash Pick-Up",
    "date_created": "2022-01-03T16:31:42.000",
    "date_modified": "2022-01-03T16:31:43.000",
    "request_status": "Pending",
    "responsible_agency": "Department of Sanitation",
    "final_address": "2011 Mandeville St",
    "address_councildis": "D",
    "status": "Assigned to Contractor",
    "contractor": "Metro Disposal",
    "rowid": "851597",
    "final_x": "3685539.88566",
    "final_y": "539784.770762",
    "longitude": "-90.05502270002026",
    "latitude": "29.978097656781475",
    "geocoded_column": {
      "latitude": "29.978097656781475",
      "longitude": "-90.05502270002026"
    }
  },
  {
    "service_request": "2022-851596",
    "request_type": "Trash/Recycling",
    "request_reason": "Request a Large Item Pick Up",
    "date_created": "2022-01-03T16:28:49.000",
    "date_modified": "2022-01-03T16:28:50.000",
    "request_status": "Pending",
    "responsible_agency": "Department of Sanitation",
    "final_address": "3938 Chestnut St",
    "address_councildis": "B",
    "status": "Assigned to Contractor",
    "contractor": "Richards Disposal",
    "rowid": "851596",
    "final_x": "3672602.90139",
    "final_y": "519586.59212",
    "longitude": "-90.09657092649172",
    "latitude": "29.922949835902763",
    "geocoded_column": {
      "latitude": "29.922949835902763",
      "longitude": "-90.09657092649172"
    }
  },
  {
    "service_request": "2022-851593",
    "request_type": "Trash/Recycling",
    "request_reason": "Illegal Dumping",
    "date_created": "2022-01-03T16:25:51.000",
    "date_modified": "2022-01-03T16:25:51.000",
    "request_status": "Pending",
    "responsible_agency": "Department of Sanitation",
    "final_address": "1634 Washington Ave",
    "address_councildis": "B",
    "status": "Pending",
    "rowid": "851593",
    "final_x": "3675698.78638",
    "final_y": "522792.117178",
    "longitude": "-90.08668832560726",
    "latitude": "29.931671747318152",
    "geocoded_column": {
      "latitude": "29.931671747318152",
      "longitude": "-90.08668832560726"
    }
  },
  {
    "service_request": "2022-851591",
    "request_type": "Roads/Drainage",
    "request_reason": "Man hole cover issue",
    "date_created": "2022-01-03T16:23:27.000",
    "date_modified": "2022-01-03T16:23:27.000",
    "request_status": "Pending",
    "responsible_agency": "Department of Public Works",
    "final_address": "1009 Joseph St",
    "address_councildis": "A",
    "status": "Pending",
    "rowid": "851591",
    "final_x": "3666357.11821",
    "final_y": "519757.719544",
    "longitude": "-90.11628076885485",
    "latitude": "29.9236042712585",
    "geocoded_column": {
      "latitude": "29.9236042712585",
      "longitude": "-90.11628076885485"
    }
  },
  {
    "service_request": "2022-851590",
    "request_type": "Abandoned Vehicles",
    "request_reason": "Abandoned/Junk Vehicles",
    "date_created": "2022-01-03T16:23:18.000",
    "date_modified": "2022-01-03T16:23:18.000",
    "request_status": "Pending",
    "responsible_agency": "Department of Public Works",
    "final_address": "2328 Iberville St",
    "address_councildis": "B",
    "status": "Pending",
    "rowid": "851590",
    "final_x": "3676752.98798",
    "final_y": "534542.920773",
    "longitude": "-90.08295552574566",
    "latitude": "29.963950973766103",
    "geocoded_column": {
      "latitude": "29.963950973766103",
      "longitude": "-90.08295552574566"
    }
  },
  {
    "service_request": "2022-851589",
    "request_type": "Trash/Recycling",
    "request_reason": "Repair Trash Cart",
    "date_created": "2022-01-03T16:22:47.000",
    "date_modified": "2022-01-03T16:22:47.000",
    "request_status": "Pending",
    "responsible_agency": "Department of Sanitation",
    "final_address": "1634 Washington Ave",
    "address_councildis": "B",
    "status": "Assigned to Contractor",
    "contractor": "Richards Disposal",
    "rowid": "851589",
    "final_x": "3675698.78638",
    "final_y": "522792.117178",
    "longitude": "-90.08668832560726",
    "latitude": "29.931671747318152",
    "geocoded_column": {
      "latitude": "29.931671747318152",
      "longitude": "-90.08668832560726"
    }
  },
  {
    "service_request": "2022-851588",
    "request_type": "Traffic Signals/Signs/Striping/Streetlights",
    "request_reason": "Street Light Outage/Malfunction",
    "date_created": "2022-01-03T16:20:59.000",
    "date_modified": "2022-01-03T16:20:59.000",
    "request_status": "Pending",
    "responsible_agency": "Department of Public Works",
    "final_address": "2244 Killdeer St",
    "address_councildis": "D",
    "status": "Pending",
    "contractor": "Royal Engineering",
    "rowid": "851588",
    "final_x": "3684063.82626",
    "final_y": "557452.551451",
    "longitude": "-90.05906405841488",
    "latitude": "30.026722885274488",
    "geocoded_column": {
      "latitude": "30.026722885274488",
      "longitude": "-90.05906405841488"
    }
  },
  {
    "service_request": "2022-851587",
    "request_type": "Trash/Recycling",
    "request_reason": "Request a Large Item Pick Up",
    "date_created": "2022-01-03T16:12:25.000",
    "date_modified": "2022-01-03T16:12:26.000",
    "request_status": "Pending",
    "responsible_agency": "Department of Sanitation",
    "final_address": "840 Gallier St",
    "address_councildis": "C",
    "status": "Assigned to Contractor",
    "contractor": "Metro Disposal",
    "rowid": "851587",
    "final_x": "3690232.72912",
    "final_y": "534827.282182",
    "longitude": "-90.0403777609307",
    "latitude": "29.964321521771158",
    "geocoded_column": {
      "latitude": "29.964321521771158",
      "longitude": "-90.0403777609307"
    }
  },
  {
    "service_request": "2022-851586",
    "request_type": "Trash/Recycling",
    "request_reason": "Illegal Dumping",
    "date_created": "2022-01-03T16:08:32.000",
    "date_modified": "2022-01-03T16:08:32.000",
    "request_status": "Pending",
    "responsible_agency": "Department of Sanitation",
    "final_address": "2309 Sixth St",
    "address_councildis": "B",
    "status": "Pending",
    "rowid": "851586",
    "final_x": "3674090.18024",
    "final_y": "524437.181116",
    "longitude": "-90.09171024604856",
    "latitude": "29.93624316330151",
    "geocoded_column": {
      "latitude": "29.93624316330151",
      "longitude": "-90.09171024604856"
    }
  },
  {
    "service_request": "2022-851585",
    "request_type": "Trash/Recycling",
    "request_reason": "Order Recycling Cart",
    "date_created": "2022-01-03T15:59:58.000",
    "date_modified": "2022-01-03T15:59:58.000",
    "request_status": "Pending",
    "responsible_agency": "Department of Sanitation",
    "final_address": "814 Alvar St",
    "address_councildis": "C",
    "status": "Pending",
    "rowid": "851585",
    "final_x": "3691212.05628",
    "final_y": "534380.436421",
    "longitude": "-90.03730109692513",
    "latitude": "29.963062430747854",
    "geocoded_column": {
      "latitude": "29.963062430747854",
      "longitude": "-90.03730109692513"
    }
  },
  {
    "service_request": "2022-851584",
    "request_type": "Trash/Recycling",
    "request_reason": "Request a Large Item Pick Up",
    "date_created": "2022-01-03T15:59:44.000",
    "date_modified": "2022-01-03T15:59:45.000",
    "request_status": "Pending",
    "responsible_agency": "Department of Sanitation",
    "final_address": "3766 Lang St",
    "address_councildis": "C",
    "status": "Assigned to Contractor",
    "contractor": "Richards Disposal",
    "rowid": "851584",
    "final_x": "3701953.65021",
    "final_y": "517021.326133",
    "longitude": "-90.00401663174411",
    "latitude": "29.914992518317725",
    "geocoded_column": {
      "latitude": "29.914992518317725",
      "longitude": "-90.00401663174411"
    }
  },
  {
    "service_request": "2022-851583",
    "request_type": "Trash/Recycling",
    "request_reason": "Replace Trash Cart",
    "date_created": "2022-01-03T15:59:26.000",
    "date_modified": "2022-01-03T15:59:27.000",
    "request_status": "Pending",
    "responsible_agency": "Department of Sanitation",
    "final_address": "1313 Eighth St",
    "address_councildis": "B",
    "status": "Assigned to Contractor",
    "contractor": "Richards Disposal",
    "rowid": "851583",
    "final_x": "3675707.33665",
    "final_y": "520952.975097",
    "longitude": "-90.08672449891664",
    "latitude": "29.92661444754294",
    "geocoded_column": {
      "latitude": "29.92661444754294",
      "longitude": "-90.08672449891664"
    }
  },
  {
    "service_request": "2022-851582",
    "request_type": "Trash/Recycling",
    "request_reason": "Replace Trash Cart",
    "date_created": "2022-01-03T15:58:30.000",
    "date_modified": "2022-01-03T15:58:30.000",
    "request_status": "Pending",
    "responsible_agency": "Department of Sanitation",
    "final_address": "814 Alvar St",
    "address_councildis": "C",
    "status": "Assigned to Contractor",
    "contractor": "Metro Disposal",
    "rowid": "851582",
    "final_x": "3691212.05628",
    "final_y": "534380.436421",
    "longitude": "-90.03730109692513",
    "latitude": "29.963062430747854",
    "geocoded_column": {
      "latitude": "29.963062430747854",
      "longitude": "-90.03730109692513"
    }
  },
  {
    "service_request": "2022-851581",
    "request_type": "Traffic Signals/Signs/Striping/Streetlights",
    "request_reason": "Street Light Knocked Down/Leaning",
    "date_created": "2022-01-03T15:55:18.000",
    "date_modified": "2022-01-03T15:55:19.000",
    "request_status": "Pending",
    "responsible_agency": "Department of Public Works",
    "final_address": "11041 Guildford Rd",
    "address_councildis": "E",
    "status": "Pending",
    "contractor": "Royal Engineering",
    "rowid": "851581",
    "final_x": "3711772.85342",
    "final_y": "564321.771681",
    "longitude": "-89.97124930566",
    "latitude": "30.04473410245114",
    "geocoded_column": {
      "latitude": "30.04473410245114",
      "longitude": "-89.97124930566"
    }
  },
  {
    "service_request": "2022-851580",
    "request_type": "Trash/Recycling",
    "request_reason": "Request a Large Item Pick Up",
    "date_created": "2022-01-03T15:54:53.000",
    "date_modified": "2022-01-03T15:54:53.000",
    "request_status": "Pending",
    "responsible_agency": "Department of Sanitation",
    "final_address": "2223 Peniston St",
    "address_councildis": "B",
    "status": "Assigned to Contractor",
    "contractor": "Richards Disposal",
    "rowid": "851580",
    "final_x": "3672383.81479",
    "final_y": "523373.415739",
    "longitude": "-90.0971335372161",
    "latitude": "29.93336888418983",
    "geocoded_column": {
      "latitude": "29.93336888418983",
      "longitude": "-90.0971335372161"
    }
  },
  {
    "service_request": "2022-851579",
    "request_type": "Trash/Recycling",
    "request_reason": "Request a Large Item Pick Up",
    "date_created": "2022-01-03T15:53:58.000",
    "date_modified": "2022-01-03T15:53:58.000",
    "request_status": "Pending",
    "responsible_agency": "Department of Sanitation",
    "final_address": "5484 Canal Blvd",
    "address_councildis": "A",
    "status": "Assigned to Contractor",
    "contractor": "Metro Disposal",
    "rowid": "851579",
    "final_x": "3667991.96647",
    "final_y": "543707.17595",
    "longitude": "-90.11031322105546",
    "latitude": "29.98940956094641",
    "geocoded_column": {
      "latitude": "29.98940956094641",
      "longitude": "-90.11031322105546"
    }
  },
  {
    "service_request": "2022-851578",
    "request_type": "Trash/Recycling",
    "request_reason": "Missed Trash Pick-Up",
    "date_created": "2022-01-03T15:51:28.000",
    "date_modified": "2022-01-03T15:51:29.000",
    "request_status": "Pending",
    "responsible_agency": "Department of Sanitation",
    "final_address": "3923 Buchanan St",
    "address_councildis": "D",
    "status": "Assigned to Contractor",
    "contractor": "Metro Disposal",
    "rowid": "851578",
    "final_x": "3677368.57954",
    "final_y": "546654.126929",
    "longitude": "-90.08059340171556",
    "latitude": "29.99723412027319",
    "geocoded_column": {
      "latitude": "29.99723412027319",
      "longitude": "-90.08059340171556"
    }
  },
  {
    "service_request": "2022-851577",
    "request_type": "Trash/Recycling",
    "request_reason": "Missed Trash Pick-Up",
    "date_created": "2022-01-03T15:47:49.000",
    "date_modified": "2022-01-03T15:47:50.000",
    "request_status": "Pending",
    "responsible_agency": "Department of Sanitation",
    "final_address": "6220 Douglass St",
    "address_councildis": "E",
    "status": "Assigned to Contractor",
    "contractor": "Metro Disposal",
    "rowid": "851577",
    "final_x": "3699167.61917",
    "final_y": "531014.146242",
    "longitude": "-90.01230110053719",
    "latitude": "29.953556507065066",
    "geocoded_column": {
      "latitude": "29.953556507065066",
      "longitude": "-90.01230110053719"
    }
  },
  {
    "service_request": "2022-851576",
    "request_type": "Parks & Parkways",
    "request_reason": "Request Grass Cutting Service (City Owned Property)",
    "date_created": "2022-01-03T15:41:44.000",
    "date_modified": "2022-01-03T15:41:44.000",
    "request_status": "Pending",
    "responsible_agency": "Department of Parks & Parkway",
    "final_address": "Spanish Fort Blvd, New Orleans, Louisiana, 70124",
    "address_councildis": "D",
    "status": "Pending",
    "rowid": "851576",
    "final_x": "3674415.34734",
    "final_y": "554763.633752",
    "longitude": "-90.0896445082773",
    "latitude": "30.019620836240293",
    "geocoded_column": {
      "latitude": "30.019620836240293",
      "longitude": "-90.0896445082773"
    }
  },
  {
    "service_request": "2022-851575",
    "request_type": "Trash/Recycling",
    "request_reason": "Repair Trash Cart",
    "date_created": "2022-01-03T15:41:20.000",
    "date_modified": "2022-01-03T15:41:20.000",
    "request_status": "Pending",
    "responsible_agency": "Department of Sanitation",
    "final_address": "3111 Orleans Ave",
    "address_councildis": "A",
    "status": "Assigned to Contractor",
    "contractor": "Richards Disposal",
    "rowid": "851575",
    "final_x": "3675254.14977",
    "final_y": "538234.133705",
    "longitude": "-90.08756199268792",
    "latitude": "29.97414544513388",
    "geocoded_column": {
      "latitude": "29.97414544513388",
      "longitude": "-90.08756199268792"
    }
  },
  {
    "service_request": "2022-851574",
    "request_type": "Parks & Parkways",
    "request_reason": "Request Tree Service (Right of Way/Public Property)",
    "date_created": "2022-01-03T15:39:32.000",
    "date_modified": "2022-01-03T15:39:32.000",
    "request_status": "Pending",
    "responsible_agency": "Department of Parks & Parkway",
    "final_address": "1133 Louisiana Ave",
    "address_councildis": "B",
    "status": "Pending",
    "rowid": "851574",
    "final_x": "3674999.32008",
    "final_y": "519914.14764",
    "longitude": "-90.08899512817464",
    "latitude": "29.923779168271814",
    "geocoded_column": {
      "latitude": "29.923779168271814",
      "longitude": "-90.08899512817464"
    }
  },
  {
    "service_request": "2022-851573",
    "request_type": "Roads/Drainage",
    "request_reason": "Catch Basin - Clogged",
    "date_created": "2022-01-03T15:35:02.000",
    "date_modified": "2022-01-03T15:35:02.000",
    "request_status": "Pending",
    "responsible_agency": "Department of Public Works",
    "final_address": "GENERAL MEYER AVE & FINLAND PL",
    "address_councildis": "C",
    "status": "Pending",
    "rowid": "851573",
    "final_x": "3706649.9",
    "final_y": "520987.98",
    "longitude": "-89.98904682463723",
    "latitude": "29.925748793192465",
    "geocoded_column": {
      "latitude": "29.925748793192465",
      "longitude": "-89.98904682463723"
    }
  },
  {
    "service_request": "2022-851572",
    "request_type": "Trash/Recycling",
    "request_reason": "Order Trash Cart",
    "date_created": "2022-01-03T15:31:19.000",
    "date_modified": "2022-01-03T15:31:19.000",
    "request_status": "Pending",
    "responsible_agency": "Department of Sanitation",
    "final_address": "2613 S Johnson St A",
    "address_councildis": "B",
    "status": "Assigned to Contractor",
    "contractor": "Richards Disposal",
    "rowid": "851572",
    "final_x": "3672798.86958",
    "final_y": "528170.8288",
    "longitude": "-90.09565964206887",
    "latitude": "29.946547886835315",
    "geocoded_column": {
      "latitude": "29.946547886835315",
      "longitude": "-90.09565964206887"
    }
  },
  {
    "service_request": "2022-851571",
    "request_type": "Abandoned Vehicles",
    "request_reason": "Abandoned/Junk Vehicles",
    "date_created": "2022-01-03T15:30:46.000",
    "date_modified": "2022-01-03T15:30:46.000",
    "request_status": "Pending",
    "responsible_agency": "Department of Public Works",
    "final_address": "912 Pauline St",
    "address_councildis": "C",
    "status": "Pending",
    "rowid": "851571",
    "final_x": "3691006.24521",
    "final_y": "534790.468358",
    "longitude": "-90.03793638276889",
    "latitude": "29.96419627421199",
    "geocoded_column": {
      "latitude": "29.96419627421199",
      "longitude": "-90.03793638276889"
    }
  },
  {
    "service_request": "2022-851570",
    "request_type": "Trash/Recycling",
    "request_reason": "Repair Trash Cart",
    "date_created": "2022-01-03T15:28:00.000",
    "date_modified": "2022-01-03T15:28:01.000",
    "request_status": "Pending",
    "responsible_agency": "Department of Sanitation",
    "final_address": "4413 Elba St",
    "address_councildis": "B",
    "status": "Assigned to Contractor",
    "contractor": "Richards Disposal",
    "rowid": "851570",
    "final_x": "3669733.89722",
    "final_y": "530470.213122",
    "longitude": "-90.10525907063196",
    "latitude": "29.952961116360285",
    "geocoded_column": {
      "latitude": "29.952961116360285",
      "longitude": "-90.10525907063196"
    }
  },
  {
    "service_request": "2022-851569",
    "request_type": "Trash/Recycling",
    "request_reason": "Order Trash Cart",
    "date_created": "2022-01-03T15:19:52.000",
    "date_modified": "2022-01-03T15:19:53.000",
    "request_status": "Pending",
    "responsible_agency": "Department of Sanitation",
    "final_address": "6136 General Haig St",
    "address_councildis": "A",
    "status": "Assigned to Contractor",
    "contractor": "Metro Disposal",
    "rowid": "851569",
    "final_x": "3670572.18804",
    "final_y": "548102.458514",
    "longitude": "-90.10201382831825",
    "latitude": "30.001419088996084",
    "geocoded_column": {
      "latitude": "30.001419088996084",
      "longitude": "-90.10201382831825"
    }
  },
  {
    "service_request": "2022-851568",
    "request_type": "Trash/Recycling",
    "request_reason": "Order Trash Cart",
    "date_created": "2022-01-03T15:17:42.000",
    "date_modified": "2022-01-03T15:17:42.000",
    "request_status": "Pending",
    "responsible_agency": "Department of Sanitation",
    "final_address": "1909 Wilton Dr",
    "address_councildis": "D",
    "status": "Assigned to Contractor",
    "contractor": "Metro Disposal",
    "rowid": "851568",
    "final_x": "3681273.66818",
    "final_y": "550950.011541",
    "longitude": "-90.06810754201648",
    "latitude": "30.008928293150376",
    "geocoded_column": {
      "latitude": "30.008928293150376",
      "longitude": "-90.06810754201648"
    }
  },
  {
    "service_request": "2022-851567",
    "request_type": "Trash/Recycling",
    "request_reason": "Missed Trash Pick-Up",
    "date_created": "2022-01-03T15:16:55.000",
    "date_modified": "2022-01-03T15:16:56.000",
    "request_status": "Pending",
    "responsible_agency": "Department of Sanitation",
    "final_address": "1504 Arabella St",
    "address_councildis": "A",
    "status": "Assigned to Contractor",
    "contractor": "Richards Disposal",
    "rowid": "851567",
    "final_x": "3666384.2953",
    "final_y": "521649.206777",
    "longitude": "-90.11613155464156",
    "latitude": "29.92880447003667",
    "geocoded_column": {
      "latitude": "29.92880447003667",
      "longitude": "-90.11613155464156"
    }
  },
  {
    "service_request": "2022-851566",
    "request_type": "Roads/Drainage",
    "request_reason": "Road Shoulder Repair",
    "date_created": "2022-01-03T15:14:24.000",
    "date_modified": "2022-01-03T15:14:24.000",
    "request_status": "Pending",
    "responsible_agency": "Department of Public Works",
    "final_address": "1000 BLK Pleasant St",
    "address_councildis": "B",
    "status": "Pending",
    "rowid": "851566",
    "final_x": "3675636.18478",
    "final_y": "519702.475475",
    "longitude": "-90.08699204331577",
    "latitude": "29.923178105653502",
    "geocoded_column": {
      "latitude": "29.923178105653502",
      "longitude": "-90.08699204331577"
    }
  },
  {
    "service_request": "2022-851565",
    "request_type": "Trash/Recycling",
    "request_reason": "Missed Trash Pick-Up",
    "date_created": "2022-01-03T15:11:32.000",
    "date_modified": "2022-01-03T15:11:33.000",
    "request_status": "Pending",
    "responsible_agency": "Department of Sanitation",
    "final_address": "4036 DHemecourt St",
    "address_councildis": "A",
    "status": "Assigned to Contractor",
    "contractor": "Richards Disposal",
    "rowid": "851565",
    "final_x": "3669893.23943",
    "final_y": "536634.712519",
    "longitude": "-90.10454719850081",
    "latitude": "29.969906747488928",
    "geocoded_column": {
      "latitude": "29.969906747488928",
      "longitude": "-90.10454719850081"
    }
  },
  {
    "service_request": "2022-851564",
    "request_type": "Roads/Drainage",
    "request_reason": "Debris in Roadway",
    "date_created": "2022-01-03T15:11:04.000",
    "date_modified": "2022-01-03T15:11:04.000",
    "request_status": "Pending",
    "responsible_agency": "Department of Public Works",
    "final_address": "606 St Philip St",
    "address_councildis": "C",
    "status": "Pending",
    "rowid": "851564",
    "final_x": "3683428.18562",
    "final_y": "533147.454148",
    "longitude": "-90.06192479289732",
    "latitude": "29.959911940687643",
    "geocoded_column": {
      "latitude": "29.959911940687643",
      "longitude": "-90.06192479289732"
    }
  },
  {
    "service_request": "2022-851563",
    "request_type": "Trash/Recycling",
    "request_reason": "Replace Trash Cart",
    "date_created": "2022-01-03T15:10:23.000",
    "date_modified": "2022-01-03T15:10:24.000",
    "request_status": "Pending",
    "responsible_agency": "Department of Sanitation",
    "final_address": "4840 Francisco Verrett Dr",
    "address_councildis": "E",
    "status": "Assigned to Contractor",
    "contractor": "Metro Disposal",
    "rowid": "851563",
    "final_x": "3704070.54558",
    "final_y": "555856.981337",
    "longitude": "-89.99590425732887",
    "latitude": "30.021708740530354",
    "geocoded_column": {
      "latitude": "30.021708740530354",
      "longitude": "-89.99590425732887"
    }
  },
  {
    "service_request": "2022-851562",
    "request_type": "Trash/Recycling",
    "request_reason": "Order Trash Cart",
    "date_created": "2022-01-03T15:07:44.000",
    "date_modified": "2022-01-03T15:07:44.000",
    "request_status": "Pending",
    "responsible_agency": "Department of Sanitation",
    "final_address": "1832 Baronne St Apt B",
    "address_councildis": "B",
    "status": "Assigned to Contractor",
    "contractor": "Richards Disposal",
    "rowid": "851562",
    "final_x": "3677732.44021",
    "final_y": "524929.254589",
    "longitude": "-90.08019452422295",
    "latitude": "29.937487179106267",
    "geocoded_column": {
      "latitude": "29.937487179106267",
      "longitude": "-90.08019452422295"
    }
  },
  {
    "service_request": "2022-851561",
    "request_type": "Trash/Recycling",
    "request_reason": "Missed Trash Pick-Up",
    "date_created": "2022-01-03T15:04:34.000",
    "date_modified": "2022-01-03T15:04:35.000",
    "request_status": "Pending",
    "responsible_agency": "Department of Sanitation",
    "final_address": "3627 Frenchmen St",
    "address_councildis": "D",
    "status": "Assigned to Contractor",
    "contractor": "Metro Disposal",
    "rowid": "851561",
    "final_x": "3683849.64649",
    "final_y": "546013.96584",
    "longitude": "-90.06014246206551",
    "latitude": "29.995277482084568",
    "geocoded_column": {
      "latitude": "29.995277482084568",
      "longitude": "-90.06014246206551"
    }
  },
  {
    "service_request": "2022-851560",
    "request_type": "Abandoned Vehicles",
    "request_reason": "Abandoned/Junk Vehicles",
    "date_created": "2022-01-03T15:02:39.000",
    "date_modified": "2022-01-03T15:02:39.000",
    "request_status": "Pending",
    "responsible_agency": "Department of Public Works",
    "final_address": "2017 S Saratoga St",
    "address_councildis": "B",
    "status": "Pending",
    "rowid": "851560",
    "final_x": "3676903.20245",
    "final_y": "525584.231037",
    "longitude": "-90.08278992029089",
    "latitude": "29.93931305936503",
    "geocoded_column": {
      "latitude": "29.93931305936503",
      "longitude": "-90.08278992029089"
    }
  },
  {
    "service_request": "2022-851559",
    "request_type": "Tax and Revenue",
    "request_reason": "Sales Tax Question",
    "date_created": "2022-01-03T15:02:33.000",
    "date_modified": "2022-01-03T15:02:33.000",
    "request_status": "Pending",
    "responsible_agency": "Bureau of Revenue",
    "final_address": "14311 Dwyer Blvd",
    "address_councildis": "E",
    "status": "Pending",
    "rowid": "851559",
    "final_x": "3729552.59885",
    "final_y": "563407.957856",
    "longitude": "-89.9150936794685",
    "latitude": "30.041628374902146",
    "geocoded_column": {
      "latitude": "30.041628374902146",
      "longitude": "-89.9150936794685"
    }
  },
  {
    "service_request": "2022-851557",
    "request_type": "Property Maintenance",
    "request_reason": "Property Maintenance",
    "date_created": "2022-01-03T14:57:14.000",
    "date_modified": "2022-01-03T14:57:14.000",
    "request_status": "Pending",
    "responsible_agency": "Department of Code Enforcement",
    "final_address": "7209 St Charles Ave",
    "address_councildis": "A",
    "status": "Pending",
    "rowid": "851557",
    "final_x": "3662928.73587",
    "final_y": "524836.241788",
    "longitude": "-90.1269341763332",
    "latitude": "29.93766829239644",
    "geocoded_column": {
      "latitude": "29.93766829239644",
      "longitude": "-90.1269341763332"
    }
  },
  {
    "service_request": "2022-851556",
    "request_type": "Abandoned Vehicles",
    "request_reason": "Abandoned/Junk Vehicles",
    "date_created": "2022-01-03T14:56:08.000",
    "date_modified": "2022-01-03T14:56:08.000",
    "request_status": "Pending",
    "responsible_agency": "Department of Public Works",
    "final_address": "3114 Industrial Ct",
    "address_councildis": "D",
    "status": "Pending",
    "rowid": "851556",
    "final_x": "3689752.95977",
    "final_y": "538378.258953",
    "longitude": "-90.0417664305777",
    "latitude": "29.97410033708798",
    "geocoded_column": {
      "latitude": "29.97410033708798",
      "longitude": "-90.0417664305777"
    }
  },
  {
    "service_request": "2022-851555",
    "request_type": "Trash/Recycling",
    "request_reason": "Repair Trash Cart",
    "date_created": "2022-01-03T14:55:51.000",
    "date_modified": "2022-01-03T14:55:51.000",
    "request_status": "Pending",
    "responsible_agency": "Department of Sanitation",
    "final_address": "702 N Alexander St",
    "address_councildis": "A",
    "status": "Assigned to Contractor",
    "contractor": "Richards Disposal",
    "rowid": "851555",
    "final_x": "3671351.01294",
    "final_y": "540907.964747",
    "longitude": "-90.09979811718263",
    "latitude": "29.98161367813064",
    "geocoded_column": {
      "latitude": "29.98161367813064",
      "longitude": "-90.09979811718263"
    }
  },
  {
    "service_request": "2022-851554",
    "request_type": "Trash/Recycling",
    "request_reason": "Repair Trash Cart",
    "date_created": "2022-01-03T14:53:28.000",
    "date_modified": "2022-01-03T14:53:29.000",
    "request_status": "Pending",
    "responsible_agency": "Department of Sanitation",
    "final_address": "2201 Valentine Ct",
    "address_councildis": "C",
    "status": "Assigned to Contractor",
    "contractor": "Richards Disposal",
    "rowid": "851554",
    "final_x": "3699523.67024",
    "final_y": "523059.019963",
    "longitude": "-90.01146662532383",
    "latitude": "29.931671399430073",
    "geocoded_column": {
      "latitude": "29.931671399430073",
      "longitude": "-90.01146662532383"
    }
  },
  {
    "service_request": "2022-851553",
    "request_type": "Trash/Recycling",
    "request_reason": "Replace Trash Cart",
    "date_created": "2022-01-03T14:53:16.000",
    "date_modified": "2022-01-03T14:53:17.000",
    "request_status": "Pending",
    "responsible_agency": "Department of Sanitation",
    "final_address": "4130 Cleveland Ave",
    "address_councildis": "A",
    "status": "Assigned to Contractor",
    "contractor": "Richards Disposal",
    "rowid": "851553",
    "final_x": "3670583.01454",
    "final_y": "538151.271177",
    "longitude": "-90.10231736227888",
    "latitude": "29.97405641603019",
    "geocoded_column": {
      "latitude": "29.97405641603019",
      "longitude": "-90.10231736227888"
    }
  },
  {
    "service_request": "2022-851550",
    "request_type": "Roads/Drainage",
    "request_reason": "Street Subsidence (Sinking)",
    "date_created": "2022-01-03T14:49:11.000",
    "date_modified": "2022-01-03T14:49:11.000",
    "request_status": "Pending",
    "responsible_agency": "Department of Public Works",
    "final_address": "965 Navarre St",
    "address_councildis": "A",
    "status": "Pending",
    "rowid": "851550",
    "final_x": "3670335.99034",
    "final_y": "543731.92763",
    "longitude": "-90.10290826236762",
    "latitude": "29.98940861754111",
    "geocoded_column": {
      "latitude": "29.98940861754111",
      "longitude": "-90.10290826236762"
    }
  },
  {
    "service_request": "2022-851549",
    "request_type": "Trash/Recycling",
    "request_reason": "Illegal Dumping",
    "date_created": "2022-01-03T14:49:10.000",
    "date_modified": "2022-01-03T14:49:10.000",
    "request_status": "Pending",
    "responsible_agency": "Department of Sanitation",
    "final_address": "6500 BLK Ransom St",
    "address_councildis": "E",
    "status": "Pending",
    "rowid": "851549",
    "final_x": "3698828.15054",
    "final_y": "553008.181501",
    "longitude": "-90.01257249855307",
    "latitude": "30.014042828416706",
    "geocoded_column": {
      "latitude": "30.014042828416706",
      "longitude": "-90.01257249855307"
    }
  },
  {
    "service_request": "2022-851547",
    "request_type": "Trash/Recycling",
    "request_reason": "Order Trash Cart",
    "date_created": "2022-01-03T14:46:33.000",
    "date_modified": "2022-01-03T14:46:34.000",
    "request_status": "Pending",
    "responsible_agency": "Department of Sanitation",
    "final_address": "1221 Lamanche St, New Orleans, Louisiana, 70117",
    "address_councildis": "E",
    "status": "Assigned to Contractor",
    "contractor": "Metro Disposal",
    "rowid": "851547",
    "final_x": "3698603.01879",
    "final_y": "534257.784069",
    "longitude": "-90.01396592904581",
    "latitude": "29.96249324675746",
    "geocoded_column": {
      "latitude": "29.96249324675746",
      "longitude": "-90.01396592904581"
    }
  },
  {
    "service_request": "2022-851546",
    "request_type": "Trash/Recycling",
    "request_reason": "Illegal Dumping",
    "date_created": "2022-01-03T14:42:47.000",
    "date_modified": "2022-01-03T14:42:47.000",
    "request_status": "Pending",
    "responsible_agency": "Department of Sanitation",
    "final_address": "3411 First St",
    "address_councildis": "B",
    "status": "Pending",
    "rowid": "851546",
    "final_x": "3673392.96168",
    "final_y": "528649.848576",
    "longitude": "-90.09376751657291",
    "latitude": "29.947847375378217",
    "geocoded_column": {
      "latitude": "29.947847375378217",
      "longitude": "-90.09376751657291"
    }
  },
  {
    "service_request": "2022-851544",
    "request_type": "Trash/Recycling",
    "request_reason": "Request a Large Item Pick Up",
    "date_created": "2022-01-03T14:36:21.000",
    "date_modified": "2022-01-03T14:36:22.000",
    "request_status": "Pending",
    "responsible_agency": "Department of Sanitation",
    "final_address": "4920 Dreux Ave",
    "address_councildis": "D",
    "status": "Assigned to Contractor",
    "contractor": "Metro Disposal",
    "rowid": "851544",
    "final_x": "3691561.03158",
    "final_y": "553143.933143",
    "longitude": "-90.03552796859951",
    "latitude": "30.01464441596726",
    "geocoded_column": {
      "latitude": "30.01464441596726",
      "longitude": "-90.03552796859951"
    }
  },
  {
    "service_request": "2022-851542",
    "request_type": "Trash/Recycling",
    "request_reason": "Missed Trash Pick-Up",
    "date_created": "2022-01-03T14:34:32.000",
    "date_modified": "2022-01-03T14:34:33.000",
    "request_status": "Pending",
    "responsible_agency": "Department of Sanitation",
    "final_address": "4709 S Carrollton Ave",
    "address_councildis": "A",
    "status": "Assigned to Contractor",
    "contractor": "Richards Disposal",
    "rowid": "851542",
    "final_x": "3670822.20257",
    "final_y": "538132.593353",
    "longitude": "-90.10156258434382",
    "latitude": "29.973997990410297",
    "geocoded_column": {
      "latitude": "29.973997990410297",
      "longitude": "-90.10156258434382"
    }
  },
  {
    "service_request": "2022-851541",
    "request_type": "Trash/Recycling",
    "request_reason": "Request a Large Item Pick Up",
    "date_created": "2022-01-03T14:27:12.000",
    "date_modified": "2022-01-03T14:27:13.000",
    "request_status": "Pending",
    "responsible_agency": "Department of Sanitation",
    "final_address": "3809 Camp St",
    "address_councildis": "B",
    "status": "Assigned to Contractor",
    "contractor": "Richards Disposal",
    "rowid": "851541",
    "final_x": "3673201.92462",
    "final_y": "519424.451575",
    "longitude": "-90.09468557278748",
    "latitude": "29.922486209531183",
    "geocoded_column": {
      "latitude": "29.922486209531183",
      "longitude": "-90.09468557278748"
    }
  },
  {
    "service_request": "2022-851540",
    "request_type": "Traffic Signals/Signs/Striping/Streetlights",
    "request_reason": "Street Light Outage/Malfunction",
    "date_created": "2022-01-03T14:27:06.000",
    "date_modified": "2022-01-03T14:27:07.000",
    "request_status": "Pending",
    "responsible_agency": "Department of Public Works",
    "final_address": "3801 N Prieur St",
    "address_councildis": "D",
    "status": "Pending",
    "contractor": "Royal Engineering",
    "rowid": "851540",
    "final_x": "3692009.32445",
    "final_y": "538480.930313",
    "longitude": "-90.03463666782682",
    "latitude": "29.97431252130152",
    "geocoded_column": {
      "latitude": "29.97431252130152",
      "longitude": "-90.03463666782682"
    }
  },
  {
    "service_request": "2022-851539",
    "request_type": "Trash/Recycling",
    "request_reason": "Replace Trash Cart",
    "date_created": "2022-01-03T14:22:12.000",
    "date_modified": "2022-01-03T14:22:13.000",
    "request_status": "Pending",
    "responsible_agency": "Department of Sanitation",
    "final_address": "New Orleans,LA",
    "status": "Assigned to Contractor",
    "rowid": "851539",
    "longitude": "0.0",
    "latitude": "0.0",
    "geocoded_column": {
      "latitude": "0.0",
      "longitude": "0.0"
    }
  },
  {
    "service_request": "2022-851538",
    "request_type": "Abandoned Vehicles",
    "request_reason": "Abandoned/Junk Vehicles",
    "date_created": "2022-01-03T14:21:48.000",
    "date_modified": "2022-01-03T14:21:48.000",
    "request_status": "Pending",
    "responsible_agency": "Department of Public Works",
    "final_address": "2133 Louisiana Ave",
    "address_councildis": "B",
    "status": "Pending",
    "rowid": "851538",
    "final_x": "3673434.78408",
    "final_y": "523475.724027",
    "longitude": "-90.0938121906665",
    "latitude": "29.93361897989003",
    "geocoded_column": {
      "latitude": "29.93361897989003",
      "longitude": "-90.0938121906665"
    }
  },
  {
    "service_request": "2022-851537",
    "request_type": "Roads/Drainage",
    "request_reason": "Street Subsidence (Sinking)",
    "date_created": "2022-01-03T14:21:45.000",
    "date_modified": "2022-01-03T14:21:45.000",
    "request_status": "Pending",
    "responsible_agency": "Department of Public Works",
    "final_address": "TENNYSON PL & WOODLAND DR & FAIRFAX PL",
    "address_councildis": "C",
    "status": "Pending",
    "rowid": "851537",
    "final_x": "3705470.4",
    "final_y": "517449.48",
    "longitude": "-89.99290078938418",
    "latitude": "29.916057142497582",
    "geocoded_column": {
      "latitude": "29.916057142497582",
      "longitude": "-89.99290078938418"
    }
  },
  {
    "service_request": "2022-851536",
    "request_type": "Roads/Drainage",
    "request_reason": "Street Subsidence (Sinking)",
    "date_created": "2022-01-03T14:11:07.000",
    "date_modified": "2022-01-03T14:11:07.000",
    "request_status": "Pending",
    "responsible_agency": "Department of Public Works",
    "final_address": "5535 Annunciation St",
    "address_councildis": "A",
    "status": "Pending",
    "rowid": "851536",
    "final_x": "3665873.1088",
    "final_y": "517589.000182",
    "longitude": "-90.117881231626",
    "latitude": "29.91765509967947",
    "geocoded_column": {
      "latitude": "29.91765509967947",
      "longitude": "-90.117881231626"
    }
  },
  {
    "service_request": "2022-851535",
    "request_type": "Trash/Recycling",
    "request_reason": "Replace Trash Cart",
    "date_created": "2022-01-03T14:05:58.000",
    "date_modified": "2022-01-03T14:05:59.000",
    "request_status": "Pending",
    "responsible_agency": "Department of Sanitation",
    "final_address": "7704 Hickory St",
    "address_councildis": "A",
    "status": "Assigned to Contractor",
    "contractor": "Richards Disposal",
    "rowid": "851535",
    "final_x": "3664403.51162",
    "final_y": "528948.44384",
    "longitude": "-90.1221409469153",
    "latitude": "29.948932753110892",
    "geocoded_column": {
      "latitude": "29.948932753110892",
      "longitude": "-90.1221409469153"
    }
  },
  {
    "service_request": "2022-851534",
    "request_type": "Trash/Recycling",
    "request_reason": "Replace Trash Cart",
    "date_created": "2022-01-03T14:04:54.000",
    "date_modified": "2022-01-03T14:04:55.000",
    "request_status": "Pending",
    "responsible_agency": "Department of Sanitation",
    "final_address": "4775 Mandeville St",
    "address_councildis": "D",
    "status": "Assigned to Contractor",
    "contractor": "Metro Disposal",
    "rowid": "851534",
    "final_x": "3684759.16649",
    "final_y": "550728.510613",
    "longitude": "-90.05710351037321",
    "latitude": "30.008212961446777",
    "geocoded_column": {
      "latitude": "30.008212961446777",
      "longitude": "-90.05710351037321"
    }
  },
  {
    "service_request": "2022-851533",
    "request_type": "Trash/Recycling",
    "request_reason": "Replace Recycling Cart",
    "date_created": "2022-01-03T14:04:53.000",
    "date_modified": "2022-01-03T14:04:53.000",
    "request_status": "Pending",
    "responsible_agency": "Department of Sanitation",
    "final_address": "7704 Hickory St",
    "address_councildis": "A",
    "status": "Pending",
    "rowid": "851533",
    "final_x": "3664403.51162",
    "final_y": "528948.44384",
    "longitude": "-90.1221409469153",
    "latitude": "29.948932753110892",
    "geocoded_column": {
      "latitude": "29.948932753110892",
      "longitude": "-90.1221409469153"
    }
  },
  {
    "service_request": "2022-851532",
    "request_type": "Roads/Drainage",
    "request_reason": "Damaged Sidewalk",
    "date_created": "2022-01-03T14:01:18.000",
    "date_modified": "2022-01-03T14:01:18.000",
    "request_status": "Pending",
    "responsible_agency": "Department of Public Works",
    "final_address": "2337 Killdeer St",
    "address_councildis": "D",
    "status": "Pending",
    "rowid": "851532",
    "final_x": "3684385.46434",
    "final_y": "557663.758363",
    "longitude": "-90.05804028947954",
    "latitude": "30.027293786881312",
    "geocoded_column": {
      "latitude": "30.027293786881312",
      "longitude": "-90.05804028947954"
    }
  },
  {
    "service_request": "2022-851531",
    "request_type": "COVID-19",
    "request_reason": "COVID-19 Business Non-Compliance",
    "date_created": "2022-01-03T14:00:17.000",
    "date_modified": "2022-01-03T14:00:18.000",
    "request_status": "Pending",
    "responsible_agency": "Safety and Permits",
    "final_address": "4801 St Charles Ave",
    "address_councildis": "B",
    "status": "Pending",
    "rowid": "851531",
    "final_x": "3669286.45505",
    "final_y": "520809.020345",
    "longitude": "-90.10699838858639",
    "latitude": "29.92640913623721",
    "geocoded_column": {
      "latitude": "29.92640913623721",
      "longitude": "-90.10699838858639"
    }
  },
  {
    "service_request": "2022-851530",
    "request_type": "COVID-19",
    "request_reason": "COVID-19 Business Non-Compliance",
    "date_created": "2022-01-03T13:54:45.000",
    "date_modified": "2022-01-03T21:06:16.000",
    "request_status": "Pending",
    "responsible_agency": "Safety and Permits",
    "final_address": "New Orleans,LA",
    "rowid": "851530",
    "longitude": "0.0",
    "latitude": "0.0",
    "geocoded_column": {
      "latitude": "0.0",
      "longitude": "0.0"
    }
  },
  {
    "service_request": "2022-851529",
    "request_type": "Trash/Recycling",
    "request_reason": "Damaged Caused By Contractor",
    "date_created": "2022-01-03T13:54:28.000",
    "date_modified": "2022-01-03T13:54:28.000",
    "request_status": "Pending",
    "responsible_agency": "Department of Sanitation",
    "final_address": "831 Belleville St",
    "address_councildis": "C",
    "status": "Assigned to Contractor",
    "contractor": "Richards Disposal",
    "rowid": "851529",
    "final_x": "3687760.05571",
    "final_y": "528458.83648",
    "longitude": "-90.04841176425008",
    "latitude": "29.9468869772028",
    "geocoded_column": {
      "latitude": "29.9468869772028",
      "longitude": "-90.04841176425008"
    }
  },
  {
    "service_request": "2022-851528",
    "request_type": "Trash/Recycling",
    "request_reason": "Replace Trash Cart",
    "date_created": "2022-01-03T13:52:31.000",
    "date_modified": "2022-01-03T13:52:32.000",
    "request_status": "Pending",
    "responsible_agency": "Department of Sanitation",
    "final_address": "New Orleans,LA",
    "status": "Assigned to Contractor",
    "rowid": "851528",
    "longitude": "0.0",
    "latitude": "0.0",
    "geocoded_column": {
      "latitude": "0.0",
      "longitude": "0.0"
    }
  },
  {
    "service_request": "2022-851527",
    "request_type": "Trash/Recycling",
    "request_reason": "Order Recycling Cart",
    "date_created": "2022-01-03T13:48:59.000",
    "date_modified": "2022-01-03T13:48:59.000",
    "request_status": "Pending",
    "responsible_agency": "Department of Sanitation",
    "final_address": "2023 Washington Ave",
    "address_councildis": "B",
    "status": "Pending",
    "rowid": "851527",
    "final_x": "3675058.51905",
    "final_y": "523911.590844",
    "longitude": "-90.08867119083595",
    "latitude": "29.934769074147493",
    "geocoded_column": {
      "latitude": "29.934769074147493",
      "longitude": "-90.08867119083595"
    }
  },
  {
    "service_request": "2022-851526",
    "request_type": "Trash/Recycling",
    "request_reason": "Request a Large Item Pick Up",
    "date_created": "2022-01-03T13:48:48.000",
    "date_modified": "2022-01-03T13:48:49.000",
    "request_status": "Pending",
    "responsible_agency": "Department of Sanitation",
    "final_address": "1237 Horace St",
    "address_councildis": "C",
    "status": "Assigned to Contractor",
    "contractor": "Richards Disposal",
    "rowid": "851526",
    "final_x": "3696310.63696",
    "final_y": "526683.426238",
    "longitude": "-90.0214787566446",
    "latitude": "29.941738796275118",
    "geocoded_column": {
      "latitude": "29.941738796275118",
      "longitude": "-90.0214787566446"
    }
  },
  {
    "service_request": "2022-851525",
    "request_type": "Trash/Recycling",
    "request_reason": "Order Trash Cart",
    "date_created": "2022-01-03T13:48:16.000",
    "date_modified": "2022-01-03T13:48:17.000",
    "request_status": "Pending",
    "responsible_agency": "Department of Sanitation",
    "final_address": "2023 Washington Ave",
    "address_councildis": "B",
    "status": "Assigned to Contractor",
    "contractor": "Richards Disposal",
    "rowid": "851525",
    "final_x": "3675058.51905",
    "final_y": "523911.590844",
    "longitude": "-90.08867119083595",
    "latitude": "29.934769074147493",
    "geocoded_column": {
      "latitude": "29.934769074147493",
      "longitude": "-90.08867119083595"
    }
  },
  {
    "service_request": "2022-851524",
    "request_type": "Trash/Recycling",
    "request_reason": "Request a Large Item Pick Up",
    "date_created": "2022-01-03T13:46:49.000",
    "date_modified": "2022-01-03T13:46:50.000",
    "request_status": "Pending",
    "responsible_agency": "Department of Sanitation",
    "final_address": "3030 St Ann St",
    "address_councildis": "A",
    "status": "Assigned to Contractor",
    "contractor": "Richards Disposal",
    "rowid": "851524",
    "final_x": "3675710.02152",
    "final_y": "538095.799881",
    "longitude": "-90.08612699867632",
    "latitude": "29.97375143838111",
    "geocoded_column": {
      "latitude": "29.97375143838111",
      "longitude": "-90.08612699867632"
    }
  },
  {
    "service_request": "2022-851523",
    "request_type": "Roads/Drainage",
    "request_reason": "Alley Way",
    "date_created": "2022-01-03T13:46:38.000",
    "date_modified": "2022-01-03T13:46:38.000",
    "request_status": "Pending",
    "responsible_agency": "Department of Public Works",
    "final_address": "4974 Gallier Dr",
    "address_councildis": "D",
    "status": "Pending",
    "rowid": "851523",
    "final_x": "3691674.87318",
    "final_y": "552528.45167",
    "longitude": "-90.03519031694915",
    "latitude": "30.012948524698885",
    "geocoded_column": {
      "latitude": "30.012948524698885",
      "longitude": "-90.03519031694915"
    }
  },
  {
    "service_request": "2022-851522",
    "request_type": "Traffic Signals/Signs/Striping/Streetlights",
    "request_reason": "Street Light Knocked Down/Leaning",
    "date_created": "2022-01-03T13:45:00.000",
    "date_modified": "2022-01-03T13:45:01.000",
    "request_status": "Pending",
    "responsible_agency": "Department of Public Works",
    "final_address": "3522 River Oaks Dr",
    "address_councildis": "C",
    "status": "Pending",
    "contractor": "Royal Engineering",
    "rowid": "851522",
    "final_x": "3701440.96625",
    "final_y": "518062.671286",
    "longitude": "-90.00559674889912",
    "latitude": "29.917872205963363",
    "geocoded_column": {
      "latitude": "29.917872205963363",
      "longitude": "-90.00559674889912"
    }
  },
  {
    "service_request": "2022-851520",
    "request_type": "Trash/Recycling",
    "request_reason": "Order Trash Cart",
    "date_created": "2022-01-03T13:42:38.000",
    "date_modified": "2022-01-03T13:42:39.000",
    "request_status": "Pending",
    "responsible_agency": "Department of Sanitation",
    "final_address": "New Orleans,LA",
    "status": "Assigned to Contractor",
    "rowid": "851520",
    "longitude": "0.0",
    "latitude": "0.0",
    "geocoded_column": {
      "latitude": "0.0",
      "longitude": "0.0"
    }
  },
  {
    "service_request": "2022-851519",
    "request_type": "Trash/Recycling",
    "request_reason": "Request a Large Item Pick Up",
    "date_created": "2022-01-03T13:41:18.000",
    "date_modified": "2022-01-03T13:41:18.000",
    "request_status": "Pending",
    "responsible_agency": "Department of Sanitation",
    "final_address": "417 Patterson Dr, New Orleans, Louisiana, 70114",
    "status": "Assigned to Contractor",
    "rowid": "851519",
    "longitude": "0.0",
    "latitude": "0.0",
    "geocoded_column": {
      "latitude": "0.0",
      "longitude": "0.0"
    }
  },
  {
    "service_request": "2022-851518",
    "request_type": "Abandoned Vehicles",
    "request_reason": "Vehicle Blocking Your Driveway",
    "date_created": "2022-01-03T13:41:04.000",
    "date_modified": "2022-01-03T13:41:04.000",
    "request_status": "Pending",
    "responsible_agency": "Department of Public Works",
    "final_address": "4724 Magazine St",
    "address_councildis": "B",
    "status": "Pending",
    "rowid": "851518",
    "final_x": "3669743.34407",
    "final_y": "518589.236407",
    "longitude": "-90.1056311924356",
    "latitude": "29.920291981793138",
    "geocoded_column": {
      "latitude": "29.920291981793138",
      "longitude": "-90.1056311924356"
    }
  },