[
  {
    "service_request": "2024-1112707",
    "request_type": "Roads/Drainage",
    "request_reason": "Street Subsidence (Sinking)",
    "date_created": "2024-07-15T23:21:26.000",
    "date_modified": "2024-07-15T23:21:26.000",
    "request_status": "Pending",
    "responsible_agency": "Department of Public Works",
    "final_address": "11100 BLK Morrison Rd",
    "address_councildis": "E",
    "status": "Pending",
    "rowid": "1112707",
    "final_x": "3711775.21322",
    "final_y": "565320.659172",
    "longitude": "-89.9712043192443",
    "latitude": "30.047480562767916",
    "geocoded_column": {
      "latitude": "30.047480562767916",
      "longitude": "-89.9712043192443"
    }
  },
  {
    "service_request": "2024-1112705",
    "request_type": "Abandoned Vehicles",
    "request_reason": "Abandoned/Junk Vehicles",
    "date_created": "2024-07-15T23:05:43.000",
    "date_modified": "2024-07-15T23:05:43.000",
    "request_status": "Pending",
    "responsible_agency": "Department of Public Works",
    "final_address": "5345 Baccich St",
    "address_councildis": "D",
    "status": "Pending",
    "rowid": "1112705",
    "final_x": "3687737.78761",
    "final_y": "552679.790294",
    "longitude": "-90.04762397909339",
    "latitude": "30.01348670726616",
    "geocoded_column": {
      "latitude": "30.01348670726616",
      "longitude": "-90.04762397909339"
    }
  },
  {
    "service_request": "2024-1112704",
    "request_type": "Property Maintenance",
    "request_reason": "Property Maintenance",
    "date_created": "2024-07-15T23:04:49.000",
    "date_modified": "2024-07-15T23:04:49.000",
    "request_status": "Pending",
    "responsible_agency": "Department of Code Enforcement",
    "final_address": "14500 Beekman Rd",
    "address_councildis": "E",
    "status": "Pending",
    "rowid": "1112704",
    "final_x": "3720786.10393",
    "final_y": "572758.553577",
    "longitude": "-89.94243994685621",
    "latitude": "30.067634058513985",
    "geocoded_column": {
      "latitude": "30.067634058513985",
      "longitude": "-89.94243994685621"
    }
  },
  {
    "service_request": "2024-1112703",
    "request_type": "Property Maintenance",
    "request_reason": "Property Maintenance",
    "date_created": "2024-07-15T22:58:12.000",
    "date_modified": "2024-07-15T22:58:12.000",
    "request_status": "Pending",
    "responsible_agency": "Department of Code Enforcement",
    "final_address": "14561 Beekman Rd",
    "address_councildis": "E",
    "status": "Pending",
    "rowid": "1112703",
    "final_x": "3721048.17414",
    "final_y": "573069.970601",
    "longitude": "-89.94159954661173",
    "latitude": "30.068481574233804",
    "geocoded_column": {
      "latitude": "30.068481574233804",
      "longitude": "-89.94159954661173"
    }
  },
  {
    "service_request": "2024-1112702",
    "request_type": "Roads/Drainage",
    "request_reason": "Pothole",
    "date_created": "2024-07-15T22:56:23.000",
    "date_modified": "2024-07-15T22:56:23.000",
    "request_status": "Pending",
    "responsible_agency": "Department of Public Works",
    "final_address": "1312 Milan St",
    "address_councildis": "B",
    "status": "Pending",
    "rowid": "1112702",
    "final_x": "3671625.82823",
    "final_y": "520286.919608",
    "longitude": "-90.09963137110304",
    "latitude": "29.92490447494246",
    "geocoded_column": {
      "latitude": "29.92490447494246",
      "longitude": "-90.09963137110304"
    }
  },
  {
    "service_request": "2024-1112701",
    "request_type": "Roads/Drainage",
    "request_reason": "Pothole",
    "date_created": "2024-07-15T22:55:22.000",
    "date_modified": "2024-07-15T22:55:22.000",
    "request_status": "Pending",
    "responsible_agency": "Department of Public Works",
    "final_address": "4212 Camp St",
    "address_councildis": "B",
    "status": "Pending",
    "rowid": "1112701",
    "final_x": "3671624.68814",
    "final_y": "519166.521975",
    "longitude": "-90.09967304793963",
    "latitude": "29.921823772662087",
    "geocoded_column": {
      "latitude": "29.921823772662087",
      "longitude": "-90.09967304793963"
    }
  },
  {
    "service_request": "2024-1112700",
    "request_type": "Graffiti Removal",
    "request_reason": "Graffiti Removal",
    "date_created": "2024-07-15T22:54:40.000",
    "date_modified": "2024-07-15T22:54:40.000",
    "request_status": "Pending",
    "responsible_agency": "Department of Code Enforcement",
    "final_address": "7600 Adventure Ave",
    "address_councildis": "E",
    "status": "Pending",
    "rowid": "1112700",
    "final_x": "3725541.6304",
    "final_y": "570549.477351",
    "longitude": "-89.9274927158791",
    "latitude": "30.061400457185247",
    "geocoded_column": {
      "latitude": "30.061400457185247",
      "longitude": "-89.9274927158791"
    }
  },
  {
    "service_request": "2024-1112699",
    "request_type": "Roads/Drainage",
    "request_reason": "Pothole",
    "date_created": "2024-07-15T22:47:54.000",
    "date_modified": "2024-07-15T22:47:54.000",
    "request_status": "Pending",
    "responsible_agency": "Department of Public Works",
    "final_address": "1501 General Taylor St",
    "address_councildis": "B",
    "status": "Pending",
    "rowid": "1112699",
    "final_x": "3672757.23963",
    "final_y": "520814.498105",
    "longitude": "-90.09604188611411",
    "latitude": "29.926321602463354",
    "geocoded_column": {
      "latitude": "29.926321602463354",
      "longitude": "-90.09604188611411"
    }
  },
  {
    "service_request": "2024-1112698",
    "request_type": "Roads/Drainage",
    "request_reason": "Pothole",
    "date_created": "2024-07-15T22:27:55.000",
    "date_modified": "2024-07-15T22:27:55.000",
    "request_status": "Pending",
    "responsible_agency": "Department of Public Works",
    "final_address": "1521 Webster St",
    "address_councildis": "A",
    "status": "Pending",
    "rowid": "1112698",
    "final_x": "3665172.71917",
    "final_y": "522143.293626",
    "longitude": "-90.11993975188861",
    "latitude": "29.93019838632039",
    "geocoded_column": {
      "latitude": "29.93019838632039",
      "longitude": "-90.11993975188861"
    }
  },
  {
    "service_request": "2024-1112697",
    "request_type": "Roads/Drainage",
    "request_reason": "Pothole",
    "date_created": "2024-07-15T22:26:10.000",
    "date_modified": "2024-07-15T22:26:10.000",
    "request_status": "Pending",
    "responsible_agency": "Department of Public Works",
    "final_address": "6030 Chestnut St",
    "address_councildis": "A",
    "status": "Pending",
    "rowid": "1112697",
    "final_x": "3664661.37773",
    "final_y": "519852.51884",
    "longitude": "-90.1216304547064",
    "latitude": "29.923914355909606",
    "geocoded_column": {
      "latitude": "29.923914355909606",
      "longitude": "-90.1216304547064"
    }
  },
  {
    "service_request": "2024-1112696",
    "request_type": "Roads/Drainage",
    "request_reason": "Pothole",
    "date_created": "2024-07-15T22:24:37.000",
    "date_modified": "2024-07-15T22:24:37.000",
    "request_status": "Pending",
    "responsible_agency": "Department of Public Works",
    "final_address": "6070 Chestnut St",
    "address_councildis": "A",
    "status": "Pending",
    "rowid": "1112696",
    "final_x": "3664412.78983",
    "final_y": "519991.592952",
    "longitude": "-90.12241052146828",
    "latitude": "29.92430399204139",
    "geocoded_column": {
      "latitude": "29.92430399204139",
      "longitude": "-90.12241052146828"
    }
  },
  {
    "service_request": "2024-1112695",
    "request_type": "Roads/Drainage",
    "request_reason": "Catch Basin - Broken/Damage",
    "date_created": "2024-07-15T21:45:44.000",
    "date_modified": "2024-07-15T21:45:44.000",
    "request_status": "Pending",
    "responsible_agency": "Department of Public Works",
    "final_address": "3300 Palmyra St",
    "address_councildis": "B",
    "status": "Pending",
    "rowid": "1112695",
    "final_x": "3673015.32756",
    "final_y": "535775.136263",
    "longitude": "-90.09471667048695",
    "latitude": "29.96745077213938",
    "geocoded_column": {
      "latitude": "29.96745077213938",
      "longitude": "-90.09471667048695"
    }
  },
  {
    "service_request": "2024-1112694",
    "request_type": "Traffic Signals/Signs/Striping/Streetlights",
    "request_reason": "Street Light Outage/Malfunction",
    "date_created": "2024-07-15T21:42:30.000",
    "date_modified": "2024-07-15T21:42:31.000",
    "request_status": "Pending",
    "responsible_agency": "Department of Public Works",
    "final_address": "1916 Upperline St",
    "address_councildis": "B",
    "status": "Assigned to Contractor",
    "contractor": "Legacy Professional Services",
    "rowid": "1112694",
    "final_x": "3669002.71009",
    "final_y": "521944.633658",
    "longitude": "-90.1078557550049",
    "latitude": "29.929540058188472",
    "geocoded_column": {
      "latitude": "29.929540058188472",
      "longitude": "-90.1078557550049"
    }
  },
  {
    "service_request": "2024-1112693",
    "request_type": "Roads/Drainage",
    "request_reason": "Catch Basin - Clogged",
    "date_created": "2024-07-15T21:41:56.000",
    "date_modified": "2024-07-15T21:41:56.000",
    "request_status": "Pending",
    "responsible_agency": "Department of Public Works",
    "final_address": "3238 Palmyra St",
    "address_councildis": "B",
    "status": "Pending",
    "rowid": "1112693",
    "final_x": "3673093.44219",
    "final_y": "535733.776839",
    "longitude": "-90.09447139478313",
    "latitude": "29.967334725623118",
    "geocoded_column": {
      "latitude": "29.967334725623118",
      "longitude": "-90.09447139478313"
    }
  },
  {
    "service_request": "2024-1112692",
    "request_type": "Trash/Recycling",
    "request_reason": "Replace Trash Cart",
    "date_created": "2024-07-15T21:36:09.000",
    "date_modified": "2024-07-15T21:36:10.000",
    "request_status": "Pending",
    "responsible_agency": "Department of Sanitation",
    "final_address": "3511 Cecil St",
    "address_councildis": "A",
    "status": "Assigned to Contractor",
    "contractor": "IV Waste",
    "rowid": "1112692",
    "final_x": "3663533.70695",
    "final_y": "538058.364553",
    "longitude": "-90.12458387688376",
    "latitude": "29.9740073108896",
    "geocoded_column": {
      "latitude": "29.9740073108896",
      "longitude": "-90.12458387688376"
    }
  },
  {
    "service_request": "2024-1112691",
    "request_type": "Trash/Recycling",
    "request_reason": "Return Trash Cart",
    "date_created": "2024-07-15T21:16:29.000",
    "date_modified": "2024-07-15T21:16:30.000",
    "request_status": "Pending",
    "responsible_agency": "Department of Sanitation",
    "final_address": "102 W Hubbell Rd",
    "address_councildis": "C",
    "status": "Assigned to Contractor",
    "contractor": "Richards Disposal",
    "rowid": "1112691",
    "final_x": "3689150.48847",
    "final_y": "531212.172226",
    "longitude": "-90.04392384524596",
    "latitude": "29.954414758153444",
    "geocoded_column": {
      "latitude": "29.954414758153444",
      "longitude": "-90.04392384524596"
    }
  },
  {
    "service_request": "2024-1112690",
    "request_type": "Abandoned Vehicles",
    "request_reason": "Abandoned/Junk Vehicles",
    "date_created": "2024-07-15T20:48:09.000",
    "date_modified": "2024-07-15T20:48:09.000",
    "request_status": "Pending",
    "responsible_agency": "Department of Public Works",
    "final_address": "2545 Pauger St",
    "address_councildis": "D",
    "status": "Pending",
    "rowid": "1112690",
    "final_x": "3683675.99689",
    "final_y": "539124.39585",
    "longitude": "-90.06093267551074",
    "latitude": "29.976338900395646",
    "geocoded_column": {
      "latitude": "29.976338900395646",
      "longitude": "-90.06093267551074"
    }
  },
  {
    "service_request": "2024-1112689",
    "request_type": "Trash/Recycling",
    "request_reason": "Illegal Dumping",
    "date_created": "2024-07-15T20:22:28.000",
    "date_modified": "2024-07-15T20:22:28.000",
    "request_status": "Pending",
    "responsible_agency": "Department of Sanitation",
    "final_address": "11050 Guildford Rd",
    "address_councildis": "E",
    "status": "Pending",
    "rowid": "1112689",
    "final_x": "3711917.73381",
    "final_y": "564238.695201",
    "longitude": "-89.9707945429734",
    "latitude": "30.0445009393671",
    "geocoded_column": {
      "latitude": "30.0445009393671",
      "longitude": "-89.9707945429734"
    }
  },
  {
    "service_request": "2024-1112688",
    "request_type": "Trash/Recycling",
    "request_reason": "Illegal Dumping",
    "date_created": "2024-07-15T20:20:59.000",
    "date_modified": "2024-07-15T20:20:59.000",
    "request_status": "Pending",
    "responsible_agency": "Department of Sanitation",
    "final_address": "11050 Guildford Rd",
    "address_councildis": "E",
    "status": "Pending",
    "rowid": "1112688",
    "final_x": "3711917.73381",
    "final_y": "564238.695201",
    "longitude": "-89.9707945429734",
    "latitude": "30.0445009393671",
    "geocoded_column": {
      "latitude": "30.0445009393671",
      "longitude": "-89.9707945429734"
    }
  },
  {
    "service_request": "2024-1112687",
    "request_type": "Property Maintenance",
    "request_reason": "Property Maintenance",
    "date_created": "2024-07-15T20:17:16.000",
    "date_modified": "2024-07-15T20:17:16.000",
    "request_status": "Pending",
    "responsible_agency": "Department of Code Enforcement",
    "final_address": "208 Cambridge Ct",
    "address_councildis": "C",
    "status": "Pending",
    "rowid": "1112687",
    "final_x": "3706414.15966",
    "final_y": "518477.385014",
    "longitude": "-89.98988389885994",
    "latitude": "29.91885313402658",
    "geocoded_column": {
      "latitude": "29.91885313402658",
      "longitude": "-89.98988389885994"
    }
  },
  {
    "service_request": "2024-1112686",
    "request_type": "Trash/Recycling",
    "request_reason": "Missed Trash Pick-Up",
    "date_created": "2024-07-15T19:35:37.000",
    "date_modified": "2024-07-15T19:35:38.000",
    "request_status": "Pending",
    "responsible_agency": "Department of Sanitation",
    "final_address": "1931 Harmony St, New Orleans, Louisiana, 70115",
    "status": "Assigned to Contractor",
    "rowid": "1112686",
    "longitude": "0.0",
    "latitude": "0.0",
    "geocoded_column": {
      "latitude": "0.0",
      "longitude": "0.0"
    }
  },
  {
    "service_request": "2024-1112685",
    "request_type": "Trash/Recycling",
    "request_reason": "Missed Trash Pick-Up",
    "date_created": "2024-07-15T19:34:48.000",
    "date_modified": "2024-07-15T19:34:49.000",
    "request_status": "Pending",
    "responsible_agency": "Department of Sanitation",
    "final_address": "3128 Ursulines Ave, New Orleans, Louisiana, 70119",
    "address_councildis": "A",
    "status": "Assigned to Contractor",
    "contractor": "IV Waste",
    "rowid": "1112685",
    "final_x": "3675901.56725",
    "final_y": "539414.377738",
    "longitude": "-90.08547670380095",
    "latitude": "29.977371341988764",
    "geocoded_column": {
      "latitude": "29.977371341988764",
      "longitude": "-90.08547670380095"
    }
  },
  {
    "service_request": "2024-1112684",
    "request_type": "Trash/Recycling",
    "request_reason": "Repair Trash Cart",
    "date_created": "2024-07-15T19:25:23.000",
    "date_modified": "2024-07-15T19:25:24.000",
    "request_status": "Pending",
    "responsible_agency": "Department of Sanitation",
    "final_address": "4409 Annunciation St",
    "address_councildis": "B",
    "status": "Assigned to Contractor",
    "contractor": "IV Waste",
    "rowid": "1112684",
    "final_x": "3671016.79803",
    "final_y": "517777.370934",
    "longitude": "-90.10163903840723",
    "latitude": "29.91802203022088",
    "geocoded_column": {
      "latitude": "29.91802203022088",
      "longitude": "-90.10163903840723"
    }
  },
  {
    "service_request": "2024-1112682",
    "request_type": "Trash/Recycling",
    "request_reason": "Repair Recycling Cart",
    "date_created": "2024-07-15T19:00:33.000",
    "date_modified": "2024-07-15T19:00:33.000",
    "request_status": "Pending",
    "responsible_agency": "Department of Sanitation",
    "final_address": "1208 Milan St",
    "address_councildis": "B",
    "status": "Pending",
    "rowid": "1112682",
    "final_x": "3671650.14305",
    "final_y": "519990.49004",
    "longitude": "-90.09956469237912",
    "latitude": "29.924088668463796",
    "geocoded_column": {
      "latitude": "29.924088668463796",
      "longitude": "-90.09956469237912"
    }
  },
  {
    "service_request": "2024-1112681",
    "request_type": "Trash/Recycling",
    "request_reason": "Replace Trash Cart",
    "date_created": "2024-07-15T18:59:19.000",
    "date_modified": "2024-07-15T18:59:20.000",
    "request_status": "Pending",
    "responsible_agency": "Department of Sanitation",
    "final_address": "1208 Milan St",
    "address_councildis": "B",
    "status": "Assigned to Contractor",
    "contractor": "IV Waste",
    "rowid": "1112681",
    "final_x": "3671650.14305",
    "final_y": "519990.49004",
    "longitude": "-90.09956469237912",
    "latitude": "29.924088668463796",
    "geocoded_column": {
      "latitude": "29.924088668463796",
      "longitude": "-90.09956469237912"
    }
  },
  {
    "service_request": "2024-1112680",
    "request_type": "Health Related Request",
    "request_reason": "Noise Ordinance Complaint",
    "date_created": "2024-07-15T18:37:34.000",
    "date_modified": "2024-07-15T18:37:34.000",
    "request_status": "Pending",
    "responsible_agency": "Health Department",
    "final_address": "2607 Palmyra St",
    "address_councildis": "B",
    "status": "Pending",
    "rowid": "1112680",
    "final_x": "3675287.47054",
    "final_y": "534197.330949",
    "longitude": "-90.08759536453911",
    "latitude": "29.963044609951965",
    "geocoded_column": {
      "latitude": "29.963044609951965",
      "longitude": "-90.08759536453911"
    }
  },
  {
    "service_request": "2024-1112679",
    "request_type": "Trash/Recycling",
    "request_reason": "Request a Large Item Pick Up",
    "date_created": "2024-07-15T18:36:20.000",
    "date_modified": "2024-07-15T18:36:21.000",
    "request_status": "Pending",
    "responsible_agency": "Department of Sanitation",
    "final_address": "11293 Waverly Dr",
    "address_councildis": "E",
    "status": "Assigned to Contractor",
    "contractor": "Waste Pro",
    "rowid": "1112679",
    "final_x": "3717761.04479",
    "final_y": "560520.893022",
    "longitude": "-89.9524688255522",
    "latitude": "30.034086143834074",
    "geocoded_column": {
      "latitude": "30.034086143834074",
      "longitude": "-89.9524688255522"
    }
  },
  {
    "service_request": "2024-1112678",
    "request_type": "Trash/Recycling",
    "request_reason": "Replace Recycling Cart",
    "date_created": "2024-07-15T18:24:01.000",
    "date_modified": "2024-07-15T18:24:01.000",
    "request_status": "Pending",
    "responsible_agency": "Department of Sanitation",
    "final_address": "7700 Burthe St",
    "address_councildis": "A",
    "status": "Pending",
    "rowid": "1112678",
    "final_x": "3662295.15315",
    "final_y": "526597.159166",
    "longitude": "-90.12887601754022",
    "latitude": "29.942528582903783",
    "geocoded_column": {
      "latitude": "29.942528582903783",
      "longitude": "-90.12887601754022"
    }
  },
  {
    "service_request": "2024-1112677",
    "request_type": "Trash/Recycling",
    "request_reason": "Replace Trash Cart",
    "date_created": "2024-07-15T18:20:24.000",
    "date_modified": "2024-07-15T18:20:25.000",
    "request_status": "Pending",
    "responsible_agency": "Department of Sanitation",
    "final_address": "1223 Prentiss Ave",
    "address_councildis": "D",
    "status": "Assigned to Contractor",
    "contractor": "IV Waste",
    "rowid": "1112677",
    "final_x": "3676762.66017",
    "final_y": "553357.788055",
    "longitude": "-90.08227626731963",
    "latitude": "30.015685004418277",
    "geocoded_column": {
      "latitude": "30.015685004418277",
      "longitude": "-90.08227626731963"
    }
  },
  {
    "service_request": "2024-1112676",
    "request_type": "Trash/Recycling",
    "request_reason": "Request a Large Item Pick Up",
    "date_created": "2024-07-15T18:19:24.000",
    "date_modified": "2024-07-15T18:19:25.000",
    "request_status": "Pending",
    "responsible_agency": "Department of Sanitation",
    "final_address": "5314 St Anthony Ave",
    "address_councildis": "D",
    "status": "Assigned to Contractor",
    "contractor": "IV Waste",
    "rowid": "1112676",
    "final_x": "3682090.1876",
    "final_y": "552537.304982",
    "longitude": "-90.06547240069479",
    "latitude": "30.01326795939257",
    "geocoded_column": {
      "latitude": "30.01326795939257",
      "longitude": "-90.06547240069479"
    }
  },
  {
    "service_request": "2024-1112675",
    "request_type": "Property Maintenance",
    "request_reason": "Property Maintenance",
    "date_created": "2024-07-15T18:16:22.000",
    "date_modified": "2024-07-15T18:16:22.000",
    "request_status": "Pending",
    "responsible_agency": "Department of Code Enforcement",
    "final_address": "3900 BLK Third St",
    "address_councildis": "B",
    "status": "Pending",
    "rowid": "1112675",
    "final_x": "3671874.25267",
    "final_y": "529775.152836",
    "longitude": "-90.09852440665789",
    "latitude": "29.950986679903586",
    "geocoded_column": {
      "latitude": "29.950986679903586",
      "longitude": "-90.09852440665789"
    }
  },
  {
    "service_request": "2024-1112674",
    "request_type": "Trash/Recycling",
    "request_reason": "Request a Large Item Pick Up",
    "date_created": "2024-07-15T18:11:33.000",
    "date_modified": "2024-07-15T18:11:34.000",
    "request_status": "Pending",
    "responsible_agency": "Department of Sanitation",
    "final_address": "2821 Laurel St",
    "address_councildis": "B",
    "status": "Assigned to Contractor",
    "contractor": "IV Waste",
    "rowid": "1112674",
    "final_x": "3677254.51336",
    "final_y": "520145.977016",
    "longitude": "-90.0818683055732",
    "latitude": "29.9243490903508",
    "geocoded_column": {
      "latitude": "29.9243490903508",
      "longitude": "-90.0818683055732"
    }
  },
  {
    "service_request": "2024-1112672",
    "request_type": "Trash/Recycling",
    "request_reason": "Repair Trash Cart",
    "date_created": "2024-07-15T18:01:27.000",
    "date_modified": "2024-07-15T18:01:27.000",
    "request_status": "Pending",
    "responsible_agency": "Department of Sanitation",
    "final_address": "1424 Arabella St",
    "address_councildis": "A",
    "status": "Assigned to Contractor",
    "contractor": "IV Waste",
    "rowid": "1112672",
    "final_x": "3666262.52308",
    "final_y": "521122.607737",
    "longitude": "-90.11653361927125",
    "latitude": "29.927360045598025",
    "geocoded_column": {
      "latitude": "29.927360045598025",
      "longitude": "-90.11653361927125"
    }
  },
  {
    "service_request": "2024-1112671",
    "request_type": "Trash/Recycling",
    "request_reason": "Replace Trash Cart",
    "date_created": "2024-07-15T17:52:25.000",
    "date_modified": "2024-07-15T17:52:26.000",
    "request_status": "Pending",
    "responsible_agency": "Department of Sanitation",
    "final_address": "2121 Alvar St",
    "address_councildis": "D",
    "status": "Assigned to Contractor",
    "contractor": "IV Waste",
    "rowid": "1112671",
    "final_x": "3692504.4072",
    "final_y": "539296.023178",
    "longitude": "-90.03304387398722",
    "latitude": "29.976538297992548",
    "geocoded_column": {
      "latitude": "29.976538297992548",
      "longitude": "-90.03304387398722"
    }
  },
  {
    "service_request": "2024-1112670",
    "request_type": "Trash/Recycling",
    "request_reason": "Replace Trash Cart",
    "date_created": "2024-07-15T17:40:35.000",
    "date_modified": "2024-07-15T17:40:36.000",
    "request_status": "Pending",
    "responsible_agency": "Department of Sanitation",
    "final_address": "7003 Pritchard Pl",
    "address_councildis": "B",
    "status": "Assigned to Contractor",
    "contractor": "IV Waste",
    "rowid": "1112670",
    "final_x": "3668009.14785",
    "final_y": "531161.46189",
    "longitude": "-90.11068179816863",
    "latitude": "29.9549125398663",
    "geocoded_column": {
      "latitude": "29.9549125398663",
      "longitude": "-90.11068179816863"
    }
  },
  {
    "service_request": "2024-1112669",
    "request_type": "Trash/Recycling",
    "request_reason": "Request a Large Item Pick Up",
    "date_created": "2024-07-15T17:26:35.000",
    "date_modified": "2024-07-15T17:26:36.000",
    "request_status": "Pending",
    "responsible_agency": "Department of Sanitation",
    "final_address": "2120 Robin St",
    "address_councildis": "D",
    "status": "Assigned to Contractor",
    "contractor": "IV Waste",
    "rowid": "1112669",
    "final_x": "3683157.20341",
    "final_y": "551759.527125",
    "longitude": "-90.06212846362372",
    "latitude": "30.01109684648843",
    "geocoded_column": {
      "latitude": "30.01109684648843",
      "longitude": "-90.06212846362372"
    }
  },
  {
    "service_request": "2024-1112668",
    "request_type": "Abandoned Vehicles",
    "request_reason": "Abandoned/Junk Vehicles",
    "date_created": "2024-07-15T17:25:58.000",
    "date_modified": "2024-07-15T17:25:58.000",
    "request_status": "Pending",
    "responsible_agency": "Department of Public Works",
    "final_address": "3118 Orleans Ave",
    "address_councildis": "A",
    "status": "Pending",
    "rowid": "1112668",
    "final_x": "3675136.15669",
    "final_y": "538174.210377",
    "longitude": "-90.08793669939132",
    "latitude": "29.973984203246843",
    "geocoded_column": {
      "latitude": "29.973984203246843",
      "longitude": "-90.08793669939132"
    }
  },
  {
    "service_request": "2024-1112667",
    "request_type": "Trash/Recycling",
    "request_reason": "Order Recycling Cart",
    "date_created": "2024-07-15T17:22:41.000",
    "date_modified": "2024-07-15T17:22:41.000",
    "request_status": "Pending",
    "responsible_agency": "Department of Sanitation",
    "final_address": "2120 Robin St",
    "address_councildis": "D",
    "status": "Pending",
    "rowid": "1112667",
    "final_x": "3683157.20341",
    "final_y": "551759.527125",
    "longitude": "-90.06212846362372",
    "latitude": "30.01109684648843",
    "geocoded_column": {
      "latitude": "30.01109684648843",
      "longitude": "-90.06212846362372"
    }
  },
  {
    "service_request": "2024-1112666",
    "request_type": "Traffic Signals/Signs/Striping/Streetlights",
    "request_reason": "Street Light Outage/Malfunction",
    "date_created": "2024-07-15T17:04:28.000",
    "date_modified": "2024-07-15T17:04:29.000",
    "request_status": "Pending",
    "responsible_agency": "Department of Public Works",
    "final_address": "CASA CALVO ST & GENERAL MEYER AVE",
    "address_councildis": "C",
    "status": "Assigned to Contractor",
    "contractor": "Legacy Professional Services",
    "rowid": "1112666",
    "final_x": "3692137.1",
    "final_y": "527751.28",
    "longitude": "-90.034617202282",
    "latitude": "29.944805752356547",
    "geocoded_column": {
      "latitude": "29.944805752356547",
      "longitude": "-90.034617202282"
    }
  },
  {
    "service_request": "2024-1112665",
    "request_type": "Abandoned Vehicles",
    "request_reason": "Abandoned/Junk Vehicles",
    "date_created": "2024-07-15T17:00:11.000",
    "date_modified": "2024-07-15T17:01:05.000",
    "request_status": "Pending",
    "responsible_agency": "Department of Public Works",
    "final_address": "1018 Numa St",
    "address_councildis": "C",
    "status": "Pending",
    "rowid": "1112665",
    "final_x": "3691886.04278",
    "final_y": "527591.802879",
    "longitude": "-90.0354155660205",
    "latitude": "29.944375066949636",
    "geocoded_column": {
      "latitude": "29.944375066949636",
      "longitude": "-90.0354155660205"
    }
  },
  {
    "service_request": "2024-1112664",
    "request_type": "Trash/Recycling",
    "request_reason": "Request a Large Item Pick Up",
    "date_created": "2024-07-15T16:58:29.000",
    "date_modified": "2024-07-15T16:58:30.000",
    "request_status": "Pending",
    "responsible_agency": "Department of Sanitation",
    "final_address": "727 Patterson St",
    "address_councildis": "C",
    "status": "Assigned to Contractor",
    "contractor": "Richards Disposal",
    "rowid": "1112664",
    "final_x": "3687821.41635",
    "final_y": "531399.764931",
    "longitude": "-90.048113875933",
    "latitude": "29.954971630520646",
    "geocoded_column": {
      "latitude": "29.954971630520646",
      "longitude": "-90.048113875933"
    }
  },
  {
    "service_request": "2024-1112663",
    "request_type": "Trash/Recycling",
    "request_reason": "Illegal Dumping",
    "date_created": "2024-07-15T16:58:26.000",
    "date_modified": "2024-07-15T16:58:27.000",
    "request_status": "Pending",
    "responsible_agency": "Department of Sanitation",
    "final_address": "7624 Bullard Ave",
    "address_councildis": "E",
    "status": "Pending",
    "rowid": "1112663",
    "final_x": "3712978.40523",
    "final_y": "567451.07306",
    "longitude": "-89.96732133711699",
    "latitude": "30.05329895180492",
    "geocoded_column": {
      "latitude": "30.05329895180492",
      "longitude": "-89.96732133711699"
    }
  },
  {
    "service_request": "2024-1112662",
    "request_type": "Trash/Recycling",
    "request_reason": "Order Recycling Cart",
    "date_created": "2024-07-15T16:54:25.000",
    "date_modified": "2024-07-15T16:54:25.000",
    "request_status": "Pending",
    "responsible_agency": "Department of Sanitation",
    "final_address": "3506 Cleveland Ave",
    "address_councildis": "B",
    "status": "Pending",
    "rowid": "1112662",
    "final_x": "3672533.51764",
    "final_y": "536641.760967",
    "longitude": "-90.09620868954504",
    "latitude": "29.96984801022676",
    "geocoded_column": {
      "latitude": "29.96984801022676",
      "longitude": "-90.09620868954504"
    }
  },
  {
    "service_request": "2024-1112661",
    "request_type": "Property Maintenance",
    "request_reason": "Property Maintenance",
    "date_created": "2024-07-15T16:53:33.000",
    "date_modified": "2024-07-15T16:53:33.000",
    "request_status": "Pending",
    "responsible_agency": "Department of Code Enforcement",
    "final_address": "1913 Tricou St",
    "address_councildis": "E",
    "status": "Pending",
    "rowid": "1112661",
    "final_x": "3701360.48753",
    "final_y": "535994.555783",
    "longitude": "-90.0051947149331",
    "latitude": "29.96718115290895",
    "geocoded_column": {
      "latitude": "29.96718115290895",
      "longitude": "-90.0051947149331"
    }
  },
  {
    "service_request": "2024-1112660",
    "request_type": "Trash/Recycling",
    "request_reason": "Order Trash Cart",
    "date_created": "2024-07-15T16:53:30.000",
    "date_modified": "2024-07-15T16:54:14.000",
    "request_status": "Pending",
    "responsible_agency": "Department of Sanitation",
    "final_address": "3506 Cleveland Ave",
    "address_councildis": "B",
    "status": "Assigned to Contractor",
    "contractor": "IV Waste",
    "rowid": "1112660",
    "final_x": "3672533.51764",
    "final_y": "536641.760967",
    "longitude": "-90.09620868954504",
    "latitude": "29.96984801022676",
    "geocoded_column": {
      "latitude": "29.96984801022676",
      "longitude": "-90.09620868954504"
    }
  },
  {
    "service_request": "2024-1112659",
    "request_type": "Trash/Recycling",
    "request_reason": "Request a Large Item Pick Up",
    "date_created": "2024-07-15T16:50:12.000",
    "date_modified": "2024-07-15T16:50:37.000",
    "request_status": "Pending",
    "responsible_agency": "Department of Sanitation",
    "final_address": "2 Tradewinds Ct",
    "address_councildis": "E",
    "status": "Assigned to Contractor",
    "contractor": "Waste Pro",
    "rowid": "1112659",
    "final_x": "3715701.60786",
    "final_y": "570708.576039",
    "longitude": "-89.9585905789794",
    "latitude": "30.062166194813724",
    "geocoded_column": {
      "latitude": "30.062166194813724",
      "longitude": "-89.9585905789794"
    }
  },
  {
    "service_request": "2024-1112658",
    "request_type": "Parks & Parkways",
    "request_reason": "Request Tree Service (Right of Way/Public Property)",
    "date_created": "2024-07-15T16:49:36.000",
    "date_modified": "2024-07-15T16:49:37.000",
    "request_status": "Pending",
    "responsible_agency": "Department of Parks & Parkway",
    "final_address": "4900 Lancelot Dr",
    "address_councildis": "E",
    "status": "Pending",
    "rowid": "1112658",
    "final_x": "3707280.49937",
    "final_y": "556462.766682",
    "longitude": "-89.98573922751619",
    "latitude": "30.023271004518307",
    "geocoded_column": {
      "latitude": "30.023271004518307",
      "longitude": "-89.98573922751619"
    }
  },
  {
    "service_request": "2024-1112657",
    "request_type": "Trash/Recycling",
    "request_reason": "Request a Large Item Pick Up",
    "date_created": "2024-07-15T16:41:02.000",
    "date_modified": "2024-07-15T16:41:03.000",
    "request_status": "Pending",
    "responsible_agency": "Department of Sanitation",
    "final_address": "7922 Arcadia Ln",
    "address_councildis": "E",
    "status": "Assigned to Contractor",
    "contractor": "Waste Pro",
    "rowid": "1112657",
    "final_x": "3711799.78846",
    "final_y": "567881.948709",
    "longitude": "-89.97103040553964",
    "latitude": "30.054522266104446",
    "geocoded_column": {
      "latitude": "30.054522266104446",
      "longitude": "-89.97103040553964"
    }
  },
  {
    "service_request": "2024-1112656",
    "request_type": "Trash/Recycling",
    "request_reason": "Repair Recycling Cart",
    "date_created": "2024-07-15T16:39:00.000",
    "date_modified": "2024-07-15T16:39:00.000",
    "request_status": "Pending",
    "responsible_agency": "Department of Sanitation",
    "final_address": "5120 Painters St",
    "address_councildis": "D",
    "status": "Pending",
    "rowid": "1112656",
    "final_x": "3686034.2525",
    "final_y": "551678.012053",
    "longitude": "-90.05304161076307",
    "latitude": "30.0107846324741",
    "geocoded_column": {
      "latitude": "30.0107846324741",
      "longitude": "-90.05304161076307"
    }
  },
  {
    "service_request": "2024-1112655",
    "request_type": "Trash/Recycling",
    "request_reason": "Replace Trash Cart",
    "date_created": "2024-07-15T16:37:57.000",
    "date_modified": "2024-07-15T16:37:58.000",
    "request_status": "Pending",
    "responsible_agency": "Department of Sanitation",
    "final_address": "5120 Painters St",
    "address_councildis": "D",
    "status": "Assigned to Contractor",
    "contractor": "IV Waste",
    "rowid": "1112655",
    "final_x": "3686034.2525",
    "final_y": "551678.012053",
    "longitude": "-90.05304161076307",
    "latitude": "30.0107846324741",
    "geocoded_column": {
      "latitude": "30.0107846324741",
      "longitude": "-90.05304161076307"
    }
  },
  {
    "service_request": "2024-1112654",
    "request_type": "Trash/Recycling",
    "request_reason": "Request a Large Item Pick Up",
    "date_created": "2024-07-15T16:37:47.000",
    "date_modified": "2024-07-15T16:37:48.000",
    "request_status": "Pending",
    "responsible_agency": "Department of Sanitation",
    "final_address": "3711 State Street Dr",
    "address_councildis": "A",
    "status": "Assigned to Contractor",
    "contractor": "IV Waste",
    "rowid": "1112654",
    "final_x": "3668049.78561",
    "final_y": "529419.303489",
    "longitude": "-90.11061218088295",
    "latitude": "29.950120981368045",
    "geocoded_column": {
      "latitude": "29.950120981368045",
      "longitude": "-90.11061218088295"
    }
  },
  {
    "service_request": "2024-1112653",
    "request_type": "Trash/Recycling",
    "request_reason": "Order Trash Cart",
    "date_created": "2024-07-15T16:36:36.000",
    "date_modified": "2024-07-15T16:36:37.000",
    "request_status": "Pending",
    "responsible_agency": "Department of Sanitation",
    "final_address": "3711 State Street Dr",
    "address_councildis": "A",
    "status": "Assigned to Contractor",
    "contractor": "IV Waste",
    "rowid": "1112653",
    "final_x": "3668049.78561",
    "final_y": "529419.303489",
    "longitude": "-90.11061218088295",
    "latitude": "29.950120981368045",
    "geocoded_column": {
      "latitude": "29.950120981368045",
      "longitude": "-90.11061218088295"
    }
  },
  {
    "service_request": "2024-1112652",
    "request_type": "Property Maintenance",
    "request_reason": "Property Maintenance",
    "date_created": "2024-07-15T16:33:11.000",
    "date_modified": "2024-07-15T16:33:11.000",
    "request_status": "Pending",
    "responsible_agency": "Department of Code Enforcement",
    "final_address": "8300 Apricot St",
    "address_councildis": "A",
    "status": "Pending",
    "rowid": "1112652",
    "final_x": "3665227.6816",
    "final_y": "533118.568772",
    "longitude": "-90.11939918153084",
    "latitude": "29.96037525944949",
    "geocoded_column": {
      "latitude": "29.96037525944949",
      "longitude": "-90.11939918153084"
    }
  },
  {
    "service_request": "2024-1112651",
    "request_type": "Trash/Recycling",
    "request_reason": "Request a Large Item Pick Up",
    "date_created": "2024-07-15T16:31:29.000",
    "date_modified": "2024-07-15T16:31:30.000",
    "request_status": "Pending",
    "responsible_agency": "Department of Sanitation",
    "final_address": "7001 General Diaz St",
    "address_councildis": "A",
    "status": "Assigned to Contractor",
    "contractor": "IV Waste",
    "rowid": "1112651",
    "final_x": "3670174.20097",
    "final_y": "553985.455384",
    "longitude": "-90.10307156785514",
    "latitude": "30.01760701511324",
    "geocoded_column": {
      "latitude": "30.01760701511324",
      "longitude": "-90.10307156785514"
    }
  },
  {
    "service_request": "2024-1112650",
    "request_type": "Trash/Recycling",
    "request_reason": "Replace Trash Cart",
    "date_created": "2024-07-15T16:29:06.000",
    "date_modified": "2024-07-15T16:29:07.000",
    "request_status": "Pending",
    "responsible_agency": "Department of Sanitation",
    "final_address": "1815 Painters St",
    "address_councildis": "D",
    "status": "Assigned to Contractor",
    "contractor": "IV Waste",
    "rowid": "1112650",
    "final_x": "3687382.76706",
    "final_y": "539226.189642",
    "longitude": "-90.04922201133215",
    "latitude": "29.976505095860176",
    "geocoded_column": {
      "latitude": "29.976505095860176",
      "longitude": "-90.04922201133215"
    }
  },
  {
    "service_request": "2024-1112649",
    "request_type": "Trash/Recycling",
    "request_reason": "Missed Trash Pick-Up",
    "date_created": "2024-07-15T16:23:48.000",
    "date_modified": "2024-07-15T16:58:52.000",
    "case_close_date": "2024-07-15T11:58:52.000",
    "request_status": "Closed",
    "responsible_agency": "Department of Sanitation",
    "final_address": "7432 Spring Lake Dr",
    "address_councildis": "E",
    "status": "Invalid Request",
    "contractor": "Waste Pro",
    "contractor_action": "Invalid",
    "rowid": "1112649",
    "final_x": "3701026.48791",
    "final_y": "559092.073692",
    "longitude": "-90.00540414732905",
    "latitude": "30.030701342756128",
    "geocoded_column": {
      "latitude": "30.030701342756128",
      "longitude": "-90.00540414732905"
    }
  },
  {
    "service_request": "2024-1112648",
    "request_type": "Trash/Recycling",
    "request_reason": "Order Trash Cart",
    "date_created": "2024-07-15T16:23:16.000",
    "date_modified": "2024-07-15T16:23:17.000",
    "request_status": "Pending",
    "responsible_agency": "Department of Sanitation",
    "final_address": "3132 Broadway St",
    "address_councildis": "B",
    "status": "Assigned to Contractor",
    "contractor": "IV Waste",
    "rowid": "1112648",
    "final_x": "3668052.17793",
    "final_y": "532389.077891",
    "longitude": "-90.1105045570084",
    "latitude": "29.958286818101765",
    "geocoded_column": {
      "latitude": "29.958286818101765",
      "longitude": "-90.1105045570084"
    }
  },
  {
    "service_request": "2024-1112647",
    "request_type": "Trash/Recycling",
    "request_reason": "Order Trash Cart",
    "date_created": "2024-07-15T16:23:01.000",
    "date_modified": "2024-07-15T16:23:02.000",
    "request_status": "Pending",
    "responsible_agency": "Department of Sanitation",
    "final_address": "3134 Broadway St",
    "address_councildis": "B",
    "status": "Assigned to Contractor",
    "contractor": "IV Waste",
    "rowid": "1112647",
    "final_x": "3668061.26516",
    "final_y": "532398.363203",
    "longitude": "-90.11047554899744",
    "latitude": "29.958312082993952",
    "geocoded_column": {
      "latitude": "29.958312082993952",
      "longitude": "-90.11047554899744"
    }
  },
  {
    "service_request": "2024-1112646",
    "request_type": "Trash/Recycling",
    "request_reason": "Request a Large Item Pick Up",
    "date_created": "2024-07-15T16:20:12.000",
    "date_modified": "2024-07-15T16:20:13.000",
    "request_status": "Pending",
    "responsible_agency": "Department of Sanitation",
    "final_address": "1823 Joliet St",
    "address_councildis": "A",
    "status": "Assigned to Contractor",
    "contractor": "IV Waste",
    "rowid": "1112646",
    "final_x": "3662485.03283",
    "final_y": "531012.741762",
    "longitude": "-90.12812988802978",
    "latitude": "29.95466452842551",
    "geocoded_column": {
      "latitude": "29.95466452842551",
      "longitude": "-90.12812988802978"
    }
  },
  {
    "service_request": "2024-1112645",
    "request_type": "Property Maintenance",
    "request_reason": "Property Maintenance",
    "date_created": "2024-07-15T16:20:00.000",
    "date_modified": "2024-07-15T16:20:00.000",
    "request_status": "Pending",
    "responsible_agency": "Department of Code Enforcement",
    "final_address": "1452 Calhoun St",
    "address_councildis": "A",
    "status": "Pending",
    "rowid": "1112645",
    "final_x": "3664373.1154",
    "final_y": "522022.965882",
    "longitude": "-90.12246799802597",
    "latitude": "29.92989078151107",
    "geocoded_column": {
      "latitude": "29.92989078151107",
      "longitude": "-90.12246799802597"
    }
  },
  {
    "service_request": "2024-1112644",
    "request_type": "Trash/Recycling",
    "request_reason": "MIssed Recycling Pick-Up",
    "date_created": "2024-07-15T16:18:30.000",
    "date_modified": "2024-07-15T16:18:31.000",
    "request_status": "Pending",
    "responsible_agency": "Department of Sanitation",
    "final_address": "1838 Fats Domino Ave",
    "address_councildis": "E",
    "status": "Assigned to Contractor",
    "contractor": "Waste Pro",
    "rowid": "1112644",
    "final_x": "3698708.52586",
    "final_y": "536692.028295",
    "longitude": "-90.01354421493856",
    "latitude": "29.969183206555748",
    "geocoded_column": {
      "latitude": "29.969183206555748",
      "longitude": "-90.01354421493856"
    }
  },
  {
    "service_request": "2024-1112643",
    "request_type": "Trash/Recycling",
    "request_reason": "Repair Recycling Cart",
    "date_created": "2024-07-15T16:16:57.000",
    "date_modified": "2024-07-15T16:16:57.000",
    "request_status": "Pending",
    "responsible_agency": "Department of Sanitation",
    "final_address": "8500 BLK Zimpel St",
    "address_councildis": "A",
    "status": "Pending",
    "rowid": "1112643",
    "final_x": "3660540.70414",
    "final_y": "529192.512269",
    "longitude": "-90.13432950326533",
    "latitude": "29.949715570272907",
    "geocoded_column": {
      "latitude": "29.949715570272907",
      "longitude": "-90.13432950326533"
    }
  },
  {
    "service_request": "2024-1112642",
    "request_type": "Trash/Recycling",
    "request_reason": "Illegal Dumping",
    "date_created": "2024-07-15T16:16:39.000",
    "date_modified": "2024-07-15T16:16:40.000",
    "request_status": "Pending",
    "responsible_agency": "Department of Sanitation",
    "final_address": "4710 Viola St",
    "address_councildis": "E",
    "status": "Pending",
    "rowid": "1112642",
    "final_x": "3703971.56823",
    "final_y": "555000.132569",
    "longitude": "-89.99624859008414",
    "latitude": "30.019355912612035",
    "geocoded_column": {
      "latitude": "30.019355912612035",
      "longitude": "-89.99624859008414"
    }
  },
  {
    "service_request": "2024-1112641",
    "request_type": "Roads/Drainage",
    "request_reason": "Damaged Sidewalk",
    "date_created": "2024-07-15T16:14:44.000",
    "date_modified": "2024-07-15T17:02:39.000",
    "request_status": "Pending",
    "responsible_agency": "Department of Public Works",
    "final_address": "1300 Perdido St, New Orleans, Louisiana, 70112",
    "address_councildis": "B",
    "rowid": "1112641",
    "final_x": "3678683.48347",
    "final_y": "530227.987073",
    "longitude": "-90.07700859883013",
    "latitude": "29.952028297123956",
    "geocoded_column": {
      "latitude": "29.952028297123956",
      "longitude": "-90.07700859883013"
    }
  },
  {
    "service_request": "2024-1112639",
    "request_type": "Trash/Recycling",
    "request_reason": "Illegal Dumping",
    "date_created": "2024-07-15T16:11:50.000",
    "date_modified": "2024-07-15T16:11:51.000",
    "request_status": "Pending",
    "responsible_agency": "Department of Sanitation",
    "final_address": "ELYSIAN FIELDS AVE & DECATUR ST",
    "address_councildis": "C",
    "status": "Pending",
    "rowid": "1112639",
    "final_x": "3685130.8",
    "final_y": "534150.98",
    "longitude": "-90.0565130101304",
    "latitude": "29.962619234891807",
    "geocoded_column": {
      "latitude": "29.962619234891807",
      "longitude": "-90.0565130101304"
    }
  },
  {
    "service_request": "2024-1112638",
    "request_type": "Roads/Drainage",
    "request_reason": "Pothole",
    "date_created": "2024-07-15T16:07:37.000",
    "date_modified": "2024-07-15T16:07:38.000",
    "request_status": "Pending",
    "responsible_agency": "Department of Public Works",
    "final_address": "3900 Mcfarland St",
    "address_councildis": "D",
    "status": "Pending",
    "rowid": "1112638",
    "final_x": "3689370.97807",
    "final_y": "547702.808018",
    "longitude": "-90.04264109398466",
    "latitude": "29.99975134016928",
    "geocoded_column": {
      "latitude": "29.99975134016928",
      "longitude": "-90.04264109398466"
    }
  },
  {
    "service_request": "2024-1112637",
    "request_type": "Traffic Signals/Signs/Striping/Streetlights",
    "request_reason": "Street Light Outage/Malfunction",
    "date_created": "2024-07-15T16:05:28.000",
    "date_modified": "2024-07-15T16:05:29.000",
    "request_status": "Pending",
    "responsible_agency": "Department of Public Works",
    "final_address": "3907 Iroquois St",
    "address_councildis": "D",
    "status": "Assigned to Contractor",
    "contractor": "Legacy Professional Services",
    "rowid": "1112637",
    "final_x": "3689212.431",
    "final_y": "547604.82549",
    "longitude": "-90.04314543435125",
    "latitude": "29.999486833446753",
    "geocoded_column": {
      "latitude": "29.999486833446753",
      "longitude": "-90.04314543435125"
    }
  },
  {
    "service_request": "2024-1112636",
    "request_type": "Property Maintenance",
    "request_reason": "Property Maintenance",
    "date_created": "2024-07-15T16:00:46.000",
    "date_modified": "2024-07-15T16:00:57.000",
    "request_status": "Pending",
    "responsible_agency": "Department of Code Enforcement",
    "final_address": "3033 Metropolitan St",
    "address_councildis": "D",
    "status": "Pending",
    "rowid": "1112636",
    "final_x": "3691278.83344",
    "final_y": "543713.984142",
    "longitude": "-90.0367567081898",
    "latitude": "29.988724293018482",
    "geocoded_column": {
      "latitude": "29.988724293018482",
      "longitude": "-90.0367567081898"
    }
  },
  {
    "service_request": "2024-1112635",
    "request_type": "Traffic Signals/Signs/Striping/Streetlights",
    "request_reason": "Street Light Outage/Malfunction",
    "date_created": "2024-07-15T16:00:23.000",
    "date_modified": "2024-07-15T16:00:24.000",
    "request_status": "Pending",
    "responsible_agency": "Department of Public Works",
    "final_address": "5472 Patio Way",
    "address_councildis": "E",
    "status": "Assigned to Contractor",
    "contractor": "Legacy Professional Services",
    "rowid": "1112635",
    "final_x": "3725691.8487",
    "final_y": "563801.719777",
    "longitude": "-89.9272796169541",
    "latitude": "30.042841883666714",
    "geocoded_column": {
      "latitude": "30.042841883666714",
      "longitude": "-89.9272796169541"
    }
  },
  {
    "service_request": "2024-1112634",
    "request_type": "Property Maintenance",
    "request_reason": "Property Maintenance",
    "date_created": "2024-07-15T15:59:49.000",
    "date_modified": "2024-07-15T15:59:50.000",
    "request_status": "Pending",
    "responsible_agency": "Department of Code Enforcement",
    "final_address": "3021 Metropolitan St",
    "address_councildis": "D",
    "status": "Pending",
    "rowid": "1112634",
    "final_x": "3691257.4248",
    "final_y": "543630.041934",
    "longitude": "-90.03682733134362",
    "latitude": "29.988494148291316",
    "geocoded_column": {
      "latitude": "29.988494148291316",
      "longitude": "-90.03682733134362"
    }
  },
  {
    "service_request": "2024-1112633",
    "request_type": "Traffic Signals/Signs/Striping/Streetlights",
    "request_reason": "Street Light Outage/Malfunction",
    "date_created": "2024-07-15T15:59:20.000",
    "date_modified": "2024-07-15T15:59:21.000",
    "request_status": "Pending",
    "responsible_agency": "Department of Public Works",
    "final_address": "5484 Patio Way",
    "address_councildis": "E",
    "status": "Assigned to Contractor",
    "contractor": "Legacy Professional Services",
    "rowid": "1112633",
    "final_x": "3725538.29753",
    "final_y": "563701.718753",
    "longitude": "-89.92776877057882",
    "latitude": "30.042572102288656",
    "geocoded_column": {
      "latitude": "30.042572102288656",
      "longitude": "-89.92776877057882"
    }
  },
  {
    "service_request": "2024-1112632",
    "request_type": "Trash/Recycling",
    "request_reason": "Repair Recycling Cart",
    "date_created": "2024-07-15T15:58:56.000",
    "date_modified": "2024-07-15T15:58:57.000",
    "request_status": "Pending",
    "responsible_agency": "Department of Sanitation",
    "final_address": "644 N Pierce St",
    "address_councildis": "A",
    "status": "Pending",
    "rowid": "1112632",
    "final_x": "3672861.62728",
    "final_y": "539713.813898",
    "longitude": "-90.09506764243277",
    "latitude": "29.978285369062704",
    "geocoded_column": {
      "latitude": "29.978285369062704",
      "longitude": "-90.09506764243277"
    }
  },
  {
    "service_request": "2024-1112631",
    "request_type": "Trash/Recycling",
    "request_reason": "Request a Large Item Pick Up",
    "date_created": "2024-07-15T15:58:16.000",
    "date_modified": "2024-07-15T16:15:00.000",
    "request_status": "Pending",
    "responsible_agency": "Department of Sanitation",
    "final_address": "3622 Monroe St, New Orleans, Louisiana, 70118",
    "address_councildis": "A",
    "status": "Assigned to Contractor",
    "contractor": "IV Waste",
    "rowid": "1112631",
    "final_x": "3666242.98874",
    "final_y": "536305.213895",
    "longitude": "-90.1160861393137",
    "latitude": "29.969107865874843",
    "geocoded_column": {
      "latitude": "29.969107865874843",
      "longitude": "-90.1160861393137"
    }
  },
  {
    "service_request": "2024-1112630",
    "request_type": "Roads/Drainage",
    "request_reason": "Pothole",
    "date_created": "2024-07-15T15:56:31.000",
    "date_modified": "2024-07-15T15:56:31.000",
    "request_status": "Pending",
    "responsible_agency": "Department of Public Works",
    "final_address": "4216 Chestnut St",
    "address_councildis": "B",
    "status": "Pending",
    "rowid": "1112630",
    "final_x": "3671574.31393",
    "final_y": "519539.203703",
    "longitude": "-90.09981939416457",
    "latitude": "29.922850019854593",
    "geocoded_column": {
      "latitude": "29.922850019854593",
      "longitude": "-90.09981939416457"
    }
  },
  {
    "service_request": "2024-1112629",
    "request_type": "Roads/Drainage",
    "request_reason": "Pothole",
    "date_created": "2024-07-15T15:55:38.000",
    "date_modified": "2024-07-15T15:55:38.000",
    "request_status": "Pending",
    "responsible_agency": "Department of Public Works",
    "final_address": "1112 Constantinople St",
    "address_councildis": "B",
    "status": "Pending",
    "rowid": "1112629",
    "final_x": "3672348.95259",
    "final_y": "519796.384952",
    "longitude": "-90.09736540233975",
    "latitude": "29.923534233550217",
    "geocoded_column": {
      "latitude": "29.923534233550217",
      "longitude": "-90.09736540233975"
    }
  },
  {
    "service_request": "2024-1112628",
    "request_type": "Property Maintenance",
    "request_reason": "Property Maintenance",
    "date_created": "2024-07-15T15:54:29.000",
    "date_modified": "2024-07-15T15:54:29.000",
    "request_status": "Pending",
    "responsible_agency": "Department of Code Enforcement",
    "final_address": "5184 Metropolitan Dr",
    "address_councildis": "D",
    "status": "Pending",
    "rowid": "1112628",
    "final_x": "3690229.19241",
    "final_y": "552664.976534",
    "longitude": "-90.03975300075561",
    "latitude": "30.013368872906554",
    "geocoded_column": {
      "latitude": "30.013368872906554",
      "longitude": "-90.03975300075561"
    }
  },
  {
    "service_request": "2024-1112627",
    "request_type": "Trash/Recycling",
    "request_reason": "Request a Large Item Pick Up",
    "date_created": "2024-07-15T15:54:24.000",
    "date_modified": "2024-07-15T15:54:25.000",
    "request_status": "Pending",
    "responsible_agency": "Department of Sanitation",
    "final_address": "7817 S Claiborne Ave",
    "address_councildis": "A",
    "status": "Assigned to Contractor",
    "contractor": "IV Waste",
    "rowid": "1112627",
    "final_x": "3665648.23808",
    "final_y": "530940.122114",
    "longitude": "-90.11814409964533",
    "latitude": "29.954372985254373",
    "geocoded_column": {
      "latitude": "29.954372985254373",
      "longitude": "-90.11814409964533"
    }
  },
  {
    "service_request": "2024-1112626",
    "request_type": "Roads/Drainage",
    "request_reason": "Pothole",
    "date_created": "2024-07-15T15:53:13.000",
    "date_modified": "2024-07-15T15:53:13.000",
    "request_status": "Pending",
    "responsible_agency": "Department of Public Works",
    "final_address": "6228 Music St",
    "address_councildis": "D",
    "status": "Pending",
    "rowid": "1112626",
    "final_x": "3685182.96073",
    "final_y": "556118.738522",
    "longitude": "-90.05557471654629",
    "latitude": "30.023021125700893",
    "geocoded_column": {
      "latitude": "30.023021125700893",
      "longitude": "-90.05557471654629"
    }
  },
  {
    "service_request": "2024-1112625",
    "request_type": "Trash/Recycling",
    "request_reason": "Request a Large Item Pick Up",
    "date_created": "2024-07-15T15:50:23.000",
    "date_modified": "2024-07-15T15:50:24.000",
    "request_status": "Pending",
    "responsible_agency": "Department of Sanitation",
    "final_address": "2422 Lark St",
    "address_councildis": "D",
    "status": "Assigned to Contractor",
    "contractor": "IV Waste",
    "rowid": "1112625",
    "final_x": "3684835.087",
    "final_y": "557846.080027",
    "longitude": "-90.05661310403092",
    "latitude": "30.027781336340333",
    "geocoded_column": {
      "latitude": "30.027781336340333",
      "longitude": "-90.05661310403092"
    }
  },
  {
    "service_request": "2024-1112624",
    "request_type": "Trash/Recycling",
    "request_reason": "Request a Large Item Pick Up",
    "date_created": "2024-07-15T15:48:18.000",
    "date_modified": "2024-07-15T15:48:19.000",
    "request_status": "Pending",
    "responsible_agency": "Department of Sanitation",
    "final_address": "7661 Jonlee Dr",
    "address_councildis": "E",
    "status": "Assigned to Contractor",
    "contractor": "Waste Pro",
    "rowid": "1112624",
    "final_x": "3716996.91205",
    "final_y": "570808.271143",
    "longitude": "-89.95449235515908",
    "latitude": "30.062397520594082",
    "geocoded_column": {
      "latitude": "30.062397520594082",
      "longitude": "-89.95449235515908"
    }
  },
  {
    "service_request": "2024-1112623",
    "request_type": "Roads/Drainage",
    "request_reason": "Damaged Sidewalk",
    "date_created": "2024-07-15T15:46:28.000",
    "date_modified": "2024-07-15T15:51:45.000",
    "request_status": "Pending",
    "responsible_agency": "Department of Public Works",
    "final_address": "20 N Blue Ridge Ct",
    "address_councildis": "E",
    "status": "Pending",
    "rowid": "1112623",
    "final_x": "3713859.75743",
    "final_y": "567584.19786",
    "longitude": "-89.96453061818929",
    "latitude": "30.05363607087028",
    "geocoded_column": {
      "latitude": "30.05363607087028",
      "longitude": "-89.96453061818929"
    }
  },
  {
    "service_request": "2024-1112622",
    "request_type": "Abandoned Vehicles",
    "request_reason": "Abandoned/Junk Vehicles",
    "date_created": "2024-07-15T15:44:04.000",
    "date_modified": "2024-07-15T15:44:04.000",
    "request_status": "Pending",
    "responsible_agency": "Department of Public Works",
    "final_address": "736 Ninth St",
    "address_councildis": "B",
    "status": "Pending",
    "rowid": "1112622",
    "final_x": "3676494.82318",
    "final_y": "519015.712759",
    "longitude": "-90.08430527866327",
    "latitude": "29.921264021266214",
    "geocoded_column": {
      "latitude": "29.921264021266214",
      "longitude": "-90.08430527866327"
    }
  },
  {
    "service_request": "2024-1112621",
    "request_type": "Trash/Recycling",
    "request_reason": "Request a Large Item Pick Up",
    "date_created": "2024-07-15T15:42:50.000",
    "date_modified": "2024-07-15T15:42:51.000",
    "request_status": "Pending",
    "responsible_agency": "Department of Sanitation",
    "final_address": "10727 Vienna St",
    "address_councildis": "E",
    "status": "Assigned to Contractor",
    "contractor": "Waste Pro",
    "rowid": "1112621",
    "final_x": "3715144.86399",
    "final_y": "558110.054683",
    "longitude": "-89.96082745517508",
    "latitude": "30.027543732238538",
    "geocoded_column": {
      "latitude": "30.027543732238538",
      "longitude": "-89.96082745517508"
    }
  },
  {
    "service_request": "2024-1112620",
    "request_type": "Trash/Recycling",
    "request_reason": "Request a Large Item Pick Up",
    "date_created": "2024-07-15T15:40:54.000",
    "date_modified": "2024-07-15T15:40:55.000",
    "request_status": "Pending",
    "responsible_agency": "Department of Sanitation",
    "final_address": "4727 Knight Dr",
    "address_councildis": "E",
    "status": "Assigned to Contractor",
    "contractor": "Waste Pro",
    "rowid": "1112620",
    "final_x": "3708218.30097",
    "final_y": "555449.852441",
    "longitude": "-89.98281372523091",
    "latitude": "30.020455525222484",
    "geocoded_column": {
      "latitude": "30.020455525222484",
      "longitude": "-89.98281372523091"
    }
  },
  {
    "service_request": "2024-1112619",
    "request_type": "Trash/Recycling",
    "request_reason": "Request a Large Item Pick Up",
    "date_created": "2024-07-15T15:40:52.000",
    "date_modified": "2024-07-15T15:40:53.000",
    "request_status": "Pending",
    "responsible_agency": "Department of Sanitation",
    "final_address": "7817 Ebbtide Dr",
    "address_councildis": "E",
    "status": "Assigned to Contractor",
    "contractor": "Waste Pro",
    "rowid": "1112619",
    "final_x": "3702068.33418",
    "final_y": "562015.759583",
    "longitude": "-90.00200456965834",
    "latitude": "30.038707099061597",
    "geocoded_column": {
      "latitude": "30.038707099061597",
      "longitude": "-90.00200456965834"
    }
  },
  {
    "service_request": "2024-1112618",
    "request_type": "Trash/Recycling",
    "request_reason": "Request a Large Item Pick Up",
    "date_created": "2024-07-15T15:39:12.000",
    "date_modified": "2024-07-15T15:39:13.000",
    "request_status": "Pending",
    "responsible_agency": "Department of Sanitation",
    "final_address": "7813 Arcadia Ln",
    "address_councildis": "E",
    "status": "Assigned to Contractor",
    "contractor": "Waste Pro",
    "rowid": "1112618",
    "final_x": "3712041.68216",
    "final_y": "567634.819748",
    "longitude": "-89.97027513351395",
    "latitude": "30.05383485235425",
    "geocoded_column": {
      "latitude": "30.05383485235425",
      "longitude": "-89.97027513351395"
    }
  },
  {
    "service_request": "2024-1112617",
    "request_type": "Roads/Drainage",
    "request_reason": "Pothole",
    "date_created": "2024-07-15T15:38:54.000",
    "date_modified": "2024-07-15T15:38:54.000",
    "request_status": "Pending",
    "responsible_agency": "Department of Public Works",
    "final_address": "1400 BLK Valence St",
    "address_councildis": "B",
    "status": "Pending",
    "rowid": "1112617",
    "final_x": "3669784.65285",
    "final_y": "520336.257015",
    "longitude": "-90.1054417057675",
    "latitude": "29.925094517046503",
    "geocoded_column": {
      "latitude": "29.925094517046503",
      "longitude": "-90.1054417057675"
    }
  },
  {
    "service_request": "2024-1112616",
    "request_type": "Trash/Recycling",
    "request_reason": "Request a Large Item Pick Up",
    "date_created": "2024-07-15T15:38:31.000",
    "date_modified": "2024-07-15T15:38:31.000",
    "request_status": "Pending",
    "responsible_agency": "Department of Sanitation",
    "final_address": "705 Patterson St",
    "address_councildis": "C",
    "status": "Assigned to Contractor",
    "contractor": "Richards Disposal",
    "rowid": "1112616",
    "final_x": "3687673.99535",
    "final_y": "531408.048899",
    "longitude": "-90.04857908142694",
    "latitude": "29.954998954409437",
    "geocoded_column": {
      "latitude": "29.954998954409437",
      "longitude": "-90.04857908142694"
    }
  },
  {
    "service_request": "2024-1112615",
    "request_type": "Trash/Recycling",
    "request_reason": "Replace Trash Cart",
    "date_created": "2024-07-15T15:38:12.000",
    "date_modified": "2024-07-15T15:38:12.000",
    "request_status": "Pending",
    "responsible_agency": "Department of Sanitation",
    "final_address": "615 3rd St, New Orleans, Louisiana, 70130",
    "status": "Assigned to Contractor",
    "rowid": "1112615",
    "longitude": "0.0",
    "latitude": "0.0",
    "geocoded_column": {
      "latitude": "0.0",
      "longitude": "0.0"
    }
  },
  {
    "service_request": "2024-1112614",
    "request_type": "Trash/Recycling",
    "request_reason": "Request a Large Item Pick Up",
    "date_created": "2024-07-15T15:37:02.000",
    "date_modified": "2024-07-15T15:37:43.000",
    "request_status": "Pending",
    "responsible_agency": "Department of Sanitation",
    "final_address": "4928 Eastern St",
    "address_councildis": "D",
    "status": "Assigned to Contractor",
    "contractor": "IV Waste",
    "rowid": "1112614",
    "final_x": "3687922.25219",
    "final_y": "551276.793877",
    "longitude": "-90.04709092805672",
    "latitude": "30.009623289923745",
    "geocoded_column": {
      "latitude": "30.009623289923745",
      "longitude": "-90.04709092805672"
    }
  },
  {
    "service_request": "2024-1112613",
    "request_type": "Trash/Recycling",
    "request_reason": "Request a Large Item Pick Up",
    "date_created": "2024-07-15T15:32:51.000",
    "date_modified": "2024-07-15T15:32:52.000",
    "request_status": "Pending",
    "responsible_agency": "Department of Sanitation",
    "final_address": "207 Brunswick Ct",
    "address_councildis": "C",
    "status": "Assigned to Contractor",
    "contractor": "Richards Disposal",
    "rowid": "1112613",
    "final_x": "3706255.78423",
    "final_y": "516968.225269",
    "longitude": "-89.99043963198636",
    "latitude": "29.914708572089257",
    "geocoded_column": {
      "latitude": "29.914708572089257",
      "longitude": "-89.99043963198636"
    }
  },
  {
    "service_request": "2024-1112612",
    "request_type": "Trash/Recycling",
    "request_reason": "Request a Large Item Pick Up",
    "date_created": "2024-07-15T15:32:17.000",
    "date_modified": "2024-07-15T15:32:18.000",
    "request_status": "Pending",
    "responsible_agency": "Department of Sanitation",
    "final_address": "12021 E Barrington Dr",
    "address_councildis": "E",
    "status": "Assigned to Contractor",
    "contractor": "Waste Pro",
    "rowid": "1112612",
    "final_x": "3714694.86821",
    "final_y": "566127.617571",
    "longitude": "-89.96194617379786",
    "latitude": "30.049603613661116",
    "geocoded_column": {
      "latitude": "30.049603613661116",
      "longitude": "-89.96194617379786"
    }
  },
  {
    "service_request": "2024-1112611",
    "request_type": "Trash/Recycling",
    "request_reason": "Request a Large Item Pick Up",
    "date_created": "2024-07-15T15:31:52.000",
    "date_modified": "2024-07-15T15:31:53.000",
    "request_status": "Pending",
    "responsible_agency": "Department of Sanitation",
    "final_address": "6210 Waldo Dr",
    "address_councildis": "D",
    "status": "Assigned to Contractor",
    "contractor": "IV Waste",
    "rowid": "1112611",
    "final_x": "3681039.90607",
    "final_y": "555719.717337",
    "longitude": "-90.06867975754429",
    "latitude": "30.02205034692412",
    "geocoded_column": {
      "latitude": "30.02205034692412",
      "longitude": "-90.06867975754429"
    }
  },
  {
    "service_request": "2024-1112610",
    "request_type": "Roads/Drainage",
    "request_reason": "Damaged Sidewalk",
    "date_created": "2024-07-15T15:27:28.000",
    "date_modified": "2024-07-15T15:27:28.000",
    "request_status": "Pending",
    "responsible_agency": "Department of Public Works",
    "final_address": "5200 BLK Danneel St",
    "address_councildis": "B",
    "status": "Pending",
    "rowid": "1112610",
    "final_x": "3668060.05328",
    "final_y": "522163.577836",
    "longitude": "-90.11082418753892",
    "latitude": "29.93016977275902",
    "geocoded_column": {
      "latitude": "29.93016977275902",
      "longitude": "-90.11082418753892"
    }
  },
  {
    "service_request": "2024-1112609",
    "request_type": "Trash/Recycling",
    "request_reason": "Request a Large Item Pick Up",
    "date_created": "2024-07-15T15:26:23.000",
    "date_modified": "2024-07-15T15:26:25.000",
    "request_status": "Pending",
    "responsible_agency": "Department of Sanitation",
    "final_address": "7301 Edward St",
    "address_councildis": "E",
    "status": "Assigned to Contractor",
    "contractor": "Waste Pro",
    "rowid": "1112609",
    "final_x": "3701471.24055",
    "final_y": "559947.994717",
    "longitude": "-90.00396734997452",
    "latitude": "30.033040613632416",
    "geocoded_column": {
      "latitude": "30.033040613632416",
      "longitude": "-90.00396734997452"
    }
  },
  {
    "service_request": "2024-1112608",
    "request_type": "Trash/Recycling",
    "request_reason": "Request a Large Item Pick Up",
    "date_created": "2024-07-15T15:25:40.000",
    "date_modified": "2024-07-15T15:25:40.000",
    "request_status": "Pending",
    "responsible_agency": "Department of Sanitation",
    "final_address": "4745 Sierra Madre Dr",
    "address_councildis": "E",
    "status": "Assigned to Contractor",
    "contractor": "Waste Pro",
    "rowid": "1112608",
    "final_x": "3713965.30802",
    "final_y": "556490.594714",
    "longitude": "-89.96461584540114",
    "latitude": "30.02312965539914",
    "geocoded_column": {
      "latitude": "30.02312965539914",
      "longitude": "-89.96461584540114"
    }
  },
  {
    "service_request": "2024-1112607",
    "request_type": "Parks & Parkways",
    "request_reason": "Request Tree Service (Right of Way/Public Property)",
    "date_created": "2024-07-15T15:25:30.000",
    "date_modified": "2024-07-15T15:25:31.000",
    "request_status": "Pending",
    "responsible_agency": "Department of Parks & Parkway",
    "final_address": "3530 Banks St",
    "address_councildis": "B",
    "status": "Pending",
    "rowid": "1112607",
    "final_x": "3671876.7874",
    "final_y": "536147.551047",
    "longitude": "-90.09829953253508",
    "latitude": "29.968508579314914",
    "geocoded_column": {
      "latitude": "29.968508579314914",
      "longitude": "-90.09829953253508"
    }
  },
  {
    "service_request": "2024-1112606",
    "request_type": "Property Maintenance",
    "request_reason": "Property Maintenance",
    "date_created": "2024-07-15T15:25:15.000",
    "date_modified": "2024-07-15T15:25:15.000",
    "request_status": "Pending",
    "responsible_agency": "Department of Code Enforcement",
    "final_address": "4422 America St",
    "address_councildis": "E",
    "status": "Pending",
    "rowid": "1112606",
    "final_x": "3699827.78832",
    "final_y": "553312.188183",
    "longitude": "-90.00940307184027",
    "latitude": "30.014847011386752",
    "geocoded_column": {
      "latitude": "30.014847011386752",
      "longitude": "-90.00940307184027"
    }
  },
  {
    "service_request": "2024-1112605",
    "request_type": "Trash/Recycling",
    "request_reason": "Request a Large Item Pick Up",
    "date_created": "2024-07-15T15:23:16.000",
    "date_modified": "2024-07-15T15:23:17.000",
    "request_status": "Pending",
    "responsible_agency": "Department of Sanitation",
    "final_address": "7621 Branch Dr",
    "address_councildis": "E",
    "status": "Assigned to Contractor",
    "contractor": "Waste Pro",
    "rowid": "1112605",
    "final_x": "3714835.61624",
    "final_y": "568618.914405",
    "longitude": "-89.96140705135957",
    "latitude": "30.056449027031057",
    "geocoded_column": {
      "latitude": "30.056449027031057",
      "longitude": "-89.96140705135957"
    }
  },
  {
    "service_request": "2024-1112604",
    "request_type": "Trash/Recycling",
    "request_reason": "Order Trash Cart",
    "date_created": "2024-07-15T15:18:40.000",
    "date_modified": "2024-07-15T15:18:41.000",
    "request_status": "Pending",
    "responsible_agency": "Department of Sanitation",
    "final_address": "11000 Roger Dr Apt D",
    "address_councildis": "E",
    "status": "Assigned to Contractor",
    "contractor": "Waste Pro",
    "rowid": "1112604",
    "final_x": "3712227.30686",
    "final_y": "563361.950112",
    "longitude": "-89.9698491325431",
    "latitude": "30.042080117965675",
    "geocoded_column": {
      "latitude": "30.042080117965675",
      "longitude": "-89.9698491325431"
    }
  },
  {
    "service_request": "2024-1112603",
    "request_type": "Trash/Recycling",
    "request_reason": "Request a Large Item Pick Up",
    "date_created": "2024-07-15T15:16:56.000",
    "date_modified": "2024-07-15T15:16:57.000",
    "request_status": "Pending",
    "responsible_agency": "Department of Sanitation",
    "final_address": "4731 Friar Tuck Dr",
    "address_councildis": "E",
    "status": "Assigned to Contractor",
    "contractor": "Waste Pro",
    "rowid": "1112603",
    "final_x": "3717839.37343",
    "final_y": "556888.33385",
    "longitude": "-89.9523596493084",
    "latitude": "30.024095468501276",
    "geocoded_column": {
      "latitude": "30.024095468501276",
      "longitude": "-89.9523596493084"
    }
  },
  {
    "service_request": "2024-1112602",
    "request_type": "Parks & Parkways",
    "request_reason": "Request Grass Cutting Service (City Owned Property)",
    "date_created": "2024-07-15T15:16:04.000",
    "date_modified": "2024-07-15T15:16:05.000",
    "request_status": "Pending",
    "responsible_agency": "Department of Parks & Parkway",
    "final_address": "BEHRMAN AVE & MARDI GRAS BLVD",
    "address_councildis": "C",
    "status": "Pending",
    "rowid": "1112602",
    "final_x": "3691880.9",
    "final_y": "522616.78",
    "longitude": "-90.03560969944105",
    "latitude": "29.930695611369778",
    "geocoded_column": {
      "latitude": "29.930695611369778",
      "longitude": "-90.03560969944105"
    }
  },
  {
    "service_request": "2024-1112601",
    "request_type": "Trash/Recycling",
    "request_reason": "Illegal Dumping",
    "date_created": "2024-07-15T15:15:41.000",
    "date_modified": "2024-07-15T15:15:42.000",
    "request_status": "Pending",
    "responsible_agency": "Department of Sanitation",
    "final_address": "BEHRMAN HWY & OREGON ST",
    "address_councildis": "C",
    "status": "Pending",
    "rowid": "1112601",
    "final_x": "3695041.0",
    "final_y": "518669.38",
    "longitude": "-90.0257759699675",
    "latitude": "29.919742812749877",
    "geocoded_column": {
      "latitude": "29.919742812749877",
      "longitude": "-90.0257759699675"
    }
  },
  {
    "service_request": "2024-1112600",
    "request_type": "Property Maintenance",
    "request_reason": "Property Maintenance",
    "date_created": "2024-07-15T15:14:22.000",
    "date_modified": "2024-07-15T15:14:22.000",
    "request_status": "Pending",
    "responsible_agency": "Department of Code Enforcement",
    "final_address": "4422 America St",
    "address_councildis": "E",
    "status": "Pending",
    "rowid": "1112600",
    "final_x": "3699827.78832",
    "final_y": "553312.188183",
    "longitude": "-90.00940307184027",
    "latitude": "30.014847011386752",
    "geocoded_column": {
      "latitude": "30.014847011386752",
      "longitude": "-90.00940307184027"
    }
  },
  {
    "service_request": "2024-1112599",
    "request_type": "Trash/Recycling",
    "request_reason": "Request a Large Item Pick Up",
    "date_created": "2024-07-15T15:14:03.000",
    "date_modified": "2024-07-15T15:14:04.000",
    "request_status": "Pending",
    "responsible_agency": "Department of Sanitation",
    "final_address": "4531 Cartier Ave",
    "address_councildis": "D",
    "status": "Assigned to Contractor",
    "contractor": "IV Waste",
    "rowid": "1112599",
    "final_x": "3677997.67656",
    "final_y": "549278.736595",
    "longitude": "-90.07851531220835",
    "latitude": "30.004431939965134",
    "geocoded_column": {
      "latitude": "30.004431939965134",
      "longitude": "-90.07851531220835"
    }
  },
  {
    "service_request": "2024-1112598",
    "request_type": "Trash/Recycling",
    "request_reason": "Illegal Dumping",
    "date_created": "2024-07-15T15:12:44.000",
    "date_modified": "2024-07-15T15:12:53.000",
    "request_status": "Pending",
    "responsible_agency": "Department of Sanitation",
    "final_address": "AMAZON ST & FLORENCE AVE",
    "address_councildis": "C",
    "status": "Pending",
    "rowid": "1112598",
    "final_x": "3692873.1",
    "final_y": "521848.88",
    "longitude": "-90.03250500106685",
    "latitude": "29.928553210954156",
    "geocoded_column": {
      "latitude": "29.928553210954156",
      "longitude": "-90.03250500106685"
    }
  },
  {
    "service_request": "2024-1112597",
    "request_type": "Property Maintenance",
    "request_reason": "Property Maintenance",
    "date_created": "2024-07-15T15:12:18.000",
    "date_modified": "2024-07-15T15:12:18.000",
    "request_status": "Pending",
    "responsible_agency": "Department of Code Enforcement",
    "final_address": "1408 Socrates St",
    "address_councildis": "C",
    "status": "Pending",
    "rowid": "1112597",
    "final_x": "3689777.26377",
    "final_y": "526406.956158",
    "longitude": "-90.04211572249396",
    "latitude": "29.941182654455613",
    "geocoded_column": {
      "latitude": "29.941182654455613",
      "longitude": "-90.04211572249396"
    }
  },
  {
    "service_request": "2024-1112596",
    "request_type": "Trash/Recycling",
    "request_reason": "Replace Trash Cart",
    "date_created": "2024-07-15T15:11:53.000",
    "date_modified": "2024-07-15T15:11:59.000",
    "request_status": "Pending",
    "responsible_agency": "Department of Sanitation",
    "final_address": "2800 First St",
    "address_councildis": "B",
    "status": "Assigned to Contractor",
    "contractor": "IV Waste",
    "rowid": "1112596",
    "final_x": "3674553.69147",
    "final_y": "526776.638142",
    "longitude": "-90.09016679400392",
    "latitude": "29.94266208591444",
    "geocoded_column": {
      "latitude": "29.94266208591444",
      "longitude": "-90.09016679400392"
    }
  },
  {
    "service_request": "2024-1112595",
    "request_type": "Roads/Drainage",
    "request_reason": "Street Subsidence (Sinking)",
    "date_created": "2024-07-15T15:08:31.000",
    "date_modified": "2024-07-15T15:08:32.000",
    "request_status": "Pending",
    "responsible_agency": "Department of Public Works",
    "final_address": "4231 America St",
    "address_councildis": "E",
    "status": "Pending",
    "rowid": "1112595",
    "final_x": "3700036.83972",
    "final_y": "552309.362966",
    "longitude": "-90.00877920036596",
    "latitude": "30.012082978512716",
    "geocoded_column": {
      "latitude": "30.012082978512716",
      "longitude": "-90.00877920036596"
    }
  },
  {
    "service_request": "2024-1112594",
    "request_type": "Trash/Recycling",
    "request_reason": "Order Trash Cart",
    "date_created": "2024-07-15T15:06:03.000",
    "date_modified": "2024-07-15T15:06:04.000",
    "request_status": "Pending",
    "responsible_agency": "Department of Sanitation",
    "final_address": "2212 Toledano St",
    "address_councildis": "B",
    "status": "Assigned to Contractor",
    "contractor": "IV Waste",
    "rowid": "1112594",
    "final_x": "3673604.69729",
    "final_y": "523768.078139",
    "longitude": "-90.09326579417323",
    "latitude": "29.934417803703134",
    "geocoded_column": {
      "latitude": "29.934417803703134",
      "longitude": "-90.09326579417323"
    }
  },
  {
    "service_request": "2024-1112593",
    "request_type": "Trash/Recycling",
    "request_reason": "Repair Recycling Cart",
    "date_created": "2024-07-15T14:59:19.000",
    "date_modified": "2024-07-15T14:59:20.000",
    "request_status": "Pending",
    "responsible_agency": "Department of Sanitation",
    "final_address": "6934 Memphis St",
    "address_councildis": "A",
    "status": "Pending",
    "rowid": "1112593",
    "final_x": "3669671.39521",
    "final_y": "553583.053783",
    "longitude": "-90.10467387397537",
    "latitude": "30.016515387731246",
    "geocoded_column": {
      "latitude": "30.016515387731246",
      "longitude": "-90.10467387397537"
    }
  },
  {
    "service_request": "2024-1112592",
    "request_type": "Trash/Recycling",
    "request_reason": "Request a Large Item Pick Up",
    "date_created": "2024-07-15T14:59:09.000",
    "date_modified": "2024-07-15T14:59:11.000",
    "request_status": "Pending",
    "responsible_agency": "Department of Sanitation",
    "final_address": "409 30Th St",
    "address_councildis": "A",
    "status": "Assigned to Contractor",
    "contractor": "IV Waste",
    "rowid": "1112592",
    "final_x": "3664791.35943",
    "final_y": "550613.399316",
    "longitude": "-90.12019210332303",
    "latitude": "30.00849285241174",
    "geocoded_column": {
      "latitude": "30.00849285241174",
      "longitude": "-90.12019210332303"
    }
  },
  {
    "service_request": "2024-1112591",
    "request_type": "Trash/Recycling",
    "request_reason": "Illegal Dumping",
    "date_created": "2024-07-15T14:58:41.000",
    "date_modified": "2024-07-15T14:58:42.000",
    "request_status": "Pending",
    "responsible_agency": "Department of Sanitation",
    "final_address": "4107 Leonidas St",
    "address_councildis": "A",
    "status": "Pending",
    "rowid": "1112591",
    "final_x": "3667664.90356",
    "final_y": "537220.569672",
    "longitude": "-90.11156479323427",
    "latitude": "29.971583178056704",
    "geocoded_column": {
      "latitude": "29.971583178056704",
      "longitude": "-90.11156479323427"
    }
  },
  {
    "service_request": "2024-1112590",
    "request_type": "Trash/Recycling",
    "request_reason": "Order Recycling Cart",
    "date_created": "2024-07-15T14:58:31.000",
    "date_modified": "2024-07-15T14:58:32.000",
    "request_status": "Pending",
    "responsible_agency": "Department of Sanitation",
    "final_address": "409 30Th St",
    "address_councildis": "A",
    "status": "Pending",
    "rowid": "1112590",
    "final_x": "3664791.35943",
    "final_y": "550613.399316",
    "longitude": "-90.12019210332303",
    "latitude": "30.00849285241174",
    "geocoded_column": {
      "latitude": "30.00849285241174",
      "longitude": "-90.12019210332303"
    }
  },
  {
    "service_request": "2024-1112589",
    "request_type": "Traffic Signals/Signs/Striping/Streetlights",
    "request_reason": "Traffic Signal Malfunctioning/Damaged",
    "date_created": "2024-07-15T14:57:51.000",
    "date_modified": "2024-07-15T15:11:21.000",
    "case_close_date": "2024-07-15T10:11:21.000",
    "request_status": "Closed",
    "responsible_agency": "Department of Public Works",
    "final_address": "ST JOSEPH ST & ST CHARLES AVE",
    "address_councildis": "B",
    "status": "Duplicate Request",
    "rowid": "1112589",
    "final_x": "3680257.4",
    "final_y": "527469.18",
    "longitude": "-90.0721347914181",
    "latitude": "29.94439495844611",
    "geocoded_column": {
      "latitude": "29.94439495844611",
      "longitude": "-90.0721347914181"
    }
  },
  {
    "service_request": "2024-1112588",
    "request_type": "Trash/Recycling",
    "request_reason": "Request a Large Item Pick Up",
    "date_created": "2024-07-15T14:55:49.000",
    "date_modified": "2024-07-15T14:55:50.000",
    "request_status": "Pending",
    "responsible_agency": "Department of Sanitation",
    "final_address": "1329 Pacific Ave",
    "address_councildis": "C",
    "status": "Assigned to Contractor",
    "contractor": "Richards Disposal",
    "rowid": "1112588",
    "final_x": "3688308.61884",
    "final_y": "526550.687422",
    "longitude": "-90.0467474011326",
    "latitude": "29.941623291269842",
    "geocoded_column": {
      "latitude": "29.941623291269842",
      "longitude": "-90.0467474011326"
    }
  },
  {
    "service_request": "2024-1112587",
    "request_type": "Trash/Recycling",
    "request_reason": "Replace Trash Cart",
    "date_created": "2024-07-15T14:55:16.000",
    "date_modified": "2024-07-15T14:55:16.000",
    "request_status": "Pending",
    "responsible_agency": "Department of Sanitation",
    "final_address": "417 39Th St",
    "address_councildis": "A",
    "status": "Assigned to Contractor",
    "contractor": "IV Waste",
    "rowid": "1112587",
    "final_x": "3664893.80397",
    "final_y": "553098.250007",
    "longitude": "-90.1197853038416",
    "latitude": "30.015322343338134",
    "geocoded_column": {
      "latitude": "30.015322343338134",
      "longitude": "-90.1197853038416"
    }
  },
  {
    "service_request": "2024-1112586",
    "request_type": "Trash/Recycling",
    "request_reason": "Request a Large Item Pick Up",
    "date_created": "2024-07-15T14:54:14.000",
    "date_modified": "2024-07-15T14:54:15.000",
    "request_status": "Pending",
    "responsible_agency": "Department of Sanitation",
    "final_address": "7321 Devine Ave",
    "address_councildis": "E",
    "status": "Assigned to Contractor",
    "contractor": "Waste Pro",
    "rowid": "1112586",
    "final_x": "3706127.67767",
    "final_y": "562366.162847",
    "longitude": "-89.98916304566346",
    "latitude": "30.03954025968023",
    "geocoded_column": {
      "latitude": "30.03954025968023",
      "longitude": "-89.98916304566346"
    }
  },
  {
    "service_request": "2024-1112585",
    "request_type": "Safety & Permits",
    "request_reason": "Licenses & Permits",
    "date_created": "2024-07-15T14:52:59.000",
    "date_modified": "2024-07-15T14:53:00.000",
    "request_status": "Pending",
    "responsible_agency": "Safety and Permits",
    "final_address": "4419 Cleveland Ave",
    "address_councildis": "A",
    "status": "Pending",
    "rowid": "1112585",
    "final_x": "3669577.28942",
    "final_y": "539013.37409",
    "longitude": "-90.10546450360424",
    "latitude": "29.976456579838718",
    "geocoded_column": {
      "latitude": "29.976456579838718",
      "longitude": "-90.10546450360424"
    }
  },
  {
    "service_request": "2024-1112584",
    "request_type": "Traffic Signals/Signs/Striping/Streetlights",
    "request_reason": "Traffic Signal Malfunctioning/Damaged",
    "date_created": "2024-07-15T14:52:12.000",
    "date_modified": "2024-07-15T14:52:12.000",
    "request_status": "Pending",
    "responsible_agency": "Department of Public Works",
    "final_address": "ST JOSEPH ST & ST CHARLES AVE",
    "address_councildis": "B",
    "status": "Pending",
    "rowid": "1112584",
    "final_x": "3680257.4",
    "final_y": "527469.18",
    "longitude": "-90.0721347914181",
    "latitude": "29.94439495844611",
    "geocoded_column": {
      "latitude": "29.94439495844611",
      "longitude": "-90.0721347914181"
    }
  },
  {
    "service_request": "2024-1112583",
    "request_type": "Traffic Signals/Signs/Striping/Streetlights",
    "request_reason": "Street Light Outage/Malfunction",
    "date_created": "2024-07-15T14:50:39.000",
    "date_modified": "2024-07-15T14:50:40.000",
    "request_status": "Pending",
    "responsible_agency": "Department of Public Works",
    "final_address": "4870 Kendall Dr",
    "address_councildis": "D",
    "status": "Assigned to Contractor",
    "contractor": "Legacy Professional Services",
    "rowid": "1112583",
    "final_x": "3690268.3935",
    "final_y": "551330.810901",
    "longitude": "-90.03967673674775",
    "latitude": "30.00969919320597",
    "geocoded_column": {
      "latitude": "30.00969919320597",
      "longitude": "-90.03967673674775"
    }
  },
  {
    "service_request": "2024-1112582",
    "request_type": "Trash/Recycling",
    "request_reason": "Order Recycling Cart",
    "date_created": "2024-07-15T14:49:17.000",
    "date_modified": "2024-07-15T14:49:18.000",
    "request_status": "Pending",
    "responsible_agency": "Department of Sanitation",
    "final_address": "5101 Desire Dr",
    "address_councildis": "D",
    "status": "Pending",
    "rowid": "1112582",
    "final_x": "3691564.27792",
    "final_y": "552578.323222",
    "longitude": "-90.03553795216554",
    "latitude": "30.013089097663705",
    "geocoded_column": {
      "latitude": "30.013089097663705",
      "longitude": "-90.03553795216554"
    }
  },
  {
    "service_request": "2024-1112581",
    "request_type": "Roads/Drainage",
    "request_reason": "Damaged Sidewalk",
    "date_created": "2024-07-15T14:47:15.000",
    "date_modified": "2024-07-15T14:47:15.000",
    "request_status": "Pending",
    "responsible_agency": "Department of Public Works",
    "final_address": "9735 W Rockton Cir",
    "address_councildis": "E",
    "status": "Reviewed",
    "rowid": "1112581",
    "final_x": "3708063.46084",
    "final_y": "562572.282016",
    "longitude": "-89.98303776653346",
    "latitude": "30.04004442389093",
    "geocoded_column": {
      "latitude": "30.04004442389093",
      "longitude": "-89.98303776653346"
    }
  },
  {
    "service_request": "2024-1112580",
    "request_type": "Traffic Signals/Signs/Striping/Streetlights",
    "request_reason": "Street Light Knocked Down/Leaning",
    "date_created": "2024-07-15T14:44:47.000",
    "date_modified": "2024-07-15T14:44:48.000",
    "request_status": "Pending",
    "responsible_agency": "Department of Public Works",
    "final_address": "344 Camp St",
    "address_councildis": "B",
    "status": "Pending",
    "contractor": "Legacy Professional Services",
    "rowid": "1112580",
    "final_x": "3681226.95074",
    "final_y": "529538.247873",
    "longitude": "-90.06900155988403",
    "latitude": "29.95005482152158",
    "geocoded_column": {
      "latitude": "29.95005482152158",
      "longitude": "-90.06900155988403"
    }
  },
  {
    "service_request": "2024-1112579",
    "request_type": "Roads/Drainage",
    "request_reason": "Pothole",
    "date_created": "2024-07-15T14:42:22.000",
    "date_modified": "2024-07-15T14:42:22.000",
    "request_status": "Pending",
    "responsible_agency": "Department of Public Works",
    "final_address": "1521 Webster St",
    "address_councildis": "A",
    "status": "Pending",
    "rowid": "1112579",
    "final_x": "3665172.71917",
    "final_y": "522143.293626",
    "longitude": "-90.11993975188861",
    "latitude": "29.93019838632039",
    "geocoded_column": {
      "latitude": "29.93019838632039",
      "longitude": "-90.11993975188861"
    }
  },
  {
    "service_request": "2024-1112578",
    "request_type": "Trash/Recycling",
    "request_reason": "Illegal Dumping",
    "date_created": "2024-07-15T14:42:13.000",
    "date_modified": "2024-07-15T14:42:13.000",
    "request_status": "Pending",
    "responsible_agency": "Department of Sanitation",
    "final_address": "1928 Louisiana Ave",
    "address_councildis": "B",
    "status": "Pending",
    "rowid": "1112578",
    "final_x": "3673620.15662",
    "final_y": "522732.557498",
    "longitude": "-90.09325236923375",
    "latitude": "29.931569997553193",
    "geocoded_column": {
      "latitude": "29.931569997553193",
      "longitude": "-90.09325236923375"
    }
  },
  {
    "service_request": "2024-1112577",
    "request_type": "Abandoned Vehicles",
    "request_reason": "Abandoned/Junk Vehicles",
    "date_created": "2024-07-15T14:41:54.000",
    "date_modified": "2024-07-15T14:45:02.000",
    "request_status": "Pending",
    "responsible_agency": "Department of Public Works",
    "final_address": "1030 Elysian Fields Ave",
    "address_councildis": "C",
    "status": "Pending",
    "rowid": "1112577",
    "final_x": "3684922.52277",
    "final_y": "536204.889543",
    "longitude": "-90.05709847985933",
    "latitude": "29.968273155767726",
    "geocoded_column": {
      "latitude": "29.968273155767726",
      "longitude": "-90.05709847985933"
    }
  },
  {
    "service_request": "2024-1112576",
    "request_type": "Trash/Recycling",
    "request_reason": "Request a Large Item Pick Up",
    "date_created": "2024-07-15T14:40:27.000",
    "date_modified": "2024-07-15T14:40:28.000",
    "request_status": "Pending",
    "responsible_agency": "Department of Sanitation",
    "final_address": "910 Tricou St",
    "address_councildis": "E",
    "status": "Assigned to Contractor",
    "contractor": "Waste Pro",
    "rowid": "1112576",
    "final_x": "3699840.74212",
    "final_y": "532411.464323",
    "longitude": "-90.01012472458167",
    "latitude": "29.957377280480095",
    "geocoded_column": {
      "latitude": "29.957377280480095",
      "longitude": "-90.01012472458167"
    }
  },
  {
    "service_request": "2024-1112575",
    "request_type": "Roads/Drainage",
    "request_reason": "Pothole",
    "date_created": "2024-07-15T14:39:13.000",
    "date_modified": "2024-07-15T14:39:13.000",
    "request_status": "Pending",
    "responsible_agency": "Department of Public Works",
    "final_address": "221 Pine St",
    "address_councildis": "A",
    "status": "Pending",
    "rowid": "1112575",
    "final_x": "3661368.07686",
    "final_y": "522800.751099",
    "longitude": "-90.1319286996388",
    "latitude": "29.932116422859572",
    "geocoded_column": {
      "latitude": "29.932116422859572",
      "longitude": "-90.1319286996388"
    }
  },
  {
    "service_request": "2024-1112574",
    "request_type": "Traffic Signals/Signs/Striping/Streetlights",
    "request_reason": "Street Light Outage/Malfunction",
    "date_created": "2024-07-15T14:38:57.000",
    "date_modified": "2024-07-15T14:38:58.000",
    "request_status": "Pending",
    "responsible_agency": "Department of Public Works",
    "final_address": "7336 Brevard Ave",
    "address_councildis": "E",
    "status": "Assigned to Contractor",
    "contractor": "Legacy Professional Services",
    "rowid": "1112574",
    "final_x": "3706671.57572",
    "final_y": "562797.65392",
    "longitude": "-89.9874281613835",
    "latitude": "30.040709134255188",
    "geocoded_column": {
      "latitude": "30.040709134255188",
      "longitude": "-89.9874281613835"
    }
  },
  {
    "service_request": "2024-1112573",
    "request_type": "Trash/Recycling",
    "request_reason": "Missed Trash Pick-Up",
    "date_created": "2024-07-15T14:35:19.000",
    "date_modified": "2024-07-15T15:12:11.000",
    "case_close_date": "2024-07-15T10:12:11.000",
    "request_status": "Closed",
    "responsible_agency": "Department of Sanitation",
    "final_address": "1914 St Philip St",
    "address_councildis": "D",
    "status": "Invalid Request",
    "contractor": "IV Waste",
    "contractor_action": "Invalid Request",
    "rowid": "1112573",
    "final_x": "3679732.99061",
    "final_y": "535989.960711",
    "longitude": "-90.07349471231794",
    "latitude": "29.9678400872975",
    "geocoded_column": {
      "latitude": "29.9678400872975",
      "longitude": "-90.07349471231794"
    }
  },
  {
    "service_request": "2024-1112572",
    "request_type": "Trash/Recycling",
    "request_reason": "Return Trash Cart",
    "date_created": "2024-07-15T14:33:45.000",
    "date_modified": "2024-07-15T14:33:46.000",
    "request_status": "Pending",
    "responsible_agency": "Department of Sanitation",
    "final_address": "814 Moss St",
    "address_councildis": "A",
    "status": "Assigned to Contractor",
    "contractor": "IV Waste",
    "rowid": "1112572",
    "final_x": "3674617.06587",
    "final_y": "539148.45729",
    "longitude": "-90.08954270810737",
    "latitude": "29.97667855303477",
    "geocoded_column": {
      "latitude": "29.97667855303477",
      "longitude": "-90.08954270810737"
    }
  },
  {
    "service_request": "2024-1112571",
    "request_type": "Trash/Recycling",
    "request_reason": "Request a Large Item Pick Up",
    "date_created": "2024-07-15T14:33:06.000",
    "date_modified": "2024-07-15T14:33:07.000",
    "request_status": "Pending",
    "responsible_agency": "Department of Sanitation",
    "final_address": "732 Pleasant St",
    "address_councildis": "B",
    "status": "Assigned to Contractor",
    "contractor": "IV Waste",
    "rowid": "1112571",
    "final_x": "3676109.51797",
    "final_y": "518719.079095",
    "longitude": "-90.08553171431812",
    "latitude": "29.92045991727176",
    "geocoded_column": {
      "latitude": "29.92045991727176",
      "longitude": "-90.08553171431812"
    }
  },
  {
    "service_request": "2024-1112570",
    "request_type": "Trash/Recycling",
    "request_reason": "Illegal Dumping",
    "date_created": "2024-07-15T14:32:41.000",
    "date_modified": "2024-07-15T14:32:42.000",
    "request_status": "Pending",
    "responsible_agency": "Department of Sanitation",
    "final_address": "11211 Woodvine Ln",
    "address_councildis": "E",
    "status": "Pending",
    "rowid": "1112570",
    "final_x": "3716310.526",
    "final_y": "559768.970589",
    "longitude": "-89.9570811372223",
    "latitude": "30.03206664381339",
    "geocoded_column": {
      "latitude": "30.03206664381339",
      "longitude": "-89.9570811372223"
    }
  },
  {
    "service_request": "2024-1112569",
    "request_type": "Trash/Recycling",
    "request_reason": "Replace Trash Cart",
    "date_created": "2024-07-15T14:31:29.000",
    "date_modified": "2024-07-15T14:31:30.000",
    "request_status": "Pending",
    "responsible_agency": "Department of Sanitation",
    "final_address": "2800 Kabel Dr",
    "address_councildis": "C",
    "status": "Assigned to Contractor",
    "contractor": "Richards Disposal",
    "rowid": "1112569",
    "final_x": "3700773.06775",
    "final_y": "520865.974393",
    "longitude": "-90.00760254667757",
    "latitude": "29.925601591062037",
    "geocoded_column": {
      "latitude": "29.925601591062037",
      "longitude": "-90.00760254667757"
    }
  },
  {
    "service_request": "2024-1112568",
    "request_type": "Trash/Recycling",
    "request_reason": "Request a Large Item Pick Up",
    "date_created": "2024-07-15T14:29:31.000",
    "date_modified": "2024-07-15T14:29:32.000",
    "request_status": "Pending",
    "responsible_agency": "Department of Sanitation",
    "final_address": "7737 Haney Dr",
    "address_councildis": "E",
    "status": "Assigned to Contractor",
    "contractor": "Waste Pro",
    "rowid": "1112568",
    "final_x": "3712349.39032",
    "final_y": "567724.654244",
    "longitude": "-89.96929917359496",
    "latitude": "30.054071792302",
    "geocoded_column": {
      "latitude": "30.054071792302",
      "longitude": "-89.96929917359496"
    }
  },
  {
    "service_request": "2024-1112567",
    "request_type": "Trash/Recycling",
    "request_reason": "Missed Trash Pick-Up",
    "date_created": "2024-07-15T14:28:28.000",
    "date_modified": "2024-07-15T14:28:29.000",
    "request_status": "Pending",
    "responsible_agency": "Department of Sanitation",
    "final_address": "2750 Sage St",
    "address_councildis": "D",
    "status": "Assigned to Contractor",
    "contractor": "IV Waste",
    "rowid": "1112567",
    "final_x": "3688345.66927",
    "final_y": "545540.435152",
    "longitude": "-90.04595682526092",
    "latitude": "29.99383731272557",
    "geocoded_column": {
      "latitude": "29.99383731272557",
      "longitude": "-90.04595682526092"
    }
  },
  {
    "service_request": "2024-1112566",
    "request_type": "Trash/Recycling",
    "request_reason": "Replace Recycling Cart",
    "date_created": "2024-07-15T14:24:31.000",
    "date_modified": "2024-07-15T14:24:31.000",
    "request_status": "Pending",
    "responsible_agency": "Department of Sanitation",
    "final_address": "5605 Tchoupitoulas St",
    "address_councildis": "A",
    "status": "Pending",
    "rowid": "1112566",
    "final_x": "3665672.99687",
    "final_y": "517185.019253",
    "longitude": "-90.11852639501134",
    "latitude": "29.91655011337705",
    "geocoded_column": {
      "latitude": "29.91655011337705",
      "longitude": "-90.11852639501134"
    }
  },
  {
    "service_request": "2024-1112565",
    "request_type": "Roads/Drainage",
    "request_reason": "Catch Basin - Clogged",
    "date_created": "2024-07-15T14:24:26.000",
    "date_modified": "2024-07-15T14:24:26.000",
    "request_status": "Pending",
    "responsible_agency": "Department of Public Works",
    "final_address": "916 Jourdan Ave",
    "address_councildis": "E",
    "status": "Pending",
    "rowid": "1112565",
    "final_x": "3694783.21629",
    "final_y": "533885.764613",
    "longitude": "-90.02604168083347",
    "latitude": "29.961590709144318",
    "geocoded_column": {
      "latitude": "29.961590709144318",
      "longitude": "-90.02604168083347"
    }
  },