[
  {
    "service_request": "2026-1280126",
    "request_type": "Trash/Recycling",
    "request_reason": "Order Recycling Cart",
    "date_created": "2026-05-09T23:00:42.000",
    "date_modified": "2026-05-09T23:00:43.000",
    "request_status": "Pending",
    "responsible_agency": "Department of Sanitation",
    "final_address": "5207 N Robertson St",
    "address_councildis": "E",
    "status": "Pending",
    "rowid": "1280126",
    "final_x": "3697053.78877",
    "final_y": "535660.883654",
    "longitude": "-90.01880732490967",
    "latitude": "29.966400230042886",
    "geocoded_column": {
      "latitude": "29.966400230042886",
      "longitude": "-90.01880732490967"
    }
  },
  {
    "service_request": "2026-1280125",
    "request_type": "Trash/Recycling",
    "request_reason": "Order Recycling Cart",
    "date_created": "2026-05-09T23:00:41.000",
    "date_modified": "2026-05-09T23:00:43.000",
    "request_status": "Pending",
    "responsible_agency": "Department of Sanitation",
    "final_address": "5207 N Robertson St",
    "address_councildis": "E",
    "status": "Pending",
    "rowid": "1280125",
    "final_x": "3697053.78877",
    "final_y": "535660.883654",
    "longitude": "-90.01880732490967",
    "latitude": "29.966400230042886",
    "geocoded_column": {
      "latitude": "29.966400230042886",
      "longitude": "-90.01880732490967"
    }
  },
  {
    "service_request": "2026-1280124",
    "request_type": "Trash/Recycling",
    "request_reason": "Return Trash Cart",
    "date_created": "2026-05-09T22:37:17.000",
    "date_modified": "2026-05-09T22:37:19.000",
    "request_status": "Pending",
    "responsible_agency": "Department of Sanitation",
    "final_address": "2131 S Liberty St",
    "address_councildis": "B",
    "status": "Assigned to Contractor",
    "contractor": "IV Waste",
    "rowid": "1280124",
    "final_x": "3676078.14625",
    "final_y": "525892.279933",
    "longitude": "-90.08538413856623",
    "latitude": "29.940184826119726",
    "geocoded_column": {
      "latitude": "29.940184826119726",
      "longitude": "-90.08538413856623"
    }
  },
  {
    "service_request": "2026-1280123",
    "request_type": "Health Related Request",
    "request_reason": "Noise Ordinance Complaint",
    "date_created": "2026-05-09T22:19:59.000",
    "date_modified": "2026-05-09T22:20:01.000",
    "request_status": "Pending",
    "responsible_agency": "Health Department",
    "final_address": "800 Bourbon St, New Orleans, Louisiana, 70116",
    "address_councildis": "C",
    "status": "Pending",
    "rowid": "1280123",
    "final_x": "3682553.51528",
    "final_y": "533013.631428",
    "longitude": "-90.06469148499534",
    "latitude": "29.95957063099051",
    "geocoded_column": {
      "latitude": "29.95957063099051",
      "longitude": "-90.06469148499534"
    }
  },
  {
    "service_request": "2026-1280122",
    "request_type": "Streetlights",
    "request_reason": "Streetlight Outage/Malfunction",
    "date_created": "2026-05-09T22:18:47.000",
    "date_modified": "2026-05-09T22:18:49.000",
    "request_status": "Pending",
    "responsible_agency": "Department of Public Works",
    "final_address": "7400 Onyx St",
    "address_councildis": "D",
    "status": "Pending",
    "rowid": "1280122",
    "final_x": "3668850.50279",
    "final_y": "556044.055257",
    "longitude": "-90.10718434358414",
    "latitude": "30.02330644538243",
    "geocoded_column": {
      "latitude": "30.02330644538243",
      "longitude": "-90.10718434358414"
    }
  },
  {
    "service_request": "2026-1280121",
    "request_type": "Trash/Recycling",
    "request_reason": "MIssed Recycling Pick-Up",
    "date_created": "2026-05-09T21:25:23.000",
    "date_modified": "2026-05-09T21:25:25.000",
    "request_status": "Pending",
    "responsible_agency": "Department of Sanitation",
    "final_address": "72 Marywood Ct",
    "address_councildis": "E",
    "status": "Assigned to Contractor",
    "contractor": "Waste Pro",
    "rowid": "1280121",
    "final_x": "3712369.76171",
    "final_y": "566606.117155",
    "longitude": "-89.96927687224266",
    "latitude": "30.05099560386508",
    "geocoded_column": {
      "latitude": "30.05099560386508",
      "longitude": "-89.96927687224266"
    }
  },
  {
    "service_request": "2026-1280120",
    "request_type": "Trash/Recycling",
    "request_reason": "Order Recycling Cart",
    "date_created": "2026-05-09T21:08:20.000",
    "date_modified": "2026-05-09T21:08:21.000",
    "request_status": "Pending",
    "responsible_agency": "Department of Sanitation",
    "final_address": "3410 Octavia St",
    "address_councildis": "B",
    "status": "Pending",
    "rowid": "1280120",
    "final_x": "3668434.20308",
    "final_y": "528118.250367",
    "longitude": "-90.10944226906062",
    "latitude": "29.94653222389129",
    "geocoded_column": {
      "latitude": "29.94653222389129",
      "longitude": "-90.10944226906062"
    }
  },
  {
    "service_request": "2026-1280119",
    "request_type": "Property Maintenance",
    "request_reason": "Property Maintenance",
    "date_created": "2026-05-09T20:49:37.000",
    "date_modified": "2026-05-09T20:49:38.000",
    "request_status": "Pending",
    "responsible_agency": "Department of Code Enforcement",
    "final_address": "5700 E Louis Prima Dr",
    "address_councildis": "E",
    "status": "Pending",
    "rowid": "1280119",
    "final_x": "3716335.15768",
    "final_y": "561893.531743",
    "longitude": "-89.95692265359399",
    "latitude": "30.03790751799672",
    "geocoded_column": {
      "latitude": "30.03790751799672",
      "longitude": "-89.95692265359399"
    }
  },
  {
    "service_request": "2026-1280118",
    "request_type": "Drainage",
    "request_reason": "Catch Basin Frame and Cover Missing or Damaged",
    "date_created": "2026-05-09T20:46:22.000",
    "date_modified": "2026-05-09T20:46:24.000",
    "request_status": "Pending",
    "responsible_agency": "Sewerage & Water Board",
    "final_address": "11110 Lake Forest Blvd",
    "address_councildis": "E",
    "status": "Pending",
    "rowid": "1280118",
    "final_x": "3715747.04415",
    "final_y": "560729.799262",
    "longitude": "-89.9588253336553",
    "latitude": "30.03472713407765",
    "geocoded_column": {
      "latitude": "30.03472713407765",
      "longitude": "-89.9588253336553"
    }
  },
  {
    "service_request": "2026-1280117",
    "request_type": "Tree Service",
    "request_reason": "Street or Sidewalk Blocked",
    "date_created": "2026-05-09T18:51:02.000",
    "date_modified": "2026-05-09T18:51:03.000",
    "request_status": "Pending",
    "responsible_agency": "Department of Parks & Parkways",
    "final_address": "7701 Newcastle St",
    "address_councildis": "E",
    "status": "Pending",
    "rowid": "1280117",
    "final_x": "3697212.9137",
    "final_y": "559630.878813",
    "longitude": "-90.01743550256003",
    "latitude": "30.032303820954798",
    "geocoded_column": {
      "latitude": "30.032303820954798",
      "longitude": "-90.01743550256003"
    }
  },
  {
    "service_request": "2026-1280116",
    "request_type": "Trash/Recycling",
    "request_reason": "Request a Large Item Pick Up",
    "date_created": "2026-05-09T18:45:37.000",
    "date_modified": "2026-05-09T18:45:39.000",
    "request_status": "Pending",
    "responsible_agency": "Department of Sanitation",
    "final_address": "517 S Scott St",
    "address_councildis": "B",
    "status": "Assigned to Contractor",
    "contractor": "IV Waste",
    "rowid": "1280116",
    "final_x": "3670682.44059",
    "final_y": "536449.778119",
    "longitude": "-90.1020610950129",
    "latitude": "29.96937494515967",
    "geocoded_column": {
      "latitude": "29.96937494515967",
      "longitude": "-90.1020610950129"
    }
  },
  {
    "service_request": "2026-1280115",
    "request_type": "Mosquito, Termite & Rodent Control",
    "request_reason": "Mosquito Complaint",
    "date_created": "2026-05-09T18:25:45.000",
    "date_modified": "2026-05-09T18:25:47.000",
    "request_status": "Pending",
    "responsible_agency": "Mosquito, Termite & Rodent Control Board",
    "final_address": "416 Ptolemy St",
    "address_councildis": "C",
    "status": "Pending",
    "rowid": "1280115",
    "final_x": "3686863.38716",
    "final_y": "526079.92435",
    "longitude": "-90.05132690657088",
    "latitude": "29.94037339313308",
    "geocoded_column": {
      "latitude": "29.94037339313308",
      "longitude": "-90.05132690657088"
    }
  },
  {
    "service_request": "2026-1280114",
    "request_type": "Drainage",
    "request_reason": "Catch Basin Not Draining",
    "date_created": "2026-05-09T17:55:22.000",
    "date_modified": "2026-05-09T17:55:24.000",
    "request_status": "Pending",
    "responsible_agency": "Sewerage & Water Board",
    "final_address": "5139 Pratt Dr",
    "address_councildis": "D",
    "status": "Pending",
    "rowid": "1280114",
    "final_x": "3680553.99195",
    "final_y": "551437.130453",
    "longitude": "-90.07036427400666",
    "latitude": "30.010289525312842",
    "geocoded_column": {
      "latitude": "30.010289525312842",
      "longitude": "-90.07036427400666"
    }
  },
  {
    "service_request": "2026-1280113",
    "request_type": "Streetlights",
    "request_reason": "Streetlight Outage/Malfunction",
    "date_created": "2026-05-09T17:46:35.000",
    "date_modified": "2026-05-09T17:46:37.000",
    "request_status": "Pending",
    "responsible_agency": "Department of Public Works",
    "final_address": "GENERAL DE GAULLE DR & WOODLAND DR",
    "address_councildis": "C",
    "status": "Pending",
    "rowid": "1280113",
    "final_x": "3705348.1",
    "final_y": "514982.18",
    "longitude": "-89.99337788359405",
    "latitude": "29.909276849557717",
    "geocoded_column": {
      "latitude": "29.909276849557717",
      "longitude": "-89.99337788359405"
    }
  },
  {
    "service_request": "2026-1280112",
    "request_type": "Roads and Streets",
    "request_reason": "Pothole",
    "date_created": "2026-05-09T17:30:21.000",
    "date_modified": "2026-05-09T17:30:24.000",
    "request_status": "Pending",
    "responsible_agency": "Department of Public Works",
    "final_address": "2400 BLK Selma St",
    "address_councildis": "D",
    "status": "Pending",
    "rowid": "1280112",
    "final_x": "3685404.25908",
    "final_y": "551473.648809",
    "longitude": "-90.05503920507081",
    "latitude": "30.010242048190065",
    "geocoded_column": {
      "latitude": "30.010242048190065",
      "longitude": "-90.05503920507081"
    }
  },
  {
    "service_request": "2026-1280111",
    "request_type": "Roads and Streets",
    "request_reason": "Pothole",
    "date_created": "2026-05-09T17:22:38.000",
    "date_modified": "2026-05-09T17:22:40.000",
    "request_status": "Pending",
    "responsible_agency": "Department of Public Works",
    "final_address": "2480 Dreux Ave",
    "address_councildis": "D",
    "status": "Pending",
    "rowid": "1280111",
    "final_x": "3685968.65308",
    "final_y": "552098.058006",
    "longitude": "-90.0532340386648",
    "latitude": "30.011941620521377",
    "geocoded_column": {
      "latitude": "30.011941620521377",
      "longitude": "-90.0532340386648"
    }
  },
  {
    "service_request": "2026-1280110",
    "request_type": "Utility Poles",
    "request_reason": "Wires Sagging/Hanging Low",
    "date_created": "2026-05-09T16:37:32.000",
    "date_modified": "2026-05-09T16:37:34.000",
    "request_status": "Pending",
    "responsible_agency": "Utility Company Collective",
    "final_address": "3025 Laurel St",
    "address_councildis": "B",
    "status": "Pending",
    "rowid": "1280110",
    "final_x": "3676575.44123",
    "final_y": "519667.637624",
    "longitude": "-90.08402836645416",
    "latitude": "29.92305418767449",
    "geocoded_column": {
      "latitude": "29.92305418767449",
      "longitude": "-90.08402836645416"
    }
  },
  {
    "service_request": "2026-1280109",
    "request_type": "Trash/Recycling",
    "request_reason": "Request a Large Item Pick Up",
    "date_created": "2026-05-09T16:34:06.000",
    "date_modified": "2026-05-09T16:34:08.000",
    "request_status": "Pending",
    "responsible_agency": "Department of Sanitation",
    "final_address": "5306 Douglass St",
    "address_councildis": "E",
    "status": "Assigned to Contractor",
    "contractor": "Waste Pro",
    "rowid": "1280109",
    "final_x": "3696297.5969",
    "final_y": "531849.416579",
    "longitude": "-90.02133317455446",
    "latitude": "29.955943876424367",
    "geocoded_column": {
      "latitude": "29.955943876424367",
      "longitude": "-90.02133317455446"
    }
  },
  {
    "service_request": "2026-1280108",
    "request_type": "Roads and Streets",
    "request_reason": "Sidewalk Damaged or Missing",
    "date_created": "2026-05-09T16:14:57.000",
    "date_modified": "2026-05-09T16:15:00.000",
    "request_status": "Pending",
    "responsible_agency": "Department of Public Works",
    "final_address": "7518 Plum St",
    "address_councildis": "A",
    "status": "Pending",
    "rowid": "1280108",
    "final_x": "3663745.60698",
    "final_y": "527183.541311",
    "longitude": "-90.12427704584896",
    "latitude": "29.944098943523088",
    "geocoded_column": {
      "latitude": "29.944098943523088",
      "longitude": "-90.12427704584896"
    }
  },
  {
    "service_request": "2026-1280107",
    "request_type": "Tree Service",
    "request_reason": "Tree Trim",
    "date_created": "2026-05-09T16:07:34.000",
    "date_modified": "2026-05-09T16:07:35.000",
    "request_status": "Pending",
    "responsible_agency": "Department of Parks & Parkways",
    "final_address": "1491 Mithra St",
    "address_councildis": "D",
    "status": "Pending",
    "rowid": "1280107",
    "final_x": "3678354.18869",
    "final_y": "552244.73295",
    "longitude": "-90.07728630908957",
    "latitude": "30.01257662830345",
    "geocoded_column": {
      "latitude": "30.01257662830345",
      "longitude": "-90.07728630908957"
    }
  },
  {
    "service_request": "2026-1280106",
    "request_type": "Health Related Request",
    "request_reason": "Noise Ordinance Complaint",
    "date_created": "2026-05-09T15:44:34.000",
    "date_modified": "2026-05-09T15:44:35.000",
    "request_status": "Pending",
    "responsible_agency": "Health Department",
    "final_address": "5132 Arts St, New Orleans, Louisiana, 70122",
    "address_councildis": "D",
    "status": "Pending",
    "rowid": "1280106",
    "final_x": "3685730.8726",
    "final_y": "551839.691158",
    "longitude": "-90.05399440116331",
    "latitude": "30.011238508147045",
    "geocoded_column": {
      "latitude": "30.011238508147045",
      "longitude": "-90.05399440116331"
    }
  },
  {
    "service_request": "2026-1280105",
    "request_type": "Trash/Recycling",
    "request_reason": "Request a Large Item Pick Up",
    "date_created": "2026-05-09T15:43:36.000",
    "date_modified": "2026-05-09T15:43:38.000",
    "request_status": "Pending",
    "responsible_agency": "Department of Sanitation",
    "final_address": "1616 Eagle St",
    "address_councildis": "A",
    "status": "Assigned to Contractor",
    "contractor": "IV Waste",
    "rowid": "1280105",
    "final_x": "3661137.21606",
    "final_y": "531213.124802",
    "longitude": "-90.1323791636624",
    "latitude": "29.955254428871672",
    "geocoded_column": {
      "latitude": "29.955254428871672",
      "longitude": "-90.1323791636624"
    }
  },
  {
    "service_request": "2026-1280104",
    "request_type": "Trash/Recycling",
    "request_reason": "Repair Recycling Cart",
    "date_created": "2026-05-09T15:12:51.000",
    "date_modified": "2026-05-09T15:12:53.000",
    "request_status": "Pending",
    "responsible_agency": "Department of Sanitation",
    "final_address": "50 N Lark St",
    "address_councildis": "D",
    "status": "Pending",
    "rowid": "1280104",
    "final_x": "3675343.6452",
    "final_y": "556503.946522",
    "longitude": "-90.0866515623083",
    "latitude": "30.024378330396758",
    "geocoded_column": {
      "latitude": "30.024378330396758",
      "longitude": "-90.0866515623083"
    }
  },
  {
    "service_request": "2026-1280103",
    "request_type": "Tree Service",
    "request_reason": "Dead or Dying Tree",
    "date_created": "2026-05-09T15:10:13.000",
    "date_modified": "2026-05-09T15:10:14.000",
    "request_status": "Pending",
    "responsible_agency": "Department of Parks & Parkways",
    "final_address": "50 N Lark St",
    "address_councildis": "D",
    "status": "Pending",
    "rowid": "1280103",
    "final_x": "3675343.6452",
    "final_y": "556503.946522",
    "longitude": "-90.0866515623083",
    "latitude": "30.024378330396758",
    "geocoded_column": {
      "latitude": "30.024378330396758",
      "longitude": "-90.0866515623083"
    }
  },
  {
    "service_request": "2026-1280102",
    "request_type": "Trash/Recycling",
    "request_reason": "Illegal Dumping",
    "date_created": "2026-05-09T15:07:07.000",
    "date_modified": "2026-05-09T15:07:09.000",
    "request_status": "Pending",
    "responsible_agency": "Department of Sanitation",
    "final_address": "440 Newton St",
    "address_councildis": "C",
    "status": "Pending",
    "rowid": "1280102",
    "final_x": "3686905.67177",
    "final_y": "527994.436159",
    "longitude": "-90.0511257698676",
    "latitude": "29.945636350832896",
    "geocoded_column": {
      "latitude": "29.945636350832896",
      "longitude": "-90.0511257698676"
    }
  },
  {
    "service_request": "2026-1280101",
    "request_type": "Roads and Streets",
    "request_reason": "Abandoned Service Cut",
    "date_created": "2026-05-09T14:40:26.000",
    "date_modified": "2026-05-09T14:40:30.000",
    "request_status": "Pending",
    "responsible_agency": "Department of Public Works",
    "final_address": "4320 Prytania St",
    "address_councildis": "B",
    "status": "Pending",
    "rowid": "1280101",
    "final_x": "3671125.541",
    "final_y": "520295.7486",
    "longitude": "-90.10121031805423",
    "latitude": "29.924943553464438",
    "geocoded_column": {
      "latitude": "29.924943553464438",
      "longitude": "-90.10121031805423"
    }
  },
  {
    "service_request": "2026-1280100",
    "request_type": "General Services",
    "request_reason": "General Service Request",
    "date_created": "2026-05-09T14:12:26.000",
    "date_modified": "2026-05-09T14:12:27.000",
    "request_status": "Pending",
    "responsible_agency": "Orleans Parish Communication District",
    "final_address": "1904 Magazine St",
    "address_councildis": "B",
    "status": "Pending",
    "rowid": "1280100",
    "final_x": "3679741.74786",
    "final_y": "522741.108858",
    "longitude": "-90.07392692794824",
    "latitude": "29.93140992393832",
    "geocoded_column": {
      "latitude": "29.93140992393832",
      "longitude": "-90.07392692794824"
    }
  },
  {
    "service_request": "2026-1280099",
    "request_type": "General Services",
    "request_reason": "General Service Request",
    "date_created": "2026-05-09T14:09:05.000",
    "date_modified": "2026-05-09T14:09:11.000",
    "request_status": "Pending",
    "responsible_agency": "Orleans Parish Communication District",
    "final_address": "100 BLK Elk Pl",
    "address_councildis": "B",
    "status": "Pending",
    "rowid": "1280099",
    "final_x": "3679605.12632",
    "final_y": "531375.295305",
    "longitude": "-90.074058671158",
    "latitude": "29.955155190587814",
    "geocoded_column": {
      "latitude": "29.955155190587814",
      "longitude": "-90.074058671158"
    }
  },
  {
    "service_request": "2026-1280098",
    "request_type": "General Services",
    "request_reason": "General Service Request",
    "date_created": "2026-05-09T14:03:57.000",
    "date_modified": "2026-05-09T14:04:00.000",
    "request_status": "Pending",
    "responsible_agency": "Orleans Parish Communication District",
    "final_address": "932 John Churchill Chase St",
    "address_councildis": "B",
    "status": "Pending",
    "rowid": "1280098",
    "final_x": "3681313.50799",
    "final_y": "526141.084478",
    "longitude": "-90.06884662934627",
    "latitude": "29.94071113412204",
    "geocoded_column": {
      "latitude": "29.94071113412204",
      "longitude": "-90.06884662934627"
    }
  },
  {
    "service_request": "2026-1280097",
    "request_type": "General Services",
    "request_reason": "General Service Request",
    "date_created": "2026-05-09T13:53:02.000",
    "date_modified": "2026-05-09T13:53:04.000",
    "request_status": "Pending",
    "responsible_agency": "Orleans Parish Communication District",
    "final_address": "932 John Churchill Chase St",
    "address_councildis": "B",
    "status": "Pending",
    "rowid": "1280097",
    "final_x": "3681313.50799",
    "final_y": "526141.084478",
    "longitude": "-90.06884662934627",
    "latitude": "29.94071113412204",
    "geocoded_column": {
      "latitude": "29.94071113412204",
      "longitude": "-90.06884662934627"
    }
  },
  {
    "service_request": "2026-1280096",
    "request_type": "Roads and Streets",
    "request_reason": "Road Shoulder Damage",
    "date_created": "2026-05-09T13:35:38.000",
    "date_modified": "2026-05-09T13:35:40.000",
    "request_status": "Pending",
    "responsible_agency": "Department of Public Works",
    "final_address": "2814 Mercedes Blvd",
    "address_councildis": "C",
    "status": "Pending",
    "rowid": "1280096",
    "final_x": "3698085.31965",
    "final_y": "520920.740537",
    "longitude": "-90.01608490880344",
    "latitude": "29.925837412280835",
    "geocoded_column": {
      "latitude": "29.925837412280835",
      "longitude": "-90.01608490880344"
    }
  },
  {
    "service_request": "2026-1280095",
    "request_type": "Drainage",
    "request_reason": "Catch Basin Not Draining",
    "date_created": "2026-05-09T12:58:35.000",
    "date_modified": "2026-05-09T12:58:37.000",
    "request_status": "Pending",
    "responsible_agency": "Sewerage & Water Board",
    "final_address": "1641 Louisiana Ave",
    "address_councildis": "B",
    "status": "Pending",
    "rowid": "1280095",
    "final_x": "3674144.72206",
    "final_y": "521863.14553",
    "longitude": "-90.09162611759518",
    "latitude": "29.92916377544229",
    "geocoded_column": {
      "latitude": "29.92916377544229",
      "longitude": "-90.09162611759518"
    }
  },
  {
    "service_request": "2026-1280094",
    "request_type": "Trash/Recycling",
    "request_reason": "Request a Large Item Pick Up",
    "date_created": "2026-05-09T12:42:31.000",
    "date_modified": "2026-05-09T12:42:33.000",
    "request_status": "Pending",
    "responsible_agency": "Department of Sanitation",
    "final_address": "8 Grand Cypress Ct",
    "address_councildis": "C",
    "status": "Assigned to Contractor",
    "contractor": "Richards Disposal",
    "rowid": "1280094",
    "final_x": "3721844.40441",
    "final_y": "513552.164338",
    "longitude": "-89.94136814093947",
    "latitude": "29.904804075085682",
    "geocoded_column": {
      "latitude": "29.904804075085682",
      "longitude": "-89.94136814093947"
    }
  },
  {
    "service_request": "2026-1280093",
    "request_type": "Drainage",
    "request_reason": "Catch Basin Not Draining",
    "date_created": "2026-05-09T12:39:38.000",
    "date_modified": "2026-05-09T12:39:40.000",
    "request_status": "Pending",
    "responsible_agency": "Sewerage & Water Board",
    "final_address": "500 Lake Marina Ave",
    "address_councildis": "A",
    "status": "Pending",
    "rowid": "1280093",
    "final_x": "3665086.84116",
    "final_y": "555262.967193",
    "longitude": "-90.11910291645061",
    "latitude": "30.021268932165952",
    "geocoded_column": {
      "latitude": "30.021268932165952",
      "longitude": "-90.11910291645061"
    }
  },
  {
    "service_request": "2026-1280092",
    "request_type": "Trash/Recycling",
    "request_reason": "Start Trash Service",
    "date_created": "2026-05-09T12:17:07.000",
    "date_modified": "2026-05-09T12:17:12.000",
    "request_status": "Pending",
    "responsible_agency": "Department of Sanitation",
    "final_address": "6001 Warrington Dr",
    "address_councildis": "D",
    "status": "Assigned to Contractor",
    "contractor": "IV Waste",
    "rowid": "1280092",
    "final_x": "3680818.20239",
    "final_y": "554604.03356",
    "longitude": "-90.06941917020482",
    "latitude": "30.01898935028039",
    "geocoded_column": {
      "latitude": "30.01898935028039",
      "longitude": "-90.06941917020482"
    }
  },
  {
    "service_request": "2026-1280091",
    "request_type": "Traffic Signals",
    "request_reason": "Traffic Signal Malfunctioning or Damaged",
    "date_created": "2026-05-09T12:00:18.000",
    "date_modified": "2026-05-09T12:00:19.000",
    "request_status": "Pending",
    "responsible_agency": "Department of Public Works",
    "final_address": "ESPLANADE AVE & N BROAD ST",
    "address_councildis": "A",
    "status": "Pending",
    "rowid": "1280091",
    "final_x": "3678149.22",
    "final_y": "538964.74",
    "longitude": "-90.07839342059656",
    "latitude": "29.976067496615002",
    "geocoded_column": {
      "latitude": "29.976067496615002",
      "longitude": "-90.07839342059656"
    }
  },
  {
    "service_request": "2026-1280090",
    "request_type": "Safety & Permits",
    "request_reason": "Zoning Enforcement",
    "date_created": "2026-05-09T12:00:09.000",
    "date_modified": "2026-05-09T12:00:12.000",
    "request_status": "Pending",
    "responsible_agency": "Safety and Permits",
    "final_address": "4950 Bundy Rd",
    "address_councildis": "E",
    "status": "Pending",
    "rowid": "1280090",
    "final_x": "3709011.56836",
    "final_y": "556956.389786",
    "longitude": "-89.98025105306185",
    "latitude": "30.024572182655188",
    "geocoded_column": {
      "latitude": "30.024572182655188",
      "longitude": "-89.98025105306185"
    }
  },
  {
    "service_request": "2026-1280089",
    "request_type": "Roads and Streets",
    "request_reason": "Abandoned Service Cut",
    "date_created": "2026-05-09T11:58:10.000",
    "date_modified": "2026-05-09T11:58:11.000",
    "request_status": "Pending",
    "responsible_agency": "Department of Public Works",
    "final_address": "4321 Prytania St",
    "address_councildis": "B",
    "status": "Pending",
    "rowid": "1280089",
    "final_x": "3671108.44251",
    "final_y": "520381.44012",
    "longitude": "-90.10126138396359",
    "latitude": "29.925179683334008",
    "geocoded_column": {
      "latitude": "29.925179683334008",
      "longitude": "-90.10126138396359"
    }
  },
  {
    "service_request": "2026-1280088",
    "request_type": "Safety & Permits",
    "request_reason": "Zoning Enforcement",
    "date_created": "2026-05-09T11:54:17.000",
    "date_modified": "2026-05-09T11:54:18.000",
    "request_status": "Pending",
    "responsible_agency": "Safety and Permits",
    "final_address": "4950 Marque Dr",
    "address_councildis": "E",
    "status": "Pending",
    "rowid": "1280088",
    "final_x": "3709903.31096",
    "final_y": "557018.91113",
    "longitude": "-89.97743099013114",
    "latitude": "30.024715107374643",
    "geocoded_column": {
      "latitude": "30.024715107374643",
      "longitude": "-89.97743099013114"
    }
  },
  {
    "service_request": "2026-1280087",
    "request_type": "Property Maintenance",
    "request_reason": "Property Maintenance",
    "date_created": "2026-05-09T11:50:46.000",
    "date_modified": "2026-05-09T11:50:48.000",
    "request_status": "Pending",
    "responsible_agency": "Department of Code Enforcement",
    "final_address": "8831 Dinkins St",
    "address_councildis": "E",
    "status": "Pending",
    "rowid": "1280087",
    "final_x": "3704557.24727",
    "final_y": "563392.377568",
    "longitude": "-89.99408813428248",
    "latitude": "30.042412506398385",
    "geocoded_column": {
      "latitude": "30.042412506398385",
      "longitude": "-89.99408813428248"
    }
  },
  {
    "service_request": "2026-1280086",
    "request_type": "Tree Service",
    "request_reason": "Tree Trim",
    "date_created": "2026-05-09T11:22:09.000",
    "date_modified": "2026-05-09T11:22:12.000",
    "request_status": "Pending",
    "responsible_agency": "Department of Parks & Parkways",
    "final_address": "200 Rhodes Ave",
    "address_councildis": "C",
    "status": "Pending",
    "rowid": "1280086",
    "final_x": "3706113.87236",
    "final_y": "519476.451639",
    "longitude": "-89.99079479333119",
    "latitude": "29.921609897720245",
    "geocoded_column": {
      "latitude": "29.921609897720245",
      "longitude": "-89.99079479333119"
    }
  },
  {
    "service_request": "2026-1280085",
    "request_type": "Tree Service",
    "request_reason": "Street or Sidewalk Blocked",
    "date_created": "2026-05-09T11:20:34.000",
    "date_modified": "2026-05-09T11:20:36.000",
    "request_status": "Pending",
    "responsible_agency": "Department of Parks & Parkways",
    "final_address": "200 Rhodes Ave",
    "address_councildis": "C",
    "status": "Pending",
    "rowid": "1280085",
    "final_x": "3706113.87236",
    "final_y": "519476.451639",
    "longitude": "-89.99079479333119",
    "latitude": "29.921609897720245",
    "geocoded_column": {
      "latitude": "29.921609897720245",
      "longitude": "-89.99079479333119"
    }
  },
  {
    "service_request": "2026-1280084",
    "request_type": "Trash/Recycling",
    "request_reason": "Repair Trash Cart",
    "date_created": "2026-05-09T11:04:59.000",
    "date_modified": "2026-05-09T11:05:01.000",
    "request_status": "Pending",
    "responsible_agency": "Department of Sanitation",
    "final_address": "2637 N Galvez St",
    "address_councildis": "D",
    "status": "Assigned to Contractor",
    "contractor": "IV Waste",
    "rowid": "1280084",
    "final_x": "3688236.26127",
    "final_y": "540226.577035",
    "longitude": "-90.0464909407076",
    "latitude": "29.979229479834633",
    "geocoded_column": {
      "latitude": "29.979229479834633",
      "longitude": "-90.0464909407076"
    }
  },
  {
    "service_request": "2026-1280083",
    "request_type": "Property Maintenance",
    "request_reason": "Property Maintenance",
    "date_created": "2026-05-09T11:00:15.000",
    "date_modified": "2026-05-09T11:00:23.000",
    "request_status": "Pending",
    "responsible_agency": "Department of Code Enforcement",
    "final_address": "5630 New England Dr",
    "address_councildis": "E",
    "status": "Pending",
    "rowid": "1280083",
    "final_x": "3723573.82105",
    "final_y": "564272.477921",
    "longitude": "-89.9339551795746",
    "latitude": "30.04420756688486",
    "geocoded_column": {
      "latitude": "30.04420756688486",
      "longitude": "-89.9339551795746"
    }
  },
  {
    "service_request": "2026-1280081",
    "request_type": "Trash/Recycling",
    "request_reason": "Replace Recycling Cart",
    "date_created": "2026-05-09T10:44:07.000",
    "date_modified": "2026-05-09T10:44:08.000",
    "request_status": "Pending",
    "responsible_agency": "Department of Sanitation",
    "final_address": "715 Mazant St",
    "address_councildis": "C",
    "status": "Pending",
    "rowid": "1280081",
    "final_x": "3691794.78608",
    "final_y": "533844.539205",
    "longitude": "-90.03548008169594",
    "latitude": "29.961570765034878",
    "geocoded_column": {
      "latitude": "29.961570765034878",
      "longitude": "-90.03548008169594"
    }
  },
  {
    "service_request": "2026-1280080",
    "request_type": "Trash/Recycling",
    "request_reason": "Request a Large Item Pick Up",
    "date_created": "2026-05-09T10:43:15.000",
    "date_modified": "2026-05-09T10:43:18.000",
    "request_status": "Pending",
    "responsible_agency": "Department of Sanitation",
    "final_address": "5205 St Claude Ave",
    "address_councildis": "E",
    "status": "Assigned to Contractor",
    "contractor": "Waste Pro",
    "rowid": "1280080",
    "final_x": "3696638.59069",
    "final_y": "534265.221253",
    "longitude": "-90.02016901798207",
    "latitude": "29.96257574522653",
    "geocoded_column": {
      "latitude": "29.96257574522653",
      "longitude": "-90.02016901798207"
    }
  },
  {
    "service_request": "2026-1280079",
    "request_type": "Trash/Recycling",
    "request_reason": "Replace Trash Cart",
    "date_created": "2026-05-09T10:35:06.000",
    "date_modified": "2026-05-09T10:35:07.000",
    "request_status": "Pending",
    "responsible_agency": "Department of Sanitation",
    "final_address": "2401 Cumberland Ct",
    "address_councildis": "C",
    "status": "Assigned to Contractor",
    "contractor": "Richards Disposal",
    "rowid": "1280079",
    "final_x": "3705079.76311",
    "final_y": "522503.016698",
    "longitude": "-89.99394733084645",
    "latitude": "29.929965172473235",
    "geocoded_column": {
      "latitude": "29.929965172473235",
      "longitude": "-89.99394733084645"
    }
  },
  {
    "service_request": "2026-1280078",
    "request_type": "Drainage",
    "request_reason": "Catch Basin Not Draining",
    "date_created": "2026-05-09T10:30:08.000",
    "date_modified": "2026-05-09T10:30:10.000",
    "request_status": "Pending",
    "responsible_agency": "Sewerage & Water Board",
    "final_address": "2738 St Charles Ave",
    "address_councildis": "B",
    "status": "Pending",
    "rowid": "1280078",
    "final_x": "3676043.54907",
    "final_y": "522483.959162",
    "longitude": "-90.08561054115155",
    "latitude": "29.930814094749167",
    "geocoded_column": {
      "latitude": "29.930814094749167",
      "longitude": "-90.08561054115155"
    }
  },
  {
    "service_request": "2026-1280077",
    "request_type": "General Services",
    "request_reason": "General Service Request",
    "date_created": "2026-05-09T10:10:02.000",
    "date_modified": "2026-05-09T10:10:04.000",
    "request_status": "Pending",
    "responsible_agency": "Orleans Parish Communication District",
    "final_address": "9533 Dinkins St",
    "address_councildis": "E",
    "status": "Pending",
    "rowid": "1280077",
    "final_x": "3706423.77182",
    "final_y": "564454.317409",
    "longitude": "-89.98814983443603",
    "latitude": "30.04527230153323",
    "geocoded_column": {
      "latitude": "30.04527230153323",
      "longitude": "-89.98814983443603"
    }
  },
  {
    "service_request": "2026-1280076",
    "request_type": "Property Maintenance",
    "request_reason": "Property Maintenance",
    "date_created": "2026-05-09T10:08:29.000",
    "date_modified": "2026-05-09T10:08:30.000",
    "request_status": "Pending",
    "responsible_agency": "Department of Code Enforcement",
    "final_address": "5540 New England Dr",
    "address_councildis": "E",
    "status": "Pending",
    "rowid": "1280076",
    "final_x": "3723620.11116",
    "final_y": "563812.006433",
    "longitude": "-89.93382665872707",
    "latitude": "30.04293990607981",
    "geocoded_column": {
      "latitude": "30.04293990607981",
      "longitude": "-89.93382665872707"
    }
  },
  {
    "service_request": "2026-1280075",
    "request_type": "Roads and Streets",
    "request_reason": "Debris in Driving Lanes",
    "date_created": "2026-05-09T10:03:18.000",
    "date_modified": "2026-05-09T10:03:20.000",
    "request_status": "Pending",
    "responsible_agency": "Department of Public Works",
    "final_address": "6143 Carlisle Ct",
    "address_councildis": "C",
    "status": "Pending",
    "rowid": "1280075",
    "final_x": "3706713.38231",
    "final_y": "516405.041269",
    "longitude": "-89.98901615983992",
    "latitude": "29.913145256534676",
    "geocoded_column": {
      "latitude": "29.913145256534676",
      "longitude": "-89.98901615983992"
    }
  },
  {
    "service_request": "2026-1280074",
    "request_type": "Trash/Recycling",
    "request_reason": "Order Recycling Cart",
    "date_created": "2026-05-09T10:03:11.000",
    "date_modified": "2026-05-09T10:03:12.000",
    "request_status": "Pending",
    "responsible_agency": "Department of Sanitation",
    "final_address": "200 BLK Moqueur Ln",
    "address_councildis": "A",
    "status": "Pending",
    "rowid": "1280074",
    "final_x": "3661530.19692",
    "final_y": "521253.653475",
    "longitude": "-90.13146812850827",
    "latitude": "29.927857714149823",
    "geocoded_column": {
      "latitude": "29.927857714149823",
      "longitude": "-90.13146812850827"
    }
  },
  {
    "service_request": "2026-1280073",
    "request_type": "Traffic Signals",
    "request_reason": "Traffic Signal Malfunctioning or Damaged",
    "date_created": "2026-05-09T10:02:54.000",
    "date_modified": "2026-05-09T10:02:56.000",
    "request_status": "Pending",
    "responsible_agency": "Department of Public Works",
    "final_address": "5707 S Claiborne Ave",
    "address_councildis": "B",
    "status": "Pending",
    "rowid": "1280073",
    "final_x": "3667783.8457",
    "final_y": "526883.962686",
    "longitude": "-90.1115372402538",
    "latitude": "29.943157417155188",
    "geocoded_column": {
      "latitude": "29.943157417155188",
      "longitude": "-90.1115372402538"
    }
  },
  {
    "service_request": "2026-1280072",
    "request_type": "Trash/Recycling",
    "request_reason": "Order Trash Cart",
    "date_created": "2026-05-09T10:01:52.000",
    "date_modified": "2026-05-09T10:01:53.000",
    "request_status": "Pending",
    "responsible_agency": "Department of Sanitation",
    "final_address": "1600 Monroe St",
    "address_councildis": "A",
    "status": "Assigned to Contractor",
    "contractor": "IV Waste",
    "rowid": "1280072",
    "final_x": "3661332.0176",
    "final_y": "530899.695682",
    "longitude": "-90.13177442699418",
    "latitude": "29.954386984362255",
    "geocoded_column": {
      "latitude": "29.954386984362255",
      "longitude": "-90.13177442699418"
    }
  },
  {
    "service_request": "2026-1280071",
    "request_type": "Trash/Recycling",
    "request_reason": "Request a Large Item Pick Up",
    "date_created": "2026-05-09T10:01:31.000",
    "date_modified": "2026-05-09T10:01:33.000",
    "request_status": "Pending",
    "responsible_agency": "Department of Sanitation",
    "final_address": "6655 Avenue B",
    "address_councildis": "A",
    "status": "Assigned to Contractor",
    "contractor": "IV Waste",
    "rowid": "1280071",
    "final_x": "3665802.79143",
    "final_y": "552456.799894",
    "longitude": "-90.11693483040683",
    "latitude": "30.013532078068828",
    "geocoded_column": {
      "latitude": "30.013532078068828",
      "longitude": "-90.11693483040683"
    }
  },
  {
    "service_request": "2026-1280070",
    "request_type": "Trash/Recycling",
    "request_reason": "Order Trash Cart",
    "date_created": "2026-05-09T10:01:17.000",
    "date_modified": "2026-05-09T10:01:19.000",
    "request_status": "Pending",
    "responsible_agency": "Department of Sanitation",
    "final_address": "200 BLK Moqueur Ln",
    "address_councildis": "A",
    "status": "Assigned to Contractor",
    "contractor": "IV Waste",
    "rowid": "1280070",
    "final_x": "3661530.19692",
    "final_y": "521253.653475",
    "longitude": "-90.13146812850827",
    "latitude": "29.927857714149823",
    "geocoded_column": {
      "latitude": "29.927857714149823",
      "longitude": "-90.13146812850827"
    }
  },
  {
    "service_request": "2026-1280069",
    "request_type": "Drainage",
    "request_reason": "Catch Basin Not Draining",
    "date_created": "2026-05-09T09:59:21.000",
    "date_modified": "2026-05-09T09:59:23.000",
    "request_status": "Pending",
    "responsible_agency": "Sewerage & Water Board",
    "final_address": "7933 Jeannette St",
    "address_councildis": "A",
    "status": "Pending",
    "rowid": "1280069",
    "final_x": "3663071.44903",
    "final_y": "528848.397696",
    "longitude": "-90.12635019187489",
    "latitude": "29.948696307479008",
    "geocoded_column": {
      "latitude": "29.948696307479008",
      "longitude": "-90.12635019187489"
    }
  },
  {
    "service_request": "2026-1280068",
    "request_type": "Property Maintenance",
    "request_reason": "Property Maintenance",
    "date_created": "2026-05-09T09:55:57.000",
    "date_modified": "2026-05-09T09:55:59.000",
    "request_status": "Pending",
    "responsible_agency": "Department of Code Enforcement",
    "final_address": "5631 New England Dr",
    "address_councildis": "E",
    "status": "Pending",
    "rowid": "1280068",
    "final_x": "3723726.60409",
    "final_y": "564274.245921",
    "longitude": "-89.93347225513037",
    "latitude": "30.044207296793076",
    "geocoded_column": {
      "latitude": "30.044207296793076",
      "longitude": "-89.93347225513037"
    }
  },
  {
    "service_request": "2026-1280067",
    "request_type": "Drainage",
    "request_reason": "Ditch and Culvert Maintenance",
    "date_created": "2026-05-09T09:51:21.000",
    "date_modified": "2026-05-09T09:51:23.000",
    "request_status": "Pending",
    "responsible_agency": "Department of Public Works",
    "final_address": "2640 St Ann St",
    "address_councildis": "C",
    "status": "Pending",
    "rowid": "1280067",
    "final_x": "3677054.55278",
    "final_y": "537067.887688",
    "longitude": "-90.08191612845049",
    "latitude": "29.97088472231868",
    "geocoded_column": {
      "latitude": "29.97088472231868",
      "longitude": "-90.08191612845049"
    }
  },
  {
    "service_request": "2026-1280066",
    "request_type": "Drainage",
    "request_reason": "Catch Basin Not Draining",
    "date_created": "2026-05-09T09:50:29.000",
    "date_modified": "2026-05-09T09:50:31.000",
    "request_status": "Pending",
    "responsible_agency": "Sewerage & Water Board",
    "final_address": "3620 St Claude Ave",
    "address_councildis": "C",
    "status": "Pending",
    "rowid": "1280066",
    "final_x": "3690874.53609",
    "final_y": "535489.19527",
    "longitude": "-90.03832736989074",
    "latitude": "29.966121621712208",
    "geocoded_column": {
      "latitude": "29.966121621712208",
      "longitude": "-90.03832736989074"
    }
  },
  {
    "service_request": "2026-1280065",
    "request_type": "Traffic Signals",
    "request_reason": "Traffic Signal Malfunctioning or Damaged",
    "date_created": "2026-05-09T09:48:35.000",
    "date_modified": "2026-05-09T09:48:37.000",
    "request_status": "Pending",
    "responsible_agency": "Department of Public Works",
    "final_address": "2549 Esplanade Ave",
    "address_councildis": "D",
    "status": "Pending",
    "rowid": "1280065",
    "final_x": "3678324.98766",
    "final_y": "538921.00961",
    "longitude": "-90.07783980834142",
    "latitude": "29.97594195876407",
    "geocoded_column": {
      "latitude": "29.97594195876407",
      "longitude": "-90.07783980834142"
    }
  },
  {
    "service_request": "2026-1280064",
    "request_type": "Trash/Recycling",
    "request_reason": "Order Trash Cart",
    "date_created": "2026-05-09T09:42:17.000",
    "date_modified": "2026-05-09T09:42:19.000",
    "request_status": "Pending",
    "responsible_agency": "Department of Sanitation",
    "final_address": "5225 Basinview Dr",
    "address_councildis": "E",
    "status": "Assigned to Contractor",
    "contractor": "Waste Pro",
    "rowid": "1280064",
    "final_x": "3698897.55901",
    "final_y": "556794.665626",
    "longitude": "-90.01221527064249",
    "latitude": "30.0244520204378",
    "geocoded_column": {
      "latitude": "30.0244520204378",
      "longitude": "-90.01221527064249"
    }
  },
  {
    "service_request": "2026-1280063",
    "request_type": "Drainage",
    "request_reason": "Catch Basin Not Draining",
    "date_created": "2026-05-09T09:18:50.000",
    "date_modified": "2026-05-09T09:18:56.000",
    "request_status": "Pending",
    "responsible_agency": "Sewerage & Water Board",
    "final_address": "2428 St Philip St",
    "address_councildis": "C",
    "status": "Pending",
    "rowid": "1280063",
    "final_x": "3678268.9972",
    "final_y": "537137.54804",
    "longitude": "-90.07807834773604",
    "latitude": "29.97103973868065",
    "geocoded_column": {
      "latitude": "29.97103973868065",
      "longitude": "-90.07807834773604"
    }
  },
  {
    "service_request": "2026-1280062",
    "request_type": "Tree Service",
    "request_reason": "Street or Sidewalk Blocked",
    "date_created": "2026-05-09T09:16:33.000",
    "date_modified": "2026-05-09T10:17:24.000",
    "request_status": "Pending",
    "responsible_agency": "Department of Parks & Parkways",
    "final_address": "2255 St Claude Ave",
    "address_councildis": "C",
    "status": "Pending",
    "rowid": "1280062",
    "final_x": "3685591.13167",
    "final_y": "536461.707911",
    "longitude": "-90.05497793909136",
    "latitude": "29.96895882350588",
    "geocoded_column": {
      "latitude": "29.96895882350588",
      "longitude": "-90.05497793909136"
    }
  },
  {
    "service_request": "2026-1280061",
    "request_type": "Trash/Recycling",
    "request_reason": "Damaged Caused By Contractor",
    "date_created": "2026-05-09T09:07:46.000",
    "date_modified": "2026-05-09T09:07:51.000",
    "request_status": "Pending",
    "responsible_agency": "Department of Sanitation",
    "final_address": "3924 Clematis St",
    "address_councildis": "D",
    "status": "Assigned to Contractor",
    "contractor": "IV Waste",
    "rowid": "1280061",
    "final_x": "3685607.90678",
    "final_y": "547303.472593",
    "longitude": "-90.0545428454968",
    "latitude": "29.99876932617022",
    "geocoded_column": {
      "latitude": "29.99876932617022",
      "longitude": "-90.0545428454968"
    }
  },
  {
    "service_request": "2026-1280060",
    "request_type": "Property Maintenance",
    "request_reason": "Property Maintenance",
    "date_created": "2026-05-09T08:59:50.000",
    "date_modified": "2026-05-09T09:00:00.000",
    "request_status": "Pending",
    "responsible_agency": "Department of Code Enforcement",
    "final_address": "5631 New England Dr",
    "address_councildis": "E",
    "status": "Pending",
    "rowid": "1280060",
    "final_x": "3723726.60409",
    "final_y": "564274.245921",
    "longitude": "-89.93347225513037",
    "latitude": "30.044207296793076",
    "geocoded_column": {
      "latitude": "30.044207296793076",
      "longitude": "-89.93347225513037"
    }
  },
  {
    "service_request": "2026-1280059",
    "request_type": "General Services",
    "request_reason": "General Service Request",
    "date_created": "2026-05-09T08:54:05.000",
    "date_modified": "2026-05-09T08:54:08.000",
    "request_status": "Pending",
    "responsible_agency": "Orleans Parish Communication District",
    "final_address": "6215 Warrington Dr",
    "address_councildis": "D",
    "status": "Pending",
    "rowid": "1280059",
    "final_x": "3680880.14587",
    "final_y": "555756.212121",
    "longitude": "-90.06918328692272",
    "latitude": "30.022155541574786",
    "geocoded_column": {
      "latitude": "30.022155541574786",
      "longitude": "-90.06918328692272"
    }
  },
  {
    "service_request": "2026-1280058",
    "request_type": "Trash/Recycling",
    "request_reason": "Replace Trash Cart",
    "date_created": "2026-05-09T08:02:54.000",
    "date_modified": "2026-05-09T08:02:55.000",
    "request_status": "Pending",
    "responsible_agency": "Department of Sanitation",
    "final_address": "1241 Desire St",
    "address_councildis": "C",
    "status": "Assigned to Contractor",
    "contractor": "IV Waste",
    "rowid": "1280058",
    "final_x": "3690384.42256",
    "final_y": "536397.040327",
    "longitude": "-90.03984276763968",
    "latitude": "29.96863309846316",
    "geocoded_column": {
      "latitude": "29.96863309846316",
      "longitude": "-90.03984276763968"
    }
  },
  {
    "service_request": "2026-1280057",
    "request_type": "Property Maintenance",
    "request_reason": "Property Maintenance",
    "date_created": "2026-05-09T07:46:35.000",
    "date_modified": "2026-05-09T07:46:42.000",
    "request_status": "Pending",
    "responsible_agency": "Department of Code Enforcement",
    "final_address": "122 Carondelet St",
    "address_councildis": "B",
    "status": "Pending",
    "rowid": "1280057",
    "final_x": "3680769.89499",
    "final_y": "530634.064258",
    "longitude": "-90.07040656238124",
    "latitude": "29.953081806506788",
    "geocoded_column": {
      "latitude": "29.953081806506788",
      "longitude": "-90.07040656238124"
    }
  },
  {
    "service_request": "2026-1280056",
    "request_type": "Trash/Recycling",
    "request_reason": "Repair Trash Cart",
    "date_created": "2026-05-09T07:38:45.000",
    "date_modified": "2026-05-09T07:38:47.000",
    "request_status": "Pending",
    "responsible_agency": "Department of Sanitation",
    "final_address": "6700 Manchester St",
    "address_councildis": "E",
    "status": "Assigned to Contractor",
    "contractor": "Waste Pro",
    "rowid": "1280056",
    "final_x": "3697898.55907",
    "final_y": "559626.531293",
    "longitude": "-90.01526898436386",
    "latitude": "30.032270198462932",
    "geocoded_column": {
      "latitude": "30.032270198462932",
      "longitude": "-90.01526898436386"
    }
  },
  {
    "service_request": "2026-1280055",
    "request_type": "Abandoned Vehicles",
    "request_reason": "Abandoned/Junk Vehicles",
    "date_created": "2026-05-09T06:45:55.000",
    "date_modified": "2026-05-09T06:45:58.000",
    "request_status": "Pending",
    "responsible_agency": "Department of Public Works",
    "final_address": "2518 Cambronne St",
    "address_councildis": "A",
    "status": "Pending",
    "rowid": "1280055",
    "final_x": "3664403.81344",
    "final_y": "532709.31706",
    "longitude": "-90.1220144609969",
    "latitude": "29.959273925093775",
    "geocoded_column": {
      "latitude": "29.959273925093775",
      "longitude": "-90.1220144609969"
    }
  },
  {
    "service_request": "2026-1280054",
    "request_type": "Street and Traffic Signs",
    "request_reason": "One Way Sign Missing or Damaged",
    "date_created": "2026-05-09T06:40:44.000",
    "date_modified": "2026-05-09T06:40:50.000",
    "request_status": "Pending",
    "responsible_agency": "Department of Public Works",
    "final_address": "ST CLAUDE AVE & ST BERNARD AVE",
    "address_councildis": "C",
    "status": "Pending",
    "rowid": "1280054",
    "final_x": "3683078.0",
    "final_y": "536131.18",
    "longitude": "-90.06292613836104",
    "latitude": "29.96812684071733",
    "geocoded_column": {
      "latitude": "29.96812684071733",
      "longitude": "-90.06292613836104"
    }
  },
  {
    "service_request": "2026-1280053",
    "request_type": "Drainage",
    "request_reason": "Catch Basin Not Draining",
    "date_created": "2026-05-09T05:23:39.000",
    "date_modified": "2026-05-09T05:23:42.000",
    "request_status": "Pending",
    "responsible_agency": "Sewerage & Water Board",
    "final_address": "1930 Napoleon Ave",
    "address_councildis": "B",
    "status": "Pending",
    "rowid": "1280053",
    "final_x": "3670577.24967",
    "final_y": "522220.07193",
    "longitude": "-90.10287586874803",
    "latitude": "29.930251027496933",
    "geocoded_column": {
      "latitude": "29.930251027496933",
      "longitude": "-90.10287586874803"
    }
  },
  {
    "service_request": "2026-1280052",
    "request_type": "Abandoned Vehicles",
    "request_reason": "Abandoned/Junk Vehicles",
    "date_created": "2026-05-09T04:58:09.000",
    "date_modified": "2026-05-09T04:58:11.000",
    "request_status": "Pending",
    "responsible_agency": "Department of Public Works",
    "final_address": "1302 Mandeville St",
    "address_councildis": "C",
    "status": "Pending",
    "rowid": "1280052",
    "final_x": "3685681.2591",
    "final_y": "537149.172232",
    "longitude": "-90.05466908407465",
    "latitude": "29.970846345906548",
    "geocoded_column": {
      "latitude": "29.970846345906548",
      "longitude": "-90.05466908407465"
    }
  },
  {
    "service_request": "2026-1280051",
    "request_type": "Streetlights",
    "request_reason": "Streetlight Outage/Malfunction",
    "date_created": "2026-05-09T02:25:44.000",
    "date_modified": "2026-05-09T02:25:50.000",
    "request_status": "Pending",
    "responsible_agency": "Department of Public Works",
    "final_address": "3325 Robert St",
    "address_councildis": "B",
    "status": "Pending",
    "rowid": "1280051",
    "final_x": "3668978.82273",
    "final_y": "527184.347583",
    "longitude": "-90.10775424414857",
    "latitude": "29.94394828810745",
    "geocoded_column": {
      "latitude": "29.94394828810745",
      "longitude": "-90.10775424414857"
    }
  },
  {
    "service_request": "2026-1280050",
    "request_type": "General Services",
    "request_reason": "General Service Request",
    "date_created": "2026-05-09T01:19:19.000",
    "date_modified": "2026-05-09T01:19:22.000",
    "request_status": "Pending",
    "responsible_agency": "Orleans Parish Communication District",
    "final_address": "4951 Bundy Rd, New Orleans, Louisiana, 70127",
    "address_councildis": "E",
    "status": "Pending",
    "rowid": "1280050",
    "final_x": "3709298.35582",
    "final_y": "556975.31529",
    "longitude": "-89.97934415620982",
    "latitude": "30.024614905456694",
    "geocoded_column": {
      "latitude": "30.024614905456694",
      "longitude": "-89.97934415620982"
    }
  },
  {
    "service_request": "2026-1280048",
    "request_type": "Abandoned Vehicles",
    "request_reason": "Abandoned/Junk Vehicles",
    "date_created": "2026-05-09T00:18:40.000",
    "date_modified": "2026-05-09T00:18:42.000",
    "request_status": "Pending",
    "responsible_agency": "Department of Public Works",
    "final_address": "4950 Marque Dr",
    "address_councildis": "E",
    "status": "Pending",
    "rowid": "1280048",
    "final_x": "3709903.31096",
    "final_y": "557018.91113",
    "longitude": "-89.97743099013114",
    "latitude": "30.024715107374643",
    "geocoded_column": {
      "latitude": "30.024715107374643",
      "longitude": "-89.97743099013114"
    }
  },
  {
    "service_request": "2026-1280047",
    "request_type": "Safety & Permits",
    "request_reason": "Zoning Enforcement",
    "date_created": "2026-05-09T00:16:09.000",
    "date_modified": "2026-05-09T00:16:12.000",
    "request_status": "Pending",
    "responsible_agency": "Safety and Permits",
    "final_address": "4950 Marque Dr",
    "address_councildis": "E",
    "status": "Pending",
    "rowid": "1280047",
    "final_x": "3709903.31096",
    "final_y": "557018.91113",
    "longitude": "-89.97743099013114",
    "latitude": "30.024715107374643",
    "geocoded_column": {
      "latitude": "30.024715107374643",
      "longitude": "-89.97743099013114"
    }
  },
  {
    "service_request": "2026-1280046",
    "request_type": "General Services",
    "request_reason": "General Service Request",
    "date_created": "2026-05-09T00:12:41.000",
    "date_modified": "2026-05-09T00:12:43.000",
    "request_status": "Pending",
    "responsible_agency": "Orleans Parish Communication District",
    "final_address": "9317 Hammond St",
    "address_councildis": "E",
    "status": "Pending",
    "rowid": "1280046",
    "final_x": "3709731.18744",
    "final_y": "556175.468122",
    "longitude": "-89.97800639002523",
    "latitude": "30.022401568663312",
    "geocoded_column": {
      "latitude": "30.022401568663312",
      "longitude": "-89.97800639002523"
    }
  },
  {
    "service_request": "2026-1280045",
    "request_type": "Streetlights",
    "request_reason": "Streetlight Outage/Malfunction",
    "date_created": "2026-05-08T23:10:06.000",
    "date_modified": "2026-05-08T23:10:08.000",
    "request_status": "Pending",
    "responsible_agency": "Department of Public Works",
    "final_address": "1618 Rousselin Dr",
    "address_councildis": "D",
    "status": "Pending",
    "rowid": "1280045",
    "final_x": "3679513.85013",
    "final_y": "540056.167691",
    "longitude": "-90.07404563871349",
    "latitude": "29.979027379208247",
    "geocoded_column": {
      "latitude": "29.979027379208247",
      "longitude": "-90.07404563871349"
    }
  },
  {
    "service_request": "2026-1280044",
    "request_type": "Trash/Recycling",
    "request_reason": "Start Trash Service",
    "date_created": "2026-05-08T22:32:17.000",
    "date_modified": "2026-05-08T22:32:19.000",
    "request_status": "Pending",
    "responsible_agency": "Department of Sanitation",
    "final_address": "4200 Iberville St",
    "address_councildis": "A",
    "status": "Assigned to Contractor",
    "contractor": "IV Waste",
    "rowid": "1280044",
    "final_x": "3670754.76532",
    "final_y": "539099.020682",
    "longitude": "-90.10174276079856",
    "latitude": "29.976657332118958",
    "geocoded_column": {
      "latitude": "29.976657332118958",
      "longitude": "-90.10174276079856"
    }
  },
  {
    "service_request": "2026-1280043",
    "request_type": "Roads and Streets",
    "request_reason": "Push-up/Pavement Expansion",
    "date_created": "2026-05-08T21:53:46.000",
    "date_modified": "2026-05-08T21:53:47.000",
    "request_status": "Pending",
    "responsible_agency": "Department of Public Works",
    "final_address": "3426 Robert St",
    "address_councildis": "B",
    "status": "Pending",
    "rowid": "1280043",
    "final_x": "3668893.10388",
    "final_y": "527501.067519",
    "longitude": "-90.10801418958997",
    "latitude": "29.944821685886374",
    "geocoded_column": {
      "latitude": "29.944821685886374",
      "longitude": "-90.10801418958997"
    }
  },
  {
    "service_request": "2026-1280042",
    "request_type": "Health Related Request",
    "request_reason": "Noise Ordinance Complaint",
    "date_created": "2026-05-08T21:53:21.000",
    "date_modified": "2026-05-08T21:53:22.000",
    "request_status": "Pending",
    "responsible_agency": "Health Department",
    "final_address": "801 Bourbon St, New Orleans, Louisiana, 70116",
    "address_councildis": "C",
    "status": "Pending",
    "rowid": "1280042",
    "final_x": "3682490.98735",
    "final_y": "533018.672772",
    "longitude": "-90.06488875731978",
    "latitude": "29.959586396383013",
    "geocoded_column": {
      "latitude": "29.959586396383013",
      "longitude": "-90.06488875731978"
    }
  },
  {
    "service_request": "2026-1280041",
    "request_type": "Health Related Request",
    "request_reason": "Noise Ordinance Complaint",
    "date_created": "2026-05-08T21:52:26.000",
    "date_modified": "2026-05-08T21:52:28.000",
    "request_status": "Pending",
    "responsible_agency": "Health Department",
    "final_address": "800 Bourbon St, New Orleans, Louisiana, 70116",
    "address_councildis": "C",
    "status": "Pending",
    "rowid": "1280041",
    "final_x": "3682553.51528",
    "final_y": "533013.631428",
    "longitude": "-90.06469148499534",
    "latitude": "29.95957063099051",
    "geocoded_column": {
      "latitude": "29.95957063099051",
      "longitude": "-90.06469148499534"
    }
  },
  {
    "service_request": "2026-1280040",
    "request_type": "Drainage",
    "request_reason": "Ditch and Culvert Maintenance",
    "date_created": "2026-05-08T21:47:48.000",
    "date_modified": "2026-05-08T21:47:50.000",
    "request_status": "Pending",
    "responsible_agency": "Department of Public Works",
    "final_address": "3426 Robert St",
    "address_councildis": "B",
    "status": "Pending",
    "rowid": "1280040",
    "final_x": "3668893.10388",
    "final_y": "527501.067519",
    "longitude": "-90.10801418958997",
    "latitude": "29.944821685886374",
    "geocoded_column": {
      "latitude": "29.944821685886374",
      "longitude": "-90.10801418958997"
    }
  },
  {
    "service_request": "2026-1280039",
    "request_type": "Trash/Recycling",
    "request_reason": "Repair Recycling Cart",
    "date_created": "2026-05-08T21:44:17.000",
    "date_modified": "2026-05-08T21:44:18.000",
    "request_status": "Pending",
    "responsible_agency": "Department of Sanitation",
    "final_address": "3426 Robert St",
    "address_councildis": "B",
    "status": "Pending",
    "rowid": "1280039",
    "final_x": "3668893.10388",
    "final_y": "527501.067519",
    "longitude": "-90.10801418958997",
    "latitude": "29.944821685886374",
    "geocoded_column": {
      "latitude": "29.944821685886374",
      "longitude": "-90.10801418958997"
    }
  },
  {
    "service_request": "2026-1280038",
    "request_type": "Trash/Recycling",
    "request_reason": "Repair Trash Cart",
    "date_created": "2026-05-08T21:42:38.000",
    "date_modified": "2026-05-08T21:42:39.000",
    "request_status": "Pending",
    "responsible_agency": "Department of Sanitation",
    "final_address": "3426 Robert St",
    "address_councildis": "B",
    "status": "Assigned to Contractor",
    "contractor": "IV Waste",
    "rowid": "1280038",
    "final_x": "3668893.10388",
    "final_y": "527501.067519",
    "longitude": "-90.10801418958997",
    "latitude": "29.944821685886374",
    "geocoded_column": {
      "latitude": "29.944821685886374",
      "longitude": "-90.10801418958997"
    }
  },
  {
    "service_request": "2026-1280037",
    "request_type": "Trash/Recycling",
    "request_reason": "Replace Trash Cart",
    "date_created": "2026-05-08T21:39:21.000",
    "date_modified": "2026-05-08T21:39:23.000",
    "request_status": "Pending",
    "responsible_agency": "Department of Sanitation",
    "final_address": "1327 France St",
    "address_councildis": "D",
    "status": "Assigned to Contractor",
    "contractor": "IV Waste",
    "rowid": "1280037",
    "final_x": "3692670.09878",
    "final_y": "536108.142087",
    "longitude": "-90.03263486144942",
    "latitude": "29.967767585813483",
    "geocoded_column": {
      "latitude": "29.967767585813483",
      "longitude": "-90.03263486144942"
    }
  },
  {
    "service_request": "2026-1280036",
    "request_type": "Streetlights",
    "request_reason": "New Streetlight Request",
    "date_created": "2026-05-08T20:49:22.000",
    "date_modified": "2026-05-08T20:49:24.000",
    "request_status": "Pending",
    "responsible_agency": "Department of Public Works",
    "final_address": "2037 Annette St",
    "address_councildis": "D",
    "status": "Pending",
    "rowid": "1280036",
    "final_x": "3682889.64796",
    "final_y": "539798.121546",
    "longitude": "-90.06339261537788",
    "latitude": "29.97821539767991",
    "geocoded_column": {
      "latitude": "29.97821539767991",
      "longitude": "-90.06339261537788"
    }
  },
  {
    "service_request": "2026-1280035",
    "request_type": "Streetlights",
    "request_reason": "Streetlight Outage/Malfunction",
    "date_created": "2026-05-08T20:43:39.000",
    "date_modified": "2026-05-08T20:43:40.000",
    "request_status": "Pending",
    "responsible_agency": "Department of Public Works",
    "final_address": "2116 Short St",
    "address_councildis": "A",
    "status": "Pending",
    "rowid": "1280035",
    "final_x": "3664504.69869",
    "final_y": "530548.51533",
    "longitude": "-90.12176803508385",
    "latitude": "29.953329490703766",
    "geocoded_column": {
      "latitude": "29.953329490703766",
      "longitude": "-90.12176803508385"
    }
  },
  {
    "service_request": "2026-1280034",
    "request_type": "Health Related Request",
    "request_reason": "Noise Ordinance Complaint",
    "date_created": "2026-05-08T20:43:11.000",
    "date_modified": "2026-05-08T20:43:12.000",
    "request_status": "Pending",
    "responsible_agency": "Health Department",
    "final_address": "801 Bourbon St, New Orleans, Louisiana, 70116",
    "address_councildis": "C",
    "status": "Pending",
    "rowid": "1280034",
    "final_x": "3682490.98735",
    "final_y": "533018.672772",
    "longitude": "-90.06488875731978",
    "latitude": "29.959586396383013",
    "geocoded_column": {
      "latitude": "29.959586396383013",
      "longitude": "-90.06488875731978"
    }
  },
  {
    "service_request": "2026-1280033",
    "request_type": "Health Related Request",
    "request_reason": "Noise Ordinance Complaint",
    "date_created": "2026-05-08T20:42:33.000",
    "date_modified": "2026-05-08T20:42:35.000",
    "request_status": "Pending",
    "responsible_agency": "Health Department",
    "final_address": "800 Bourbon St, New Orleans, Louisiana, 70116",
    "address_councildis": "C",
    "status": "Pending",
    "rowid": "1280033",
    "final_x": "3682553.51528",
    "final_y": "533013.631428",
    "longitude": "-90.06469148499534",
    "latitude": "29.95957063099051",
    "geocoded_column": {
      "latitude": "29.95957063099051",
      "longitude": "-90.06469148499534"
    }
  },
  {
    "service_request": "2026-1280032",
    "request_type": "Streetlights",
    "request_reason": "Streetlight Outage/Malfunction",
    "date_created": "2026-05-08T20:12:47.000",
    "date_modified": "2026-05-08T20:12:49.000",
    "request_status": "Pending",
    "responsible_agency": "Department of Public Works",
    "final_address": "1622 Louisa St",
    "address_councildis": "D",
    "status": "Pending",
    "rowid": "1280032",
    "final_x": "3690042.48937",
    "final_y": "537928.856905",
    "longitude": "-90.04086804224875",
    "latitude": "29.972855663533842",
    "geocoded_column": {
      "latitude": "29.972855663533842",
      "longitude": "-90.04086804224875"
    }
  },
  {
    "service_request": "2026-1280031",
    "request_type": "Tree Service",
    "request_reason": "Tree Trim",
    "date_created": "2026-05-08T19:46:17.000",
    "date_modified": "2026-05-08T19:46:21.000",
    "request_status": "Pending",
    "responsible_agency": "Department of Parks & Parkways",
    "final_address": "2840 Baronne St",
    "address_councildis": "B",
    "status": "Pending",
    "rowid": "1280031",
    "final_x": "3675249.32085",
    "final_y": "522933.719163",
    "longitude": "-90.0881023808918",
    "latitude": "29.93207454518384",
    "geocoded_column": {
      "latitude": "29.93207454518384",
      "longitude": "-90.0881023808918"
    }
  },
  {
    "service_request": "2026-1280030",
    "request_type": "Roads and Streets",
    "request_reason": "Debris in Driving Lanes",
    "date_created": "2026-05-08T19:42:12.000",
    "date_modified": "2026-05-08T19:42:13.000",
    "request_status": "Pending",
    "responsible_agency": "Department of Public Works",
    "final_address": "2251 St Claude Ave",
    "address_councildis": "C",
    "status": "Pending",
    "rowid": "1280030",
    "final_x": "3685549.11938",
    "final_y": "536456.649735",
    "longitude": "-90.0551107946127",
    "latitude": "29.968946204003778",
    "geocoded_column": {
      "latitude": "29.968946204003778",
      "longitude": "-90.0551107946127"
    }
  },
  {
    "service_request": "2026-1280029",
    "request_type": "Tree Service",
    "request_reason": "Tree Trim",
    "date_created": "2026-05-08T19:40:30.000",
    "date_modified": "2026-05-08T19:40:32.000",
    "request_status": "Pending",
    "responsible_agency": "Department of Parks & Parkways",
    "final_address": "5145 General De Gaulle Dr",
    "address_councildis": "C",
    "status": "Pending",
    "rowid": "1280029",
    "final_x": "3703095.64721",
    "final_y": "515846.107828",
    "longitude": "-90.00045525513187",
    "latitude": "29.911724591537467",
    "geocoded_column": {
      "latitude": "29.911724591537467",
      "longitude": "-90.00045525513187"
    }
  },
  {
    "service_request": "2026-1280028",
    "request_type": "Roads and Streets",
    "request_reason": "Pothole",
    "date_created": "2026-05-08T19:35:10.000",
    "date_modified": "2026-05-08T19:35:11.000",
    "request_status": "Pending",
    "responsible_agency": "Department of Public Works",
    "final_address": "1505 Patterson St",
    "address_councildis": "C",
    "status": "Pending",
    "rowid": "1280028",
    "final_x": "3690315.08508",
    "final_y": "530998.808002",
    "longitude": "-90.04025412379448",
    "latitude": "29.953791994247027",
    "geocoded_column": {
      "latitude": "29.953791994247027",
      "longitude": "-90.04025412379448"
    }
  },
  {
    "service_request": "2026-1280027",
    "request_type": "Roads and Streets",
    "request_reason": "Street Subsidence (Sinking)",
    "date_created": "2026-05-08T19:32:53.000",
    "date_modified": "2026-05-08T19:32:54.000",
    "request_status": "Pending",
    "responsible_agency": "Sewerage & Water Board",
    "final_address": "1600 Kabel Dr",
    "address_councildis": "C",
    "status": "Pending",
    "rowid": "1280027",
    "final_x": "3700822.99178",
    "final_y": "521996.491706",
    "longitude": "-90.00740365711032",
    "latitude": "29.928708535170298",
    "geocoded_column": {
      "latitude": "29.928708535170298",
      "longitude": "-90.00740365711032"
    }
  },
  {
    "service_request": "2026-1280026",
    "request_type": "Trash/Recycling",
    "request_reason": "Order Second Trash Cart",
    "date_created": "2026-05-08T19:25:13.000",
    "date_modified": "2026-05-08T19:25:16.000",
    "request_status": "Pending",
    "responsible_agency": "Department of Sanitation",
    "final_address": "2665 Abundance St",
    "address_councildis": "D",
    "status": "Assigned to Contractor",
    "contractor": "IV Waste",
    "rowid": "1280026",
    "final_x": "3687946.78966",
    "final_y": "543993.76475",
    "longitude": "-90.04727166000885",
    "latitude": "29.989596840813086",
    "geocoded_column": {
      "latitude": "29.989596840813086",
      "longitude": "-90.04727166000885"
    }
  },
  {
    "service_request": "2026-1280025",
    "request_type": "Trash/Recycling",
    "request_reason": "Repair Trash Cart",
    "date_created": "2026-05-08T19:03:18.000",
    "date_modified": "2026-05-08T19:03:20.000",
    "request_status": "Pending",
    "responsible_agency": "Department of Sanitation",
    "final_address": "724 Napoleon Ave",
    "address_councildis": "B",
    "status": "Assigned to Contractor",
    "contractor": "IV Waste",
    "rowid": "1280025",
    "final_x": "3671014.41895",
    "final_y": "518227.450102",
    "longitude": "-90.10163127678392",
    "latitude": "29.919259675632095",
    "geocoded_column": {
      "latitude": "29.919259675632095",
      "longitude": "-90.10163127678392"
    }
  },
  {
    "service_request": "2026-1280024",
    "request_type": "Tree Service",
    "request_reason": "Street or Sidewalk Blocked",
    "date_created": "2026-05-08T18:39:51.000",
    "date_modified": "2026-05-09T10:19:15.000",
    "request_status": "Pending",
    "responsible_agency": "Department of Parks & Parkways",
    "final_address": "ST CLAUDE AVE & ELYSIAN FIELDS AVE",
    "address_councildis": "C",
    "status": "Pending",
    "rowid": "1280024",
    "final_x": "3684962.3",
    "final_y": "536299.18",
    "longitude": "-90.05696954489969",
    "latitude": "29.96853120354274",
    "geocoded_column": {
      "latitude": "29.96853120354274",
      "longitude": "-90.05696954489969"
    }
  },
  {
    "service_request": "2026-1280023",
    "request_type": "Drainage",
    "request_reason": "Catch Basin Not Draining",
    "date_created": "2026-05-08T17:53:07.000",
    "date_modified": "2026-05-08T17:53:10.000",
    "request_status": "Pending",
    "responsible_agency": "Sewerage & Water Board",
    "final_address": "3300 Palmyra St",
    "address_councildis": "B",
    "status": "Pending",
    "rowid": "1280023",
    "final_x": "3673015.32756",
    "final_y": "535775.136263",
    "longitude": "-90.09471667048695",
    "latitude": "29.96745077213938",
    "geocoded_column": {
      "latitude": "29.96745077213938",
      "longitude": "-90.09471667048695"
    }
  },
  {
    "service_request": "2026-1280022",
    "request_type": "Roads and Streets",
    "request_reason": "Pothole",
    "date_created": "2026-05-08T17:49:08.000",
    "date_modified": "2026-05-08T17:49:10.000",
    "request_status": "Pending",
    "responsible_agency": "Department of Public Works",
    "final_address": "1400 BLK Pauger St",
    "address_councildis": "C",
    "status": "Pending",
    "rowid": "1280022",
    "final_x": "3683969.99128",
    "final_y": "535027.134786",
    "longitude": "-90.06014793971664",
    "latitude": "29.965063874581816",
    "geocoded_column": {
      "latitude": "29.965063874581816",
      "longitude": "-90.06014793971664"
    }
  },
  {
    "service_request": "2026-1280021",
    "request_type": "Tree Service",
    "request_reason": "Street or Sidewalk Blocked",
    "date_created": "2026-05-08T17:47:05.000",
    "date_modified": "2026-05-08T17:47:07.000",
    "request_status": "Pending",
    "responsible_agency": "Department of Parks & Parkways",
    "final_address": "2247 St Claude Ave",
    "address_councildis": "C",
    "status": "Pending",
    "rowid": "1280021",
    "final_x": "3685510.8911",
    "final_y": "536451.937223",
    "longitude": "-90.05523168779702",
    "latitude": "29.968934418766807",
    "geocoded_column": {
      "latitude": "29.968934418766807",
      "longitude": "-90.05523168779702"
    }
  },
  {
    "service_request": "2026-1280020",
    "request_type": "Health Related Request",
    "request_reason": "Noise Ordinance Complaint",
    "date_created": "2026-05-08T17:28:35.000",
    "date_modified": "2026-05-08T17:28:37.000",
    "request_status": "Pending",
    "responsible_agency": "Health Department",
    "final_address": "3819 Herschel St, New Orleans, Louisiana, 70114",
    "address_councildis": "C",
    "status": "Pending",
    "rowid": "1280020",
    "final_x": "3697822.90141",
    "final_y": "521008.288313",
    "longitude": "-90.01691010511081",
    "latitude": "29.92608643113844",
    "geocoded_column": {
      "latitude": "29.92608643113844",
      "longitude": "-90.01691010511081"
    }
  },
  {
    "service_request": "2026-1280019",
    "request_type": "Trash/Recycling",
    "request_reason": "Damaged Caused By Contractor",
    "date_created": "2026-05-08T17:19:39.000",
    "date_modified": "2026-05-08T17:19:41.000",
    "request_status": "Pending",
    "responsible_agency": "Department of Sanitation",
    "final_address": "6960 Bellaire Dr",
    "address_councildis": "A",
    "status": "Assigned to Contractor",
    "contractor": "IV Waste",
    "rowid": "1280019",
    "final_x": "3664608.8857",
    "final_y": "554261.294296",
    "longitude": "-90.12064662613697",
    "latitude": "30.018528601727738",
    "geocoded_column": {
      "latitude": "30.018528601727738",
      "longitude": "-90.12064662613697"
    }
  },
  {
    "service_request": "2026-1280018",
    "request_type": "Abandoned Vehicles",
    "request_reason": "Abandoned/Junk Vehicles",
    "date_created": "2026-05-08T17:15:42.000",
    "date_modified": "2026-05-08T17:15:44.000",
    "request_status": "Pending",
    "responsible_agency": "Department of Public Works",
    "final_address": "4209 St Charles Ave",
    "address_councildis": "B",
    "status": "Pending",
    "rowid": "1280018",
    "final_x": "3671473.47886",
    "final_y": "521072.224313",
    "longitude": "-90.10008560873199",
    "latitude": "29.927068321145015",
    "geocoded_column": {
      "latitude": "29.927068321145015",
      "longitude": "-90.10008560873199"
    }
  },
  {
    "service_request": "2026-1280017",
    "request_type": "Drainage",
    "request_reason": "Catch Basin Not Draining",
    "date_created": "2026-05-08T17:03:12.000",
    "date_modified": "2026-05-08T17:03:14.000",
    "request_status": "Pending",
    "responsible_agency": "Sewerage & Water Board",
    "final_address": "1441 N Claiborne Ave",
    "address_councildis": "C",
    "status": "Pending",
    "rowid": "1280017",
    "final_x": "3681406.80924",
    "final_y": "536919.708872",
    "longitude": "-90.06817632634565",
    "latitude": "29.97034586530749",
    "geocoded_column": {
      "latitude": "29.97034586530749",
      "longitude": "-90.06817632634565"
    }
  },
  {
    "service_request": "2026-1280016",
    "request_type": "Roads and Streets",
    "request_reason": "Street Subsidence (Sinking)",
    "date_created": "2026-05-08T16:58:15.000",
    "date_modified": "2026-05-08T16:58:19.000",
    "request_status": "Pending",
    "responsible_agency": "Sewerage & Water Board",
    "final_address": "5115 Pratt Dr",
    "address_councildis": "D",
    "status": "Pending",
    "rowid": "1280016",
    "final_x": "3680569.06408",
    "final_y": "551242.521621",
    "longitude": "-90.07032343265804",
    "latitude": "30.00975396437037",
    "geocoded_column": {
      "latitude": "30.00975396437037",
      "longitude": "-90.07032343265804"
    }
  },
  {
    "service_request": "2026-1280015",
    "request_type": "Tree Service",
    "request_reason": "Street or Sidewalk Blocked",
    "date_created": "2026-05-08T16:43:20.000",
    "date_modified": "2026-05-08T16:43:21.000",
    "request_status": "Pending",
    "responsible_agency": "Department of Parks & Parkways",
    "final_address": "2200 Broadway St",
    "address_councildis": "A",
    "status": "Pending",
    "rowid": "1280015",
    "final_x": "3666121.59629",
    "final_y": "529495.560897",
    "longitude": "-90.11669784765591",
    "latitude": "29.950387099772076",
    "geocoded_column": {
      "latitude": "29.950387099772076",
      "longitude": "-90.11669784765591"
    }
  },
  {
    "service_request": "2026-1280014",
    "request_type": "Streetlights",
    "request_reason": "Streetlight Knocked Down/Leaning",
    "date_created": "2026-05-08T16:39:22.000",
    "date_modified": "2026-05-08T16:39:23.000",
    "request_status": "Pending",
    "responsible_agency": "Department of Public Works",
    "final_address": "1500 BLK Canal St",
    "address_councildis": "B",
    "status": "Pending",
    "rowid": "1280014",
    "final_x": "3678804.9455",
    "final_y": "532439.780381",
    "longitude": "-90.07654847874564",
    "latitude": "29.958106321688856",
    "geocoded_column": {
      "latitude": "29.958106321688856",
      "longitude": "-90.07654847874564"
    }
  },
  {
    "service_request": "2026-1280013",
    "request_type": "Trash/Recycling",
    "request_reason": "Order Trash Cart",
    "date_created": "2026-05-08T16:27:01.000",
    "date_modified": "2026-05-08T16:27:02.000",
    "request_status": "Pending",
    "responsible_agency": "Department of Sanitation",
    "final_address": "4540 Urquhart St",
    "address_councildis": "D",
    "status": "Assigned to Contractor",
    "contractor": "IV Waste",
    "rowid": "1280013",
    "final_x": "3693816.22141",
    "final_y": "535536.25959",
    "longitude": "-90.0290359478065",
    "latitude": "29.96615928809815",
    "geocoded_column": {
      "latitude": "29.96615928809815",
      "longitude": "-90.0290359478065"
    }
  },
  {
    "service_request": "2026-1280012",
    "request_type": "Drainage",
    "request_reason": "Catch Basin Not Draining",
    "date_created": "2026-05-08T16:24:53.000",
    "date_modified": "2026-05-08T16:24:56.000",
    "request_status": "Pending",
    "responsible_agency": "Sewerage & Water Board",
    "final_address": "6408 Bertha Dr",
    "address_councildis": "D",
    "status": "Pending",
    "rowid": "1280012",
    "final_x": "3677985.29838",
    "final_y": "556758.797466",
    "longitude": "-90.07829558792753",
    "latitude": "30.02499978474412",
    "geocoded_column": {
      "latitude": "30.02499978474412",
      "longitude": "-90.07829558792753"
    }
  },
  {
    "service_request": "2026-1280011",
    "request_type": "Drainage",
    "request_reason": "Catch Basin Not Draining",
    "date_created": "2026-05-08T16:20:41.000",
    "date_modified": "2026-05-08T16:20:43.000",
    "request_status": "Pending",
    "responsible_agency": "Sewerage & Water Board",
    "final_address": "246 Audubon Blvd",
    "address_councildis": "A",
    "status": "Pending",
    "rowid": "1280011",
    "final_x": "3666447.64999",
    "final_y": "528967.632192",
    "longitude": "-90.11568605014573",
    "latitude": "29.94892594380154",
    "geocoded_column": {
      "latitude": "29.94892594380154",
      "longitude": "-90.11568605014573"
    }
  },
  {
    "service_request": "2026-1280010",
    "request_type": "Trash/Recycling",
    "request_reason": "Return Recycling Cart",
    "date_created": "2026-05-08T16:17:48.000",
    "date_modified": "2026-05-08T16:17:49.000",
    "request_status": "Pending",
    "responsible_agency": "Department of Sanitation",
    "final_address": "5340 Lacour Monique St",
    "address_councildis": "C",
    "status": "Pending",
    "rowid": "1280010",
    "final_x": "3703657.1409",
    "final_y": "517951.705654",
    "longitude": "-89.99860563788249",
    "latitude": "29.917496291672762",
    "geocoded_column": {
      "latitude": "29.917496291672762",
      "longitude": "-89.99860563788249"
    }
  },
  {
    "service_request": "2026-1280009",
    "request_type": "Trash/Recycling",
    "request_reason": "MIssed Recycling Pick-Up",
    "date_created": "2026-05-08T16:17:24.000",
    "date_modified": "2026-05-08T16:17:26.000",
    "request_status": "Pending",
    "responsible_agency": "Department of Sanitation",
    "final_address": "426 Tricou St",
    "address_councildis": "E",
    "status": "Assigned to Contractor",
    "contractor": "Waste Pro",
    "rowid": "1280009",
    "final_x": "3699250.51216",
    "final_y": "530926.386114",
    "longitude": "-90.01204255643427",
    "latitude": "29.95331256971356",
    "geocoded_column": {
      "latitude": "29.95331256971356",
      "longitude": "-90.01204255643427"
    }
  },
  {
    "service_request": "2026-1280008",
    "request_type": "Trash/Recycling",
    "request_reason": "Request a Large Item Pick Up",
    "date_created": "2026-05-08T16:04:26.000",
    "date_modified": "2026-05-08T16:04:28.000",
    "request_status": "Pending",
    "responsible_agency": "Department of Sanitation",
    "final_address": "1814 Lizardi St",
    "address_councildis": "E",
    "status": "Assigned to Contractor",
    "contractor": "Waste Pro",
    "rowid": "1280008",
    "final_x": "3697261.31555",
    "final_y": "536871.47508",
    "longitude": "-90.01810808048481",
    "latitude": "29.96972237583144",
    "geocoded_column": {
      "latitude": "29.96972237583144",
      "longitude": "-90.01810808048481"
    }
  },
  {
    "service_request": "2026-1280007",
    "request_type": "Streetlights",
    "request_reason": "Streetlight Knocked Down/Leaning",
    "date_created": "2026-05-08T16:03:49.000",
    "date_modified": "2026-05-08T16:03:50.000",
    "request_status": "Pending",
    "responsible_agency": "Department of Public Works",
    "final_address": "2475 Marr Ave",
    "address_councildis": "C",
    "status": "Pending",
    "rowid": "1280007",
    "final_x": "3691331.36214",
    "final_y": "520788.563961",
    "longitude": "-90.03740977804928",
    "latitude": "29.92568573579254",
    "geocoded_column": {
      "latitude": "29.92568573579254",
      "longitude": "-90.03740977804928"
    }
  },
  {
    "service_request": "2026-1280006",
    "request_type": "Trash/Recycling",
    "request_reason": "Return Trash Cart",
    "date_created": "2026-05-08T16:00:11.000",
    "date_modified": "2026-05-08T16:00:46.000",
    "request_status": "Pending",
    "responsible_agency": "Department of Sanitation",
    "final_address": "1901 Shalett St",
    "address_councildis": "C",
    "status": "Assigned to Contractor",
    "contractor": "Richards Disposal",
    "rowid": "1280006",
    "final_x": "3694180.39939",
    "final_y": "523358.556923",
    "longitude": "-90.028323876272",
    "latitude": "29.932663435049072",
    "geocoded_column": {
      "latitude": "29.932663435049072",
      "longitude": "-90.028323876272"
    }
  },
  {
    "service_request": "2026-1280005",
    "request_type": "Streetlights",
    "request_reason": "Streetlight Outage/Malfunction",
    "date_created": "2026-05-08T15:59:42.000",
    "date_modified": "2026-05-08T16:02:27.000",
    "request_status": "Pending",
    "responsible_agency": "Department of Public Works",
    "final_address": "2473 Marr Ave",
    "address_councildis": "C",
    "status": "Pending",
    "rowid": "1280005",
    "final_x": "3691333.23715",
    "final_y": "520850.824313",
    "longitude": "-90.03740163642536",
    "latitude": "29.925856872507403",
    "geocoded_column": {
      "latitude": "29.925856872507403",
      "longitude": "-90.03740163642536"
    }
  },
  {
    "service_request": "2026-1280004",
    "request_type": "Property Maintenance",
    "request_reason": "Property Maintenance",
    "date_created": "2026-05-08T15:54:08.000",
    "date_modified": "2026-05-08T15:54:10.000",
    "request_status": "Pending",
    "responsible_agency": "Department of Code Enforcement",
    "final_address": "1200 Delery St",
    "address_councildis": "E",
    "status": "Pending",
    "rowid": "1280004",
    "final_x": "3700549.92279",
    "final_y": "533320.838404",
    "longitude": "-90.00785214292894",
    "latitude": "29.959855197368334",
    "geocoded_column": {
      "latitude": "29.959855197368334",
      "longitude": "-90.00785214292894"
    }
  },
  {
    "service_request": "2026-1280003",
    "request_type": "Trash/Recycling",
    "request_reason": "Replace Trash Cart",
    "date_created": "2026-05-08T15:50:41.000",
    "date_modified": "2026-05-08T16:25:33.000",
    "request_status": "Pending",
    "responsible_agency": "Department of Sanitation",
    "final_address": "6330 Stratford Pl",
    "address_councildis": "C",
    "status": "Pending",
    "contractor": "Richards Disposal",
    "rowid": "1280003",
    "final_x": "3707448.98411",
    "final_y": "516229.432628",
    "longitude": "-89.98670091406831",
    "latitude": "29.9126386428475",
    "geocoded_column": {
      "latitude": "29.9126386428475",
      "longitude": "-89.98670091406831"
    }
  },
  {
    "service_request": "2026-1280002",
    "request_type": "Streetlights",
    "request_reason": "Streetlight Outage/Malfunction",
    "date_created": "2026-05-08T15:49:36.000",
    "date_modified": "2026-05-08T16:01:13.000",
    "request_status": "Pending",
    "responsible_agency": "Department of Public Works",
    "final_address": "5200 BLK N Prieur St",
    "address_councildis": "E",
    "status": "Pending",
    "rowid": "1280002",
    "final_x": "3697502.64269",
    "final_y": "537078.574909",
    "longitude": "-90.01733844032988",
    "latitude": "29.970284207353615",
    "geocoded_column": {
      "latitude": "29.970284207353615",
      "longitude": "-90.01733844032988"
    }
  },
  {
    "service_request": "2026-1280001",
    "request_type": "Drainage",
    "request_reason": "Catch Basin Not Draining",
    "date_created": "2026-05-08T15:42:58.000",
    "date_modified": "2026-05-08T15:44:37.000",
    "request_status": "Pending",
    "responsible_agency": "Sewerage & Water Board",
    "final_address": "3125 Esplanade Ave",
    "address_councildis": "A",
    "status": "Pending",
    "rowid": "1280001",
    "final_x": "3676360.85077",
    "final_y": "540481.313675",
    "longitude": "-90.08398939135179",
    "latitude": "29.980291287751943",
    "geocoded_column": {
      "latitude": "29.980291287751943",
      "longitude": "-90.08398939135179"
    }
  },
  {
    "service_request": "2026-1280000",
    "request_type": "Abandoned Vehicles",
    "request_reason": "Abandoned/Junk Vehicles",
    "date_created": "2026-05-08T15:42:31.000",
    "date_modified": "2026-05-08T15:42:33.000",
    "request_status": "Pending",
    "responsible_agency": "Department of Public Works",
    "final_address": "3136 N Robertson St",
    "address_councildis": "C",
    "status": "Pending",
    "rowid": "1280000",
    "final_x": "3689649.66588",
    "final_y": "537373.737224",
    "longitude": "-90.04212840504819",
    "latitude": "29.971341457662255",
    "geocoded_column": {
      "latitude": "29.971341457662255",
      "longitude": "-90.04212840504819"
    }
  },
  {
    "service_request": "2026-1279998",
    "request_type": "Trash/Recycling",
    "request_reason": "Request a Large Item Pick Up",
    "date_created": "2026-05-08T15:40:02.000",
    "date_modified": "2026-05-08T15:40:04.000",
    "request_status": "Pending",
    "responsible_agency": "Department of Sanitation",
    "final_address": "1910 Jo Ann Pl",
    "address_councildis": "C",
    "status": "Assigned to Contractor",
    "contractor": "Richards Disposal",
    "rowid": "1279998",
    "final_x": "3695043.47402",
    "final_y": "523651.809787",
    "longitude": "-90.02558866824054",
    "latitude": "29.933442723605456",
    "geocoded_column": {
      "latitude": "29.933442723605456",
      "longitude": "-90.02558866824054"
    }
  },
  {
    "service_request": "2026-1279999",
    "request_type": "Trash/Recycling",
    "request_reason": "Missed Trash Pick-Up",
    "date_created": "2026-05-08T15:40:02.000",
    "date_modified": "2026-05-08T15:40:04.000",
    "request_status": "Pending",
    "responsible_agency": "Department of Sanitation",
    "final_address": "6552 Virgilian St",
    "address_councildis": "D",
    "status": "Assigned to Contractor",
    "contractor": "Waste Pro",
    "rowid": "1279999",
    "final_x": "3697192.93136",
    "final_y": "555436.854617",
    "longitude": "-90.01765082661952",
    "latitude": "30.020772486847964",
    "geocoded_column": {
      "latitude": "30.020772486847964",
      "longitude": "-90.01765082661952"
    }
  },
  {
    "service_request": "2026-1279997",
    "request_type": "Trash/Recycling",
    "request_reason": "Request a Large Item Pick Up",
    "date_created": "2026-05-08T15:38:54.000",
    "date_modified": "2026-05-08T15:38:56.000",
    "request_status": "Pending",
    "responsible_agency": "Department of Sanitation",
    "final_address": "2680 Hyman Pl",
    "address_councildis": "C",
    "status": "Assigned to Contractor",
    "contractor": "Richards Disposal",
    "rowid": "1279997",
    "final_x": "3701095.7873",
    "final_y": "521007.919225",
    "longitude": "-90.00657863843114",
    "latitude": "29.92598161961801",
    "geocoded_column": {
      "latitude": "29.92598161961801",
      "longitude": "-90.00657863843114"
    }
  },
  {
    "service_request": "2026-1279996",
    "request_type": "Abandoned Vehicles",
    "request_reason": "Abandoned/Junk Vehicles",
    "date_created": "2026-05-08T15:38:21.000",
    "date_modified": "2026-05-08T15:38:23.000",
    "request_status": "Pending",
    "responsible_agency": "Department of Public Works",
    "final_address": "1410 Clouet St",
    "address_councildis": "C",
    "status": "Pending",
    "rowid": "1279996",
    "final_x": "3689273.44886",
    "final_y": "537221.4658",
    "longitude": "-90.0433219619216",
    "latitude": "29.970934416462832",
    "geocoded_column": {
      "latitude": "29.970934416462832",
      "longitude": "-90.0433219619216"
    }
  },
  {
    "service_request": "2026-1279995",
    "request_type": "General Services",
    "request_reason": "General Service Request",
    "date_created": "2026-05-08T15:32:01.000",
    "date_modified": "2026-05-08T16:48:12.000",
    "case_close_date": "2026-05-08T11:48:11.000",
    "request_status": "Closed",
    "responsible_agency": "Orleans Parish Communication District",
    "final_address": "2209 Calhoun St",
    "address_councildis": "A",
    "status": "Referred to Risk Management",
    "rowid": "1279995",
    "final_x": "3665859.21844",
    "final_y": "525147.740669",
    "longitude": "-90.11767195012914",
    "latitude": "29.938439652073026",
    "geocoded_column": {
      "latitude": "29.938439652073026",
      "longitude": "-90.11767195012914"
    }
  },
  {
    "service_request": "2026-1279994",
    "request_type": "Taxi Issues",
    "request_reason": "Transportation For Hire Complaint",
    "date_created": "2026-05-08T15:30:11.000",
    "date_modified": "2026-05-08T15:30:13.000",
    "request_status": "Pending",
    "responsible_agency": "Department of Public Works",
    "final_address": "739 Conti St",
    "address_councildis": "C",
    "status": "Pending",
    "rowid": "1279994",
    "final_x": "3681662.79919",
    "final_y": "531797.144707",
    "longitude": "-90.0675465934039",
    "latitude": "29.95625279271357",
    "geocoded_column": {
      "latitude": "29.95625279271357",
      "longitude": "-90.0675465934039"
    }
  },
  {
    "service_request": "2026-1279993",
    "request_type": "Abandoned Vehicles",
    "request_reason": "Abandoned/Junk Vehicles",
    "date_created": "2026-05-08T15:30:01.000",
    "date_modified": "2026-05-08T15:30:03.000",
    "request_status": "Pending",
    "responsible_agency": "Department of Public Works",
    "final_address": "MORRISON RD & LAKE WILLOW DR",
    "address_councildis": "E",
    "status": "Pending",
    "rowid": "1279993",
    "final_x": "3702281.8",
    "final_y": "560148.18",
    "longitude": "-90.00139856976044",
    "latitude": "30.033565163286042",
    "geocoded_column": {
      "latitude": "30.033565163286042",
      "longitude": "-90.00139856976044"
    }
  },
  {
    "service_request": "2026-1279992",
    "request_type": "General Services",
    "request_reason": "General Service Request",
    "date_created": "2026-05-08T15:27:22.000",
    "date_modified": "2026-05-08T17:06:42.000",
    "case_close_date": "2026-05-08T12:06:42.000",
    "request_status": "Closed",
    "responsible_agency": "Orleans Parish Communication District",
    "final_address": "1300 Perdido St, New Orleans, LA 70112",
    "address_councildis": "B",
    "status": "Additional information requested from citizen",
    "rowid": "1279992",
    "final_x": "3678683.48347",
    "final_y": "530227.987073",
    "longitude": "-90.07700859883013",
    "latitude": "29.952028297123956",
    "geocoded_column": {
      "latitude": "29.952028297123956",
      "longitude": "-90.07700859883013"
    }
  },
  {
    "service_request": "2026-1279991",
    "request_type": "Abandoned Vehicles",
    "request_reason": "Abandoned/Junk Vehicles",
    "date_created": "2026-05-08T15:22:53.000",
    "date_modified": "2026-05-08T15:22:54.000",
    "request_status": "Pending",
    "responsible_agency": "Department of Public Works",
    "final_address": "LAKE WILLOW DR & LAWRENCE RD",
    "address_councildis": "E",
    "status": "Pending",
    "rowid": "1279991",
    "final_x": "3703301.1",
    "final_y": "558741.68",
    "longitude": "-89.99822928011318",
    "latitude": "30.029665217931914",
    "geocoded_column": {
      "latitude": "30.029665217931914",
      "longitude": "-89.99822928011318"
    }
  },
  {
    "service_request": "2026-1279990",
    "request_type": "Abandoned Vehicles",
    "request_reason": "Abandoned/Junk Vehicles",
    "date_created": "2026-05-08T15:22:19.000",
    "date_modified": "2026-05-08T15:22:20.000",
    "request_status": "Pending",
    "responsible_agency": "Department of Public Works",
    "final_address": "7440 Dalewood Rd",
    "address_councildis": "E",
    "status": "Pending",
    "rowid": "1279990",
    "final_x": "3700035.93834",
    "final_y": "559904.947741",
    "longitude": "-90.00850458536597",
    "latitude": "30.03296795947768",
    "geocoded_column": {
      "latitude": "30.03296795947768",
      "longitude": "-90.00850458536597"
    }
  },
  {
    "service_request": "2026-1279989",
    "request_type": "Property Maintenance",
    "request_reason": "Property Maintenance",
    "date_created": "2026-05-08T15:22:14.000",
    "date_modified": "2026-05-08T15:30:00.000",
    "case_close_date": "2026-05-08T10:29:59.000",
    "request_status": "Closed",
    "responsible_agency": "Department of Code Enforcement",
    "final_address": "2432 Feliciana St",
    "address_councildis": "D",
    "status": "Referred to Code Enforcement",
    "rowid": "1279989",
    "final_x": "3689995.99113",
    "final_y": "541249.882508",
    "longitude": "-90.04089658919877",
    "latitude": "29.981988747447808",
    "geocoded_column": {
      "latitude": "29.981988747447808",
      "longitude": "-90.04089658919877"
    }
  },
  {
    "service_request": "2026-1279988",
    "request_type": "Tree Service",
    "request_reason": "Blocking Stop Sign or Traffic Signal",
    "date_created": "2026-05-08T15:20:04.000",
    "date_modified": "2026-05-08T15:20:05.000",
    "request_status": "Pending",
    "responsible_agency": "Department of Parks & Parkways",
    "final_address": "994 Chapelle St",
    "address_councildis": "A",
    "status": "Pending",
    "rowid": "1279988",
    "final_x": "3671277.07239",
    "final_y": "552422.764502",
    "longitude": "-90.09964008049693",
    "latitude": "30.013277564771663",
    "geocoded_column": {
      "latitude": "30.013277564771663",
      "longitude": "-90.09964008049693"
    }
  },
  {
    "service_request": "2026-1279987",
    "request_type": "Roads and Streets",
    "request_reason": "Pothole",
    "date_created": "2026-05-08T15:19:55.000",
    "date_modified": "2026-05-08T15:19:57.000",
    "request_status": "Pending",
    "responsible_agency": "Department of Public Works",
    "final_address": "2600 BLK Halsey Ave",
    "address_councildis": "C",
    "status": "Pending",
    "rowid": "1279987",
    "final_x": "3697668.4104",
    "final_y": "521412.500598",
    "longitude": "-90.01738313150247",
    "latitude": "29.927202756103277",
    "geocoded_column": {
      "latitude": "29.927202756103277",
      "longitude": "-90.01738313150247"
    }
  },
  {
    "service_request": "2026-1279986",
    "request_type": "Roads and Streets",
    "request_reason": "Sidewalk Damaged or Missing",
    "date_created": "2026-05-08T15:19:24.000",
    "date_modified": "2026-05-08T15:19:25.000",
    "request_status": "Pending",
    "responsible_agency": "Department of Public Works",
    "final_address": "7040 Pinebrook Dr",
    "address_councildis": "E",
    "status": "Pending",
    "rowid": "1279986",
    "final_x": "3719515.24729",
    "final_y": "569711.089126",
    "longitude": "-89.94657390819788",
    "latitude": "30.05929716283975",
    "geocoded_column": {
      "latitude": "30.05929716283975",
      "longitude": "-89.94657390819788"
    }
  },
  {
    "service_request": "2026-1279985",
    "request_type": "Tree Service",
    "request_reason": "Dead or Dying Tree",
    "date_created": "2026-05-08T15:14:50.000",
    "date_modified": "2026-05-08T15:14:52.000",
    "request_status": "Pending",
    "responsible_agency": "Department of Parks & Parkways",
    "final_address": "7040 Pinebrook Dr",
    "address_councildis": "E",
    "status": "Pending",
    "rowid": "1279985",
    "final_x": "3719515.24729",
    "final_y": "569711.089126",
    "longitude": "-89.94657390819788",
    "latitude": "30.05929716283975",
    "geocoded_column": {
      "latitude": "30.05929716283975",
      "longitude": "-89.94657390819788"
    }
  },
  {
    "service_request": "2026-1279984",
    "request_type": "Property Maintenance",
    "request_reason": "Property Maintenance",
    "date_created": "2026-05-08T15:14:46.000",
    "date_modified": "2026-05-08T15:26:13.000",
    "case_close_date": "2026-05-08T10:26:12.000",
    "request_status": "Closed",
    "responsible_agency": "Department of Code Enforcement",
    "final_address": "1707 Odeon St",
    "address_councildis": "C",
    "status": "Referred to Code Enforcement",
    "rowid": "1279984",
    "final_x": "3695893.98454",
    "final_y": "525038.318525",
    "longitude": "-90.02285360903475",
    "latitude": "29.937228427974002",
    "geocoded_column": {
      "latitude": "29.937228427974002",
      "longitude": "-90.02285360903475"
    }
  },