[
  {
    "service_request": "2021-842052",
    "request_type": "Traffic Signals/Signs/Striping/Streetlights",
    "request_reason": "Traffic Signal Malfunctioning/Damaged",
    "date_created": "2021-11-15T00:14:38.000",
    "date_modified": "2021-11-15T01:01:51.000",
    "request_status": "Pending",
    "responsible_agency": "Department of Public Works",
    "final_address": "2736 S Carrollton Ave, New Orleans, Louisiana, 70118",
    "address_councildis": "A",
    "status": "Pending",
    "rowid": "842052",
    "final_x": "3665765.90106",
    "final_y": "532619.958852",
    "longitude": "-90.11771629229047",
    "latitude": "29.958988555926965",
    "geocoded_column": {
      "latitude": "29.958988555926965",
      "longitude": "-90.11771629229047"
    }
  },
  {
    "service_request": "2021-842051",
    "request_type": "Traffic Signals/Signs/Striping/Streetlights",
    "request_reason": "Street Light Outage/Malfunction",
    "date_created": "2021-11-14T22:51:20.000",
    "date_modified": "2021-11-14T22:51:21.000",
    "request_status": "Pending",
    "responsible_agency": "Department of Public Works",
    "final_address": "APRICOT ST & S CARROLLTON AVE & WALMSLEY AVE",
    "address_councildis": "B",
    "status": "Pending",
    "contractor": "Royal Engineering",
    "rowid": "842051",
    "final_x": "3665915.9",
    "final_y": "532544.68",
    "longitude": "-90.11724515405595",
    "latitude": "29.95877718726222",
    "geocoded_column": {
      "latitude": "29.95877718726222",
      "longitude": "-90.11724515405595"
    }
  },
  {
    "service_request": "2021-842050",
    "request_type": "Trash/Recycling",
    "request_reason": "Order Trash Cart",
    "date_created": "2021-11-14T22:04:02.000",
    "date_modified": "2021-11-14T22:04:03.000",
    "request_status": "Pending",
    "responsible_agency": "Department of Sanitation",
    "final_address": "708 Louisa St",
    "address_councildis": "C",
    "status": "Assigned to Contractor",
    "contractor": "Metro Disposal",
    "rowid": "842050",
    "final_x": "3689164.24387",
    "final_y": "534468.382725",
    "longitude": "-90.04376469609731",
    "latitude": "29.963367781935183",
    "geocoded_column": {
      "latitude": "29.963367781935183",
      "longitude": "-90.04376469609731"
    }
  },
  {
    "service_request": "2021-842049",
    "request_type": "Traffic Signals/Signs/Striping/Streetlights",
    "request_reason": "Street Light Outage/Malfunction",
    "date_created": "2021-11-14T21:51:39.000",
    "date_modified": "2021-11-14T21:51:40.000",
    "request_status": "Pending",
    "responsible_agency": "Department of Public Works",
    "final_address": "2139 St Charles Ave",
    "address_councildis": "B",
    "status": "Pending",
    "contractor": "Royal Engineering",
    "rowid": "842049",
    "final_x": "3677621.90754",
    "final_y": "523797.543291",
    "longitude": "-90.08058254632918",
    "latitude": "29.934378668248424",
    "geocoded_column": {
      "latitude": "29.934378668248424",
      "longitude": "-90.08058254632918"
    }
  },
  {
    "service_request": "2021-842048",
    "request_type": "Traffic Signals/Signs/Striping/Streetlights",
    "request_reason": "Street Light Outage/Malfunction",
    "date_created": "2021-11-14T21:51:15.000",
    "date_modified": "2021-11-14T21:51:15.000",
    "request_status": "Pending",
    "responsible_agency": "Department of Public Works",
    "final_address": "2139 St Charles Ave",
    "address_councildis": "B",
    "status": "Pending",
    "contractor": "Royal Engineering",
    "rowid": "842048",
    "final_x": "3677621.90754",
    "final_y": "523797.543291",
    "longitude": "-90.08058254632918",
    "latitude": "29.934378668248424",
    "geocoded_column": {
      "latitude": "29.934378668248424",
      "longitude": "-90.08058254632918"
    }
  },
  {
    "service_request": "2021-842047",
    "request_type": "Safety & Permits",
    "request_reason": "Construction permit",
    "date_created": "2021-11-14T21:35:07.000",
    "date_modified": "2021-11-14T21:35:07.000",
    "request_status": "Pending",
    "responsible_agency": "Department of Code Enforcement",
    "final_address": "1301 Desire St",
    "address_councildis": "C",
    "status": "Pending",
    "rowid": "842047",
    "final_x": "3690422.09353",
    "final_y": "536497.467079",
    "longitude": "-90.03972022048657",
    "latitude": "29.96890806735299",
    "geocoded_column": {
      "latitude": "29.96890806735299",
      "longitude": "-90.03972022048657"
    }
  },
  {
    "service_request": "2021-842046",
    "request_type": "Health Related Questions",
    "request_reason": "Noise Ordinance Complaint",
    "date_created": "2021-11-14T21:13:25.000",
    "date_modified": "2021-11-14T21:13:25.000",
    "request_status": "Pending",
    "responsible_agency": "Health Department",
    "final_address": "1840 Thalia St",
    "address_councildis": "B",
    "status": "Pending",
    "rowid": "842046",
    "final_x": "3678285.10952",
    "final_y": "526424.228542",
    "longitude": "-90.07839801692222",
    "latitude": "29.941581232367827",
    "geocoded_column": {
      "latitude": "29.941581232367827",
      "longitude": "-90.07839801692222"
    }
  },
  {
    "service_request": "2021-842045",
    "request_type": "Traffic Signals/Signs/Striping/Streetlights",
    "request_reason": "Traffic Sign Missing/Damaged",
    "date_created": "2021-11-14T21:00:24.000",
    "date_modified": "2021-11-14T21:00:24.000",
    "request_status": "Pending",
    "responsible_agency": "Department of Public Works",
    "final_address": "550 Baronne St",
    "address_councildis": "B",
    "status": "Pending",
    "rowid": "842045",
    "final_x": "3679871.27515",
    "final_y": "529133.143296",
    "longitude": "-90.07329612681656",
    "latitude": "29.948981981496516",
    "geocoded_column": {
      "latitude": "29.948981981496516",
      "longitude": "-90.07329612681656"
    }
  },
  {
    "service_request": "2021-842044",
    "request_type": "Traffic Signals/Signs/Striping/Streetlights",
    "request_reason": "Street Light Outage/Malfunction",
    "date_created": "2021-11-14T20:36:44.000",
    "date_modified": "2021-11-14T20:36:45.000",
    "request_status": "Pending",
    "responsible_agency": "Department of Public Works",
    "status": "Pending",
    "contractor": "Royal Engineering",
    "rowid": "842044",
    "longitude": "0.0",
    "latitude": "0.0",
    "geocoded_column": {
      "latitude": "0.0",
      "longitude": "0.0"
    }
  },
  {
    "service_request": "2021-842043",
    "request_type": "Traffic Signals/Signs/Striping/Streetlights",
    "request_reason": "Street Light Knocked Down/Leaning",
    "date_created": "2021-11-14T20:26:04.000",
    "date_modified": "2021-11-14T20:26:05.000",
    "request_status": "Pending",
    "responsible_agency": "Department of Public Works",
    "status": "Pending",
    "contractor": "Royal Engineering",
    "rowid": "842043",
    "longitude": "0.0",
    "latitude": "0.0",
    "geocoded_column": {
      "latitude": "0.0",
      "longitude": "0.0"
    }
  },
  {
    "service_request": "2021-842042",
    "request_type": "Property Maintenance",
    "request_reason": "Property Maintenance",
    "date_created": "2021-11-14T20:06:57.000",
    "date_modified": "2021-11-14T20:06:57.000",
    "request_status": "Pending",
    "responsible_agency": "Department of Code Enforcement",
    "final_address": "2314 Louisiana Ave",
    "address_councildis": "B",
    "status": "Pending",
    "rowid": "842042",
    "final_x": "3673089.49371",
    "final_y": "523947.208764",
    "longitude": "-90.09488616885447",
    "latitude": "29.934925676141823",
    "geocoded_column": {
      "latitude": "29.934925676141823",
      "longitude": "-90.09488616885447"
    }
  },
  {
    "service_request": "2021-842041",
    "request_type": "Property Maintenance",
    "request_reason": "Property Maintenance",
    "date_created": "2021-11-14T20:04:38.000",
    "date_modified": "2021-11-14T20:04:38.000",
    "request_status": "Pending",
    "responsible_agency": "Department of Code Enforcement",
    "final_address": "1737 Louisiana Ave",
    "address_councildis": "B",
    "status": "Pending",
    "rowid": "842041",
    "final_x": "3673994.57185",
    "final_y": "522199.527546",
    "longitude": "-90.09208861048",
    "latitude": "29.930093190466966",
    "geocoded_column": {
      "latitude": "29.930093190466966",
      "longitude": "-90.09208861048"
    }
  },
  {
    "service_request": "2021-842040",
    "request_type": "Traffic Signals/Signs/Striping/Streetlights",
    "request_reason": "Street Name Sign Damaged or Missing",
    "date_created": "2021-11-14T20:03:02.000",
    "date_modified": "2021-11-14T20:03:02.000",
    "request_status": "Pending",
    "responsible_agency": "Department of Public Works",
    "final_address": "1700 Louisiana Ave",
    "address_councildis": "B",
    "status": "Pending",
    "rowid": "842040",
    "final_x": "3673978.77953",
    "final_y": "521921.607098",
    "longitude": "-90.09214796786522",
    "latitude": "29.92932946945527",
    "geocoded_column": {
      "latitude": "29.92932946945527",
      "longitude": "-90.09214796786522"
    }
  },
  {
    "service_request": "2021-842039",
    "request_type": "Traffic Signals/Signs/Striping/Streetlights",
    "request_reason": "Street Light Outage/Malfunction",
    "date_created": "2021-11-14T19:59:14.000",
    "date_modified": "2021-11-14T19:59:14.000",
    "request_status": "Pending",
    "responsible_agency": "Department of Public Works",
    "final_address": "2228 Louisiana Ave",
    "address_councildis": "B",
    "status": "Pending",
    "contractor": "Royal Engineering",
    "rowid": "842039",
    "final_x": "3673188.09736",
    "final_y": "523709.754811",
    "longitude": "-90.0945829818777",
    "latitude": "29.934269824024792",
    "geocoded_column": {
      "latitude": "29.934269824024792",
      "longitude": "-90.0945829818777"
    }
  },
  {
    "service_request": "2021-842038",
    "request_type": "Traffic Signals/Signs/Striping/Streetlights",
    "request_reason": "Street Light Outage/Malfunction",
    "date_created": "2021-11-14T19:58:38.000",
    "date_modified": "2021-11-14T19:58:39.000",
    "request_status": "Pending",
    "responsible_agency": "Department of Public Works",
    "final_address": "4707 Lafaye St",
    "address_councildis": "D",
    "status": "Pending",
    "contractor": "Royal Engineering",
    "rowid": "842038",
    "final_x": "3687494.84738",
    "final_y": "550443.952852",
    "longitude": "-90.04847075230369",
    "latitude": "30.007346466786785",
    "geocoded_column": {
      "latitude": "30.007346466786785",
      "longitude": "-90.04847075230369"
    }
  },
  {
    "service_request": "2021-842037",
    "request_type": "Traffic Signals/Signs/Striping/Streetlights",
    "request_reason": "Traffic Signal Malfunctioning/Damaged",
    "date_created": "2021-11-14T19:51:46.000",
    "date_modified": "2021-11-14T19:57:00.000",
    "request_status": "Pending",
    "responsible_agency": "Department of Public Works",
    "final_address": "BROADWAY ST & S CLAIBORNE AVE",
    "address_councildis": "A",
    "status": "Pending",
    "rowid": "842037",
    "final_x": "3666389.3",
    "final_y": "529836.88",
    "longitude": "-90.11584112478184",
    "latitude": "29.951317797937595",
    "geocoded_column": {
      "latitude": "29.951317797937595",
      "longitude": "-90.11584112478184"
    }
  },
  {
    "service_request": "2021-842036",
    "request_type": "Roads/Drainage",
    "request_reason": "Service Cut",
    "date_created": "2021-11-14T19:43:16.000",
    "date_modified": "2021-11-14T19:43:16.000",
    "request_status": "Pending",
    "responsible_agency": "Department of Public Works",
    "final_address": "1600 BLK Dumaine St",
    "address_councildis": "C",
    "status": "Pending",
    "rowid": "842036",
    "final_x": "3680391.81503",
    "final_y": "535042.741382",
    "longitude": "-90.07144706840043",
    "latitude": "29.965215624356755",
    "geocoded_column": {
      "latitude": "29.965215624356755",
      "longitude": "-90.07144706840043"
    }
  },
  {
    "service_request": "2021-842034",
    "request_type": "Traffic Signals/Signs/Striping/Streetlights",
    "request_reason": "Traffic Signal Malfunctioning/Damaged",
    "date_created": "2021-11-14T19:37:56.000",
    "date_modified": "2021-11-14T19:37:56.000",
    "request_status": "Pending",
    "responsible_agency": "Department of Public Works",
    "final_address": "S PETERS ST & POYDRAS ST",
    "address_councildis": "B",
    "status": "Pending",
    "rowid": "842034",
    "final_x": "3682211.4",
    "final_y": "528963.98",
    "longitude": "-90.06591325216971",
    "latitude": "29.94844587359478",
    "geocoded_column": {
      "latitude": "29.94844587359478",
      "longitude": "-90.06591325216971"
    }
  },
  {
    "service_request": "2021-842033",
    "request_type": "Traffic Signals/Signs/Striping/Streetlights",
    "request_reason": "Traffic Signal Malfunctioning/Damaged",
    "date_created": "2021-11-14T19:37:03.000",
    "date_modified": "2021-11-14T19:37:03.000",
    "request_status": "Pending",
    "responsible_agency": "Department of Public Works",
    "final_address": "CITY PARK AVE & CITY PARK EXIT & I 10 E ONRAMP",
    "address_councildis": "A",
    "status": "Pending",
    "rowid": "842033",
    "final_x": "3667012.0",
    "final_y": "540666.78",
    "longitude": "-90.1135109037396",
    "latitude": "29.98107822687111",
    "geocoded_column": {
      "latitude": "29.98107822687111",
      "longitude": "-90.1135109037396"
    }
  },
  {
    "service_request": "2021-842032",
    "request_type": "Traffic Signals/Signs/Striping/Streetlights",
    "request_reason": "Traffic Signal Malfunctioning/Damaged",
    "date_created": "2021-11-14T19:34:57.000",
    "date_modified": "2021-11-14T19:34:57.000",
    "request_status": "Pending",
    "responsible_agency": "Department of Public Works",
    "final_address": "DAUPHINE ST & ELYSIAN FIELDS AVE",
    "address_councildis": "C",
    "status": "Pending",
    "rowid": "842032",
    "final_x": "3685137.2",
    "final_y": "535233.78",
    "longitude": "-90.05645469613737",
    "latitude": "29.965596364720028",
    "geocoded_column": {
      "latitude": "29.965596364720028",
      "longitude": "-90.05645469613737"
    }
  },
  {
    "service_request": "2021-842030",
    "request_type": "Trash/Recycling",
    "request_reason": "Order Trash Cart",
    "date_created": "2021-11-14T18:29:08.000",
    "date_modified": "2021-11-14T18:29:08.000",
    "request_status": "Pending",
    "responsible_agency": "Department of Sanitation",
    "final_address": "1451 Second St",
    "address_councildis": "B",
    "status": "Assigned to Contractor",
    "contractor": "Richards Disposal",
    "rowid": "842030",
    "final_x": "3677092.96418",
    "final_y": "522605.842938",
    "longitude": "-90.08229348240076",
    "latitude": "29.931117772489646",
    "geocoded_column": {
      "latitude": "29.931117772489646",
      "longitude": "-90.08229348240076"
    }
  },
  {
    "service_request": "2021-842029",
    "request_type": "Health Related Questions",
    "request_reason": "Noise Ordinance Complaint",
    "date_created": "2021-11-14T18:23:42.000",
    "date_modified": "2021-11-14T19:05:38.000",
    "request_status": "Pending",
    "responsible_agency": "Health Department",
    "final_address": "14211 chef menteur hwy lot 30 new orleans ;a 70129",
    "address_councildis": "E",
    "status": "Pending",
    "rowid": "842029",
    "final_x": "3729670.58099",
    "final_y": "561479.287839",
    "longitude": "-89.91479627736902",
    "latitude": "30.03632132046028",
    "geocoded_column": {
      "latitude": "30.03632132046028",
      "longitude": "-89.91479627736902"
    }
  },
  {
    "service_request": "2021-842028",
    "request_type": "Health Related Questions",
    "request_reason": "Noise Ordinance Complaint",
    "date_created": "2021-11-14T17:50:53.000",
    "date_modified": "2021-11-14T18:03:26.000",
    "request_status": "Pending",
    "responsible_agency": "Health Department",
    "final_address": "718 Bourbon St, New Orleans, Louisiana, 70116",
    "address_councildis": "C",
    "status": "Pending",
    "rowid": "842028",
    "final_x": "3682364.17781",
    "final_y": "532746.008004",
    "longitude": "-90.06529872053143",
    "latitude": "29.95884052062511",
    "geocoded_column": {
      "latitude": "29.95884052062511",
      "longitude": "-90.06529872053143"
    }
  },
  {
    "service_request": "2021-842027",
    "request_type": "Roads/Drainage",
    "request_reason": "Street Flooding / Drainage",
    "date_created": "2021-11-14T17:26:54.000",
    "date_modified": "2021-11-14T18:03:28.000",
    "request_status": "Pending",
    "responsible_agency": "Department of Public Works",
    "final_address": "1419 Eagle St",
    "address_councildis": "A",
    "status": "Pending",
    "rowid": "842027",
    "final_x": "3660762.328",
    "final_y": "530679.781058",
    "longitude": "-90.13358056219656",
    "latitude": "29.953798703874675",
    "geocoded_column": {
      "latitude": "29.953798703874675",
      "longitude": "-90.13358056219656"
    }
  },
  {
    "service_request": "2021-842025",
    "request_type": "Trash/Recycling",
    "request_reason": "Order Recycling Cart",
    "date_created": "2021-11-14T16:30:42.000",
    "date_modified": "2021-11-14T17:01:36.000",
    "request_status": "Pending",
    "responsible_agency": "Department of Sanitation",
    "final_address": "9 Acadiana Pl",
    "address_councildis": "E",
    "status": "Pending",
    "rowid": "842025",
    "final_x": "3725226.04211",
    "final_y": "564509.899937",
    "longitude": "-89.9287242975165",
    "latitude": "30.044804793541044",
    "geocoded_column": {
      "latitude": "30.044804793541044",
      "longitude": "-89.9287242975165"
    }
  },
  {
    "service_request": "2021-842024",
    "request_type": "Trash/Recycling",
    "request_reason": "Order Trash Cart",
    "date_created": "2021-11-14T16:28:57.000",
    "date_modified": "2021-11-14T17:01:46.000",
    "request_status": "Pending",
    "responsible_agency": "Department of Sanitation",
    "final_address": "9 Acadiana Pl",
    "address_councildis": "E",
    "status": "Assigned to Contractor",
    "contractor": "Metro Disposal",
    "rowid": "842024",
    "final_x": "3725226.04211",
    "final_y": "564509.899937",
    "longitude": "-89.9287242975165",
    "latitude": "30.044804793541044",
    "geocoded_column": {
      "latitude": "30.044804793541044",
      "longitude": "-89.9287242975165"
    }
  },
  {
    "service_request": "2021-842023",
    "request_type": "Property Maintenance",
    "request_reason": "Property Maintenance",
    "date_created": "2021-11-14T16:06:58.000",
    "date_modified": "2021-11-14T16:06:58.000",
    "request_status": "Pending",
    "responsible_agency": "Department of Code Enforcement",
    "final_address": "2600 Behrman Hwy",
    "address_councildis": "C",
    "status": "Pending",
    "rowid": "842023",
    "final_x": "3692749.28867",
    "final_y": "520880.119097",
    "longitude": "-90.03293055235815",
    "latitude": "29.92589331033643",
    "geocoded_column": {
      "latitude": "29.92589331033643",
      "longitude": "-90.03293055235815"
    }
  },
  {
    "service_request": "2021-842022",
    "request_type": "Property Maintenance",
    "request_reason": "Property Maintenance",
    "date_created": "2021-11-14T16:05:53.000",
    "date_modified": "2021-11-14T16:05:53.000",
    "request_status": "Pending",
    "responsible_agency": "Department of Code Enforcement",
    "final_address": "2530 Behrman Hwy",
    "address_councildis": "C",
    "status": "Pending",
    "rowid": "842022",
    "final_x": "3692694.80649",
    "final_y": "520914.069945",
    "longitude": "-90.03310131960312",
    "latitude": "29.925988363749667",
    "geocoded_column": {
      "latitude": "29.925988363749667",
      "longitude": "-90.03310131960312"
    }
  },
  {
    "service_request": "2021-842021",
    "request_type": "Property Maintenance",
    "request_reason": "Property Maintenance",
    "date_created": "2021-11-14T16:05:09.000",
    "date_modified": "2021-11-14T16:05:09.000",
    "request_status": "Pending",
    "responsible_agency": "Department of Code Enforcement",
    "final_address": "2524 Behrman Hwy",
    "address_councildis": "C",
    "status": "Pending",
    "rowid": "842021",
    "final_x": "3692647.85033",
    "final_y": "520938.039161",
    "longitude": "-90.03324868731819",
    "latitude": "29.926055736026708",
    "geocoded_column": {
      "latitude": "29.926055736026708",
      "longitude": "-90.03324868731819"
    }
  },
  {
    "service_request": "2021-842020",
    "request_type": "Parks & Parkways",
    "request_reason": "Request Tree Service (Right of Way/Public Property)",
    "date_created": "2021-11-14T16:02:51.000",
    "date_modified": "2021-11-14T16:02:51.000",
    "request_status": "Pending",
    "responsible_agency": "Department of Parks & Parkway",
    "final_address": "4125 St Peter St",
    "address_councildis": "A",
    "status": "Pending",
    "rowid": "842020",
    "final_x": "3672370.53678",
    "final_y": "540123.298891",
    "longitude": "-90.09660472790037",
    "latitude": "29.97942589663284",
    "geocoded_column": {
      "latitude": "29.97942589663284",
      "longitude": "-90.09660472790037"
    }
  },
  {
    "service_request": "2021-842019",
    "request_type": "Abandoned Vehicles",
    "request_reason": "Abandoned/Junk Vehicles",
    "date_created": "2021-11-14T16:01:37.000",
    "date_modified": "2021-11-14T16:03:16.000",
    "request_status": "Pending",
    "responsible_agency": "Department of Public Works",
    "final_address": "4130 General Pershing St",
    "address_councildis": "B",
    "status": "Pending",
    "rowid": "842019",
    "final_x": "3669942.42484",
    "final_y": "529351.867841",
    "longitude": "-90.10463849624922",
    "latitude": "29.949879886687896",
    "geocoded_column": {
      "latitude": "29.949879886687896",
      "longitude": "-90.10463849624922"
    }
  },
  {
    "service_request": "2021-842018",
    "request_type": "Abandoned Vehicles",
    "request_reason": "Abandoned/Junk Vehicles",
    "date_created": "2021-11-14T16:01:01.000",
    "date_modified": "2021-11-14T16:01:01.000",
    "request_status": "Pending",
    "responsible_agency": "Department of Public Works",
    "final_address": "2544 Dumaine St",
    "address_councildis": "D",
    "status": "Pending",
    "rowid": "842018",
    "final_x": "3677652.67042",
    "final_y": "537080.595336",
    "longitude": "-90.08002675719123",
    "latitude": "29.9709016889274",
    "geocoded_column": {
      "latitude": "29.9709016889274",
      "longitude": "-90.08002675719123"
    }
  },
  {
    "service_request": "2021-842017",
    "request_type": "Trash/Recycling",
    "request_reason": "Illegal Dumping",
    "date_created": "2021-11-14T15:59:45.000",
    "date_modified": "2021-11-14T15:59:45.000",
    "request_status": "Pending",
    "responsible_agency": "Department of Sanitation",
    "final_address": "2544 Dumaine St",
    "address_councildis": "D",
    "status": "Pending",
    "rowid": "842017",
    "final_x": "3677652.67042",
    "final_y": "537080.595336",
    "longitude": "-90.08002675719123",
    "latitude": "29.9709016889274",
    "geocoded_column": {
      "latitude": "29.9709016889274",
      "longitude": "-90.08002675719123"
    }
  },
  {
    "service_request": "2021-842016",
    "request_type": "Trash/Recycling",
    "request_reason": "Request a Large Item Pick Up",
    "date_created": "2021-11-14T15:36:32.000",
    "date_modified": "2021-11-14T15:36:33.000",
    "request_status": "Pending",
    "responsible_agency": "Department of Sanitation",
    "final_address": "3611 Pittari Pl",
    "address_councildis": "C",
    "status": "Assigned to Contractor",
    "contractor": "Richards Disposal",
    "rowid": "842016",
    "final_x": "3709520.69502",
    "final_y": "517493.064886",
    "longitude": "-89.98011496540879",
    "latitude": "29.916046081406332",
    "geocoded_column": {
      "latitude": "29.916046081406332",
      "longitude": "-89.98011496540879"
    }
  },
  {
    "service_request": "2021-842015",
    "request_type": "Traffic Signals/Signs/Striping/Streetlights",
    "request_reason": "Request for Stop Sign",
    "date_created": "2021-11-14T14:37:43.000",
    "date_modified": "2021-11-14T14:37:43.000",
    "request_status": "Pending",
    "responsible_agency": "Department of Public Works",
    "final_address": "1646 N Dorgenois St",
    "address_councildis": "D",
    "status": "Pending",
    "rowid": "842015",
    "final_x": "3679846.79995",
    "final_y": "540110.481547",
    "longitude": "-90.0729921684586",
    "latitude": "29.979166657885525",
    "geocoded_column": {
      "latitude": "29.979166657885525",
      "longitude": "-90.0729921684586"
    }
  },
  {
    "service_request": "2021-842014",
    "request_type": "Roads/Drainage",
    "request_reason": "Street Subsidence (Sinking)",
    "date_created": "2021-11-14T14:04:58.000",
    "date_modified": "2021-11-14T14:04:58.000",
    "request_status": "Pending",
    "responsible_agency": "Department of Public Works",
    "final_address": "8601 Palmetto St",
    "address_councildis": "A",
    "status": "Pending",
    "rowid": "842014",
    "final_x": "3666866.95034",
    "final_y": "536523.105159",
    "longitude": "-90.11410829537694",
    "latitude": "29.96968875364591",
    "geocoded_column": {
      "latitude": "29.96968875364591",
      "longitude": "-90.11410829537694"
    }
  },
  {
    "service_request": "2021-842013",
    "request_type": "Property Maintenance",
    "request_reason": "Property Maintenance",
    "date_created": "2021-11-14T14:03:27.000",
    "date_modified": "2021-11-14T14:03:27.000",
    "request_status": "Pending",
    "responsible_agency": "Department of Code Enforcement",
    "final_address": "1306 Independence St",
    "address_councildis": "D",
    "status": "Pending",
    "rowid": "842013",
    "final_x": "3691124.91907",
    "final_y": "536329.371399",
    "longitude": "-90.03750666377019",
    "latitude": "29.968424027198573",
    "geocoded_column": {
      "latitude": "29.968424027198573",
      "longitude": "-90.03750666377019"
    }
  },
  {
    "service_request": "2021-842012",
    "request_type": "Property Maintenance",
    "request_reason": "Property Maintenance",
    "date_created": "2021-11-14T13:56:33.000",
    "date_modified": "2021-11-14T13:56:33.000",
    "request_status": "Pending",
    "responsible_agency": "Department of Code Enforcement",
    "final_address": "1304 Independence St",
    "address_councildis": "D",
    "status": "Pending",
    "rowid": "842012",
    "final_x": "3691121.44688",
    "final_y": "536314.788039",
    "longitude": "-90.0375181499049",
    "latitude": "29.96838403606542",
    "geocoded_column": {
      "latitude": "29.96838403606542",
      "longitude": "-90.0375181499049"
    }
  },
  {
    "service_request": "2021-842011",
    "request_type": "Trash/Recycling",
    "request_reason": "Dead Animal Pick Up",
    "date_created": "2021-11-14T13:55:02.000",
    "date_modified": "2021-11-14T13:55:03.000",
    "request_status": "Pending",
    "responsible_agency": "Department of Sanitation",
    "final_address": "3709 Preston Pl",
    "address_councildis": "C",
    "status": "Assigned to Contractor",
    "contractor": "Richards Disposal",
    "rowid": "842011",
    "final_x": "3708380.21745",
    "final_y": "517423.447606",
    "longitude": "-89.98371731513437",
    "latitude": "29.915891643713003",
    "geocoded_column": {
      "latitude": "29.915891643713003",
      "longitude": "-89.98371731513437"
    }
  },
  {
    "service_request": "2021-842010",
    "request_type": "Trash/Recycling",
    "request_reason": "Missed Trash Pick-Up",
    "date_created": "2021-11-14T13:51:51.000",
    "date_modified": "2021-11-14T13:53:48.000",
    "request_status": "Pending",
    "responsible_agency": "Department of Sanitation",
    "final_address": "2700 BLK Iberville St",
    "address_councildis": "B",
    "status": "Assigned to Contractor",
    "contractor": "Richards Disposal",
    "rowid": "842010",
    "final_x": "3675361.95928",
    "final_y": "535643.412425",
    "longitude": "-90.087310479741",
    "latitude": "29.967018618738628",
    "geocoded_column": {
      "latitude": "29.967018618738628",
      "longitude": "-90.087310479741"
    }
  },
  {
    "service_request": "2021-842009",
    "request_type": "EMS",
    "request_reason": "EMS General",
    "date_created": "2021-11-14T13:49:06.000",
    "date_modified": "2021-11-14T14:02:38.000",
    "case_close_date": "2021-11-14T08:01:32.000",
    "request_status": "Closed",
    "responsible_agency": "Emergency Medical Services",
    "status": "Resolved",
    "rowid": "842009",
    "longitude": "0.0",
    "latitude": "0.0",
    "geocoded_column": {
      "latitude": "0.0",
      "longitude": "0.0"
    }
  },
  {
    "service_request": "2021-842008",
    "request_type": "Traffic Signals/Signs/Striping/Streetlights",
    "request_reason": "Traffic Signal Malfunctioning/Damaged",
    "date_created": "2021-11-14T13:46:52.000",
    "date_modified": "2021-11-14T13:46:52.000",
    "request_status": "Pending",
    "responsible_agency": "Department of Public Works",
    "final_address": "CITY PARK AVE & I 10 E & METAIRIE RD",
    "address_councildis": "A",
    "status": "Pending",
    "rowid": "842008",
    "final_x": "3666908.3",
    "final_y": "540680.08",
    "longitude": "-90.11383798908375",
    "latitude": "29.981117832474713",
    "geocoded_column": {
      "latitude": "29.981117832474713",
      "longitude": "-90.11383798908375"
    }
  },
  {
    "service_request": "2021-842007",
    "request_type": "Property Maintenance",
    "request_reason": "Property Maintenance",
    "date_created": "2021-11-14T13:19:52.000",
    "date_modified": "2021-11-14T14:03:02.000",
    "request_status": "Pending",
    "responsible_agency": "Department of Code Enforcement",
    "final_address": "1441 France St",
    "address_councildis": "D",
    "status": "Pending",
    "rowid": "842007",
    "final_x": "3692782.12387",
    "final_y": "536606.685895",
    "longitude": "-90.03226320750355",
    "latitude": "29.969134907879464",
    "geocoded_column": {
      "latitude": "29.969134907879464",
      "longitude": "-90.03226320750355"
    }
  },
  {
    "service_request": "2021-842006",
    "request_type": "Traffic Signals/Signs/Striping/Streetlights",
    "request_reason": "Street Light Outage/Malfunction",
    "date_created": "2021-11-14T13:09:42.000",
    "date_modified": "2021-11-14T13:09:43.000",
    "request_status": "Pending",
    "responsible_agency": "Department of Public Works",
    "final_address": "309 Opal St",
    "address_councildis": "D",
    "status": "Pending",
    "contractor": "Royal Engineering",
    "rowid": "842006",
    "final_x": "3667586.789",
    "final_y": "555470.071705",
    "longitude": "-90.11119676813749",
    "latitude": "30.02176531686609",
    "geocoded_column": {
      "latitude": "30.02176531686609",
      "longitude": "-90.11119676813749"
    }
  },
  {
    "service_request": "2021-842005",
    "request_type": "Abandoned Vehicles",
    "request_reason": "Abandoned/Junk Vehicles",
    "date_created": "2021-11-14T13:07:54.000",
    "date_modified": "2021-11-14T14:03:18.000",
    "request_status": "Pending",
    "responsible_agency": "Department of Public Works",
    "final_address": "1439 France St",
    "address_councildis": "D",
    "status": "Pending",
    "rowid": "842005",
    "final_x": "3692776.4815",
    "final_y": "536596.269255",
    "longitude": "-90.03228139996196",
    "latitude": "29.969106441968854",
    "geocoded_column": {
      "latitude": "29.969106441968854",
      "longitude": "-90.03228139996196"
    }
  },
  {
    "service_request": "2021-842004",
    "request_type": "Roads/Drainage",
    "request_reason": "Road Shoulder Repair",
    "date_created": "2021-11-14T13:03:21.000",
    "date_modified": "2021-11-14T13:03:21.000",
    "request_status": "Pending",
    "responsible_agency": "Department of Public Works",
    "final_address": "309 Opal St",
    "address_councildis": "D",
    "status": "Pending",
    "rowid": "842004",
    "final_x": "3667586.789",
    "final_y": "555470.071705",
    "longitude": "-90.11119676813749",
    "latitude": "30.02176531686609",
    "geocoded_column": {
      "latitude": "30.02176531686609",
      "longitude": "-90.11119676813749"
    }
  },
  {
    "service_request": "2021-842003",
    "request_type": "Property Maintenance",
    "request_reason": "Property Maintenance",
    "date_created": "2021-11-14T13:02:06.000",
    "date_modified": "2021-11-14T13:02:06.000",
    "request_status": "Pending",
    "responsible_agency": "Department of Code Enforcement",
    "final_address": "8715 Apricot St",
    "address_councildis": "A",
    "status": "Pending",
    "rowid": "842003",
    "final_x": "3664187.10503",
    "final_y": "534174.417221",
    "longitude": "-90.12264989457071",
    "latitude": "29.96330876872631",
    "geocoded_column": {
      "latitude": "29.96330876872631",
      "longitude": "-90.12264989457071"
    }
  },
  {
    "service_request": "2021-842001",
    "request_type": "Trash/Recycling",
    "request_reason": "Replace Trash Cart",
    "date_created": "2021-11-14T12:41:43.000",
    "date_modified": "2021-11-14T12:41:44.000",
    "request_status": "Pending",
    "responsible_agency": "Department of Sanitation",
    "final_address": "8734 Apricot St",
    "address_councildis": "A",
    "status": "Assigned to Contractor",
    "contractor": "Richards Disposal",
    "rowid": "842001",
    "final_x": "3664019.632",
    "final_y": "534212.130437",
    "longitude": "-90.1231775000922",
    "latitude": "29.96341733218351",
    "geocoded_column": {
      "latitude": "29.96341733218351",
      "longitude": "-90.1231775000922"
    }
  },
  {
    "service_request": "2021-842000",
    "request_type": "COVID-19",
    "request_reason": "COVID-19 Business Non-Compliance",
    "date_created": "2021-11-14T12:00:18.000",
    "date_modified": "2021-11-14T12:00:19.000",
    "request_status": "Pending",
    "responsible_agency": "Safety and Permits",
    "final_address": "3701 Iberville St",
    "address_councildis": "B",
    "status": "Pending",
    "rowid": "842000",
    "final_x": "3672595.6036",
    "final_y": "537800.55092",
    "longitude": "-90.0959730972056",
    "latitude": "29.973032447709773",
    "geocoded_column": {
      "latitude": "29.973032447709773",
      "longitude": "-90.0959730972056"
    }
  },
  {
    "service_request": "2021-841999",
    "request_type": "Trash/Recycling",
    "request_reason": "Missed Trash Pick-Up",
    "date_created": "2021-11-14T11:47:23.000",
    "date_modified": "2021-11-14T11:47:24.000",
    "request_status": "Pending",
    "responsible_agency": "Department of Sanitation",
    "final_address": "2222 Iberville St",
    "address_councildis": "B",
    "status": "Assigned to Contractor",
    "contractor": "Richards Disposal",
    "rowid": "841999",
    "final_x": "3677033.19067",
    "final_y": "534304.531013",
    "longitude": "-90.08207889169574",
    "latitude": "29.963287072116803",
    "geocoded_column": {
      "latitude": "29.963287072116803",
      "longitude": "-90.08207889169574"
    }
  },
  {
    "service_request": "2021-841998",
    "request_type": "Property Maintenance",
    "request_reason": "Property Maintenance",
    "date_created": "2021-11-14T11:45:10.000",
    "date_modified": "2021-11-14T11:45:10.000",
    "request_status": "Pending",
    "responsible_agency": "Department of Code Enforcement",
    "final_address": "2217 Iberville St",
    "address_councildis": "B",
    "status": "Pending",
    "rowid": "841998",
    "final_x": "3677106.31182",
    "final_y": "534363.040581",
    "longitude": "-90.08184596523921",
    "latitude": "29.96344575787158",
    "geocoded_column": {
      "latitude": "29.96344575787158",
      "longitude": "-90.08184596523921"
    }
  },
  {
    "service_request": "2021-841997",
    "request_type": "Property Maintenance",
    "request_reason": "Property Maintenance",
    "date_created": "2021-11-14T11:40:27.000",
    "date_modified": "2021-11-14T12:02:23.000",
    "request_status": "Pending",
    "responsible_agency": "Department of Code Enforcement",
    "final_address": "5325 St Charles Ave",
    "address_councildis": "B",
    "status": "Pending",
    "rowid": "841997",
    "final_x": "3667706.61933",
    "final_y": "521529.180473",
    "longitude": "-90.1119612724201",
    "latitude": "29.928435745556026",
    "geocoded_column": {
      "latitude": "29.928435745556026",
      "longitude": "-90.1119612724201"
    }
  },
  {
    "service_request": "2021-841996",
    "request_type": "Trash/Recycling",
    "request_reason": "Request a Large Item Pick Up",
    "date_created": "2021-11-14T11:34:36.000",
    "date_modified": "2021-11-14T12:02:26.000",
    "request_status": "Pending",
    "responsible_agency": "Department of Sanitation",
    "final_address": "5403 Mandeville St",
    "address_councildis": "D",
    "status": "Assigned to Contractor",
    "contractor": "Metro Disposal",
    "rowid": "841996",
    "final_x": "3684518.32162",
    "final_y": "552781.630806",
    "longitude": "-90.05779220591596",
    "latitude": "30.013865667968382",
    "geocoded_column": {
      "latitude": "30.013865667968382",
      "longitude": "-90.05779220591596"
    }
  },
  {
    "service_request": "2021-841995",
    "request_type": "Trash/Recycling",
    "request_reason": "Replace Trash Cart",
    "date_created": "2021-11-14T11:02:58.000",
    "date_modified": "2021-11-14T11:03:16.000",
    "request_status": "Pending",
    "responsible_agency": "Department of Sanitation",
    "final_address": "512 Robert St",
    "address_councildis": "B",
    "status": "Assigned to Contractor",
    "contractor": "Richards Disposal",
    "rowid": "841995",
    "final_x": "3668568.80225",
    "final_y": "517336.893941",
    "longitude": "-90.10938090185252",
    "latitude": "29.916882985536414",
    "geocoded_column": {
      "latitude": "29.916882985536414",
      "longitude": "-90.10938090185252"
    }
  },
  {
    "service_request": "2021-841994",
    "request_type": "Mosquito, Termite & Rodent Control",
    "request_reason": "Non-Rodent Complaint (Mice, Possums, Snakes)",
    "date_created": "2021-11-14T10:43:50.000",
    "date_modified": "2021-11-14T10:43:50.000",
    "request_status": "Pending",
    "responsible_agency": "Mosquito, Termite & Rodent Control Board",
    "final_address": "1516 Lakeshore Dr",
    "address_councildis": "D",
    "status": "Pending",
    "rowid": "841994",
    "final_x": "3677838.46958",
    "final_y": "557062.564122",
    "longitude": "-90.07874903425132",
    "latitude": "30.02583945339269",
    "geocoded_column": {
      "latitude": "30.02583945339269",
      "longitude": "-90.07874903425132"
    }
  },
  {
    "service_request": "2021-841992",
    "request_type": "Trash/Recycling",
    "request_reason": "Repair Trash Cart",
    "date_created": "2021-11-14T10:20:18.000",
    "date_modified": "2021-11-14T10:20:19.000",
    "request_status": "Pending",
    "responsible_agency": "Department of Sanitation",
    "final_address": "522 N Salcedo St",
    "address_councildis": "A",
    "status": "Assigned to Contractor",
    "contractor": "Richards Disposal",
    "rowid": "841992",
    "final_x": "3675143.85294",
    "final_y": "537422.844168",
    "longitude": "-90.08793818445089",
    "latitude": "29.97191797209382",
    "geocoded_column": {
      "latitude": "29.97191797209382",
      "longitude": "-90.08793818445089"
    }
  },
  {
    "service_request": "2021-841991",
    "request_type": "Property Maintenance",
    "request_reason": "Property Maintenance",
    "date_created": "2021-11-14T09:57:11.000",
    "date_modified": "2021-11-14T09:57:11.000",
    "request_status": "Pending",
    "responsible_agency": "Department of Code Enforcement",
    "final_address": "5335 St Charles Ave",
    "address_councildis": "B",
    "status": "Pending",
    "rowid": "841991",
    "final_x": "3667657.76039",
    "final_y": "521550.158521",
    "longitude": "-90.1121148042707",
    "latitude": "29.92849486045484",
    "geocoded_column": {
      "latitude": "29.92849486045484",
      "longitude": "-90.1121148042707"
    }
  },
  {
    "service_request": "2021-841990",
    "request_type": "Roads/Drainage",
    "request_reason": "Debris in Roadway",
    "date_created": "2021-11-14T09:48:43.000",
    "date_modified": "2021-11-14T10:01:14.000",
    "request_status": "Pending",
    "responsible_agency": "Department of Public Works",
    "final_address": "2709 Soniat St",
    "address_councildis": "B",
    "status": "Pending",
    "rowid": "841990",
    "final_x": "3668604.25121",
    "final_y": "525421.705917",
    "longitude": "-90.10899633696869",
    "latitude": "29.93911260411445",
    "geocoded_column": {
      "latitude": "29.93911260411445",
      "longitude": "-90.10899633696869"
    }
  },
  {
    "service_request": "2021-841989",
    "request_type": "Traffic Signals/Signs/Striping/Streetlights",
    "request_reason": "Street Light Outage/Malfunction",
    "date_created": "2021-11-14T09:30:45.000",
    "date_modified": "2021-11-14T09:30:46.000",
    "request_status": "Pending",
    "responsible_agency": "Department of Public Works",
    "final_address": "4618 Herschel St",
    "address_councildis": "C",
    "status": "Pending",
    "contractor": "Royal Engineering",
    "rowid": "841989",
    "final_x": "3702059.22167",
    "final_y": "520876.690809",
    "longitude": "-90.00354218819567",
    "latitude": "29.925590077799242",
    "geocoded_column": {
      "latitude": "29.925590077799242",
      "longitude": "-90.00354218819567"
    }
  },
  {
    "service_request": "2021-841988",
    "request_type": "Safety & Permits",
    "request_reason": "Construction permit",
    "date_created": "2021-11-14T09:06:48.000",
    "date_modified": "2021-11-14T09:06:48.000",
    "request_status": "Pending",
    "responsible_agency": "Department of Code Enforcement",
    "final_address": "1800 BLK Magazine St",
    "address_councildis": "B",
    "status": "Pending",
    "rowid": "841988",
    "final_x": "3679883.22714",
    "final_y": "522919.958541",
    "longitude": "-90.07347408732862",
    "latitude": "29.931897425216157",
    "geocoded_column": {
      "latitude": "29.931897425216157",
      "longitude": "-90.07347408732862"
    }
  },
  {
    "service_request": "2021-841987",
    "request_type": "Health Related Questions",
    "request_reason": "Noise Ordinance Complaint",
    "date_created": "2021-11-14T08:19:37.000",
    "date_modified": "2021-11-14T08:19:37.000",
    "request_status": "Pending",
    "responsible_agency": "Health Department",
    "final_address": "2108 Third St",
    "address_councildis": "B",
    "status": "Pending",
    "rowid": "841987",
    "final_x": "3675385.15675",
    "final_y": "524412.670844",
    "longitude": "-90.08762280179653",
    "latitude": "29.93613712044748",
    "geocoded_column": {
      "latitude": "29.93613712044748",
      "longitude": "-90.08762280179653"
    }
  },
  {
    "service_request": "2021-841986",
    "request_type": "Traffic Signals/Signs/Striping/Streetlights",
    "request_reason": "Street Light Outage/Malfunction",
    "date_created": "2021-11-14T07:55:49.000",
    "date_modified": "2021-11-14T07:55:50.000",
    "request_status": "Pending",
    "responsible_agency": "Department of Public Works",
    "final_address": "1020 Arabella St",
    "address_councildis": "A",
    "status": "Pending",
    "contractor": "Royal Engineering",
    "rowid": "841986",
    "final_x": "3665967.98631",
    "final_y": "519758.070008",
    "longitude": "-90.11750910782675",
    "latitude": "29.9236165940433",
    "geocoded_column": {
      "latitude": "29.9236165940433",
      "longitude": "-90.11750910782675"
    }
  },
  {
    "service_request": "2021-841985",
    "request_type": "Roads/Drainage",
    "request_reason": "Street Flooding / Drainage",
    "date_created": "2021-11-14T07:32:40.000",
    "date_modified": "2021-11-14T07:32:40.000",
    "request_status": "Pending",
    "responsible_agency": "Department of Public Works",
    "final_address": "5720 Vicksburg St",
    "address_councildis": "A",
    "status": "Pending",
    "rowid": "841985",
    "final_x": "3668625.04762",
    "final_y": "545579.69096",
    "longitude": "-90.10825025498069",
    "latitude": "29.994539739702546",
    "geocoded_column": {
      "latitude": "29.994539739702546",
      "longitude": "-90.10825025498069"
    }
  },
  {
    "service_request": "2021-841984",
    "request_type": "Traffic Signals/Signs/Striping/Streetlights",
    "request_reason": "Traffic Signal Malfunctioning/Damaged",
    "date_created": "2021-11-14T06:31:51.000",
    "date_modified": "2021-11-14T06:31:51.000",
    "request_status": "Pending",
    "responsible_agency": "Department of Public Works",
    "final_address": "S PETERS ST & POYDRAS ST",
    "address_councildis": "B",
    "status": "Pending",
    "rowid": "841984",
    "final_x": "3682211.4",
    "final_y": "528963.98",
    "longitude": "-90.06591325216971",
    "latitude": "29.94844587359478",
    "geocoded_column": {
      "latitude": "29.94844587359478",
      "longitude": "-90.06591325216971"
    }
  },
  {
    "service_request": "2021-841983",
    "request_type": "Traffic Signals/Signs/Striping/Streetlights",
    "request_reason": "Traffic Signal Malfunctioning/Damaged",
    "date_created": "2021-11-13T22:51:57.000",
    "date_modified": "2021-11-13T22:51:57.000",
    "request_status": "Pending",
    "responsible_agency": "Department of Public Works",
    "final_address": "5080 Pontchartrain Blvd",
    "address_councildis": "A",
    "status": "Pending",
    "rowid": "841983",
    "final_x": "3666841.38119",
    "final_y": "540528.132811",
    "longitude": "-90.1140544564024",
    "latitude": "29.980701987063558",
    "geocoded_column": {
      "latitude": "29.980701987063558",
      "longitude": "-90.1140544564024"
    }
  },
  {
    "service_request": "2021-841981",
    "request_type": "Health Related Questions",
    "request_reason": "Noise Ordinance Complaint",
    "date_created": "2021-11-13T22:33:21.000",
    "date_modified": "2021-11-13T23:01:19.000",
    "request_status": "Pending",
    "responsible_agency": "Health Department",
    "final_address": "1200 Block of Jackson Ave, New Orleans, Louisiana, 70130",
    "status": "Pending",
    "rowid": "841981",
    "longitude": "0.0",
    "latitude": "0.0",
    "geocoded_column": {
      "latitude": "0.0",
      "longitude": "0.0"
    }
  },
  {
    "service_request": "2021-841980",
    "request_type": "Trash/Recycling",
    "request_reason": "Order Trash Cart",
    "date_created": "2021-11-13T22:32:53.000",
    "date_modified": "2021-11-13T23:01:21.000",
    "request_status": "Pending",
    "responsible_agency": "Department of Sanitation",
    "final_address": "1936 Delachaise St",
    "address_councildis": "B",
    "status": "Assigned to Contractor",
    "contractor": "Richards Disposal",
    "rowid": "841980",
    "final_x": "3673240.90824",
    "final_y": "522664.747834",
    "longitude": "-90.09445192865267",
    "latitude": "29.93139482320868",
    "geocoded_column": {
      "latitude": "29.93139482320868",
      "longitude": "-90.09445192865267"
    }
  },
  {
    "service_request": "2021-841979",
    "request_type": "Abandoned Vehicles",
    "request_reason": "Abandoned/Junk Vehicles",
    "date_created": "2021-11-13T20:45:08.000",
    "date_modified": "2021-11-13T20:45:08.000",
    "request_status": "Pending",
    "responsible_agency": "Department of Public Works",
    "final_address": "2909 Orleans Ave",
    "address_councildis": "A",
    "status": "Pending",
    "rowid": "841979",
    "final_x": "3676008.74728",
    "final_y": "537665.37012",
    "longitude": "-90.08519836430597",
    "latitude": "29.972558959539615",
    "geocoded_column": {
      "latitude": "29.972558959539615",
      "longitude": "-90.08519836430597"
    }
  },
  {
    "service_request": "2021-841978",
    "request_type": "Trash/Recycling",
    "request_reason": "Missed Trash Pick-Up",
    "date_created": "2021-11-13T20:32:54.000",
    "date_modified": "2021-11-13T20:32:55.000",
    "request_status": "Pending",
    "responsible_agency": "Department of Sanitation",
    "final_address": "6119 Duplessis St",
    "address_councildis": "D",
    "status": "Assigned to Contractor",
    "contractor": "Metro Disposal",
    "rowid": "841978",
    "final_x": "3678064.48699",
    "final_y": "555040.014489",
    "longitude": "-90.07810486006241",
    "latitude": "30.020271371786173",
    "geocoded_column": {
      "latitude": "30.020271371786173",
      "longitude": "-90.07810486006241"
    }
  },
  {
    "service_request": "2021-841977",
    "request_type": "Abandoned Vehicles",
    "request_reason": "Abandoned/Junk Vehicles",
    "date_created": "2021-11-13T20:27:00.000",
    "date_modified": "2021-11-13T20:27:00.000",
    "request_status": "Pending",
    "responsible_agency": "Department of Public Works",
    "final_address": "1510 Monroe St",
    "address_councildis": "A",
    "status": "Pending",
    "rowid": "841977",
    "final_x": "3661141.01568",
    "final_y": "530692.42413",
    "longitude": "-90.13238439839716",
    "latitude": "29.95382256024502",
    "geocoded_column": {
      "latitude": "29.95382256024502",
      "longitude": "-90.13238439839716"
    }
  },
  {
    "service_request": "2021-841976",
    "request_type": "Trash/Recycling",
    "request_reason": "Replace Trash Cart",
    "date_created": "2021-11-13T18:53:43.000",
    "date_modified": "2021-11-13T19:01:31.000",
    "request_status": "Pending",
    "responsible_agency": "Department of Sanitation",
    "final_address": "3041 N Galvez St",
    "address_councildis": "D",
    "status": "Assigned to Contractor",
    "contractor": "Metro Disposal",
    "rowid": "841976",
    "final_x": "3689763.70044",
    "final_y": "539863.710346",
    "longitude": "-90.04167962529343",
    "latitude": "29.978184469431575",
    "geocoded_column": {
      "latitude": "29.978184469431575",
      "longitude": "-90.04167962529343"
    }
  },
  {
    "service_request": "2021-841975",
    "request_type": "Trash/Recycling",
    "request_reason": "Missed Trash Pick-Up",
    "date_created": "2021-11-13T18:53:18.000",
    "date_modified": "2021-11-13T18:53:18.000",
    "request_status": "Pending",
    "responsible_agency": "Department of Sanitation",
    "final_address": "4408 Dodt Ave",
    "address_councildis": "E",
    "status": "Assigned to Contractor",
    "contractor": "Metro Disposal",
    "rowid": "841975",
    "final_x": "3705542.14654",
    "final_y": "553419.154455",
    "longitude": "-89.99134463924374",
    "latitude": "30.014958345232625",
    "geocoded_column": {
      "latitude": "30.014958345232625",
      "longitude": "-89.99134463924374"
    }
  },
  {
    "service_request": "2021-841974",
    "request_type": "Trash/Recycling",
    "request_reason": "Order Recycling Cart",
    "date_created": "2021-11-13T18:52:52.000",
    "date_modified": "2021-11-13T19:01:32.000",
    "request_status": "Pending",
    "responsible_agency": "Department of Sanitation",
    "final_address": "3041 N Galvez St",
    "address_councildis": "D",
    "status": "Pending",
    "rowid": "841974",
    "final_x": "3689763.70044",
    "final_y": "539863.710346",
    "longitude": "-90.04167962529343",
    "latitude": "29.978184469431575",
    "geocoded_column": {
      "latitude": "29.978184469431575",
      "longitude": "-90.04167962529343"
    }
  },
  {
    "service_request": "2021-841973",
    "request_type": "Trash/Recycling",
    "request_reason": "Repair Trash Cart",
    "date_created": "2021-11-13T18:42:01.000",
    "date_modified": "2021-11-13T19:01:34.000",
    "request_status": "Pending",
    "responsible_agency": "Department of Sanitation",
    "final_address": "627 Philip St",
    "address_councildis": "B",
    "status": "Assigned to Contractor",
    "contractor": "Richards Disposal",
    "rowid": "841973",
    "final_x": "3679540.85461",
    "final_y": "520593.804664",
    "longitude": "-90.07463558775817",
    "latitude": "29.92551161028148",
    "geocoded_column": {
      "latitude": "29.92551161028148",
      "longitude": "-90.07463558775817"
    }
  },
  {
    "service_request": "2021-841972",
    "request_type": "Trash/Recycling",
    "request_reason": "Replace Recycling Cart",
    "date_created": "2021-11-13T17:35:23.000",
    "date_modified": "2021-11-13T18:01:14.000",
    "request_status": "Pending",
    "responsible_agency": "Department of Sanitation",
    "final_address": "4714 Pitt St",
    "address_councildis": "B",
    "status": "Pending",
    "rowid": "841972",
    "final_x": "3669620.48858",
    "final_y": "520377.683448",
    "longitude": "-90.10595852028284",
    "latitude": "29.925213262764057",
    "geocoded_column": {
      "latitude": "29.925213262764057",
      "longitude": "-90.10595852028284"
    }
  },
  {
    "service_request": "2021-841971",
    "request_type": "Trash/Recycling",
    "request_reason": "Replace Trash Cart",
    "date_created": "2021-11-13T17:19:46.000",
    "date_modified": "2021-11-13T18:01:16.000",
    "request_status": "Pending",
    "responsible_agency": "Department of Sanitation",
    "final_address": "1817 Sophie Wright Pl",
    "address_councildis": "B",
    "status": "Assigned to Contractor",
    "contractor": "Richards Disposal",
    "rowid": "841971",
    "final_x": "3679595.90351",
    "final_y": "523161.011003",
    "longitude": "-90.07437277626974",
    "latitude": "29.932568923703876",
    "geocoded_column": {
      "latitude": "29.932568923703876",
      "longitude": "-90.07437277626974"
    }
  },
  {
    "service_request": "2021-841970",
    "request_type": "Traffic Signals/Signs/Striping/Streetlights",
    "request_reason": "Traffic Signal Malfunctioning/Damaged",
    "date_created": "2021-11-13T16:34:06.000",
    "date_modified": "2021-11-14T19:18:45.000",
    "request_status": "Pending",
    "responsible_agency": "Department of Public Works",
    "final_address": "New Orleans,LA",
    "address_councildis": "B",
    "rowid": "841970",
    "final_x": "3682211.4",
    "final_y": "528963.98",
    "longitude": "-90.06591325216971",
    "latitude": "29.94844587359478",
    "geocoded_column": {
      "latitude": "29.94844587359478",
      "longitude": "-90.06591325216971"
    }
  },
  {
    "service_request": "2021-841969",
    "request_type": "Traffic Signals/Signs/Striping/Streetlights",
    "request_reason": "Additional signage",
    "date_created": "2021-11-13T16:30:35.000",
    "date_modified": "2021-11-13T17:01:11.000",
    "request_status": "Pending",
    "responsible_agency": "Department of Public Works",
    "final_address": "916 Cadiz St",
    "address_councildis": "B",
    "status": "Pending",
    "rowid": "841969",
    "final_x": "3670235.75687",
    "final_y": "518862.953015",
    "longitude": "-90.10406760526669",
    "latitude": "29.921030099444632",
    "geocoded_column": {
      "latitude": "29.921030099444632",
      "longitude": "-90.10406760526669"
    }
  },
  {
    "service_request": "2021-841968",
    "request_type": "Abandoned Vehicles",
    "request_reason": "Abandoned/Junk Vehicles",
    "date_created": "2021-11-13T16:23:19.000",
    "date_modified": "2021-11-13T17:01:12.000",
    "request_status": "Pending",
    "responsible_agency": "Department of Public Works",
    "final_address": "716 N White St, New Orleans, Louisiana, 70119",
    "address_councildis": "A",
    "status": "Pending",
    "rowid": "841968",
    "final_x": "3676406.68085",
    "final_y": "537414.911176",
    "longitude": "-90.08395024216361",
    "latitude": "29.97185835830671",
    "geocoded_column": {
      "latitude": "29.97185835830671",
      "longitude": "-90.08395024216361"
    }
  },
  {
    "service_request": "2021-841967",
    "request_type": "Roads/Drainage",
    "request_reason": "Pothole",
    "date_created": "2021-11-13T15:53:46.000",
    "date_modified": "2021-11-13T15:53:46.000",
    "request_status": "Pending",
    "responsible_agency": "Department of Public Works",
    "final_address": "3137 Orleans Ave",
    "address_councildis": "A",
    "status": "Pending",
    "rowid": "841967",
    "final_x": "3675086.00885",
    "final_y": "538360.268233",
    "longitude": "-90.08808869185481",
    "latitude": "29.974497297491975",
    "geocoded_column": {
      "latitude": "29.974497297491975",
      "longitude": "-90.08808869185481"
    }
  },
  {
    "service_request": "2021-841966",
    "request_type": "Roads/Drainage",
    "request_reason": "Pothole",
    "date_created": "2021-11-13T15:52:24.000",
    "date_modified": "2021-11-13T15:52:24.000",
    "request_status": "Pending",
    "responsible_agency": "Department of Public Works",
    "final_address": "3001 Orleans Ave",
    "address_councildis": "A",
    "status": "Pending",
    "rowid": "841966",
    "final_x": "3675794.24878",
    "final_y": "537825.322312",
    "longitude": "-90.08587029025682",
    "latitude": "29.973005196278613",
    "geocoded_column": {
      "latitude": "29.973005196278613",
      "longitude": "-90.08587029025682"
    }
  },
  {
    "service_request": "2021-841965",
    "request_type": "Trash/Recycling",
    "request_reason": "Request a Large Item Pick Up",
    "date_created": "2021-11-13T15:41:28.000",
    "date_modified": "2021-11-13T15:41:28.000",
    "request_status": "Pending",
    "responsible_agency": "Department of Sanitation",
    "final_address": "1602 Harmony St",
    "address_councildis": "B",
    "status": "Assigned to Contractor",
    "contractor": "Richards Disposal",
    "rowid": "841965",
    "final_x": "3674805.10235",
    "final_y": "521887.882938",
    "longitude": "-90.08954057407736",
    "latitude": "29.92921210126878",
    "geocoded_column": {
      "latitude": "29.92921210126878",
      "longitude": "-90.08954057407736"
    }
  },
  {
    "service_request": "2021-841964",
    "request_type": "Trash/Recycling",
    "request_reason": "Order Recycling Cart",
    "date_created": "2021-11-13T15:40:41.000",
    "date_modified": "2021-11-13T15:40:41.000",
    "request_status": "Pending",
    "responsible_agency": "Department of Sanitation",
    "final_address": "1662 Paul Morphy St",
    "address_councildis": "D",
    "status": "Pending",
    "rowid": "841964",
    "final_x": "3679131.93442",
    "final_y": "540781.250507",
    "longitude": "-90.07522673078309",
    "latitude": "29.981032641069195",
    "geocoded_column": {
      "latitude": "29.981032641069195",
      "longitude": "-90.07522673078309"
    }
  },
  {
    "service_request": "2021-841963",
    "request_type": "Trash/Recycling",
    "request_reason": "Order Recycling Cart",
    "date_created": "2021-11-13T15:19:56.000",
    "date_modified": "2021-11-13T16:01:15.000",
    "request_status": "Pending",
    "responsible_agency": "Department of Sanitation",
    "final_address": "1832 Wilton Dr",
    "address_councildis": "D",
    "status": "Pending",
    "rowid": "841963",
    "final_x": "3681459.53487",
    "final_y": "550830.454869",
    "longitude": "-90.0675245005924",
    "latitude": "30.008593910964066",
    "geocoded_column": {
      "latitude": "30.008593910964066",
      "longitude": "-90.0675245005924"
    }
  },
  {
    "service_request": "2021-841962",
    "request_type": "Trash/Recycling",
    "request_reason": "Missed Trash Pick-Up",
    "date_created": "2021-11-13T14:49:21.000",
    "date_modified": "2021-11-13T14:49:22.000",
    "request_status": "Pending",
    "responsible_agency": "Department of Sanitation",
    "final_address": "4241 San Remo St",
    "address_councildis": "E",
    "status": "Assigned to Contractor",
    "contractor": "Metro Disposal",
    "rowid": "841962",
    "final_x": "3760417.51497",
    "final_y": "572856.584361",
    "longitude": "-89.81715671748809",
    "latitude": "30.066521275770587",
    "geocoded_column": {
      "latitude": "30.066521275770587",
      "longitude": "-89.81715671748809"
    }
  },
  {
    "service_request": "2021-841961",
    "request_type": "Property Maintenance",
    "request_reason": "Property Maintenance",
    "date_created": "2021-11-13T14:35:48.000",
    "date_modified": "2021-11-13T14:35:48.000",
    "request_status": "Pending",
    "responsible_agency": "Department of Code Enforcement",
    "final_address": "2751 Palmyra St",
    "address_councildis": "B",
    "status": "Pending",
    "rowid": "841961",
    "final_x": "3674551.98132",
    "final_y": "534802.325702",
    "longitude": "-90.08989722132684",
    "latitude": "29.96473010800288",
    "geocoded_column": {
      "latitude": "29.96473010800288",
      "longitude": "-90.08989722132684"
    }
  },
  {
    "service_request": "2021-841960",
    "request_type": "Property Maintenance",
    "request_reason": "Property Maintenance",
    "date_created": "2021-11-13T14:32:40.000",
    "date_modified": "2021-11-13T14:32:40.000",
    "request_status": "Pending",
    "responsible_agency": "Department of Code Enforcement",
    "final_address": "301 S White St",
    "address_councildis": "B",
    "status": "Pending",
    "rowid": "841960",
    "final_x": "3674313.05544",
    "final_y": "534803.115974",
    "longitude": "-90.0906517070814",
    "latitude": "29.964739408035033",
    "geocoded_column": {
      "latitude": "29.964739408035033",
      "longitude": "-90.0906517070814"
    }
  },
  {
    "service_request": "2021-841959",
    "request_type": "Abandoned Vehicles",
    "request_reason": "Abandoned/Junk Vehicles",
    "date_created": "2021-11-13T14:30:28.000",
    "date_modified": "2021-11-13T14:30:28.000",
    "request_status": "Pending",
    "responsible_agency": "Department of Public Works",
    "final_address": "3917 Clematis St",
    "address_councildis": "D",
    "status": "Pending",
    "rowid": "841959",
    "final_x": "3685745.00642",
    "final_y": "547275.888337",
    "longitude": "-90.05411072008863",
    "latitude": "29.99868927153451",
    "geocoded_column": {
      "latitude": "29.99868927153451",
      "longitude": "-90.05411072008863"
    }
  },
  {
    "service_request": "2021-841958",
    "request_type": "Property Maintenance",
    "request_reason": "Property Maintenance",
    "date_created": "2021-11-13T14:23:57.000",
    "date_modified": "2021-11-13T14:23:57.000",
    "request_status": "Pending",
    "responsible_agency": "Department of Code Enforcement",
    "final_address": "323 Jane Aly",
    "address_councildis": "B",
    "status": "Pending",
    "rowid": "841958",
    "final_x": "3674487.74382",
    "final_y": "534551.617541",
    "longitude": "-90.09010866935368",
    "latitude": "29.964042661575355",
    "geocoded_column": {
      "latitude": "29.964042661575355",
      "longitude": "-90.09010866935368"
    }
  },
  {
    "service_request": "2021-841956",
    "request_type": "Trash/Recycling",
    "request_reason": "Start Trash Service",
    "date_created": "2021-11-13T14:16:18.000",
    "date_modified": "2021-11-13T14:16:18.000",
    "request_status": "Pending",
    "responsible_agency": "Department of Sanitation",
    "final_address": "2326 Valence St",
    "address_councildis": "B",
    "status": "Assigned to Contractor",
    "contractor": "Richards Disposal",
    "rowid": "841956",
    "final_x": "3669389.77831",
    "final_y": "523446.290747",
    "longitude": "-90.10658309521213",
    "latitude": "29.93365774587183",
    "geocoded_column": {
      "latitude": "29.93365774587183",
      "longitude": "-90.10658309521213"
    }
  },
  {
    "service_request": "2021-841955",
    "request_type": "Trash/Recycling",
    "request_reason": "Request a Large Item Pick Up",
    "date_created": "2021-11-13T14:14:15.000",
    "date_modified": "2021-11-13T14:14:16.000",
    "request_status": "Pending",
    "responsible_agency": "Department of Sanitation",
    "final_address": "8428 Birch St",
    "address_councildis": "A",
    "status": "Assigned to Contractor",
    "contractor": "Richards Disposal",
    "rowid": "841955",
    "final_x": "3661894.77811",
    "final_y": "530276.409537",
    "longitude": "-90.13001811071912",
    "latitude": "29.95265690986511",
    "geocoded_column": {
      "latitude": "29.95265690986511",
      "longitude": "-90.13001811071912"
    }
  },
  {
    "service_request": "2021-841954",
    "request_type": "Safety & Permits",
    "request_reason": "Safety & Permits Request (Cyber Incident Back Up)",
    "date_created": "2021-11-13T14:07:04.000",
    "date_modified": "2021-11-13T15:01:28.000",
    "request_status": "Pending",
    "responsible_agency": "Safety and Permits",
    "status": "Pending",
    "rowid": "841954",
    "longitude": "0.0",
    "latitude": "0.0",
    "geocoded_column": {
      "latitude": "0.0",
      "longitude": "0.0"
    }
  },
  {
    "service_request": "2021-841953",
    "request_type": "Safety & Permits",
    "request_reason": "Construction permit",
    "date_created": "2021-11-13T14:00:29.000",
    "date_modified": "2021-11-13T14:00:29.000",
    "request_status": "Pending",
    "responsible_agency": "Department of Code Enforcement",
    "final_address": "8539 Freret St",
    "address_councildis": "A",
    "status": "Pending",
    "rowid": "841953",
    "final_x": "3660232.82278",
    "final_y": "529052.597184",
    "longitude": "-90.13530624984652",
    "latitude": "29.949339703403727",
    "geocoded_column": {
      "latitude": "29.949339703403727",
      "longitude": "-90.13530624984652"
    }
  },
  {
    "service_request": "2021-841952",
    "request_type": "Trash/Recycling",
    "request_reason": "Illegal Dumping",
    "date_created": "2021-11-13T13:54:05.000",
    "date_modified": "2021-11-13T14:01:19.000",
    "request_status": "Pending",
    "responsible_agency": "Department of Sanitation",
    "final_address": "214 Magazine St",
    "address_councildis": "B",
    "status": "Pending",
    "rowid": "841952",
    "final_x": "3681705.38236",
    "final_y": "529791.664769",
    "longitude": "-90.06748208901224",
    "latitude": "29.950737108186207",
    "geocoded_column": {
      "latitude": "29.950737108186207",
      "longitude": "-90.06748208901224"
    }
  },
  {
    "service_request": "2021-841951",
    "request_type": "Trash/Recycling",
    "request_reason": "Request a Large Item Pick Up",
    "date_created": "2021-11-13T13:49:18.000",
    "date_modified": "2021-11-13T13:49:19.000",
    "request_status": "Pending",
    "responsible_agency": "Department of Sanitation",
    "final_address": "6333 Colbert St",
    "address_councildis": "A",
    "status": "Assigned to Contractor",
    "contractor": "Metro Disposal",
    "rowid": "841951",
    "final_x": "3667718.47015",
    "final_y": "549675.738772",
    "longitude": "-90.110976000821",
    "latitude": "30.005829075601568",
    "geocoded_column": {
      "latitude": "30.005829075601568",
      "longitude": "-90.110976000821"
    }
  },
  {
    "service_request": "2021-841950",
    "request_type": "Trash/Recycling",
    "request_reason": "Missed Trash Pick-Up",
    "date_created": "2021-11-13T13:13:19.000",
    "date_modified": "2021-11-13T13:16:08.000",
    "request_status": "Pending",
    "responsible_agency": "Department of Sanitation",
    "final_address": "6101 Campus Blvd",
    "address_councildis": "D",
    "status": "Assigned to Contractor",
    "contractor": "Metro Disposal",
    "rowid": "841950",
    "final_x": "3688653.59926",
    "final_y": "555735.645465",
    "longitude": "-90.04462191541428",
    "latitude": "30.0218608894368",
    "geocoded_column": {
      "latitude": "30.0218608894368",
      "longitude": "-90.04462191541428"
    }
  },
  {
    "service_request": "2021-841949",
    "request_type": "Trash/Recycling",
    "request_reason": "Illegal Dumping",
    "date_created": "2021-11-13T13:05:40.000",
    "date_modified": "2021-11-13T14:01:21.000",
    "request_status": "Pending",
    "responsible_agency": "Department of Sanitation",
    "final_address": "2917 Annunciation St",
    "address_councildis": "B",
    "status": "Pending",
    "rowid": "841949",
    "final_x": "3677076.60142",
    "final_y": "519560.866231",
    "longitude": "-90.08245007562299",
    "latitude": "29.922745566777387",
    "geocoded_column": {
      "latitude": "29.922745566777387",
      "longitude": "-90.08245007562299"
    }
  },
  {
    "service_request": "2021-841948",
    "request_type": "Trash/Recycling",
    "request_reason": "Repair Trash Cart",
    "date_created": "2021-11-13T13:02:25.000",
    "date_modified": "2021-11-13T14:01:22.000",
    "request_status": "Pending",
    "responsible_agency": "Department of Sanitation",
    "final_address": "2917 Annunciation St",
    "address_councildis": "B",
    "status": "Assigned to Contractor",
    "contractor": "Richards Disposal",
    "rowid": "841948",
    "final_x": "3677076.60142",
    "final_y": "519560.866231",
    "longitude": "-90.08245007562299",
    "latitude": "29.922745566777387",
    "geocoded_column": {
      "latitude": "29.922745566777387",
      "longitude": "-90.08245007562299"
    }
  },
  {
    "service_request": "2021-841947",
    "request_type": "Trash/Recycling",
    "request_reason": "Request a Large Item Pick Up",
    "date_created": "2021-11-13T12:58:37.000",
    "date_modified": "2021-11-13T13:01:22.000",
    "request_status": "Pending",
    "responsible_agency": "Department of Sanitation",
    "final_address": "1518 St Ann St",
    "address_councildis": "C",
    "status": "Assigned to Contractor",
    "contractor": "Richards Disposal",
    "rowid": "841947",
    "final_x": "3680384.47131",
    "final_y": "534543.136133",
    "longitude": "-90.07148763403934",
    "latitude": "29.96384210298535",
    "geocoded_column": {
      "latitude": "29.96384210298535",
      "longitude": "-90.07148763403934"
    }
  },
  {
    "service_request": "2021-841946",
    "request_type": "Trash/Recycling",
    "request_reason": "Replace Trash Cart",
    "date_created": "2021-11-13T12:49:39.000",
    "date_modified": "2021-11-13T12:49:40.000",
    "request_status": "Pending",
    "responsible_agency": "Department of Sanitation",
    "final_address": "1530 Monroe St",
    "address_councildis": "A",
    "status": "Assigned to Contractor",
    "contractor": "Richards Disposal",
    "rowid": "841946",
    "final_x": "3661243.29978",
    "final_y": "530800.765058",
    "longitude": "-90.1320578392718",
    "latitude": "29.954117514779863",
    "geocoded_column": {
      "latitude": "29.954117514779863",
      "longitude": "-90.1320578392718"
    }
  },
  {
    "service_request": "2021-841945",
    "request_type": "Trash/Recycling",
    "request_reason": "Replace Trash Cart",
    "date_created": "2021-11-13T12:43:30.000",
    "date_modified": "2021-11-13T12:43:31.000",
    "request_status": "Pending",
    "responsible_agency": "Department of Sanitation",
    "final_address": "2106 Josephine St",
    "address_councildis": "B",
    "status": "Assigned to Contractor",
    "contractor": "Richards Disposal",
    "rowid": "841945",
    "final_x": "3676685.79521",
    "final_y": "525489.721405",
    "longitude": "-90.08347955792952",
    "latitude": "29.939059711402567",
    "geocoded_column": {
      "latitude": "29.939059711402567",
      "longitude": "-90.08347955792952"
    }
  },
  {
    "service_request": "2021-841944",
    "request_type": "Traffic Signals/Signs/Striping/Streetlights",
    "request_reason": "Striping/Road Surface Markings",
    "date_created": "2021-11-13T12:30:17.000",
    "date_modified": "2021-11-13T12:30:17.000",
    "request_status": "Pending",
    "responsible_agency": "Department of Public Works",
    "final_address": "N RAMPART ST & TOULOUSE ST",
    "address_councildis": "C",
    "status": "Pending",
    "rowid": "841944",
    "final_x": "3681165.9",
    "final_y": "533028.78",
    "longitude": "-90.06907272289246",
    "latitude": "29.959654455258974",
    "geocoded_column": {
      "latitude": "29.959654455258974",
      "longitude": "-90.06907272289246"
    }
  },
  {
    "service_request": "2021-841943",
    "request_type": "Roads/Drainage",
    "request_reason": "Street Subsidence (Sinking)",
    "date_created": "2021-11-13T12:25:44.000",
    "date_modified": "2021-11-13T13:01:25.000",
    "request_status": "Pending",
    "responsible_agency": "Department of Public Works",
    "final_address": "519 S Cortez St",
    "address_councildis": "B",
    "status": "Pending",
    "rowid": "841943",
    "final_x": "3670971.35329",
    "final_y": "536215.415047",
    "longitude": "-90.1011566426498",
    "latitude": "29.968721985798698",
    "geocoded_column": {
      "latitude": "29.968721985798698",
      "longitude": "-90.1011566426498"
    }
  },
  {
    "service_request": "2021-841942",
    "request_type": "Trash/Recycling",
    "request_reason": "Request a Large Item Pick Up",
    "date_created": "2021-11-13T12:20:52.000",
    "date_modified": "2021-11-13T13:01:26.000",
    "request_status": "Pending",
    "responsible_agency": "Department of Sanitation",
    "final_address": "3011 Dumaine St",
    "address_councildis": "A",
    "status": "Assigned to Contractor",
    "contractor": "Richards Disposal",
    "rowid": "841942",
    "final_x": "3676105.34721",
    "final_y": "538373.091209",
    "longitude": "-90.08486893113873",
    "latitude": "29.97450205709688",
    "geocoded_column": {
      "latitude": "29.97450205709688",
      "longitude": "-90.08486893113873"
    }
  },
  {
    "service_request": "2021-841941",
    "request_type": "Trash/Recycling",
    "request_reason": "Missed Trash Pick-Up",
    "date_created": "2021-11-13T12:10:53.000",
    "date_modified": "2021-11-13T12:10:54.000",
    "request_status": "Pending",
    "responsible_agency": "Department of Sanitation",
    "final_address": "6300 BLK Bertha Dr",
    "address_councildis": "D",
    "status": "Assigned to Contractor",
    "contractor": "Metro Disposal",
    "rowid": "841941",
    "final_x": "3678300.43339",
    "final_y": "556393.490019",
    "longitude": "-90.07731246433053",
    "latitude": "30.02398582795231",
    "geocoded_column": {
      "latitude": "30.02398582795231",
      "longitude": "-90.07731246433053"
    }
  },
  {
    "service_request": "2021-841940",
    "request_type": "Traffic Signals/Signs/Striping/Streetlights",
    "request_reason": "Traffic Signal Malfunctioning/Damaged",
    "date_created": "2021-11-13T12:08:16.000",
    "date_modified": "2021-11-13T12:08:16.000",
    "request_status": "Pending",
    "responsible_agency": "Department of Public Works",
    "final_address": "CANAL ST & S PETERS ST & N PETERS ST",
    "address_councildis": "C",
    "status": "Pending",
    "rowid": "841940",
    "final_x": "3682197.93",
    "final_y": "529969.27",
    "longitude": "-90.06592067365118",
    "latitude": "29.951210491473937",
    "geocoded_column": {
      "latitude": "29.951210491473937",
      "longitude": "-90.06592067365118"
    }
  },
  {
    "service_request": "2021-841939",
    "request_type": "Abandoned Vehicles",
    "request_reason": "Abandoned/Junk Vehicles",
    "date_created": "2021-11-13T11:52:20.000",
    "date_modified": "2021-11-13T11:52:20.000",
    "request_status": "Pending",
    "responsible_agency": "Department of Public Works",
    "final_address": "7300 BLK Strathmore Dr",
    "address_councildis": "E",
    "status": "Pending",
    "rowid": "841939",
    "final_x": "3714198.06861",
    "final_y": "566905.878443",
    "longitude": "-89.96348694483835",
    "latitude": "30.05175985314719",
    "geocoded_column": {
      "latitude": "30.05175985314719",
      "longitude": "-89.96348694483835"
    }
  },
  {
    "service_request": "2021-841938",
    "request_type": "Traffic Signals/Signs/Striping/Streetlights",
    "request_reason": "Traffic Signal Malfunctioning/Damaged",
    "date_created": "2021-11-13T11:50:41.000",
    "date_modified": "2021-11-13T11:50:41.000",
    "request_status": "Pending",
    "responsible_agency": "Department of Public Works",
    "final_address": "S PETERS ST & POYDRAS ST",
    "address_councildis": "B",
    "status": "Pending",
    "rowid": "841938",
    "final_x": "3682211.4",
    "final_y": "528963.98",
    "longitude": "-90.06591325216971",
    "latitude": "29.94844587359478",
    "geocoded_column": {
      "latitude": "29.94844587359478",
      "longitude": "-90.06591325216971"
    }
  },
  {
    "service_request": "2021-841937",
    "request_type": "Traffic Signals/Signs/Striping/Streetlights",
    "request_reason": "Request for Stop Sign",
    "date_created": "2021-11-13T11:49:38.000",
    "date_modified": "2021-11-13T11:49:38.000",
    "request_status": "Pending",
    "responsible_agency": "Department of Public Works",
    "final_address": "S PETERS ST & POYDRAS ST",
    "address_councildis": "B",
    "status": "Pending",
    "rowid": "841937",
    "final_x": "3682211.4",
    "final_y": "528963.98",
    "longitude": "-90.06591325216971",
    "latitude": "29.94844587359478",
    "geocoded_column": {
      "latitude": "29.94844587359478",
      "longitude": "-90.06591325216971"
    }
  },
  {
    "service_request": "2021-841936",
    "request_type": "Property Maintenance",
    "request_reason": "Property Maintenance",
    "date_created": "2021-11-13T11:48:21.000",
    "date_modified": "2021-11-13T12:02:01.000",
    "request_status": "Pending",
    "responsible_agency": "Department of Code Enforcement",
    "final_address": "2909 Feliciana St",
    "address_councildis": "D",
    "status": "Pending",
    "rowid": "841936",
    "final_x": "3690628.36899",
    "final_y": "543297.918542",
    "longitude": "-90.03882616495446",
    "latitude": "29.987600484596417",
    "geocoded_column": {
      "latitude": "29.987600484596417",
      "longitude": "-90.03882616495446"
    }
  },
  {
    "service_request": "2021-841935",
    "request_type": "Abandoned Vehicles",
    "request_reason": "Abandoned/Junk Vehicles",
    "date_created": "2021-11-13T11:39:53.000",
    "date_modified": "2021-11-13T11:39:53.000",
    "request_status": "Pending",
    "responsible_agency": "Department of Public Works",
    "final_address": "1727 Tupelo St",
    "address_councildis": "E",
    "status": "Pending",
    "rowid": "841935",
    "final_x": "3700527.92842",
    "final_y": "535590.746438",
    "longitude": "-90.00783867897069",
    "latitude": "29.966097330772985",
    "geocoded_column": {
      "latitude": "29.966097330772985",
      "longitude": "-90.00783867897069"
    }
  },
  {
    "service_request": "2021-841933",
    "request_type": "Trash/Recycling",
    "request_reason": "Illegal Dumping",
    "date_created": "2021-11-13T11:34:57.000",
    "date_modified": "2021-11-13T12:02:06.000",
    "request_status": "Pending",
    "responsible_agency": "Department of Sanitation",
    "final_address": "2901 feliciana street ",
    "address_councildis": "D",
    "rowid": "841933",
    "final_x": "3690617.28342",
    "final_y": "543255.644174",
    "longitude": "-90.03886268884054",
    "latitude": "29.98748458964011",
    "geocoded_column": {
      "latitude": "29.98748458964011",
      "longitude": "-90.03886268884054"
    }
  },
  {
    "service_request": "2021-841932",
    "request_type": "Roads/Drainage",
    "request_reason": "Pothole",
    "date_created": "2021-11-13T11:34:38.000",
    "date_modified": "2021-11-13T11:34:38.000",
    "request_status": "Pending",
    "responsible_agency": "Department of Public Works",
    "final_address": "1140 S Carrollton Ave",
    "address_councildis": "A",
    "status": "Pending",
    "rowid": "841932",
    "final_x": "3661931.25363",
    "final_y": "528357.142144",
    "longitude": "-90.12996658126697",
    "latitude": "29.94737848734797",
    "geocoded_column": {
      "latitude": "29.94737848734797",
      "longitude": "-90.12996658126697"
    }
  },
  {
    "service_request": "2021-841931",
    "request_type": "Abandoned Vehicles",
    "request_reason": "Abandoned/Junk Vehicles",
    "date_created": "2021-11-13T11:32:04.000",
    "date_modified": "2021-11-13T11:32:04.000",
    "request_status": "Pending",
    "responsible_agency": "Department of Public Works",
    "final_address": "1727 Tupelo St",
    "address_councildis": "E",
    "status": "Pending",
    "rowid": "841931",
    "final_x": "3700527.92842",
    "final_y": "535590.746438",
    "longitude": "-90.00783867897069",
    "latitude": "29.966097330772985",
    "geocoded_column": {
      "latitude": "29.966097330772985",
      "longitude": "-90.00783867897069"
    }
  },
  {
    "service_request": "2021-841930",
    "request_type": "Roads/Drainage",
    "request_reason": "Street Flooding / Drainage",
    "date_created": "2021-11-13T11:24:25.000",
    "date_modified": "2021-11-13T12:02:08.000",
    "request_status": "Pending",
    "responsible_agency": "Department of Public Works",
    "final_address": "2909 feliciana street ",
    "address_councildis": "D",
    "status": "Pending",
    "rowid": "841930",
    "final_x": "3690628.36899",
    "final_y": "543297.918542",
    "longitude": "-90.03882616495446",
    "latitude": "29.987600484596417",
    "geocoded_column": {
      "latitude": "29.987600484596417",
      "longitude": "-90.03882616495446"
    }
  },
  {
    "service_request": "2021-841929",
    "request_type": "Roads/Drainage",
    "request_reason": "Catch Basin - Clogged",
    "date_created": "2021-11-13T11:22:06.000",
    "date_modified": "2021-11-13T12:02:11.000",
    "request_status": "Pending",
    "responsible_agency": "Department of Public Works",
    "final_address": "6373 Memphis St",
    "address_councildis": "A",
    "status": "Pending",
    "rowid": "841929",
    "final_x": "3669516.3307",
    "final_y": "549877.31234",
    "longitude": "-90.10528929836582",
    "latitude": "30.00633047396623",
    "geocoded_column": {
      "latitude": "30.00633047396623",
      "longitude": "-90.10528929836582"
    }
  },
  {
    "service_request": "2021-841928",
    "request_type": "Roads/Drainage",
    "request_reason": "Catch Basin - Clogged",
    "date_created": "2021-11-13T10:48:04.000",
    "date_modified": "2021-11-13T10:48:05.000",
    "request_status": "Pending",
    "responsible_agency": "Department of Public Works",
    "final_address": "4851 Galahad Dr",
    "address_councildis": "E",
    "status": "Pending",
    "rowid": "841928",
    "final_x": "3707198.23332",
    "final_y": "556319.295066",
    "longitude": "-89.98600449888315",
    "latitude": "30.02287917343874",
    "geocoded_column": {
      "latitude": "30.02287917343874",
      "longitude": "-89.98600449888315"
    }
  },
  {
    "service_request": "2021-841927",
    "request_type": "Traffic Signals/Signs/Striping/Streetlights",
    "request_reason": "Traffic Signal Malfunctioning/Damaged",
    "date_created": "2021-11-13T10:28:53.000",
    "date_modified": "2021-11-13T10:28:53.000",
    "request_status": "Pending",
    "responsible_agency": "Department of Public Works",
    "final_address": "1500 State St",
    "address_councildis": "A",
    "status": "Pending",
    "rowid": "841927",
    "final_x": "3665484.62964",
    "final_y": "521858.67769",
    "longitude": "-90.11896461875835",
    "latitude": "29.929406696702195",
    "geocoded_column": {
      "latitude": "29.929406696702195",
      "longitude": "-90.11896461875835"
    }
  },
  {
    "service_request": "2021-841926",
    "request_type": "Safety & Permits",
    "request_reason": "Licenses & Permits",
    "date_created": "2021-11-13T10:18:53.000",
    "date_modified": "2021-11-13T10:18:53.000",
    "request_status": "Pending",
    "responsible_agency": "Safety and Permits",
    "status": "Pending",
    "rowid": "841926",
    "longitude": "0.0",
    "latitude": "0.0",
    "geocoded_column": {
      "latitude": "0.0",
      "longitude": "0.0"
    }
  },
  {
    "service_request": "2021-841924",
    "request_type": "Trash/Recycling",
    "request_reason": "Missed Trash Pick-Up",
    "date_created": "2021-11-13T10:05:41.000",
    "date_modified": "2021-11-13T11:01:50.000",
    "request_status": "Pending",
    "responsible_agency": "Department of Sanitation",
    "final_address": "2441 Annette St",
    "address_councildis": "D",
    "status": "Assigned to Contractor",
    "contractor": "Metro Disposal",
    "rowid": "841924",
    "final_x": "3682786.64252",
    "final_y": "541274.795916",
    "longitude": "-90.063666264452",
    "latitude": "29.98227887414312",
    "geocoded_column": {
      "latitude": "29.98227887414312",
      "longitude": "-90.063666264452"
    }
  },
  {
    "service_request": "2021-841923",
    "request_type": "Mayor's Request",
    "request_reason": "Requests to the Mayor",
    "date_created": "2021-11-13T09:54:28.000",
    "date_modified": "2021-11-13T09:54:28.000",
    "request_status": "Pending",
    "responsible_agency": "Executive Office of the Mayor",
    "final_address": "2311 S Johnson St",
    "address_councildis": "B",
    "status": "Pending",
    "rowid": "841923",
    "final_x": "3673605.37768",
    "final_y": "528728.905664",
    "longitude": "-90.09309413181799",
    "latitude": "29.948058436115023",
    "geocoded_column": {
      "latitude": "29.948058436115023",
      "longitude": "-90.09309413181799"
    }
  },
  {
    "service_request": "2021-841922",
    "request_type": "Abandoned Vehicles",
    "request_reason": "Abandoned/Junk Vehicles",
    "date_created": "2021-11-13T09:54:19.000",
    "date_modified": "2021-11-13T09:55:27.000",
    "request_status": "Pending",
    "responsible_agency": "Department of Public Works",
    "final_address": "3826 Royal St",
    "address_councildis": "C",
    "status": "Pending",
    "rowid": "841922",
    "final_x": "3691053.83612",
    "final_y": "533865.760197",
    "longitude": "-90.03781911111979",
    "latitude": "29.961652170985754",
    "geocoded_column": {
      "latitude": "29.961652170985754",
      "longitude": "-90.03781911111979"
    }
  },
  {
    "service_request": "2021-841921",
    "request_type": "Trash/Recycling",
    "request_reason": "Illegal Dumping",
    "date_created": "2021-11-13T09:49:58.000",
    "date_modified": "2021-11-13T09:49:58.000",
    "request_status": "Pending",
    "responsible_agency": "Department of Sanitation",
    "final_address": "2617 S Saratoga St",
    "address_councildis": "B",
    "status": "Pending",
    "rowid": "841921",
    "final_x": "3675305.01339",
    "final_y": "524305.418364",
    "longitude": "-90.08787949723654",
    "latitude": "29.93584460666432",
    "geocoded_column": {
      "latitude": "29.93584460666432",
      "longitude": "-90.08787949723654"
    }
  },
  {
    "service_request": "2021-841920",
    "request_type": "Roads/Drainage",
    "request_reason": "Pothole",
    "date_created": "2021-11-13T09:46:18.000",
    "date_modified": "2021-11-13T09:46:18.000",
    "request_status": "Pending",
    "responsible_agency": "Department of Public Works",
    "final_address": "5156 Wilton Dr",
    "address_councildis": "D",
    "status": "Pending",
    "rowid": "841920",
    "final_x": "3681863.15029",
    "final_y": "551446.298325",
    "longitude": "-90.06622783544061",
    "latitude": "30.010274991880664",
    "geocoded_column": {
      "latitude": "30.010274991880664",
      "longitude": "-90.06622783544061"
    }
  },
  {
    "service_request": "2021-841919",
    "request_type": "Trash/Recycling",
    "request_reason": "Missed Trash Pick-Up",
    "date_created": "2021-11-13T09:40:58.000",
    "date_modified": "2021-11-13T09:40:59.000",
    "request_status": "Pending",
    "responsible_agency": "Department of Sanitation",
    "final_address": "1131 Forstall St",
    "address_councildis": "E",
    "status": "Assigned to Contractor",
    "contractor": "Metro Disposal",
    "rowid": "841919",
    "final_x": "3696374.596",
    "final_y": "534502.115909",
    "longitude": "-90.02099410505721",
    "latitude": "29.96323543782779",
    "geocoded_column": {
      "latitude": "29.96323543782779",
      "longitude": "-90.02099410505721"
    }
  },
  {
    "service_request": "2021-841918",
    "request_type": "Trash/Recycling",
    "request_reason": "Missed Trash Pick-Up",
    "date_created": "2021-11-13T09:30:37.000",
    "date_modified": "2021-11-13T09:30:38.000",
    "request_status": "Pending",
    "responsible_agency": "Department of Sanitation",
    "final_address": "2806 St Louis St",
    "address_councildis": "B",
    "status": "Assigned to Contractor",
    "contractor": "Richards Disposal",
    "rowid": "841918",
    "final_x": "3675641.66337",
    "final_y": "536585.486919",
    "longitude": "-90.08639479631773",
    "latitude": "29.96960063775185",
    "geocoded_column": {
      "latitude": "29.96960063775185",
      "longitude": "-90.08639479631773"
    }
  },
  {
    "service_request": "2021-841917",
    "request_type": "Roads/Drainage",
    "request_reason": "Street Flooding / Drainage",
    "date_created": "2021-11-13T09:29:01.000",
    "date_modified": "2021-11-13T09:29:01.000",
    "request_status": "Pending",
    "responsible_agency": "Department of Public Works",
    "final_address": "4535 Camp St",
    "address_councildis": "B",
    "status": "Pending",
    "rowid": "841917",
    "final_x": "3670322.95316",
    "final_y": "519127.119479",
    "longitude": "-90.10378341738199",
    "latitude": "29.921753900936242",
    "geocoded_column": {
      "latitude": "29.921753900936242",
      "longitude": "-90.10378341738199"
    }
  },
  {
    "service_request": "2021-841916",
    "request_type": "Traffic Signals/Signs/Striping/Streetlights",
    "request_reason": "Street Light Knocked Down/Leaning",
    "date_created": "2021-11-13T09:27:28.000",
    "date_modified": "2021-11-13T09:27:29.000",
    "request_status": "Pending",
    "responsible_agency": "Department of Public Works",
    "final_address": "900 Poland Ave",
    "address_councildis": "C",
    "status": "Pending",
    "contractor": "Royal Engineering",
    "rowid": "841916",
    "final_x": "3692788.9535",
    "final_y": "534281.309253",
    "longitude": "-90.03232502080215",
    "latitude": "29.96274072906845",
    "geocoded_column": {
      "latitude": "29.96274072906845",
      "longitude": "-90.03232502080215"
    }
  },
  {
    "service_request": "2021-841915",
    "request_type": "Trash/Recycling",
    "request_reason": "Illegal Dumping",
    "date_created": "2021-11-13T09:16:35.000",
    "date_modified": "2021-11-13T09:16:35.000",
    "request_status": "Pending",
    "responsible_agency": "Department of Sanitation",
    "final_address": "2323 Danneel St",
    "address_councildis": "B",
    "status": "Pending",
    "rowid": "841915",
    "final_x": "3676222.68539",
    "final_y": "524503.082108",
    "longitude": "-90.08497558879525",
    "latitude": "29.936360658759302",
    "geocoded_column": {
      "latitude": "29.936360658759302",
      "longitude": "-90.08497558879525"
    }
  },
  {
    "service_request": "2021-841914",
    "request_type": "Traffic Signals/Signs/Striping/Streetlights",
    "request_reason": "Street Light Outage/Malfunction",
    "date_created": "2021-11-13T09:10:11.000",
    "date_modified": "2021-11-13T10:01:18.000",
    "request_status": "Pending",
    "responsible_agency": "Department of Public Works",
    "final_address": "2538 Dante St",
    "address_councildis": "A",
    "status": "Pending",
    "contractor": "Royal Engineering",
    "rowid": "841914",
    "final_x": "3664761.85863",
    "final_y": "532586.65178",
    "longitude": "-90.12088793419706",
    "latitude": "29.958926223163616",
    "geocoded_column": {
      "latitude": "29.958926223163616",
      "longitude": "-90.12088793419706"
    }
  },
  {
    "service_request": "2021-841913",
    "request_type": "Trash/Recycling",
    "request_reason": "Illegal Dumping",
    "date_created": "2021-11-13T09:04:51.000",
    "date_modified": "2021-11-13T09:04:51.000",
    "request_status": "Pending",
    "responsible_agency": "Department of Sanitation",
    "final_address": "442 Hancock St",
    "status": "Pending",
    "rowid": "841913",
    "final_x": "3687759.40131",
    "final_y": "524089.47046",
    "longitude": "-90.04856851345411",
    "latitude": "29.934872721393972",
    "geocoded_column": {
      "latitude": "29.934872721393972",
      "longitude": "-90.04856851345411"
    }
  },
  {
    "service_request": "2021-841912",
    "request_type": "Trash/Recycling",
    "request_reason": "Illegal Dumping",
    "date_created": "2021-11-13T09:04:45.000",
    "date_modified": "2021-11-13T09:04:45.000",
    "request_status": "Pending",
    "responsible_agency": "Department of Sanitation",
    "final_address": "2513 Loyola Ave",
    "address_councildis": "B",
    "status": "Pending",
    "rowid": "841912",
    "final_x": "3675387.47835",
    "final_y": "524781.986492",
    "longitude": "-90.08760279660952",
    "latitude": "29.93715254833771",
    "geocoded_column": {
      "latitude": "29.93715254833771",
      "longitude": "-90.08760279660952"
    }
  },
  {
    "service_request": "2021-841911",
    "request_type": "Trash/Recycling",
    "request_reason": "Missed Trash Pick-Up",
    "date_created": "2021-11-13T08:33:21.000",
    "date_modified": "2021-11-13T09:01:42.000",
    "request_status": "Pending",
    "responsible_agency": "Department of Sanitation",
    "final_address": "4728 Coliseum St",
    "address_councildis": "B",
    "status": "Assigned to Contractor",
    "contractor": "Richards Disposal",
    "rowid": "841911",
    "final_x": "3669600.56346",
    "final_y": "519635.584824",
    "longitude": "-90.10604650854746",
    "latitude": "29.923173314154987",
    "geocoded_column": {
      "latitude": "29.923173314154987",
      "longitude": "-90.10604650854746"
    }
  },
  {
    "service_request": "2021-841910",
    "request_type": "Trash/Recycling",
    "request_reason": "Illegal Dumping",
    "date_created": "2021-11-13T08:13:58.000",
    "date_modified": "2021-11-13T08:13:58.000",
    "request_status": "Pending",
    "responsible_agency": "Department of Sanitation",
    "final_address": "2513 Loyola Ave",
    "address_councildis": "B",
    "status": "Pending",
    "rowid": "841910",
    "final_x": "3675387.47835",
    "final_y": "524781.986492",
    "longitude": "-90.08760279660952",
    "latitude": "29.93715254833771",
    "geocoded_column": {
      "latitude": "29.93715254833771",
      "longitude": "-90.08760279660952"
    }
  },
  {
    "service_request": "2021-841909",
    "request_type": "Trash/Recycling",
    "request_reason": "Missed Trash Pick-Up",
    "date_created": "2021-11-13T07:47:10.000",
    "date_modified": "2021-11-13T08:01:47.000",
    "request_status": "Pending",
    "responsible_agency": "Department of Sanitation",
    "final_address": "2025 Delery St",
    "address_councildis": "E",
    "status": "Assigned to Contractor",
    "contractor": "Metro Disposal",
    "rowid": "841909",
    "final_x": "3701870.25885",
    "final_y": "536385.799559",
    "longitude": "-90.00357052482184",
    "latitude": "29.968240675118345",
    "geocoded_column": {
      "latitude": "29.968240675118345",
      "longitude": "-90.00357052482184"
    }
  },
  {
    "service_request": "2021-841908",
    "request_type": "Traffic Signals/Signs/Striping/Streetlights",
    "request_reason": "Street Light Outage/Malfunction",
    "date_created": "2021-11-13T07:26:11.000",
    "date_modified": "2021-11-13T07:26:11.000",
    "request_status": "Pending",
    "responsible_agency": "Department of Public Works",
    "final_address": "8216 Apple St",
    "address_councildis": "A",
    "status": "Pending",
    "contractor": "Royal Engineering",
    "rowid": "841908",
    "final_x": "3664966.17332",
    "final_y": "532411.632899",
    "longitude": "-90.12024860806963",
    "latitude": "29.958439032318193",
    "geocoded_column": {
      "latitude": "29.958439032318193",
      "longitude": "-90.12024860806963"
    }
  },
  {
    "service_request": "2021-841907",
    "request_type": "Traffic Signals/Signs/Striping/Streetlights",
    "request_reason": "Street Light Outage/Malfunction",
    "date_created": "2021-11-13T07:02:47.000",
    "date_modified": "2021-11-13T08:01:50.000",
    "request_status": "Pending",
    "responsible_agency": "Department of Public Works",
    "final_address": "6117 Marshal Foch St",
    "address_councildis": "A",
    "status": "Pending",
    "contractor": "Royal Engineering",
    "rowid": "841907",
    "final_x": "3669963.95655",
    "final_y": "547980.325074",
    "longitude": "-90.10393943352524",
    "latitude": "30.0011012223492",
    "geocoded_column": {
      "latitude": "30.0011012223492",
      "longitude": "-90.10393943352524"
    }
  },
  {
    "service_request": "2021-841906",
    "request_type": "Trash/Recycling",
    "request_reason": "Request a Large Item Pick Up",
    "date_created": "2021-11-13T06:41:45.000",
    "date_modified": "2021-11-13T06:41:46.000",
    "request_status": "Pending",
    "responsible_agency": "Department of Sanitation",
    "final_address": "2237 Monterrey St",
    "address_councildis": "D",
    "status": "Assigned to Contractor",
    "contractor": "Metro Disposal",
    "rowid": "841906",
    "final_x": "3684562.66793",
    "final_y": "547175.147921",
    "longitude": "-90.05784927224194",
    "latitude": "29.99844851301908",
    "geocoded_column": {
      "latitude": "29.99844851301908",
      "longitude": "-90.05784927224194"
    }
  },
  {
    "service_request": "2021-841905",
    "request_type": "Health Related Questions",
    "request_reason": "Noise Ordinance Complaint",
    "date_created": "2021-11-13T05:19:01.000",
    "date_modified": "2021-11-13T05:19:01.000",
    "request_status": "Pending",
    "responsible_agency": "Health Department",
    "final_address": "2240 N Rampart St",
    "address_councildis": "C",
    "status": "Pending",
    "rowid": "841905",
    "final_x": "3685422.33077",
    "final_y": "535944.264903",
    "longitude": "-90.05552924561044",
    "latitude": "29.96754121210239",
    "geocoded_column": {
      "latitude": "29.96754121210239",
      "longitude": "-90.05552924561044"
    }
  },
  {
    "service_request": "2021-841904",
    "request_type": "Traffic Signals/Signs/Striping/Streetlights",
    "request_reason": "Street Light Outage/Malfunction",
    "date_created": "2021-11-13T03:56:28.000",
    "date_modified": "2021-11-13T03:59:15.000",
    "request_status": "Pending",
    "responsible_agency": "Department of Public Works",
    "final_address": "7530 Farwood Dr",
    "address_councildis": "E",
    "status": "Pending",
    "contractor": "Royal Engineering",
    "rowid": "841904",
    "final_x": "3702039.60189",
    "final_y": "556954.479578",
    "longitude": "-90.00228117499506",
    "latitude": "30.02479146280455",
    "geocoded_column": {
      "latitude": "30.02479146280455",
      "longitude": "-90.00228117499506"
    }
  },
  {
    "service_request": "2021-841903",
    "request_type": "Property Maintenance",
    "request_reason": "Property Maintenance",
    "date_created": "2021-11-13T02:13:01.000",
    "date_modified": "2021-11-13T03:01:16.000",
    "request_status": "Pending",
    "responsible_agency": "Department of Code Enforcement",
    "final_address": "4753 Cardenas Dr",
    "address_councildis": "E",
    "status": "Pending",
    "rowid": "841903",
    "final_x": "3713743.52735",
    "final_y": "556460.691546",
    "longitude": "-89.96531774425996",
    "latitude": "30.023054715918004",
    "geocoded_column": {
      "latitude": "30.023054715918004",
      "longitude": "-89.96531774425996"
    }
  },