[
  {
    "service_request": "2023-978072",
    "request_type": "Abandoned Vehicles",
    "request_reason": "Abandoned/Junk Vehicles",
    "date_created": "2023-02-26T01:26:45.000",
    "date_modified": "2023-02-26T01:26:45.000",
    "request_status": "Pending",
    "responsible_agency": "Department of Public Works",
    "final_address": "815 Third St",
    "address_councildis": "B",
    "status": "Pending",
    "rowid": "978072",
    "final_x": "3678131.32302",
    "final_y": "520383.657272",
    "longitude": "-90.07909230681322",
    "latitude": "29.92497627288507",
    "geocoded_column": {
      "latitude": "29.92497627288507",
      "longitude": "-90.07909230681322"
    }
  },
  {
    "service_request": "2023-978071",
    "request_type": "Trash/Recycling",
    "request_reason": "Order Recycling Cart",
    "date_created": "2023-02-26T01:10:10.000",
    "date_modified": "2023-02-26T01:10:10.000",
    "request_status": "Pending",
    "responsible_agency": "Department of Sanitation",
    "final_address": "5516 Hawthorne Pl",
    "address_councildis": "A",
    "status": "Pending",
    "rowid": "978071",
    "final_x": "3667714.02381",
    "final_y": "544393.833743",
    "longitude": "-90.1111680309256",
    "latitude": "29.991305789605686",
    "geocoded_column": {
      "latitude": "29.991305789605686",
      "longitude": "-90.1111680309256"
    }
  },
  {
    "service_request": "2023-978070",
    "request_type": "Trash/Recycling",
    "request_reason": "Missed Trash Pick-Up",
    "date_created": "2023-02-26T01:01:39.000",
    "date_modified": "2023-02-26T01:01:40.000",
    "request_status": "Pending",
    "responsible_agency": "Department of Sanitation",
    "final_address": "3131 Dickens Dr",
    "address_councildis": "C",
    "status": "Assigned to Contractor",
    "contractor": "Richards Disposal",
    "rowid": "978070",
    "final_x": "3708272.32113",
    "final_y": "518685.824119",
    "longitude": "-89.98401095336939",
    "latitude": "29.919366233392076",
    "geocoded_column": {
      "latitude": "29.919366233392076",
      "longitude": "-89.98401095336939"
    }
  },
  {
    "service_request": "2023-978069",
    "request_type": "Roads/Drainage",
    "request_reason": "Pothole",
    "date_created": "2023-02-26T00:57:02.000",
    "date_modified": "2023-02-26T00:57:02.000",
    "request_status": "Pending",
    "responsible_agency": "Department of Public Works",
    "final_address": "5501 Hawthorne Pl",
    "address_councildis": "A",
    "status": "Pending",
    "rowid": "978069",
    "final_x": "3667855.21978",
    "final_y": "544245.276174",
    "longitude": "-90.11072703032696",
    "latitude": "29.99089316534079",
    "geocoded_column": {
      "latitude": "29.99089316534079",
      "longitude": "-90.11072703032696"
    }
  },
  {
    "service_request": "2023-978068",
    "request_type": "Traffic Signals/Signs/Striping/Streetlights",
    "request_reason": "Street Light Outage/Malfunction",
    "date_created": "2023-02-26T00:47:50.000",
    "date_modified": "2023-02-26T00:47:51.000",
    "request_status": "Pending",
    "responsible_agency": "Department of Public Works",
    "final_address": "5517 Hawthorne Pl",
    "address_councildis": "A",
    "status": "Assigned to Contractor",
    "contractor": "Legacy Professional Services",
    "rowid": "978068",
    "final_x": "3667856.4665",
    "final_y": "544311.162063",
    "longitude": "-90.11072087160396",
    "latitude": "29.99107429242664",
    "geocoded_column": {
      "latitude": "29.99107429242664",
      "longitude": "-90.11072087160396"
    }
  },
  {
    "service_request": "2023-978066",
    "request_type": "Health Related Request",
    "request_reason": "Noise Ordinance Complaint",
    "date_created": "2023-02-26T00:30:13.000",
    "date_modified": "2023-02-26T00:36:56.000",
    "request_status": "Pending",
    "responsible_agency": "Health Department",
    "final_address": "1222 Port St",
    "address_councildis": "C",
    "status": "Pending",
    "rowid": "978066",
    "final_x": "3687530.59887",
    "final_y": "536934.906248",
    "longitude": "-90.04883623712632",
    "latitude": "29.970200314896893",
    "geocoded_column": {
      "latitude": "29.970200314896893",
      "longitude": "-90.04883623712632"
    }
  },
  {
    "service_request": "2023-978065",
    "request_type": "Trash/Recycling",
    "request_reason": "Request a Large Item Pick Up",
    "date_created": "2023-02-26T00:17:31.000",
    "date_modified": "2023-02-26T00:17:32.000",
    "request_status": "Pending",
    "responsible_agency": "Department of Sanitation",
    "final_address": "1820 Lombard St",
    "address_councildis": "D",
    "status": "Assigned to Contractor",
    "contractor": "IV Waste",
    "rowid": "978065",
    "final_x": "3681555.03778",
    "final_y": "548916.205331",
    "longitude": "-90.06728959804991",
    "latitude": "30.003327511712513",
    "geocoded_column": {
      "latitude": "30.003327511712513",
      "longitude": "-90.06728959804991"
    }
  },
  {
    "service_request": "2023-978064",
    "request_type": "Trash/Recycling",
    "request_reason": "Request a Large Item Pick Up",
    "date_created": "2023-02-25T23:57:33.000",
    "date_modified": "2023-02-25T23:57:33.000",
    "request_status": "Pending",
    "responsible_agency": "Department of Sanitation",
    "final_address": "3426 Baronne St",
    "address_councildis": "B",
    "status": "Assigned to Contractor",
    "contractor": "Richards Disposal",
    "rowid": "978064",
    "final_x": "3673704.54804",
    "final_y": "522097.275706",
    "longitude": "-90.09300766379427",
    "latitude": "29.92982066645355",
    "geocoded_column": {
      "latitude": "29.92982066645355",
      "longitude": "-90.09300766379427"
    }
  },
  {
    "service_request": "2023-978063",
    "request_type": "Traffic Signals/Signs/Striping/Streetlights",
    "request_reason": "Street Light Outage/Malfunction",
    "date_created": "2023-02-25T23:33:55.000",
    "date_modified": "2023-02-25T23:33:56.000",
    "request_status": "Pending",
    "responsible_agency": "Department of Public Works",
    "final_address": "440 Millaudon St",
    "address_councildis": "A",
    "status": "Assigned to Contractor",
    "contractor": "Legacy Professional Services",
    "rowid": "978063",
    "final_x": "3662047.29587",
    "final_y": "524917.913468",
    "longitude": "-90.12971425500784",
    "latitude": "29.93791835189131",
    "geocoded_column": {
      "latitude": "29.93791835189131",
      "longitude": "-90.12971425500784"
    }
  },
  {
    "service_request": "2023-978061",
    "request_type": "Parks & Parkways",
    "request_reason": "Request Tree Service (Right of Way/Public Property)",
    "date_created": "2023-02-25T23:30:04.000",
    "date_modified": "2023-02-25T23:30:04.000",
    "request_status": "Pending",
    "responsible_agency": "Department of Parks & Parkway",
    "final_address": "438 Millaudon St",
    "address_councildis": "A",
    "status": "Pending",
    "rowid": "978061",
    "final_x": "3662047.29587",
    "final_y": "524917.913468",
    "longitude": "-90.12971425500784",
    "latitude": "29.93791835189131",
    "geocoded_column": {
      "latitude": "29.93791835189131",
      "longitude": "-90.12971425500784"
    }
  },
  {
    "service_request": "2023-978060",
    "request_type": "Abandoned Vehicles",
    "request_reason": "Abandoned/Junk Vehicles",
    "date_created": "2023-02-25T23:08:23.000",
    "date_modified": "2023-02-25T23:08:23.000",
    "request_status": "Pending",
    "responsible_agency": "Department of Public Works",
    "final_address": "8117 Apricot St",
    "address_councildis": "A",
    "status": "Pending",
    "rowid": "978060",
    "final_x": "3665786.98452",
    "final_y": "532745.814084",
    "longitude": "-90.11764549926401",
    "latitude": "29.959334001540693",
    "geocoded_column": {
      "latitude": "29.959334001540693",
      "longitude": "-90.11764549926401"
    }
  },
  {
    "service_request": "2023-978059",
    "request_type": "Abandoned Vehicles",
    "request_reason": "Vehicle Blocking Your Driveway",
    "date_created": "2023-02-25T21:58:22.000",
    "date_modified": "2023-02-25T21:58:22.000",
    "request_status": "Pending",
    "responsible_agency": "Department of Public Works",
    "final_address": "900 Frenchmen St",
    "address_councildis": "C",
    "status": "Pending",
    "rowid": "978059",
    "final_x": "3684613.33097",
    "final_y": "535602.49223",
    "longitude": "-90.0580960919274",
    "latitude": "29.966626237359158",
    "geocoded_column": {
      "latitude": "29.966626237359158",
      "longitude": "-90.0580960919274"
    }
  },
  {
    "service_request": "2023-978058",
    "request_type": "Trash/Recycling",
    "request_reason": "Missed Trash Pick-Up",
    "date_created": "2023-02-25T21:56:52.000",
    "date_modified": "2023-02-25T21:56:53.000",
    "request_status": "Pending",
    "responsible_agency": "Department of Sanitation",
    "final_address": "134 N Alexander St",
    "address_councildis": "A",
    "status": "Assigned to Contractor",
    "contractor": "Richards Disposal",
    "rowid": "978058",
    "final_x": "3670253.93831",
    "final_y": "539432.27457",
    "longitude": "-90.10331323336244",
    "latitude": "29.97758845966334",
    "geocoded_column": {
      "latitude": "29.97758845966334",
      "longitude": "-90.10331323336244"
    }
  },
  {
    "service_request": "2023-978057",
    "request_type": "Traffic Signals/Signs/Striping/Streetlights",
    "request_reason": "Traffic Signal Malfunctioning/Damaged",
    "date_created": "2023-02-25T21:40:03.000",
    "date_modified": "2023-02-25T21:40:03.000",
    "request_status": "Pending",
    "responsible_agency": "Department of Public Works",
    "final_address": "5300 Canal Blvd",
    "address_councildis": "A",
    "status": "Pending",
    "rowid": "978057",
    "final_x": "3667861.50093",
    "final_y": "542791.841357",
    "longitude": "-90.11075617480901",
    "latitude": "29.986896531115885",
    "geocoded_column": {
      "latitude": "29.986896531115885",
      "longitude": "-90.11075617480901"
    }
  },
  {
    "service_request": "2023-978056",
    "request_type": "Traffic Signals/Signs/Striping/Streetlights",
    "request_reason": "Street Light Outage/Malfunction",
    "date_created": "2023-02-25T21:21:21.000",
    "date_modified": "2023-02-25T21:21:22.000",
    "request_status": "Pending",
    "responsible_agency": "Department of Public Works",
    "final_address": "6550 Marshal Foch St",
    "address_councildis": "A",
    "status": "Assigned to Contractor",
    "contractor": "Legacy Professional Services",
    "rowid": "978056",
    "final_x": "3670081.4018",
    "final_y": "550991.170005",
    "longitude": "-90.10346632298925",
    "latitude": "30.009376527504603",
    "geocoded_column": {
      "latitude": "30.009376527504603",
      "longitude": "-90.10346632298925"
    }
  },
  {
    "service_request": "2023-978055",
    "request_type": "Trash/Recycling",
    "request_reason": "Replace Trash Cart",
    "date_created": "2023-02-25T20:42:53.000",
    "date_modified": "2023-02-25T20:42:54.000",
    "request_status": "Pending",
    "responsible_agency": "Department of Sanitation",
    "final_address": "5952 Jamison St",
    "address_councildis": "D",
    "status": "Assigned to Contractor",
    "contractor": "Waste Pro",
    "rowid": "978055",
    "final_x": "3696464.87594",
    "final_y": "553424.108055",
    "longitude": "-90.02002414760679",
    "latitude": "30.015261159577033",
    "geocoded_column": {
      "latitude": "30.015261159577033",
      "longitude": "-90.02002414760679"
    }
  },
  {
    "service_request": "2023-978054",
    "request_type": "Abandoned Vehicles",
    "request_reason": "Abandoned/Junk Vehicles",
    "date_created": "2023-02-25T20:21:26.000",
    "date_modified": "2023-02-25T20:21:26.000",
    "request_status": "Pending",
    "responsible_agency": "Department of Public Works",
    "final_address": "801 Navarre St",
    "address_councildis": "A",
    "status": "Pending",
    "rowid": "978054",
    "final_x": "3668735.98862",
    "final_y": "543875.12987",
    "longitude": "-90.10795738757884",
    "latitude": "29.98984951978325",
    "geocoded_column": {
      "latitude": "29.98984951978325",
      "longitude": "-90.10795738757884"
    }
  },
  {
    "service_request": "2023-978053",
    "request_type": "Traffic Signals/Signs/Striping/Streetlights",
    "request_reason": "Street Light Knocked Down/Leaning",
    "date_created": "2023-02-25T19:48:25.000",
    "date_modified": "2023-02-25T19:48:26.000",
    "request_status": "Pending",
    "responsible_agency": "Department of Public Works",
    "final_address": "509 Decatur St",
    "address_councildis": "C",
    "status": "Pending",
    "contractor": "Legacy Professional Services",
    "rowid": "978053",
    "final_x": "3682732.15093",
    "final_y": "531508.131907",
    "longitude": "-90.06418005185401",
    "latitude": "29.955425581011166",
    "geocoded_column": {
      "latitude": "29.955425581011166",
      "longitude": "-90.06418005185401"
    }
  },
  {
    "service_request": "2023-978052",
    "request_type": "Trash/Recycling",
    "request_reason": "Missed Trash Pick-Up",
    "date_created": "2023-02-25T19:27:41.000",
    "date_modified": "2023-02-25T19:27:42.000",
    "request_status": "Pending",
    "responsible_agency": "Department of Sanitation",
    "final_address": "637 N Alexander St",
    "address_councildis": "A",
    "status": "Assigned to Contractor",
    "contractor": "Richards Disposal",
    "rowid": "978052",
    "final_x": "3671233.33351",
    "final_y": "540852.523531",
    "longitude": "-90.10017168915013",
    "latitude": "29.981464716581954",
    "geocoded_column": {
      "latitude": "29.981464716581954",
      "longitude": "-90.10017168915013"
    }
  },
  {
    "service_request": "2023-978051",
    "request_type": "Trash/Recycling",
    "request_reason": "Illegal Dumping",
    "date_created": "2023-02-25T19:10:17.000",
    "date_modified": "2023-02-25T19:10:17.000",
    "request_status": "Pending",
    "responsible_agency": "Department of Sanitation",
    "final_address": "10301 N Interstate 10 Service Rd",
    "address_councildis": "E",
    "status": "Pending",
    "rowid": "978051",
    "final_x": "3711275.36338",
    "final_y": "562409.159263",
    "longitude": "-89.97289335832765",
    "latitude": "30.039491437081555",
    "geocoded_column": {
      "latitude": "30.039491437081555",
      "longitude": "-89.97289335832765"
    }
  },
  {
    "service_request": "2023-978050",
    "request_type": "Trash/Recycling",
    "request_reason": "Missed Trash Pick-Up",
    "date_created": "2023-02-25T19:09:47.000",
    "date_modified": "2023-02-25T19:09:48.000",
    "request_status": "Pending",
    "responsible_agency": "Department of Sanitation",
    "final_address": "4132 Polk St",
    "address_councildis": "C",
    "status": "Assigned to Contractor",
    "contractor": "Richards Disposal",
    "rowid": "978050",
    "final_x": "3712231.82187",
    "final_y": "515390.596148",
    "longitude": "-89.97163653811671",
    "latitude": "29.910176711677526",
    "geocoded_column": {
      "latitude": "29.910176711677526",
      "longitude": "-89.97163653811671"
    }
  },
  {
    "service_request": "2023-978048",
    "request_type": "Trash/Recycling",
    "request_reason": "Request a Large Item Pick Up",
    "date_created": "2023-02-25T19:00:59.000",
    "date_modified": "2023-02-25T19:01:00.000",
    "request_status": "Pending",
    "responsible_agency": "Department of Sanitation",
    "final_address": "754 Louisiana Ave",
    "address_councildis": "B",
    "status": "Assigned to Contractor",
    "contractor": "Richards Disposal",
    "rowid": "978048",
    "final_x": "3675426.43291",
    "final_y": "518554.241399",
    "longitude": "-90.08769355276756",
    "latitude": "29.920027102836496",
    "geocoded_column": {
      "latitude": "29.920027102836496",
      "longitude": "-90.08769355276756"
    }
  },
  {
    "service_request": "2023-978047",
    "request_type": "Trash/Recycling",
    "request_reason": "Dead Animal Pick Up",
    "date_created": "2023-02-25T19:00:00.000",
    "date_modified": "2023-02-25T19:00:01.000",
    "request_status": "Pending",
    "responsible_agency": "Department of Sanitation",
    "final_address": "756 Louisiana Ave",
    "address_councildis": "B",
    "status": "Assigned to Contractor",
    "contractor": "Richards Disposal",
    "rowid": "978047",
    "final_x": "3675421.91317",
    "final_y": "518559.665399",
    "longitude": "-90.0877076333053",
    "latitude": "29.920042152197247",
    "geocoded_column": {
      "latitude": "29.920042152197247",
      "longitude": "-90.0877076333053"
    }
  },
  {
    "service_request": "2023-978046",
    "request_type": "Property Maintenance",
    "request_reason": "Property Maintenance",
    "date_created": "2023-02-25T18:57:32.000",
    "date_modified": "2023-02-25T18:57:32.000",
    "request_status": "Pending",
    "responsible_agency": "Department of Code Enforcement",
    "final_address": "1826 N Villere St",
    "address_councildis": "C",
    "status": "Pending",
    "rowid": "978046",
    "final_x": "3683656.7277",
    "final_y": "537224.960712",
    "longitude": "-90.06106014244102",
    "latitude": "29.971116703150354",
    "geocoded_column": {
      "latitude": "29.971116703150354",
      "longitude": "-90.06106014244102"
    }
  },
  {
    "service_request": "2023-978044",
    "request_type": "Traffic Signals/Signs/Striping/Streetlights",
    "request_reason": "Street Light Outage/Malfunction",
    "date_created": "2023-02-25T18:49:37.000",
    "date_modified": "2023-02-25T18:49:38.000",
    "request_status": "Pending",
    "responsible_agency": "Department of Public Works",
    "final_address": "4507 Bienville Ave",
    "address_councildis": "A",
    "status": "Assigned to Contractor",
    "contractor": "Legacy Professional Services",
    "rowid": "978044",
    "final_x": "3670161.34753",
    "final_y": "540119.012299",
    "longitude": "-90.1035823893728",
    "latitude": "29.979479488408757",
    "geocoded_column": {
      "latitude": "29.979479488408757",
      "longitude": "-90.1035823893728"
    }
  },
  {
    "service_request": "2023-978043",
    "request_type": "Traffic Signals/Signs/Striping/Streetlights",
    "request_reason": "Street Light Outage/Malfunction",
    "date_created": "2023-02-25T18:39:11.000",
    "date_modified": "2023-02-25T18:39:11.000",
    "request_status": "Pending",
    "responsible_agency": "Department of Public Works",
    "final_address": "3418 Royal St",
    "address_councildis": "C",
    "status": "Assigned to Contractor",
    "contractor": "Legacy Professional Services",
    "rowid": "978043",
    "final_x": "3689955.40976",
    "final_y": "534139.619909",
    "longitude": "-90.04127799700987",
    "latitude": "29.96243929214436",
    "geocoded_column": {
      "latitude": "29.96243929214436",
      "longitude": "-90.04127799700987"
    }
  },
  {
    "service_request": "2023-978042",
    "request_type": "Traffic Signals/Signs/Striping/Streetlights",
    "request_reason": "Street Light Outage/Malfunction",
    "date_created": "2023-02-25T18:34:22.000",
    "date_modified": "2023-02-25T18:34:22.000",
    "request_status": "Pending",
    "responsible_agency": "Department of Public Works",
    "final_address": "7000 E Renaissance Ct",
    "address_councildis": "E",
    "status": "Assigned to Contractor",
    "contractor": "Legacy Professional Services",
    "rowid": "978042",
    "final_x": "3717270.09349",
    "final_y": "567175.10378",
    "longitude": "-89.95376710264327",
    "latitude": "30.052398772238057",
    "geocoded_column": {
      "latitude": "30.052398772238057",
      "longitude": "-89.95376710264327"
    }
  },
  {
    "service_request": "2023-978041",
    "request_type": "Traffic Signals/Signs/Striping/Streetlights",
    "request_reason": "Street Light Outage/Malfunction",
    "date_created": "2023-02-25T18:24:28.000",
    "date_modified": "2023-02-25T18:24:29.000",
    "request_status": "Pending",
    "responsible_agency": "Department of Public Works",
    "final_address": "6324 Chef Menteur Hwy",
    "address_councildis": "E",
    "status": "Assigned to Contractor",
    "contractor": "Legacy Professional Services",
    "rowid": "978041",
    "final_x": "3698361.32567",
    "final_y": "551369.806869",
    "longitude": "-90.01410701701765",
    "latitude": "30.00955270210462",
    "geocoded_column": {
      "latitude": "30.00955270210462",
      "longitude": "-90.01410701701765"
    }
  },
  {
    "service_request": "2023-978040",
    "request_type": "Trash/Recycling",
    "request_reason": "Missed Trash Pick-Up",
    "date_created": "2023-02-25T18:15:46.000",
    "date_modified": "2023-02-25T18:15:47.000",
    "request_status": "Pending",
    "responsible_agency": "Department of Sanitation",
    "final_address": "5727 St Claude Ave",
    "address_councildis": "E",
    "status": "Assigned to Contractor",
    "contractor": "Waste Pro",
    "rowid": "978040",
    "final_x": "3698629.17437",
    "final_y": "533771.820037",
    "longitude": "-90.01390100477312",
    "latitude": "29.961156190624493",
    "geocoded_column": {
      "latitude": "29.961156190624493",
      "longitude": "-90.01390100477312"
    }
  },
  {
    "service_request": "2023-978039",
    "request_type": "Trash/Recycling",
    "request_reason": "Missed Trash Pick-Up",
    "date_created": "2023-02-25T18:13:36.000",
    "date_modified": "2023-02-25T18:13:37.000",
    "request_status": "Pending",
    "responsible_agency": "Department of Sanitation",
    "final_address": "1124 Charbonnet St",
    "address_councildis": "E",
    "status": "Assigned to Contractor",
    "contractor": "Waste Pro",
    "rowid": "978039",
    "final_x": "3698656.15268",
    "final_y": "533870.494405",
    "longitude": "-90.01381222441475",
    "latitude": "29.96142665578984",
    "geocoded_column": {
      "latitude": "29.96142665578984",
      "longitude": "-90.01381222441475"
    }
  },
  {
    "service_request": "2023-978038",
    "request_type": "Trash/Recycling",
    "request_reason": "Illegal Dumping",
    "date_created": "2023-02-25T18:07:40.000",
    "date_modified": "2023-02-25T18:07:40.000",
    "request_status": "Pending",
    "responsible_agency": "Department of Sanitation",
    "final_address": "3908 Bienville Ave",
    "address_councildis": "A",
    "status": "Pending",
    "rowid": "978038",
    "final_x": "3672123.00942",
    "final_y": "538444.056009",
    "longitude": "-90.09744372458145",
    "latitude": "29.97481589302258",
    "geocoded_column": {
      "latitude": "29.97481589302258",
      "longitude": "-90.09744372458145"
    }
  },
  {
    "service_request": "2023-978037",
    "request_type": "Abandoned Vehicles",
    "request_reason": "Abandoned/Junk Vehicles",
    "date_created": "2023-02-25T18:07:29.000",
    "date_modified": "2023-02-25T18:07:29.000",
    "request_status": "Pending",
    "responsible_agency": "Department of Public Works",
    "final_address": "909 Clouet St",
    "address_councildis": "C",
    "status": "Pending",
    "rowid": "978037",
    "final_x": "3688860.39964",
    "final_y": "535287.052806",
    "longitude": "-90.0446951251132",
    "latitude": "29.96562823826115",
    "geocoded_column": {
      "latitude": "29.96562823826115",
      "longitude": "-90.0446951251132"
    }
  },
  {
    "service_request": "2023-978036",
    "request_type": "Trash/Recycling",
    "request_reason": "Missed Trash Pick-Up",
    "date_created": "2023-02-25T18:04:16.000",
    "date_modified": "2023-02-25T18:04:16.000",
    "request_status": "Pending",
    "responsible_agency": "Department of Sanitation",
    "final_address": "738 English Turn Ln",
    "address_councildis": "C",
    "status": "Assigned to Contractor",
    "contractor": "Richards Disposal",
    "rowid": "978036",
    "final_x": "3720126.79545",
    "final_y": "511539.072944",
    "longitude": "-89.94686578326416",
    "latitude": "29.899326047166955",
    "geocoded_column": {
      "latitude": "29.899326047166955",
      "longitude": "-89.94686578326416"
    }
  },
  {
    "service_request": "2023-978035",
    "request_type": "Trash/Recycling",
    "request_reason": "Request a Large Item Pick Up",
    "date_created": "2023-02-25T17:56:48.000",
    "date_modified": "2023-02-25T17:56:48.000",
    "request_status": "Pending",
    "responsible_agency": "Department of Sanitation",
    "final_address": "2744 Bienville Ave",
    "address_councildis": "B",
    "status": "Assigned to Contractor",
    "contractor": "Richards Disposal",
    "rowid": "978035",
    "final_x": "3675454.98139",
    "final_y": "535935.838791",
    "longitude": "-90.08700667045883",
    "latitude": "29.967819910453326",
    "geocoded_column": {
      "latitude": "29.967819910453326",
      "longitude": "-90.08700667045883"
    }
  },
  {
    "service_request": "2023-978034",
    "request_type": "Trash/Recycling",
    "request_reason": "Missed Trash Pick-Up",
    "date_created": "2023-02-25T17:56:38.000",
    "date_modified": "2023-02-25T17:56:39.000",
    "request_status": "Pending",
    "responsible_agency": "Department of Sanitation",
    "final_address": "10301 Willow Dr",
    "address_councildis": "C",
    "status": "Assigned to Contractor",
    "contractor": "Richards Disposal",
    "rowid": "978034",
    "final_x": "3722473.40767",
    "final_y": "516700.422005",
    "longitude": "-89.93926212627677",
    "latitude": "29.913439630372576",
    "geocoded_column": {
      "latitude": "29.913439630372576",
      "longitude": "-89.93926212627677"
    }
  },
  {
    "service_request": "2023-978033",
    "request_type": "Abandoned Vehicles",
    "request_reason": "Abandoned/Junk Vehicles",
    "date_created": "2023-02-25T17:48:30.000",
    "date_modified": "2023-02-25T17:48:30.000",
    "request_status": "Pending",
    "responsible_agency": "Department of Public Works",
    "final_address": "4400 Lancelot Dr",
    "address_councildis": "E",
    "status": "Pending",
    "rowid": "978033",
    "final_x": "3707563.97854",
    "final_y": "553561.206295",
    "longitude": "-89.98495139090652",
    "latitude": "30.01528366853365",
    "geocoded_column": {
      "latitude": "30.01528366853365",
      "longitude": "-89.98495139090652"
    }
  },
  {
    "service_request": "2023-978031",
    "request_type": "Abandoned Vehicles",
    "request_reason": "Abandoned/Junk Vehicles",
    "date_created": "2023-02-25T17:03:07.000",
    "date_modified": "2023-02-25T17:03:07.000",
    "request_status": "Pending",
    "responsible_agency": "Department of Public Works",
    "final_address": "1622 Mirabeau Ave",
    "address_councildis": "D",
    "status": "Pending",
    "rowid": "978031",
    "final_x": "3680279.95176",
    "final_y": "550285.005524",
    "longitude": "-90.07127016133234",
    "latitude": "30.007129898636006",
    "geocoded_column": {
      "latitude": "30.007129898636006",
      "longitude": "-90.07127016133234"
    }
  },
  {
    "service_request": "2023-978030",
    "request_type": "Abandoned Vehicles",
    "request_reason": "Abandoned/Junk Vehicles",
    "date_created": "2023-02-25T17:02:10.000",
    "date_modified": "2023-02-25T17:02:10.000",
    "request_status": "Pending",
    "responsible_agency": "Department of Public Works",
    "final_address": "1622 Mirabeau Ave",
    "address_councildis": "D",
    "status": "Pending",
    "rowid": "978030",
    "final_x": "3680279.95176",
    "final_y": "550285.005524",
    "longitude": "-90.07127016133234",
    "latitude": "30.007129898636006",
    "geocoded_column": {
      "latitude": "30.007129898636006",
      "longitude": "-90.07127016133234"
    }
  },
  {
    "service_request": "2023-978029",
    "request_type": "Roads/Drainage",
    "request_reason": "Pothole",
    "date_created": "2023-02-25T16:50:17.000",
    "date_modified": "2023-02-25T16:50:17.000",
    "request_status": "Pending",
    "responsible_agency": "Department of Public Works",
    "final_address": "DIXON ST & S CARROLLTON AVE",
    "address_councildis": "A",
    "status": "Pending",
    "rowid": "978029",
    "final_x": "3668460.8",
    "final_y": "535443.28",
    "longitude": "-90.10911119468042",
    "latitude": "29.966672865841474",
    "geocoded_column": {
      "latitude": "29.966672865841474",
      "longitude": "-90.10911119468042"
    }
  },
  {
    "service_request": "2023-978028",
    "request_type": "Roads/Drainage",
    "request_reason": "Pothole",
    "date_created": "2023-02-25T16:48:58.000",
    "date_modified": "2023-02-25T16:48:58.000",
    "request_status": "Pending",
    "responsible_agency": "Department of Public Works",
    "final_address": "4047 S Carrollton Ave",
    "address_councildis": "A",
    "status": "Pending",
    "rowid": "978028",
    "final_x": "3669005.90439",
    "final_y": "536217.497991",
    "longitude": "-90.10736359369758",
    "latitude": "29.968785682007738",
    "geocoded_column": {
      "latitude": "29.968785682007738",
      "longitude": "-90.10736359369758"
    }
  },
  {
    "service_request": "2023-978027",
    "request_type": "Trash/Recycling",
    "request_reason": "Replace Trash Cart",
    "date_created": "2023-02-25T16:44:06.000",
    "date_modified": "2023-02-25T16:44:06.000",
    "request_status": "Pending",
    "responsible_agency": "Department of Sanitation",
    "final_address": "1510 Robert C. Blakes, Sr. Dr",
    "address_councildis": "B",
    "status": "Assigned to Contractor",
    "contractor": "Richards Disposal",
    "rowid": "978027",
    "final_x": "3678785.27874",
    "final_y": "525641.540605",
    "longitude": "-90.07684597982491",
    "latitude": "29.93941402785168",
    "geocoded_column": {
      "latitude": "29.93941402785168",
      "longitude": "-90.07684597982491"
    }
  },
  {
    "service_request": "2023-978026",
    "request_type": "Trash/Recycling",
    "request_reason": "MIssed Recycling Pick-Up",
    "date_created": "2023-02-25T16:41:10.000",
    "date_modified": "2023-02-25T16:41:10.000",
    "request_status": "Pending",
    "responsible_agency": "Department of Sanitation",
    "final_address": "1831 Bordeaux St",
    "address_councildis": "B",
    "status": "Assigned to Contractor",
    "contractor": "Richards Disposal",
    "rowid": "978026",
    "final_x": "3669331.87892",
    "final_y": "521703.529722",
    "longitude": "-90.10682477262996",
    "latitude": "29.928867415105458",
    "geocoded_column": {
      "latitude": "29.928867415105458",
      "longitude": "-90.10682477262996"
    }
  },
  {
    "service_request": "2023-978025",
    "request_type": "Traffic Signals/Signs/Striping/Streetlights",
    "request_reason": "Request for Traffic Calming due to Speeding",
    "date_created": "2023-02-25T16:40:37.000",
    "date_modified": "2023-02-25T16:40:37.000",
    "request_status": "Pending",
    "responsible_agency": "Department of Public Works",
    "final_address": "1713 Henriette Delille St",
    "address_councildis": "C",
    "status": "Pending",
    "rowid": "978025",
    "final_x": "3683277.82754",
    "final_y": "536196.656455",
    "longitude": "-90.06229278214899",
    "latitude": "29.968300784934485",
    "geocoded_column": {
      "latitude": "29.968300784934485",
      "longitude": "-90.06229278214899"
    }
  },
  {
    "service_request": "2023-978024",
    "request_type": "Property Maintenance",
    "request_reason": "Property Maintenance",
    "date_created": "2023-02-25T16:38:26.000",
    "date_modified": "2023-02-25T16:38:26.000",
    "request_status": "Pending",
    "responsible_agency": "Department of Code Enforcement",
    "final_address": "1725 Henriette Delille St",
    "address_councildis": "C",
    "status": "Pending",
    "rowid": "978024",
    "final_x": "3683353.77365",
    "final_y": "536197.328327",
    "longitude": "-90.06205291766868",
    "latitude": "29.968300315701274",
    "geocoded_column": {
      "latitude": "29.968300315701274",
      "longitude": "-90.06205291766868"
    }
  },
  {
    "service_request": "2023-978023",
    "request_type": "Property Maintenance",
    "request_reason": "Property Maintenance",
    "date_created": "2023-02-25T16:37:29.000",
    "date_modified": "2023-02-25T16:37:29.000",
    "request_status": "Pending",
    "responsible_agency": "Department of Code Enforcement",
    "final_address": "8020 Olive St",
    "address_councildis": "B",
    "status": "Pending",
    "rowid": "978023",
    "final_x": "3667424.98893",
    "final_y": "533960.105029",
    "longitude": "-90.1124321978029",
    "latitude": "29.962625014608445",
    "geocoded_column": {
      "latitude": "29.962625014608445",
      "longitude": "-90.1124321978029"
    }
  },
  {
    "service_request": "2023-978022",
    "request_type": "Trash/Recycling",
    "request_reason": "Missed Trash Pick-Up",
    "date_created": "2023-02-25T16:37:22.000",
    "date_modified": "2023-02-25T17:17:19.000",
    "request_status": "Pending",
    "responsible_agency": "Department of Sanitation",
    "final_address": "7211 Claridge Ct",
    "address_councildis": "E",
    "status": "Assigned to Contractor",
    "contractor": "Waste Pro",
    "rowid": "978022",
    "final_x": "3705048.43198",
    "final_y": "560668.294302",
    "longitude": "-89.99263654218335",
    "latitude": "30.034906556729354",
    "geocoded_column": {
      "latitude": "30.034906556729354",
      "longitude": "-89.99263654218335"
    }
  },
  {
    "service_request": "2023-978021",
    "request_type": "Trash/Recycling",
    "request_reason": "Missed Trash Pick-Up",
    "date_created": "2023-02-25T16:36:43.000",
    "date_modified": "2023-02-25T16:36:44.000",
    "request_status": "Pending",
    "responsible_agency": "Department of Sanitation",
    "final_address": "318 Octavia St, New Orleans, Louisiana, 70115",
    "address_councildis": "A",
    "status": "Assigned to Contractor",
    "contractor": "Richards Disposal",
    "rowid": "978021",
    "final_x": "3666060.07994",
    "final_y": "517310.513077",
    "longitude": "-90.11730039434364",
    "latitude": "29.916883892372667",
    "geocoded_column": {
      "latitude": "29.916883892372667",
      "longitude": "-90.11730039434364"
    }
  },
  {
    "service_request": "2023-978020",
    "request_type": "Traffic Signals/Signs/Striping/Streetlights",
    "request_reason": "Road Surface Marking Maintenance-Traffic Control",
    "date_created": "2023-02-25T16:35:53.000",
    "date_modified": "2023-02-25T16:35:53.000",
    "request_status": "Pending",
    "responsible_agency": "Department of Public Works",
    "final_address": "1200 St Bernard Ave",
    "address_councildis": "C",
    "status": "Pending",
    "rowid": "978020",
    "final_x": "3683033.3165",
    "final_y": "536132.891847",
    "longitude": "-90.06306719052876",
    "latitude": "29.96813290984115",
    "geocoded_column": {
      "latitude": "29.96813290984115",
      "longitude": "-90.06306719052876"
    }
  },
  {
    "service_request": "2023-978019",
    "request_type": "Traffic Signals/Signs/Striping/Streetlights",
    "request_reason": "Request for Traffic Calming due to Speeding",
    "date_created": "2023-02-25T16:34:54.000",
    "date_modified": "2023-02-25T16:34:54.000",
    "request_status": "Pending",
    "responsible_agency": "Department of Public Works",
    "final_address": "1200 St Bernard Ave",
    "address_councildis": "C",
    "status": "Pending",
    "rowid": "978019",
    "final_x": "3683033.3165",
    "final_y": "536132.891847",
    "longitude": "-90.06306719052876",
    "latitude": "29.96813290984115",
    "geocoded_column": {
      "latitude": "29.96813290984115",
      "longitude": "-90.06306719052876"
    }
  },
  {
    "service_request": "2023-978018",
    "request_type": "Roads/Drainage",
    "request_reason": "Road Shoulder Repair",
    "date_created": "2023-02-25T16:33:27.000",
    "date_modified": "2023-02-25T16:33:27.000",
    "request_status": "Pending",
    "responsible_agency": "Department of Public Works",
    "final_address": "1200 St Bernard Ave",
    "address_councildis": "C",
    "status": "Pending",
    "rowid": "978018",
    "final_x": "3683033.3165",
    "final_y": "536132.891847",
    "longitude": "-90.06306719052876",
    "latitude": "29.96813290984115",
    "geocoded_column": {
      "latitude": "29.96813290984115",
      "longitude": "-90.06306719052876"
    }
  },
  {
    "service_request": "2023-978017",
    "request_type": "Roads/Drainage",
    "request_reason": "Unpermitted work in ROW",
    "date_created": "2023-02-25T16:32:43.000",
    "date_modified": "2023-02-25T16:32:43.000",
    "request_status": "Pending",
    "responsible_agency": "Department of Public Works",
    "final_address": "1200 St Bernard Ave",
    "address_councildis": "C",
    "status": "Pending",
    "rowid": "978017",
    "final_x": "3683033.3165",
    "final_y": "536132.891847",
    "longitude": "-90.06306719052876",
    "latitude": "29.96813290984115",
    "geocoded_column": {
      "latitude": "29.96813290984115",
      "longitude": "-90.06306719052876"
    }
  },
  {
    "service_request": "2023-978016",
    "request_type": "Abandoned Vehicles",
    "request_reason": "Abandoned/Junk Vehicles",
    "date_created": "2023-02-25T16:25:02.000",
    "date_modified": "2023-02-25T16:25:02.000",
    "request_status": "Pending",
    "responsible_agency": "Department of Public Works",
    "final_address": "3825 Camp St",
    "address_councildis": "B",
    "status": "Pending",
    "rowid": "978016",
    "final_x": "3673072.50593",
    "final_y": "519412.509815",
    "longitude": "-90.09509450338165",
    "latitude": "29.922457219700814",
    "geocoded_column": {
      "latitude": "29.922457219700814",
      "longitude": "-90.09509450338165"
    }
  },
  {
    "service_request": "2023-978014",
    "request_type": "Roads/Drainage",
    "request_reason": "Catch Basin - Clogged",
    "date_created": "2023-02-25T16:15:56.000",
    "date_modified": "2023-02-25T16:15:56.000",
    "request_status": "Pending",
    "responsible_agency": "Department of Public Works",
    "final_address": "2801 Bruxelles St",
    "address_councildis": "D",
    "status": "Pending",
    "rowid": "978014",
    "final_x": "3680354.40072",
    "final_y": "542633.796493",
    "longitude": "-90.07130119079459",
    "latitude": "29.986089532042193",
    "geocoded_column": {
      "latitude": "29.986089532042193",
      "longitude": "-90.07130119079459"
    }
  },
  {
    "service_request": "2023-978013",
    "request_type": "Trash/Recycling",
    "request_reason": "Missed Trash Pick-Up",
    "date_created": "2023-02-25T16:15:30.000",
    "date_modified": "2023-02-25T16:15:31.000",
    "request_status": "Pending",
    "responsible_agency": "Department of Sanitation",
    "final_address": "8531 S Claiborne Ave",
    "address_councildis": "A",
    "status": "Assigned to Contractor",
    "contractor": "Richards Disposal",
    "rowid": "978013",
    "final_x": "3663659.0352",
    "final_y": "532755.995716",
    "longitude": "-90.12436474716309",
    "latitude": "29.959423904331466",
    "geocoded_column": {
      "latitude": "29.959423904331466",
      "longitude": "-90.12436474716309"
    }
  },
  {
    "service_request": "2023-978012",
    "request_type": "Safety & Permits",
    "request_reason": "Licenses & Permits",
    "date_created": "2023-02-25T16:12:32.000",
    "date_modified": "2023-02-25T16:12:33.000",
    "request_status": "Pending",
    "responsible_agency": "Safety and Permits",
    "final_address": "5127 Patterson St",
    "address_councildis": "C",
    "status": "Pending",
    "rowid": "978012",
    "final_x": "3703217.19671",
    "final_y": "523688.479419",
    "longitude": "-89.99978354306798",
    "latitude": "29.933284515043837",
    "geocoded_column": {
      "latitude": "29.933284515043837",
      "longitude": "-89.99978354306798"
    }
  },
  {
    "service_request": "2023-978011",
    "request_type": "Trash/Recycling",
    "request_reason": "Repair Recycling Cart",
    "date_created": "2023-02-25T16:00:15.000",
    "date_modified": "2023-02-25T16:00:15.000",
    "request_status": "Pending",
    "responsible_agency": "Department of Sanitation",
    "final_address": "419 Exposition Blvd",
    "address_councildis": "A",
    "status": "Pending",
    "rowid": "978011",
    "final_x": "3662648.28672",
    "final_y": "518721.711415",
    "longitude": "-90.12802263962828",
    "latitude": "29.920863369445737",
    "geocoded_column": {
      "latitude": "29.920863369445737",
      "longitude": "-90.12802263962828"
    }
  },
  {
    "service_request": "2023-978010",
    "request_type": "Traffic Signals/Signs/Striping/Streetlights",
    "request_reason": "Street Light Outage/Malfunction",
    "date_created": "2023-02-25T15:55:31.000",
    "date_modified": "2023-02-25T15:55:32.000",
    "request_status": "Pending",
    "responsible_agency": "Department of Public Works",
    "final_address": "501 Exposition Blvd",
    "address_councildis": "A",
    "status": "Assigned to Contractor",
    "contractor": "Legacy Professional Services",
    "rowid": "978010",
    "final_x": "3662764.6745",
    "final_y": "518956.774135",
    "longitude": "-90.12764744723643",
    "latitude": "29.92150635188874",
    "geocoded_column": {
      "latitude": "29.92150635188874",
      "longitude": "-90.12764744723643"
    }
  },
  {
    "service_request": "2023-978009",
    "request_type": "Trash/Recycling",
    "request_reason": "Illegal Dumping",
    "date_created": "2023-02-25T15:53:37.000",
    "date_modified": "2023-02-25T15:53:37.000",
    "request_status": "Pending",
    "responsible_agency": "Department of Sanitation",
    "final_address": "2724 Pauger St",
    "address_councildis": "D",
    "status": "Pending",
    "rowid": "978009",
    "final_x": "3683559.75785",
    "final_y": "539734.05601",
    "longitude": "-90.0612784169168",
    "latitude": "29.978018801551755",
    "geocoded_column": {
      "latitude": "29.978018801551755",
      "longitude": "-90.0612784169168"
    }
  },
  {
    "service_request": "2023-978008",
    "request_type": "Trash/Recycling",
    "request_reason": "Missed Trash Pick-Up",
    "date_created": "2023-02-25T15:52:07.000",
    "date_modified": "2023-02-25T17:16:41.000",
    "case_close_date": "2023-02-25T11:16:41.000",
    "request_status": "Closed",
    "responsible_agency": "Department of Sanitation",
    "final_address": "8001 Sheephead St, New Orleans, Louisiana, 70126",
    "address_councildis": "E",
    "status": "Assigned to Contractor",
    "contractor": "Waste Pro",
    "contractor_action": "Completed",
    "rowid": "978008",
    "final_x": "3699302.17956",
    "final_y": "561423.32067",
    "longitude": "-90.0107679347218",
    "latitude": "30.037166203437682",
    "geocoded_column": {
      "latitude": "30.037166203437682",
      "longitude": "-90.0107679347218"
    }
  },
  {
    "service_request": "2023-978007",
    "request_type": "Traffic Signals/Signs/Striping/Streetlights",
    "request_reason": "Street Light Outage/Malfunction",
    "date_created": "2023-02-25T15:51:32.000",
    "date_modified": "2023-02-25T15:51:33.000",
    "request_status": "Pending",
    "responsible_agency": "Department of Public Works",
    "final_address": "419 Exposition Blvd",
    "address_councildis": "A",
    "status": "Assigned to Contractor",
    "contractor": "Legacy Professional Services",
    "rowid": "978007",
    "final_x": "3662648.28672",
    "final_y": "518721.711415",
    "longitude": "-90.12802263962828",
    "latitude": "29.920863369445737",
    "geocoded_column": {
      "latitude": "29.920863369445737",
      "longitude": "-90.12802263962828"
    }
  },
  {
    "service_request": "2023-978006",
    "request_type": "Trash/Recycling",
    "request_reason": "Missed Trash Pick-Up",
    "date_created": "2023-02-25T15:48:29.000",
    "date_modified": "2023-02-25T17:27:07.000",
    "case_close_date": "2023-02-25T11:27:07.000",
    "request_status": "Closed",
    "responsible_agency": "Department of Sanitation",
    "final_address": "7310 Newcastle St",
    "address_councildis": "E",
    "status": "Assigned to Contractor",
    "contractor": "Waste Pro",
    "contractor_action": "Completed",
    "rowid": "978006",
    "final_x": "3697439.61847",
    "final_y": "558377.809628",
    "longitude": "-90.01676460101568",
    "latitude": "30.02885120106973",
    "geocoded_column": {
      "latitude": "30.02885120106973",
      "longitude": "-90.01676460101568"
    }
  },
  {
    "service_request": "2023-978005",
    "request_type": "Trash/Recycling",
    "request_reason": "Illegal Dumping",
    "date_created": "2023-02-25T15:44:15.000",
    "date_modified": "2023-02-25T15:44:15.000",
    "request_status": "Pending",
    "responsible_agency": "Department of Sanitation",
    "final_address": "3231 Banks St",
    "address_councildis": "B",
    "status": "Pending",
    "rowid": "978005",
    "final_x": "3672973.88526",
    "final_y": "535484.006598",
    "longitude": "-90.09485748348692",
    "latitude": "29.96665149524942",
    "geocoded_column": {
      "latitude": "29.96665149524942",
      "longitude": "-90.09485748348692"
    }
  },
  {
    "service_request": "2023-978004",
    "request_type": "Trash/Recycling",
    "request_reason": "Request a Large Item Pick Up",
    "date_created": "2023-02-25T15:42:31.000",
    "date_modified": "2023-02-25T15:42:32.000",
    "request_status": "Pending",
    "responsible_agency": "Department of Sanitation",
    "final_address": "12 S Park Pl",
    "address_councildis": "A",
    "status": "Assigned to Contractor",
    "contractor": "IV Waste",
    "rowid": "978004",
    "final_x": "3670321.49236",
    "final_y": "543801.60603",
    "longitude": "-90.10295169412132",
    "latitude": "29.989600637278926",
    "geocoded_column": {
      "latitude": "29.989600637278926",
      "longitude": "-90.10295169412132"
    }
  },
  {
    "service_request": "2023-978003",
    "request_type": "Trash/Recycling",
    "request_reason": "Illegal Dumping",
    "date_created": "2023-02-25T15:42:31.000",
    "date_modified": "2023-02-25T15:42:31.000",
    "request_status": "Pending",
    "responsible_agency": "Department of Sanitation",
    "final_address": "3214 Banks St B",
    "address_councildis": "B",
    "status": "Pending",
    "rowid": "978003",
    "final_x": "3672999.89748",
    "final_y": "535298.05415",
    "longitude": "-90.0947816844356",
    "latitude": "29.966139415450126",
    "geocoded_column": {
      "latitude": "29.966139415450126",
      "longitude": "-90.0947816844356"
    }
  },
  {
    "service_request": "2023-978002",
    "request_type": "Trash/Recycling",
    "request_reason": "Illegal Dumping",
    "date_created": "2023-02-25T15:40:50.000",
    "date_modified": "2023-02-25T15:40:50.000",
    "request_status": "Pending",
    "responsible_agency": "Department of Sanitation",
    "final_address": "3214 Banks St A",
    "address_councildis": "B",
    "status": "Pending",
    "rowid": "978002",
    "final_x": "3673007.13704",
    "final_y": "535293.007814",
    "longitude": "-90.09475899429067",
    "latitude": "29.966125324550838",
    "geocoded_column": {
      "latitude": "29.966125324550838",
      "longitude": "-90.09475899429067"
    }
  },
  {
    "service_request": "2023-978001",
    "request_type": "Trash/Recycling",
    "request_reason": "Missed Trash Pick-Up",
    "date_created": "2023-02-25T15:39:54.000",
    "date_modified": "2023-02-25T15:39:55.000",
    "request_status": "Pending",
    "responsible_agency": "Department of Sanitation",
    "final_address": "912 Constantinople St",
    "address_councildis": "B",
    "status": "Assigned to Contractor",
    "contractor": "Richards Disposal",
    "rowid": "978001",
    "final_x": "3672423.56078",
    "final_y": "519047.624183",
    "longitude": "-90.09715539052341",
    "latitude": "29.921473167526436",
    "geocoded_column": {
      "latitude": "29.921473167526436",
      "longitude": "-90.09715539052341"
    }
  },
  {
    "service_request": "2023-978000",
    "request_type": "Property Maintenance",
    "request_reason": "Property Maintenance",
    "date_created": "2023-02-25T15:39:36.000",
    "date_modified": "2023-02-25T15:39:36.000",
    "request_status": "Pending",
    "responsible_agency": "Department of Code Enforcement",
    "final_address": "2939 Calhoun St",
    "address_councildis": "A",
    "status": "Pending",
    "rowid": "978000",
    "final_x": "3666877.48289",
    "final_y": "527495.946815",
    "longitude": "-90.11437830953827",
    "latitude": "29.944866718908496",
    "geocoded_column": {
      "latitude": "29.944866718908496",
      "longitude": "-90.11437830953827"
    }
  },
  {
    "service_request": "2023-977999",
    "request_type": "Traffic Signals/Signs/Striping/Streetlights",
    "request_reason": "Street Light Outage/Malfunction",
    "date_created": "2023-02-25T15:35:18.000",
    "date_modified": "2023-02-25T15:35:19.000",
    "request_status": "Pending",
    "responsible_agency": "Department of Public Works",
    "final_address": "3718 Gentilly Blvd",
    "address_councildis": "D",
    "status": "Assigned to Contractor",
    "contractor": "Legacy Professional Services",
    "rowid": "977999",
    "final_x": "3687180.8045",
    "final_y": "548680.186323",
    "longitude": "-90.04952533138689",
    "latitude": "30.00250642955461",
    "geocoded_column": {
      "latitude": "30.00250642955461",
      "longitude": "-90.04952533138689"
    }
  },
  {
    "service_request": "2023-977998",
    "request_type": "Traffic Signals/Signs/Striping/Streetlights",
    "request_reason": "Street Light Outage/Malfunction",
    "date_created": "2023-02-25T15:32:30.000",
    "date_modified": "2023-02-25T15:32:30.000",
    "request_status": "Pending",
    "responsible_agency": "Department of Public Works",
    "final_address": "6858 General Diaz St",
    "address_councildis": "A",
    "status": "Assigned to Contractor",
    "contractor": "Legacy Professional Services",
    "rowid": "977998",
    "final_x": "3669945.33082",
    "final_y": "553045.720535",
    "longitude": "-90.10382656943497",
    "latitude": "30.015029832101146",
    "geocoded_column": {
      "latitude": "30.015029832101146",
      "longitude": "-90.10382656943497"
    }
  },
  {
    "service_request": "2023-977997",
    "request_type": "Trash/Recycling",
    "request_reason": "Missed Trash Pick-Up",
    "date_created": "2023-02-25T15:29:30.000",
    "date_modified": "2023-02-25T15:29:30.000",
    "request_status": "Pending",
    "responsible_agency": "Department of Sanitation",
    "final_address": "206 David St, New Orleans, Louisiana, 70119",
    "address_councildis": "A",
    "status": "Assigned to Contractor",
    "contractor": "Richards Disposal",
    "rowid": "977997",
    "final_x": "3671236.06439",
    "final_y": "538886.043721",
    "longitude": "-90.100229904424",
    "latitude": "29.97605748439138",
    "geocoded_column": {
      "latitude": "29.97605748439138",
      "longitude": "-90.100229904424"
    }
  },
  {
    "service_request": "2023-977996",
    "request_type": "Trash/Recycling",
    "request_reason": "Repair Trash Cart",
    "date_created": "2023-02-25T15:21:31.000",
    "date_modified": "2023-02-25T15:21:31.000",
    "request_status": "Pending",
    "responsible_agency": "Department of Sanitation",
    "final_address": "6468 Bellaire Dr",
    "address_councildis": "A",
    "status": "Assigned to Contractor",
    "contractor": "IV Waste",
    "rowid": "977996",
    "final_x": "3664409.4393",
    "final_y": "551022.552661",
    "longitude": "-90.12138504340078",
    "latitude": "30.00962899493372",
    "geocoded_column": {
      "latitude": "30.00962899493372",
      "longitude": "-90.12138504340078"
    }
  },
  {
    "service_request": "2023-977995",
    "request_type": "Trash/Recycling",
    "request_reason": "Request a Large Item Pick Up",
    "date_created": "2023-02-25T15:21:25.000",
    "date_modified": "2023-02-25T15:21:25.000",
    "request_status": "Pending",
    "responsible_agency": "Department of Sanitation",
    "final_address": "7471 Hurst St",
    "address_councildis": "A",
    "status": "Assigned to Contractor",
    "contractor": "Richards Disposal",
    "rowid": "977995",
    "final_x": "3661287.40051",
    "final_y": "524292.340476",
    "longitude": "-90.13213402515082",
    "latitude": "29.93622015002567",
    "geocoded_column": {
      "latitude": "29.93622015002567",
      "longitude": "-90.13213402515082"
    }
  },
  {
    "service_request": "2023-977994",
    "request_type": "Trash/Recycling",
    "request_reason": "Request a Large Item Pick Up",
    "date_created": "2023-02-25T15:20:42.000",
    "date_modified": "2023-02-25T15:20:42.000",
    "request_status": "Pending",
    "responsible_agency": "Department of Sanitation",
    "final_address": "7929 Freret St",
    "address_councildis": "A",
    "status": "Assigned to Contractor",
    "contractor": "Richards Disposal",
    "rowid": "977994",
    "final_x": "3661926.85114",
    "final_y": "527522.518655",
    "longitude": "-90.13000815603785",
    "latitude": "29.9450836666227",
    "geocoded_column": {
      "latitude": "29.9450836666227",
      "longitude": "-90.13000815603785"
    }
  },
  {
    "service_request": "2023-977993",
    "request_type": "Roads/Drainage",
    "request_reason": "Unpermitted work in ROW",
    "date_created": "2023-02-25T15:18:38.000",
    "date_modified": "2023-02-25T15:18:38.000",
    "request_status": "Pending",
    "responsible_agency": "Department of Public Works",
    "final_address": "1203 St Bernard Ave",
    "address_councildis": "C",
    "status": "Pending",
    "rowid": "977993",
    "final_x": "3683096.09794",
    "final_y": "536294.029191",
    "longitude": "-90.06286328220617",
    "latitude": "29.96857406799968",
    "geocoded_column": {
      "latitude": "29.96857406799968",
      "longitude": "-90.06286328220617"
    }
  },
  {
    "service_request": "2023-977992",
    "request_type": "Trash/Recycling",
    "request_reason": "Illegal Dumping",
    "date_created": "2023-02-25T15:11:24.000",
    "date_modified": "2023-02-25T15:11:25.000",
    "request_status": "Pending",
    "responsible_agency": "Department of Sanitation",
    "final_address": "ANNETTE ST & N ROMAN ST",
    "address_councildis": "D",
    "status": "Pending",
    "rowid": "977992",
    "final_x": "3682939.8",
    "final_y": "538727.28",
    "longitude": "-90.06327170497366",
    "latitude": "29.97526942829095",
    "geocoded_column": {
      "latitude": "29.97526942829095",
      "longitude": "-90.06327170497366"
    }
  },
  {
    "service_request": "2023-977990",
    "request_type": "Trash/Recycling",
    "request_reason": "Request a Large Item Pick Up",
    "date_created": "2023-02-25T14:44:19.000",
    "date_modified": "2023-02-25T14:44:20.000",
    "request_status": "Pending",
    "responsible_agency": "Department of Sanitation",
    "final_address": "2403 Carondelet St",
    "address_councildis": "B",
    "status": "Assigned to Contractor",
    "contractor": "Richards Disposal",
    "rowid": "977990",
    "final_x": "3676676.7355",
    "final_y": "523535.692219",
    "longitude": "-90.08357544642632",
    "latitude": "29.933687043584598",
    "geocoded_column": {
      "latitude": "29.933687043584598",
      "longitude": "-90.08357544642632"
    }
  },
  {
    "service_request": "2023-977989",
    "request_type": "Trash/Recycling",
    "request_reason": "Repair Trash Cart",
    "date_created": "2023-02-25T14:43:10.000",
    "date_modified": "2023-02-25T14:43:11.000",
    "request_status": "Pending",
    "responsible_agency": "Department of Sanitation",
    "final_address": "50 N Lark St",
    "address_councildis": "D",
    "status": "Assigned to Contractor",
    "contractor": "IV Waste",
    "rowid": "977989",
    "final_x": "3675343.6452",
    "final_y": "556503.946522",
    "longitude": "-90.0866515623083",
    "latitude": "30.024378330396758",
    "geocoded_column": {
      "latitude": "30.024378330396758",
      "longitude": "-90.0866515623083"
    }
  },
  {
    "service_request": "2023-977988",
    "request_type": "Trash/Recycling",
    "request_reason": "Illegal Dumping",
    "date_created": "2023-02-25T14:42:41.000",
    "date_modified": "2023-02-25T14:42:41.000",
    "request_status": "Pending",
    "responsible_agency": "Department of Sanitation",
    "final_address": "3231 Banks St",
    "address_councildis": "B",
    "status": "Pending",
    "rowid": "977988",
    "final_x": "3672973.88526",
    "final_y": "535484.006598",
    "longitude": "-90.09485748348692",
    "latitude": "29.96665149524942",
    "geocoded_column": {
      "latitude": "29.96665149524942",
      "longitude": "-90.09485748348692"
    }
  },
  {
    "service_request": "2023-977987",
    "request_type": "Trash/Recycling",
    "request_reason": "Order Recycling Cart",
    "date_created": "2023-02-25T14:42:31.000",
    "date_modified": "2023-02-25T14:42:32.000",
    "request_status": "Pending",
    "responsible_agency": "Department of Sanitation",
    "final_address": "50 N Lark St",
    "address_councildis": "D",
    "status": "Pending",
    "rowid": "977987",
    "final_x": "3675343.6452",
    "final_y": "556503.946522",
    "longitude": "-90.0866515623083",
    "latitude": "30.024378330396758",
    "geocoded_column": {
      "latitude": "30.024378330396758",
      "longitude": "-90.0866515623083"
    }
  },
  {
    "service_request": "2023-977986",
    "request_type": "Trash/Recycling",
    "request_reason": "Illegal Dumping",
    "date_created": "2023-02-25T14:41:40.000",
    "date_modified": "2023-02-25T14:41:40.000",
    "request_status": "Pending",
    "responsible_agency": "Department of Sanitation",
    "final_address": "3214 Banks St A",
    "address_councildis": "B",
    "status": "Pending",
    "rowid": "977986",
    "final_x": "3673007.13704",
    "final_y": "535293.007814",
    "longitude": "-90.09475899429067",
    "latitude": "29.966125324550838",
    "geocoded_column": {
      "latitude": "29.966125324550838",
      "longitude": "-90.09475899429067"
    }
  },
  {
    "service_request": "2023-977985",
    "request_type": "Trash/Recycling",
    "request_reason": "Illegal Dumping",
    "date_created": "2023-02-25T14:40:39.000",
    "date_modified": "2023-02-25T14:40:39.000",
    "request_status": "Pending",
    "responsible_agency": "Department of Sanitation",
    "final_address": "3214 Banks St A",
    "address_councildis": "B",
    "status": "Pending",
    "rowid": "977985",
    "final_x": "3673007.13704",
    "final_y": "535293.007814",
    "longitude": "-90.09475899429067",
    "latitude": "29.966125324550838",
    "geocoded_column": {
      "latitude": "29.966125324550838",
      "longitude": "-90.09475899429067"
    }
  },
  {
    "service_request": "2023-977984",
    "request_type": "Abandoned Vehicles",
    "request_reason": "Vehicle Blocking Your Driveway",
    "date_created": "2023-02-25T14:40:09.000",
    "date_modified": "2023-02-25T14:40:09.000",
    "request_status": "Pending",
    "responsible_agency": "Department of Public Works",
    "final_address": "2530 Onzaga St",
    "address_councildis": "D",
    "status": "Pending",
    "rowid": "977984",
    "final_x": "3679546.17531",
    "final_y": "540170.571979",
    "longitude": "-90.07393957196211",
    "latitude": "29.9793409744577",
    "geocoded_column": {
      "latitude": "29.9793409744577",
      "longitude": "-90.07393957196211"
    }
  },
  {
    "service_request": "2023-977983",
    "request_type": "Abandoned Vehicles",
    "request_reason": "Abandoned/Junk Vehicles",
    "date_created": "2023-02-25T14:39:34.000",
    "date_modified": "2023-02-25T14:39:34.000",
    "request_status": "Pending",
    "responsible_agency": "Department of Public Works",
    "final_address": "3702 Palmyra St",
    "address_councildis": "A",
    "status": "Pending",
    "rowid": "977983",
    "final_x": "3671771.22779",
    "final_y": "536745.687111",
    "longitude": "-90.09861254130891",
    "latitude": "29.97015638030896",
    "geocoded_column": {
      "latitude": "29.97015638030896",
      "longitude": "-90.09861254130891"
    }
  },
  {
    "service_request": "2023-977982",
    "request_type": "Trash/Recycling",
    "request_reason": "Request a Large Item Pick Up",
    "date_created": "2023-02-25T14:30:29.000",
    "date_modified": "2023-02-25T14:30:29.000",
    "request_status": "Pending",
    "responsible_agency": "Department of Sanitation",
    "final_address": "306 S Clark St",
    "address_councildis": "B",
    "status": "Assigned to Contractor",
    "contractor": "Richards Disposal",
    "rowid": "977982",
    "final_x": "3672364.3931",
    "final_y": "536276.611527",
    "longitude": "-90.09675524680925",
    "latitude": "29.968848992027976",
    "geocoded_column": {
      "latitude": "29.968848992027976",
      "longitude": "-90.09675524680925"
    }
  },
  {
    "service_request": "2023-977981",
    "request_type": "Trash/Recycling",
    "request_reason": "Order Recycling Cart",
    "date_created": "2023-02-25T14:22:08.000",
    "date_modified": "2023-02-25T14:22:08.000",
    "request_status": "Pending",
    "responsible_agency": "Department of Sanitation",
    "final_address": "7836 Walmsley Ave",
    "address_councildis": "A",
    "status": "Pending",
    "rowid": "977981",
    "final_x": "3666470.4034",
    "final_y": "531975.407555",
    "longitude": "-90.11551327319447",
    "latitude": "29.95719568120695",
    "geocoded_column": {
      "latitude": "29.95719568120695",
      "longitude": "-90.11551327319447"
    }
  },
  {
    "service_request": "2023-977980",
    "request_type": "Trash/Recycling",
    "request_reason": "Illegal Dumping",
    "date_created": "2023-02-25T14:19:33.000",
    "date_modified": "2023-02-25T14:19:33.000",
    "request_status": "Pending",
    "responsible_agency": "Department of Sanitation",
    "final_address": "3231 Banks St",
    "address_councildis": "B",
    "status": "Pending",
    "rowid": "977980",
    "final_x": "3672973.88526",
    "final_y": "535484.006598",
    "longitude": "-90.09485748348692",
    "latitude": "29.96665149524942",
    "geocoded_column": {
      "latitude": "29.96665149524942",
      "longitude": "-90.09485748348692"
    }
  },
  {
    "service_request": "2023-977979",
    "request_type": "Trash/Recycling",
    "request_reason": "Illegal Dumping",
    "date_created": "2023-02-25T14:16:36.000",
    "date_modified": "2023-02-25T14:16:36.000",
    "request_status": "Pending",
    "responsible_agency": "Department of Sanitation",
    "final_address": "3214 Banks St A",
    "address_councildis": "B",
    "status": "Pending",
    "rowid": "977979",
    "final_x": "3673007.13704",
    "final_y": "535293.007814",
    "longitude": "-90.09475899429067",
    "latitude": "29.966125324550838",
    "geocoded_column": {
      "latitude": "29.966125324550838",
      "longitude": "-90.09475899429067"
    }
  },
  {
    "service_request": "2023-977978",
    "request_type": "Trash/Recycling",
    "request_reason": "Illegal Dumping",
    "date_created": "2023-02-25T14:12:57.000",
    "date_modified": "2023-02-25T14:12:57.000",
    "request_status": "Pending",
    "responsible_agency": "Department of Sanitation",
    "final_address": "3214 Banks St A",
    "address_councildis": "B",
    "status": "Pending",
    "rowid": "977978",
    "final_x": "3673007.13704",
    "final_y": "535293.007814",
    "longitude": "-90.09475899429067",
    "latitude": "29.966125324550838",
    "geocoded_column": {
      "latitude": "29.966125324550838",
      "longitude": "-90.09475899429067"
    }
  },
  {
    "service_request": "2023-977977",
    "request_type": "Trash/Recycling",
    "request_reason": "Missed Trash Pick-Up",
    "date_created": "2023-02-25T14:11:29.000",
    "date_modified": "2023-02-25T14:11:29.000",
    "request_status": "Pending",
    "responsible_agency": "Department of Sanitation",
    "final_address": "4209 Canal St",
    "address_councildis": "A",
    "status": "Assigned to Contractor",
    "contractor": "Richards Disposal",
    "rowid": "977977",
    "final_x": "3670571.79899",
    "final_y": "538876.339017",
    "longitude": "-90.10232818232302",
    "latitude": "29.976050439032683",
    "geocoded_column": {
      "latitude": "29.976050439032683",
      "longitude": "-90.10232818232302"
    }
  },
  {
    "service_request": "2023-977976",
    "request_type": "Trash/Recycling",
    "request_reason": "Missed Trash Pick-Up",
    "date_created": "2023-02-25T14:10:55.000",
    "date_modified": "2023-02-25T14:10:55.000",
    "request_status": "Pending",
    "responsible_agency": "Department of Sanitation",
    "final_address": "622 N Bernadotte St",
    "address_councildis": "A",
    "status": "Assigned to Contractor",
    "contractor": "Richards Disposal",
    "rowid": "977976",
    "final_x": "3670052.83226",
    "final_y": "541624.307212",
    "longitude": "-90.10387411204971",
    "latitude": "29.983621739614833",
    "geocoded_column": {
      "latitude": "29.983621739614833",
      "longitude": "-90.10387411204971"
    }
  },
  {
    "service_request": "2023-977975",
    "request_type": "Roads/Drainage",
    "request_reason": "Street Subsidence (Sinking)",
    "date_created": "2023-02-25T14:09:54.000",
    "date_modified": "2023-02-25T14:09:54.000",
    "request_status": "Pending",
    "responsible_agency": "Department of Public Works",
    "final_address": "2328 General De Gaulle Dr",
    "address_councildis": "C",
    "status": "Pending",
    "rowid": "977975",
    "final_x": "3692364.55235",
    "final_y": "522590.076474",
    "longitude": "-90.03408384093983",
    "latitude": "29.930607115246488",
    "geocoded_column": {
      "latitude": "29.930607115246488",
      "longitude": "-90.03408384093983"
    }
  },
  {
    "service_request": "2023-977974",
    "request_type": "Roads/Drainage",
    "request_reason": "Catch Basin - Broken/Damage",
    "date_created": "2023-02-25T14:06:10.000",
    "date_modified": "2023-02-25T14:06:10.000",
    "request_status": "Pending",
    "responsible_agency": "Department of Public Works",
    "final_address": "DELAWARE ST & AMAZON ST",
    "address_councildis": "C",
    "status": "Pending",
    "rowid": "977974",
    "final_x": "3692572.8",
    "final_y": "521988.98",
    "longitude": "-90.03344796327148",
    "latitude": "29.928947809254474",
    "geocoded_column": {
      "latitude": "29.928947809254474",
      "longitude": "-90.03344796327148"
    }
  },
  {
    "service_request": "2023-977973",
    "request_type": "Roads/Drainage",
    "request_reason": "Pothole",
    "date_created": "2023-02-25T14:00:22.000",
    "date_modified": "2023-02-25T14:00:22.000",
    "request_status": "Pending",
    "responsible_agency": "Department of Public Works",
    "final_address": "MEMORIAL PARK DR & ARIZONA ST",
    "address_councildis": "C",
    "status": "Pending",
    "rowid": "977973",
    "final_x": "3692083.8",
    "final_y": "521803.08",
    "longitude": "-90.03499828191553",
    "latitude": "29.92845189157066",
    "geocoded_column": {
      "latitude": "29.92845189157066",
      "longitude": "-90.03499828191553"
    }
  },
  {
    "service_request": "2023-977972",
    "request_type": "Trash/Recycling",
    "request_reason": "Order Recycling Cart",
    "date_created": "2023-02-25T13:57:38.000",
    "date_modified": "2023-02-25T14:14:32.000",
    "request_status": "Pending",
    "responsible_agency": "Department of Sanitation",
    "final_address": "820 Spain St Unit 7",
    "address_councildis": "C",
    "rowid": "977972",
    "final_x": "3686133.86959",
    "final_y": "535479.20487",
    "longitude": "-90.05329860246944",
    "latitude": "29.966240621279116",
    "geocoded_column": {
      "latitude": "29.966240621279116",
      "longitude": "-90.05329860246944"
    }
  },
  {
    "service_request": "2023-977971",
    "request_type": "Trash/Recycling",
    "request_reason": "Order Recycling Cart",
    "date_created": "2023-02-25T13:55:10.000",
    "date_modified": "2023-02-25T13:55:11.000",
    "request_status": "Pending",
    "responsible_agency": "Department of Sanitation",
    "final_address": "5407 Prytania St",
    "address_councildis": "A",
    "status": "Pending",
    "rowid": "977971",
    "final_x": "3667022.45204",
    "final_y": "520395.618936",
    "longitude": "-90.11415912288233",
    "latitude": "29.925338844919324",
    "geocoded_column": {
      "latitude": "29.925338844919324",
      "longitude": "-90.11415912288233"
    }
  },
  {
    "service_request": "2023-977970",
    "request_type": "Trash/Recycling",
    "request_reason": "Repair Trash Cart",
    "date_created": "2023-02-25T13:53:53.000",
    "date_modified": "2023-02-25T13:53:54.000",
    "request_status": "Pending",
    "responsible_agency": "Department of Sanitation",
    "final_address": "5407 Prytania St",
    "address_councildis": "A",
    "status": "Assigned to Contractor",
    "contractor": "Richards Disposal",
    "rowid": "977970",
    "final_x": "3667022.45204",
    "final_y": "520395.618936",
    "longitude": "-90.11415912288233",
    "latitude": "29.925338844919324",
    "geocoded_column": {
      "latitude": "29.925338844919324",
      "longitude": "-90.11415912288233"
    }
  },
  {
    "service_request": "2023-977969",
    "request_type": "Trash/Recycling",
    "request_reason": "Request a Large Item Pick Up",
    "date_created": "2023-02-25T13:41:45.000",
    "date_modified": "2023-02-25T13:41:46.000",
    "request_status": "Pending",
    "responsible_agency": "Department of Sanitation",
    "final_address": "1915 Mediamolle Dr",
    "address_councildis": "C",
    "status": "Assigned to Contractor",
    "contractor": "Richards Disposal",
    "rowid": "977969",
    "final_x": "3699427.23792",
    "final_y": "524283.515132",
    "longitude": "-90.0117264638219",
    "latitude": "29.93504139585885",
    "geocoded_column": {
      "latitude": "29.93504139585885",
      "longitude": "-90.0117264638219"
    }
  },
  {
    "service_request": "2023-977968",
    "request_type": "Abandoned Vehicles",
    "request_reason": "Abandoned/Junk Vehicles",
    "date_created": "2023-02-25T13:41:20.000",
    "date_modified": "2023-02-25T13:41:20.000",
    "request_status": "Pending",
    "responsible_agency": "Department of Public Works",
    "final_address": "4630 St Charles Ave",
    "address_councildis": "B",
    "status": "Pending",
    "rowid": "977968",
    "final_x": "3669824.55719",
    "final_y": "520628.244792",
    "longitude": "-90.10530586201752",
    "latitude": "29.925896214610017",
    "geocoded_column": {
      "latitude": "29.925896214610017",
      "longitude": "-90.10530586201752"
    }
  },
  {
    "service_request": "2023-977967",
    "request_type": "Abandoned Vehicles",
    "request_reason": "Abandoned/Junk Vehicles",
    "date_created": "2023-02-25T13:39:13.000",
    "date_modified": "2023-02-25T13:39:13.000",
    "request_status": "Pending",
    "responsible_agency": "Department of Public Works",
    "final_address": "2405 Ap Tureaud Ave",
    "address_councildis": "D",
    "status": "Pending",
    "rowid": "977967",
    "final_x": "3681683.97781",
    "final_y": "540921.896779",
    "longitude": "-90.06716133143618",
    "latitude": "29.981342074760942",
    "geocoded_column": {
      "latitude": "29.981342074760942",
      "longitude": "-90.06716133143618"
    }
  },
  {
    "service_request": "2023-977966",
    "request_type": "Trash/Recycling",
    "request_reason": "Repair Trash Cart",
    "date_created": "2023-02-25T13:36:11.000",
    "date_modified": "2023-02-25T13:36:11.000",
    "request_status": "Pending",
    "responsible_agency": "Department of Sanitation",
    "final_address": "2426 Jefferson Ave",
    "address_councildis": "A",
    "status": "Assigned to Contractor",
    "contractor": "Richards Disposal",
    "rowid": "977966",
    "final_x": "3667938.58573",
    "final_y": "524572.408892",
    "longitude": "-90.11112653129429",
    "latitude": "29.936796850941437",
    "geocoded_column": {
      "latitude": "29.936796850941437",
      "longitude": "-90.11112653129429"
    }
  },
  {
    "service_request": "2023-977965",
    "request_type": "Trash/Recycling",
    "request_reason": "Request a Large Item Pick Up",
    "date_created": "2023-02-25T13:24:56.000",
    "date_modified": "2023-02-25T13:24:57.000",
    "request_status": "Pending",
    "responsible_agency": "Department of Sanitation",
    "final_address": "210 Bragg St",
    "address_councildis": "A",
    "status": "Assigned to Contractor",
    "contractor": "IV Waste",
    "rowid": "977965",
    "final_x": "3667058.9353",
    "final_y": "550308.6781",
    "longitude": "-90.11303833747577",
    "latitude": "30.007588767923142",
    "geocoded_column": {
      "latitude": "30.007588767923142",
      "longitude": "-90.11303833747577"
    }
  },
  {
    "service_request": "2023-977964",
    "request_type": "Trash/Recycling",
    "request_reason": "Repair Trash Cart",
    "date_created": "2023-02-25T13:24:23.000",
    "date_modified": "2023-02-25T13:24:24.000",
    "request_status": "Pending",
    "responsible_agency": "Department of Sanitation",
    "final_address": "1804 Alvar St",
    "address_councildis": "D",
    "status": "Assigned to Contractor",
    "contractor": "IV Waste",
    "rowid": "977964",
    "final_x": "3692119.30518",
    "final_y": "538084.552969",
    "longitude": "-90.03430351630566",
    "latitude": "29.97321919644901",
    "geocoded_column": {
      "latitude": "29.97321919644901",
      "longitude": "-90.03430351630566"
    }
  },
  {
    "service_request": "2023-977963",
    "request_type": "Trash/Recycling",
    "request_reason": "MIssed Recycling Pick-Up",
    "date_created": "2023-02-25T13:23:33.000",
    "date_modified": "2023-02-25T13:23:34.000",
    "request_status": "Pending",
    "responsible_agency": "Department of Sanitation",
    "final_address": "3118 Hamilton St",
    "address_councildis": "A",
    "status": "Assigned to Contractor",
    "contractor": "Richards Disposal",
    "rowid": "977963",
    "final_x": "3664010.80244",
    "final_y": "535913.144903",
    "longitude": "-90.1231486503308",
    "latitude": "29.968094819180052",
    "geocoded_column": {
      "latitude": "29.968094819180052",
      "longitude": "-90.1231486503308"
    }
  },
  {
    "service_request": "2023-977962",
    "request_type": "Trash/Recycling",
    "request_reason": "Missed Trash Pick-Up",
    "date_created": "2023-02-25T13:13:27.000",
    "date_modified": "2023-02-25T13:13:28.000",
    "request_status": "Pending",
    "responsible_agency": "Department of Sanitation",
    "final_address": "4220 St Peter St",
    "address_councildis": "A",
    "status": "Assigned to Contractor",
    "contractor": "Richards Disposal",
    "rowid": "977962",
    "final_x": "3671690.01243",
    "final_y": "540525.649227",
    "longitude": "-90.09874040685352",
    "latitude": "29.980552401778912",
    "geocoded_column": {
      "latitude": "29.980552401778912",
      "longitude": "-90.09874040685352"
    }
  },
  {
    "service_request": "2023-977961",
    "request_type": "Property Maintenance",
    "request_reason": "Property Maintenance",
    "date_created": "2023-02-25T13:10:05.000",
    "date_modified": "2023-02-25T13:10:05.000",
    "request_status": "Pending",
    "responsible_agency": "Department of Code Enforcement",
    "final_address": "714 Fats Domino Ave",
    "address_councildis": "E",
    "status": "Pending",
    "rowid": "977961",
    "final_x": "3697602.6353",
    "final_y": "532417.485059",
    "longitude": "-90.01719173461024",
    "latitude": "29.95746471184753",
    "geocoded_column": {
      "latitude": "29.95746471184753",
      "longitude": "-90.01719173461024"
    }
  },
  {
    "service_request": "2023-977960",
    "request_type": "Trash/Recycling",
    "request_reason": "Missed Trash Pick-Up",
    "date_created": "2023-02-25T13:06:48.000",
    "date_modified": "2023-02-25T13:10:46.000",
    "case_close_date": "2023-02-25T07:10:46.000",
    "request_status": "Closed",
    "responsible_agency": "Department of Sanitation",
    "final_address": "6551 Morrison Rd",
    "address_councildis": "E",
    "status": "Assigned to Contractor",
    "contractor": "Waste Pro",
    "contractor_action": "Completed",
    "rowid": "977960",
    "final_x": "3697909.80496",
    "final_y": "558509.421916",
    "longitude": "-90.01527405390915",
    "latitude": "30.0291982213156",
    "geocoded_column": {
      "latitude": "30.0291982213156",
      "longitude": "-90.01527405390915"
    }
  },
  {
    "service_request": "2023-977959",
    "request_type": "Safety & Permits",
    "request_reason": "Licenses & Permits",
    "date_created": "2023-02-25T12:57:57.000",
    "date_modified": "2023-02-25T12:57:57.000",
    "request_status": "Pending",
    "responsible_agency": "Safety and Permits",
    "final_address": "3214 Banks St A",
    "address_councildis": "B",
    "status": "Pending",
    "rowid": "977959",
    "final_x": "3673007.13704",
    "final_y": "535293.007814",
    "longitude": "-90.09475899429067",
    "latitude": "29.966125324550838",
    "geocoded_column": {
      "latitude": "29.966125324550838",
      "longitude": "-90.09475899429067"
    }
  },
  {
    "service_request": "2023-977958",
    "request_type": "Trash/Recycling",
    "request_reason": "Order Recycling Cart",
    "date_created": "2023-02-25T12:45:01.000",
    "date_modified": "2023-02-25T12:45:01.000",
    "request_status": "Pending",
    "responsible_agency": "Department of Sanitation",
    "final_address": "146 N Telemachus St",
    "address_councildis": "B",
    "status": "Pending",
    "rowid": "977958",
    "final_x": "3672605.61556",
    "final_y": "537695.302216",
    "longitude": "-90.09594506695397",
    "latitude": "29.97274275211505",
    "geocoded_column": {
      "latitude": "29.97274275211505",
      "longitude": "-90.09594506695397"
    }
  },
  {
    "service_request": "2023-977957",
    "request_type": "Trash/Recycling",
    "request_reason": "Missed Trash Pick-Up",
    "date_created": "2023-02-25T12:44:51.000",
    "date_modified": "2023-02-25T13:13:43.000",
    "case_close_date": "2023-02-25T07:13:43.000",
    "request_status": "Closed",
    "responsible_agency": "Department of Sanitation",
    "final_address": "7000 Manchester St",
    "address_councildis": "E",
    "status": "Assigned to Contractor",
    "contractor": "Waste Pro",
    "contractor_action": "Completed",
    "rowid": "977957",
    "final_x": "3698950.00874",
    "final_y": "560018.787293",
    "longitude": "-90.01193205437833",
    "latitude": "30.033315452729585",
    "geocoded_column": {
      "latitude": "30.033315452729585",
      "longitude": "-90.01193205437833"
    }
  },
  {
    "service_request": "2023-977956",
    "request_type": "Trash/Recycling",
    "request_reason": "Missed Trash Pick-Up",
    "date_created": "2023-02-25T12:44:44.000",
    "date_modified": "2023-02-25T13:08:42.000",
    "case_close_date": "2023-02-25T07:08:42.000",
    "request_status": "Closed",
    "responsible_agency": "Department of Sanitation",
    "final_address": "6840 Curran Rd",
    "address_councildis": "E",
    "status": "Assigned to Contractor",
    "contractor": "Waste Pro",
    "contractor_action": "Completed",
    "rowid": "977956",
    "final_x": "3698537.89712",
    "final_y": "560166.248861",
    "longitude": "-90.01322899356919",
    "latitude": "30.03373397635476",
    "geocoded_column": {
      "latitude": "30.03373397635476",
      "longitude": "-90.01322899356919"
    }
  },
  {
    "service_request": "2023-977955",
    "request_type": "Trash/Recycling",
    "request_reason": "Repair Trash Cart",
    "date_created": "2023-02-25T12:43:09.000",
    "date_modified": "2023-02-25T12:43:10.000",
    "request_status": "Pending",
    "responsible_agency": "Department of Sanitation",
    "final_address": "2417 Chelsea Dr",
    "address_councildis": "C",
    "status": "Assigned to Contractor",
    "contractor": "Richards Disposal",
    "rowid": "977955",
    "final_x": "3704715.27524",
    "final_y": "522591.334714",
    "longitude": "-89.99509469257933",
    "latitude": "29.930219726167703",
    "geocoded_column": {
      "latitude": "29.930219726167703",
      "longitude": "-89.99509469257933"
    }
  },
  {
    "service_request": "2023-977954",
    "request_type": "Trash/Recycling",
    "request_reason": "Replace Trash Cart",
    "date_created": "2023-02-25T12:42:59.000",
    "date_modified": "2023-02-25T12:43:00.000",
    "request_status": "Pending",
    "responsible_agency": "Department of Sanitation",
    "final_address": "146 N Telemachus St",
    "address_councildis": "B",
    "status": "Assigned to Contractor",
    "contractor": "Richards Disposal",
    "rowid": "977954",
    "final_x": "3672605.61556",
    "final_y": "537695.302216",
    "longitude": "-90.09594506695397",
    "latitude": "29.97274275211505",
    "geocoded_column": {
      "latitude": "29.97274275211505",
      "longitude": "-90.09594506695397"
    }
  },
  {
    "service_request": "2023-977953",
    "request_type": "Trash/Recycling",
    "request_reason": "Order Trash Cart",
    "date_created": "2023-02-25T12:42:29.000",
    "date_modified": "2023-02-25T12:42:30.000",
    "request_status": "Pending",
    "responsible_agency": "Department of Sanitation",
    "final_address": "822 Camp St",
    "address_councildis": "B",
    "status": "Assigned to Contractor",
    "contractor": "Empire Services",
    "rowid": "977953",
    "final_x": "3680783.10402",
    "final_y": "527713.594815",
    "longitude": "-90.07046648783425",
    "latitude": "29.94505109660232",
    "geocoded_column": {
      "latitude": "29.94505109660232",
      "longitude": "-90.07046648783425"
    }
  },
  {
    "service_request": "2023-977952",
    "request_type": "Trash/Recycling",
    "request_reason": "Request a Large Item Pick Up",
    "date_created": "2023-02-25T12:28:28.000",
    "date_modified": "2023-02-25T12:28:28.000",
    "request_status": "Pending",
    "responsible_agency": "Department of Sanitation",
    "final_address": "2339 Lafreniere St",
    "address_councildis": "D",
    "status": "Assigned to Contractor",
    "contractor": "IV Waste",
    "rowid": "977952",
    "final_x": "3685328.62114",
    "final_y": "545671.697808",
    "longitude": "-90.05548259654232",
    "latitude": "29.994291098322243",
    "geocoded_column": {
      "latitude": "29.994291098322243",
      "longitude": "-90.05548259654232"
    }
  },
  {
    "service_request": "2023-977951",
    "request_type": "Abandoned Vehicles",
    "request_reason": "Abandoned/Junk Vehicles",
    "date_created": "2023-02-25T12:27:51.000",
    "date_modified": "2023-02-25T12:27:51.000",
    "request_status": "Pending",
    "responsible_agency": "Department of Public Works",
    "final_address": "3456 Desaix Blvd",
    "address_councildis": "A",
    "status": "Pending",
    "rowid": "977951",
    "final_x": "3676407.44968",
    "final_y": "543560.093198",
    "longitude": "-90.08373616588163",
    "latitude": "29.988755468047405",
    "geocoded_column": {
      "latitude": "29.988755468047405",
      "longitude": "-90.08373616588163"
    }
  },
  {
    "service_request": "2023-977950",
    "request_type": "Trash/Recycling",
    "request_reason": "Request a Large Item Pick Up",
    "date_created": "2023-02-25T12:27:42.000",
    "date_modified": "2023-02-25T12:27:43.000",
    "request_status": "Pending",
    "responsible_agency": "Department of Sanitation",
    "final_address": "5302 Freret St, New Orleans, Louisiana, 70115",
    "address_councildis": "B",
    "status": "Assigned to Contractor",
    "contractor": "Richards Disposal",
    "rowid": "977950",
    "final_x": "3668083.05441",
    "final_y": "523922.446076",
    "longitude": "-90.11069233017456",
    "latitude": "29.935005423684657",
    "geocoded_column": {
      "latitude": "29.935005423684657",
      "longitude": "-90.11069233017456"
    }
  },
  {
    "service_request": "2023-977949",
    "request_type": "Trash/Recycling",
    "request_reason": "Missed Trash Pick-Up",
    "date_created": "2023-02-25T12:25:00.000",
    "date_modified": "2023-02-25T12:25:00.000",
    "request_status": "Pending",
    "responsible_agency": "Department of Sanitation",
    "final_address": "5623 Durbridge Dr",
    "address_councildis": "C",
    "status": "Assigned to Contractor",
    "contractor": "Richards Disposal",
    "rowid": "977949",
    "final_x": "3704538.03479",
    "final_y": "521740.514106",
    "longitude": "-89.99568556298141",
    "latitude": "29.927885957128307",
    "geocoded_column": {
      "latitude": "29.927885957128307",
      "longitude": "-89.99568556298141"
    }
  },
  {
    "service_request": "2023-977948",
    "request_type": "Trash/Recycling",
    "request_reason": "Missed Trash Pick-Up",
    "date_created": "2023-02-25T12:09:35.000",
    "date_modified": "2023-02-25T12:09:36.000",
    "request_status": "Pending",
    "responsible_agency": "Department of Sanitation",
    "final_address": "4214 dhemecourt street",
    "address_councildis": "A",
    "status": "Assigned to Contractor",
    "contractor": "Richards Disposal",
    "rowid": "977948",
    "final_x": "3669255.6731",
    "final_y": "537207.327496",
    "longitude": "-90.10654133879724",
    "latitude": "29.97150003143497",
    "geocoded_column": {
      "latitude": "29.97150003143497",
      "longitude": "-90.10654133879724"
    }
  },
  {
    "service_request": "2023-977946",
    "request_type": "Abandoned Vehicles",
    "request_reason": "Abandoned/Junk Vehicles",
    "date_created": "2023-02-25T11:53:38.000",
    "date_modified": "2023-02-25T11:53:38.000",
    "request_status": "Pending",
    "responsible_agency": "Department of Public Works",
    "final_address": "4430 Palmyra St",
    "address_councildis": "A",
    "status": "Pending",
    "rowid": "977946",
    "final_x": "3669267.19406",
    "final_y": "538698.250505",
    "longitude": "-90.10645453815664",
    "latitude": "29.97559922950569",
    "geocoded_column": {
      "latitude": "29.97559922950569",
      "longitude": "-90.10645453815664"
    }
  },
  {
    "service_request": "2023-977945",
    "request_type": "Trash/Recycling",
    "request_reason": "Dead Animal Pick Up",
    "date_created": "2023-02-25T11:51:11.000",
    "date_modified": "2023-02-25T11:51:12.000",
    "request_status": "Pending",
    "responsible_agency": "Department of Sanitation",
    "final_address": "912 Spain St",
    "address_councildis": "C",
    "status": "Assigned to Contractor",
    "contractor": "IV Waste",
    "rowid": "977945",
    "final_x": "3686140.17417",
    "final_y": "535798.710279",
    "longitude": "-90.05326742091806",
    "latitude": "29.96711895652318",
    "geocoded_column": {
      "latitude": "29.96711895652318",
      "longitude": "-90.05326742091806"
    }
  },
  {
    "service_request": "2023-977944",
    "request_type": "Trash/Recycling",
    "request_reason": "MIssed Recycling Pick-Up",
    "date_created": "2023-02-25T11:44:59.000",
    "date_modified": "2023-02-25T11:45:00.000",
    "request_status": "Pending",
    "responsible_agency": "Department of Sanitation",
    "final_address": "2921 St Claude Ave",
    "address_councildis": "C",
    "status": "Assigned to Contractor",
    "contractor": "IV Waste",
    "rowid": "977944",
    "final_x": "3688343.69673",
    "final_y": "536270.006791",
    "longitude": "-90.0462919814857",
    "latitude": "29.968346986374907",
    "geocoded_column": {
      "latitude": "29.968346986374907",
      "longitude": "-90.0462919814857"
    }
  },
  {
    "service_request": "2023-977943",
    "request_type": "Roads/Drainage",
    "request_reason": "Catch Basin - Clogged",
    "date_created": "2023-02-25T11:40:47.000",
    "date_modified": "2023-02-25T11:40:47.000",
    "request_status": "Pending",
    "responsible_agency": "Department of Public Works",
    "final_address": "900 Jourdan Ave",
    "address_councildis": "E",
    "status": "Pending",
    "rowid": "977943",
    "final_x": "3694747.65002",
    "final_y": "533766.345541",
    "longitude": "-90.02615829464074",
    "latitude": "29.96126346450547",
    "geocoded_column": {
      "latitude": "29.96126346450547",
      "longitude": "-90.02615829464074"
    }
  },
  {
    "service_request": "2023-977942",
    "request_type": "Abandoned Vehicles",
    "request_reason": "Abandoned/Junk Vehicles",
    "date_created": "2023-02-25T11:32:31.000",
    "date_modified": "2023-02-25T11:32:31.000",
    "request_status": "Pending",
    "responsible_agency": "Department of Public Works",
    "final_address": "7624 Cohn St",
    "address_councildis": "A",
    "status": "Pending",
    "rowid": "977942",
    "final_x": "3664737.86164",
    "final_y": "529122.974848",
    "longitude": "-90.1210794247317",
    "latitude": "29.949402934921196",
    "geocoded_column": {
      "latitude": "29.949402934921196",
      "longitude": "-90.1210794247317"
    }
  },
  {
    "service_request": "2023-977941",
    "request_type": "Roads/Drainage",
    "request_reason": "Street Flooding / Drainage",
    "date_created": "2023-02-25T11:24:19.000",
    "date_modified": "2023-02-25T11:24:19.000",
    "request_status": "Pending",
    "responsible_agency": "Department of Public Works",
    "final_address": "2801 Bruxelles St",
    "address_councildis": "D",
    "status": "Pending",
    "rowid": "977941",
    "final_x": "3680354.40072",
    "final_y": "542633.796493",
    "longitude": "-90.07130119079459",
    "latitude": "29.986089532042193",
    "geocoded_column": {
      "latitude": "29.986089532042193",
      "longitude": "-90.07130119079459"
    }
  },
  {
    "service_request": "2023-977940",
    "request_type": "Traffic Signals/Signs/Striping/Streetlights",
    "request_reason": "Traffic Sign Missing/Damaged",
    "date_created": "2023-02-25T11:21:03.000",
    "date_modified": "2023-02-25T11:21:03.000",
    "request_status": "Pending",
    "responsible_agency": "Department of Public Works",
    "final_address": "3629 Dryades St",
    "address_councildis": "B",
    "status": "Pending",
    "rowid": "977940",
    "final_x": "3672917.07771",
    "final_y": "522277.228922",
    "longitude": "-90.09548743969529",
    "latitude": "29.930338894618515",
    "geocoded_column": {
      "latitude": "29.930338894618515",
      "longitude": "-90.09548743969529"
    }
  },
  {
    "service_request": "2023-977939",
    "request_type": "Trash/Recycling",
    "request_reason": "Missed Trash Pick-Up",
    "date_created": "2023-02-25T11:19:22.000",
    "date_modified": "2023-02-25T11:19:23.000",
    "request_status": "Pending",
    "responsible_agency": "Department of Sanitation",
    "final_address": "1244 France St",
    "address_councildis": "D",
    "status": "Assigned to Contractor",
    "contractor": "IV Waste",
    "rowid": "977939",
    "final_x": "3692513.66614",
    "final_y": "535852.235015",
    "longitude": "-90.03313804839289",
    "latitude": "29.967068813464266",
    "geocoded_column": {
      "latitude": "29.967068813464266",
      "longitude": "-90.03313804839289"
    }
  },
  {
    "service_request": "2023-977938",
    "request_type": "Trash/Recycling",
    "request_reason": "Request a Large Item Pick Up",
    "date_created": "2023-02-25T11:15:44.000",
    "date_modified": "2023-02-25T11:15:44.000",
    "request_status": "Pending",
    "responsible_agency": "Department of Sanitation",
    "final_address": "4027 Delgado Dr",
    "address_councildis": "A",
    "status": "Assigned to Contractor",
    "contractor": "Richards Disposal",
    "rowid": "977938",
    "final_x": "3673830.0546",
    "final_y": "540953.462283",
    "longitude": "-90.09196657760572",
    "latitude": "29.98166516588389",
    "geocoded_column": {
      "latitude": "29.98166516588389",
      "longitude": "-90.09196657760572"
    }
  },
  {
    "service_request": "2023-977937",
    "request_type": "Trash/Recycling",
    "request_reason": "Missed Trash Pick-Up",
    "date_created": "2023-02-25T11:11:24.000",
    "date_modified": "2023-02-25T11:11:24.000",
    "request_status": "Pending",
    "responsible_agency": "Department of Sanitation",
    "final_address": "5973 Laurel St",
    "address_councildis": "A",
    "status": "Assigned to Contractor",
    "contractor": "Richards Disposal",
    "rowid": "977937",
    "final_x": "3664479.1849",
    "final_y": "518248.924918",
    "longitude": "-90.12225907617788",
    "latitude": "29.91951027046028",
    "geocoded_column": {
      "latitude": "29.91951027046028",
      "longitude": "-90.12225907617788"
    }
  },
  {
    "service_request": "2023-977936",
    "request_type": "Traffic Signals/Signs/Striping/Streetlights",
    "request_reason": "Additional signage",
    "date_created": "2023-02-25T11:07:15.000",
    "date_modified": "2023-02-25T11:07:15.000",
    "request_status": "Pending",
    "responsible_agency": "Department of Public Works",
    "final_address": "23068 Chef Menteur Hwy",
    "address_councildis": "E",
    "status": "Pending",
    "rowid": "977936",
    "final_x": "3776013.36836",
    "final_y": "583102.081011",
    "longitude": "-89.76741479536956",
    "latitude": "30.094114811210197",
    "geocoded_column": {
      "latitude": "30.094114811210197",
      "longitude": "-89.76741479536956"
    }
  },
  {
    "service_request": "2023-977935",
    "request_type": "Trash/Recycling",
    "request_reason": "Order Recycling Cart",
    "date_created": "2023-02-25T11:00:28.000",
    "date_modified": "2023-02-25T11:00:28.000",
    "request_status": "Pending",
    "responsible_agency": "Department of Sanitation",
    "final_address": "4209 Burgundy St",
    "address_councildis": "C",
    "status": "Pending",
    "rowid": "977935",
    "final_x": "3692307.98089",
    "final_y": "534430.274693",
    "longitude": "-90.03383852831237",
    "latitude": "29.963165338970835",
    "geocoded_column": {
      "latitude": "29.963165338970835",
      "longitude": "-90.03383852831237"
    }
  },
  {
    "service_request": "2023-977934",
    "request_type": "Trash/Recycling",
    "request_reason": "Missed Trash Pick-Up",
    "date_created": "2023-02-25T10:57:56.000",
    "date_modified": "2023-02-25T10:57:57.000",
    "request_status": "Pending",
    "responsible_agency": "Department of Sanitation",
    "final_address": "6120 Camp St",
    "address_councildis": "A",
    "status": "Assigned to Contractor",
    "contractor": "Richards Disposal",
    "rowid": "977934",
    "final_x": "3664064.73607",
    "final_y": "519716.749752",
    "longitude": "-90.12351837169366",
    "latitude": "29.92355836866188",
    "geocoded_column": {
      "latitude": "29.92355836866188",
      "longitude": "-90.12351837169366"
    }
  },
  {
    "service_request": "2023-977933",
    "request_type": "Trash/Recycling",
    "request_reason": "Replace Trash Cart",
    "date_created": "2023-02-25T10:44:07.000",
    "date_modified": "2023-02-25T10:44:08.000",
    "request_status": "Pending",
    "responsible_agency": "Department of Sanitation",
    "final_address": "2332 Burdette St",
    "address_councildis": "A",
    "status": "Assigned to Contractor",
    "contractor": "Richards Disposal",
    "rowid": "977933",
    "final_x": "3665546.20212",
    "final_y": "530691.749122",
    "longitude": "-90.11847460518739",
    "latitude": "29.95369301541521",
    "geocoded_column": {
      "latitude": "29.95369301541521",
      "longitude": "-90.11847460518739"
    }
  },
  {
    "service_request": "2023-977932",
    "request_type": "Trash/Recycling",
    "request_reason": "Missed Trash Pick-Up",
    "date_created": "2023-02-25T10:41:56.000",
    "date_modified": "2023-02-25T10:41:57.000",
    "request_status": "Pending",
    "responsible_agency": "Department of Sanitation",
    "final_address": "3563 Roger Williams St",
    "address_councildis": "D",
    "status": "Assigned to Contractor",
    "contractor": "IV Waste",
    "rowid": "977932",
    "final_x": "3675832.43848",
    "final_y": "544070.424782",
    "longitude": "-90.08553489719787",
    "latitude": "29.990175932317786",
    "geocoded_column": {
      "latitude": "29.990175932317786",
      "longitude": "-90.08553489719787"
    }
  },
  {
    "service_request": "2023-977931",
    "request_type": "Trash/Recycling",
    "request_reason": "Missed Trash Pick-Up",
    "date_created": "2023-02-25T10:38:26.000",
    "date_modified": "2023-02-25T10:38:27.000",
    "request_status": "Pending",
    "responsible_agency": "Department of Sanitation",
    "final_address": "625 Desire St",
    "address_councildis": "C",
    "status": "Assigned to Contractor",
    "contractor": "IV Waste",
    "rowid": "977931",
    "final_x": "3689871.59926",
    "final_y": "534038.880453",
    "longitude": "-90.041546244338",
    "latitude": "29.962164892078125",
    "geocoded_column": {
      "latitude": "29.962164892078125",
      "longitude": "-90.041546244338"
    }
  },
  {
    "service_request": "2023-977930",
    "request_type": "Roads/Drainage",
    "request_reason": "Alley Way",
    "date_created": "2023-02-25T10:37:12.000",
    "date_modified": "2023-02-25T10:37:12.000",
    "request_status": "Pending",
    "responsible_agency": "Department of Public Works",
    "final_address": "6562 General Haig St",
    "address_councildis": "A",
    "status": "Pending",
    "rowid": "977930",
    "final_x": "3670777.20417",
    "final_y": "550931.736085",
    "longitude": "-90.1012700562457",
    "latitude": "30.009192551721",
    "geocoded_column": {
      "latitude": "30.009192551721",
      "longitude": "-90.1012700562457"
    }
  },
  {
    "service_request": "2023-977929",
    "request_type": "Trash/Recycling",
    "request_reason": "Order Trash Cart",
    "date_created": "2023-02-25T10:31:30.000",
    "date_modified": "2023-02-25T17:28:02.000",
    "case_close_date": "2023-02-25T11:28:02.000",
    "request_status": "Closed",
    "responsible_agency": "Department of Sanitation",
    "final_address": "6730 Lake Willow Dr",
    "address_councildis": "E",
    "status": "Assigned to Contractor",
    "contractor": "Waste Pro",
    "contractor_action": "Completed",
    "rowid": "977929",
    "final_x": "3703967.06564",
    "final_y": "559422.378141",
    "longitude": "-89.99609974986323",
    "latitude": "30.03151551965278",
    "geocoded_column": {
      "latitude": "30.03151551965278",
      "longitude": "-89.99609974986323"
    }
  },
  {
    "service_request": "2023-977928",
    "request_type": "Trash/Recycling",
    "request_reason": "Request a Large Item Pick Up",
    "date_created": "2023-02-25T10:29:12.000",
    "date_modified": "2023-02-25T10:29:12.000",
    "request_status": "Pending",
    "responsible_agency": "Department of Sanitation",
    "final_address": "2604 Chartres St",
    "address_councildis": "C",
    "status": "Assigned to Contractor",
    "contractor": "IV Waste",
    "rowid": "977928",
    "final_x": "3686715.53302",
    "final_y": "534577.391429",
    "longitude": "-90.05149358447903",
    "latitude": "29.96374306771692",
    "geocoded_column": {
      "latitude": "29.96374306771692",
      "longitude": "-90.05149358447903"
    }
  },