[
  {
    "service_request": "2023-980727",
    "request_type": "Mosquito, Termite & Rodent Control",
    "request_reason": "Non-Rodent Complaint (Mice, Possums, Snakes)",
    "date_created": "2023-03-07T00:00:43.000",
    "date_modified": "2023-03-07T00:00:43.000",
    "request_status": "Pending",
    "responsible_agency": "Mosquito, Termite & Rodent Control Board",
    "final_address": "237 Morgan St",
    "address_councildis": "C",
    "status": "Pending",
    "rowid": "980727",
    "final_x": "3686017.89506",
    "final_y": "531013.956034",
    "longitude": "-90.0538223085323",
    "latitude": "29.953966287849475",
    "geocoded_column": {
      "latitude": "29.953966287849475",
      "longitude": "-90.0538223085323"
    }
  },
  {
    "service_request": "2023-980726",
    "request_type": "Trash/Recycling",
    "request_reason": "Illegal Dumping",
    "date_created": "2023-03-06T23:50:47.000",
    "date_modified": "2023-03-06T23:50:47.000",
    "request_status": "Pending",
    "responsible_agency": "Department of Sanitation",
    "final_address": "3214 Peoples Ave",
    "address_councildis": "D",
    "status": "Pending",
    "rowid": "980726",
    "final_x": "3688620.59567",
    "final_y": "544872.110927",
    "longitude": "-90.04511211016788",
    "latitude": "29.991991165594044",
    "geocoded_column": {
      "latitude": "29.991991165594044",
      "longitude": "-90.04511211016788"
    }
  },
  {
    "service_request": "2023-980725",
    "request_type": "Abandoned Vehicles",
    "request_reason": "Abandoned/Junk Vehicles",
    "date_created": "2023-03-06T22:56:35.000",
    "date_modified": "2023-03-06T22:56:35.000",
    "request_status": "Pending",
    "responsible_agency": "Department of Public Works",
    "final_address": "5747 Pauline Dr",
    "address_councildis": "D",
    "status": "Pending",
    "rowid": "980725",
    "final_x": "3691823.27555",
    "final_y": "555385.071577",
    "longitude": "-90.03461915268274",
    "latitude": "30.020798540330684",
    "geocoded_column": {
      "latitude": "30.020798540330684",
      "longitude": "-90.03461915268274"
    }
  },
  {
    "service_request": "2023-980724",
    "request_type": "Abandoned Vehicles",
    "request_reason": "Abandoned/Junk Vehicles",
    "date_created": "2023-03-06T22:54:41.000",
    "date_modified": "2023-03-06T22:54:41.000",
    "request_status": "Pending",
    "responsible_agency": "Department of Public Works",
    "final_address": "5747 Pauline Dr",
    "address_councildis": "D",
    "status": "Pending",
    "rowid": "980724",
    "final_x": "3691823.27555",
    "final_y": "555385.071577",
    "longitude": "-90.03461915268274",
    "latitude": "30.020798540330684",
    "geocoded_column": {
      "latitude": "30.020798540330684",
      "longitude": "-90.03461915268274"
    }
  },
  {
    "service_request": "2023-980723",
    "request_type": "Trash/Recycling",
    "request_reason": "Illegal Dumping",
    "date_created": "2023-03-06T22:01:51.000",
    "date_modified": "2023-03-06T22:01:51.000",
    "request_status": "Pending",
    "responsible_agency": "Department of Sanitation",
    "final_address": "1301 Saux Ln",
    "address_councildis": "C",
    "status": "Pending",
    "rowid": "980723",
    "final_x": "3692676.69987",
    "final_y": "526539.74419",
    "longitude": "-90.03295694043658",
    "latitude": "29.941457617753517",
    "geocoded_column": {
      "latitude": "29.941457617753517",
      "longitude": "-90.03295694043658"
    }
  },
  {
    "service_request": "2023-980722",
    "request_type": "Trash/Recycling",
    "request_reason": "Repair Trash Cart",
    "date_created": "2023-03-06T22:00:58.000",
    "date_modified": "2023-03-06T22:00:59.000",
    "request_status": "Pending",
    "responsible_agency": "Department of Sanitation",
    "final_address": "1215 Royal St",
    "address_councildis": "C",
    "status": "Assigned to Contractor",
    "contractor": "Empire Services",
    "rowid": "980722",
    "final_x": "3683707.43388",
    "final_y": "534015.109637",
    "longitude": "-90.06101256668195",
    "latitude": "29.962289172820757",
    "geocoded_column": {
      "latitude": "29.962289172820757",
      "longitude": "-90.06101256668195"
    }
  },
  {
    "service_request": "2023-980720",
    "request_type": "Traffic Signals/Signs/Striping/Streetlights",
    "request_reason": "Street Light Outage/Malfunction",
    "date_created": "2023-03-06T21:13:52.000",
    "date_modified": "2023-03-06T21:13:53.000",
    "request_status": "Pending",
    "responsible_agency": "Department of Public Works",
    "status": "Assigned to Contractor",
    "contractor": "Legacy Professional Services",
    "rowid": "980720",
    "longitude": "0.0",
    "latitude": "0.0",
    "geocoded_column": {
      "latitude": "0.0",
      "longitude": "0.0"
    }
  },
  {
    "service_request": "2023-980719",
    "request_type": "Abandoned Vehicles",
    "request_reason": "Abandoned/Junk Vehicles",
    "date_created": "2023-03-06T21:11:06.000",
    "date_modified": "2023-03-06T21:11:06.000",
    "request_status": "Pending",
    "responsible_agency": "Department of Public Works",
    "final_address": "434 Pine St",
    "address_councildis": "A",
    "status": "Pending",
    "rowid": "980719",
    "final_x": "3662048.49171",
    "final_y": "524022.42886",
    "longitude": "-90.12974017579707",
    "latitude": "29.935456017783988",
    "geocoded_column": {
      "latitude": "29.935456017783988",
      "longitude": "-90.12974017579707"
    }
  },
  {
    "service_request": "2023-980718",
    "request_type": "Safety & Permits",
    "request_reason": "Licenses & Permits",
    "date_created": "2023-03-06T20:59:20.000",
    "date_modified": "2023-03-06T20:59:20.000",
    "request_status": "Pending",
    "responsible_agency": "Safety and Permits",
    "final_address": "12 Dove St",
    "address_councildis": "D",
    "status": "Pending",
    "rowid": "980718",
    "final_x": "3673677.5675",
    "final_y": "554647.584984",
    "longitude": "-90.09197962554353",
    "latitude": "30.019323741745005",
    "geocoded_column": {
      "latitude": "30.019323741745005",
      "longitude": "-90.09197962554353"
    }
  },
  {
    "service_request": "2023-980717",
    "request_type": "Property Maintenance",
    "request_reason": "Property Maintenance",
    "date_created": "2023-03-06T20:54:24.000",
    "date_modified": "2023-03-06T20:54:24.000",
    "request_status": "Pending",
    "responsible_agency": "Department of Code Enforcement",
    "final_address": "4934 Longfellow Dr",
    "address_councildis": "E",
    "status": "Pending",
    "rowid": "980717",
    "final_x": "3709470.67339",
    "final_y": "556867.809754",
    "longitude": "-89.97880368309823",
    "latitude": "30.02431370743417",
    "geocoded_column": {
      "latitude": "30.02431370743417",
      "longitude": "-89.97880368309823"
    }
  },
  {
    "service_request": "2023-980716",
    "request_type": "Roads/Drainage",
    "request_reason": "Pothole",
    "date_created": "2023-03-06T20:53:33.000",
    "date_modified": "2023-03-06T20:53:33.000",
    "request_status": "Pending",
    "responsible_agency": "Department of Public Works",
    "final_address": "2703 Camp St",
    "address_councildis": "B",
    "status": "Pending",
    "rowid": "980716",
    "final_x": "3677045.3101",
    "final_y": "521321.114553",
    "longitude": "-90.08248819402827",
    "latitude": "29.927586618343053",
    "geocoded_column": {
      "latitude": "29.927586618343053",
      "longitude": "-90.08248819402827"
    }
  },
  {
    "service_request": "2023-980714",
    "request_type": "Trash/Recycling",
    "request_reason": "Order Trash Cart",
    "date_created": "2023-03-06T20:47:47.000",
    "date_modified": "2023-03-06T20:47:47.000",
    "request_status": "Pending",
    "responsible_agency": "Department of Sanitation",
    "status": "Assigned to Contractor",
    "rowid": "980714",
    "longitude": "0.0",
    "latitude": "0.0",
    "geocoded_column": {
      "latitude": "0.0",
      "longitude": "0.0"
    }
  },
  {
    "service_request": "2023-980713",
    "request_type": "Trash/Recycling",
    "request_reason": "Order Recycling Cart",
    "date_created": "2023-03-06T20:46:11.000",
    "date_modified": "2023-03-06T20:46:11.000",
    "request_status": "Pending",
    "responsible_agency": "Department of Sanitation",
    "status": "Pending",
    "rowid": "980713",
    "longitude": "0.0",
    "latitude": "0.0",
    "geocoded_column": {
      "latitude": "0.0",
      "longitude": "0.0"
    }
  },
  {
    "service_request": "2023-980712",
    "request_type": "Trash/Recycling",
    "request_reason": "Order Recycling Cart",
    "date_created": "2023-03-06T20:42:24.000",
    "date_modified": "2023-03-06T20:42:24.000",
    "request_status": "Pending",
    "responsible_agency": "Department of Sanitation",
    "status": "Pending",
    "rowid": "980712",
    "longitude": "0.0",
    "latitude": "0.0",
    "geocoded_column": {
      "latitude": "0.0",
      "longitude": "0.0"
    }
  },
  {
    "service_request": "2023-980710",
    "request_type": "Abandoned Vehicles",
    "request_reason": "Abandoned/Junk Vehicles",
    "date_created": "2023-03-06T20:09:15.000",
    "date_modified": "2023-03-06T20:14:38.000",
    "request_status": "Pending",
    "responsible_agency": "Department of Public Works",
    "status": "Pending",
    "rowid": "980710",
    "longitude": "0.0",
    "latitude": "0.0",
    "geocoded_column": {
      "latitude": "0.0",
      "longitude": "0.0"
    }
  },
  {
    "service_request": "2023-980709",
    "request_type": "Trash/Recycling",
    "request_reason": "Request a Large Item Pick Up",
    "date_created": "2023-03-06T19:56:47.000",
    "date_modified": "2023-03-06T19:56:47.000",
    "request_status": "Pending",
    "responsible_agency": "Department of Sanitation",
    "final_address": "3730 Rue Delphine",
    "address_councildis": "C",
    "status": "Assigned to Contractor",
    "contractor": "Richards Disposal",
    "rowid": "980709",
    "final_x": "3703071.49367",
    "final_y": "516738.282485",
    "longitude": "-90.00049873465312",
    "latitude": "29.91417853919785",
    "geocoded_column": {
      "latitude": "29.91417853919785",
      "longitude": "-90.00049873465312"
    }
  },
  {
    "service_request": "2023-980708",
    "request_type": "Trash/Recycling",
    "request_reason": "Missed Trash Pick-Up",
    "date_created": "2023-03-06T19:26:09.000",
    "date_modified": "2023-03-06T19:26:09.000",
    "request_status": "Pending",
    "responsible_agency": "Department of Sanitation",
    "final_address": "3219 Jefferson Ave",
    "address_councildis": "B",
    "status": "Assigned to Contractor",
    "contractor": "Richards Disposal",
    "rowid": "980708",
    "final_x": "3668653.2329",
    "final_y": "527043.453822",
    "longitude": "-90.10878697783913",
    "latitude": "29.94357044756528",
    "geocoded_column": {
      "latitude": "29.94357044756528",
      "longitude": "-90.10878697783913"
    }
  },
  {
    "service_request": "2023-980707",
    "request_type": "Trash/Recycling",
    "request_reason": "Request a Large Item Pick Up",
    "date_created": "2023-03-06T19:18:30.000",
    "date_modified": "2023-03-06T19:18:31.000",
    "request_status": "Pending",
    "responsible_agency": "Department of Sanitation",
    "final_address": "6575 Center St",
    "address_councildis": "A",
    "status": "Assigned to Contractor",
    "contractor": "IV Waste",
    "rowid": "980707",
    "final_x": "3664990.91898",
    "final_y": "551894.58479",
    "longitude": "-90.11951875068193",
    "latitude": "30.012009855913416",
    "geocoded_column": {
      "latitude": "30.012009855913416",
      "longitude": "-90.11951875068193"
    }
  },
  {
    "service_request": "2023-980706",
    "request_type": "Trash/Recycling",
    "request_reason": "Missed Trash Pick-Up",
    "date_created": "2023-03-06T19:17:41.000",
    "date_modified": "2023-03-06T19:17:42.000",
    "request_status": "Pending",
    "responsible_agency": "Department of Sanitation",
    "final_address": "2326 Onzaga St",
    "address_councildis": "D",
    "status": "Assigned to Contractor",
    "contractor": "IV Waste",
    "rowid": "980706",
    "final_x": "3680189.2452",
    "final_y": "539727.090826",
    "longitude": "-90.07192392372444",
    "latitude": "29.978102105046705",
    "geocoded_column": {
      "latitude": "29.978102105046705",
      "longitude": "-90.07192392372444"
    }
  },
  {
    "service_request": "2023-980704",
    "request_type": "Abandoned Vehicles",
    "request_reason": "Abandoned/Junk Vehicles",
    "date_created": "2023-03-06T19:00:57.000",
    "date_modified": "2023-03-06T19:00:57.000",
    "request_status": "Pending",
    "responsible_agency": "Department of Public Works",
    "final_address": "4441 Cartier Ave",
    "address_councildis": "D",
    "status": "Pending",
    "rowid": "980704",
    "final_x": "3678036.68322",
    "final_y": "548798.457491",
    "longitude": "-90.07840870014289",
    "latitude": "30.00311016864391",
    "geocoded_column": {
      "latitude": "30.00311016864391",
      "longitude": "-90.07840870014289"
    }
  },
  {
    "service_request": "2023-980703",
    "request_type": "Trash/Recycling",
    "request_reason": "Request a Large Item Pick Up",
    "date_created": "2023-03-06T18:58:44.000",
    "date_modified": "2023-03-06T18:58:44.000",
    "request_status": "Pending",
    "responsible_agency": "Department of Sanitation",
    "final_address": "7569 Avalon Way",
    "address_councildis": "E",
    "status": "Assigned to Contractor",
    "contractor": "Waste Pro",
    "rowid": "980703",
    "final_x": "3709173.9155",
    "final_y": "564402.016289",
    "longitude": "-89.97946008676786",
    "latitude": "30.04503943378443",
    "geocoded_column": {
      "latitude": "30.04503943378443",
      "longitude": "-89.97946008676786"
    }
  },
  {
    "service_request": "2023-980702",
    "request_type": "Abandoned Vehicles",
    "request_reason": "Abandoned/Junk Vehicles",
    "date_created": "2023-03-06T18:54:15.000",
    "date_modified": "2023-03-06T18:54:15.000",
    "request_status": "Pending",
    "responsible_agency": "Department of Public Works",
    "final_address": "4441 Cartier Ave",
    "address_councildis": "D",
    "status": "Pending",
    "rowid": "980702",
    "final_x": "3678036.68322",
    "final_y": "548798.457491",
    "longitude": "-90.07840870014289",
    "latitude": "30.00311016864391",
    "geocoded_column": {
      "latitude": "30.00311016864391",
      "longitude": "-90.07840870014289"
    }
  },
  {
    "service_request": "2023-980701",
    "request_type": "Trash/Recycling",
    "request_reason": "Order Trash Cart",
    "date_created": "2023-03-06T18:51:32.000",
    "date_modified": "2023-03-06T18:51:33.000",
    "request_status": "Pending",
    "responsible_agency": "Department of Sanitation",
    "final_address": "1122 Valence St",
    "address_councildis": "B",
    "status": "Assigned to Contractor",
    "contractor": "Richards Disposal",
    "rowid": "980701",
    "final_x": "3669794.81902",
    "final_y": "519613.563832",
    "longitude": "-90.10543406121909",
    "latitude": "29.923107040920982",
    "geocoded_column": {
      "latitude": "29.923107040920982",
      "longitude": "-90.10543406121909"
    }
  },
  {
    "service_request": "2023-980700",
    "request_type": "Trash/Recycling",
    "request_reason": "Replace Trash Cart",
    "date_created": "2023-03-06T18:40:09.000",
    "date_modified": "2023-03-06T18:40:10.000",
    "request_status": "Pending",
    "responsible_agency": "Department of Sanitation",
    "final_address": "2325 State St",
    "address_councildis": "A",
    "status": "Assigned to Contractor",
    "contractor": "Richards Disposal",
    "rowid": "980700",
    "final_x": "3666750.44999",
    "final_y": "525285.199485",
    "longitude": "-90.11485361745258",
    "latitude": "29.938791590454848",
    "geocoded_column": {
      "latitude": "29.938791590454848",
      "longitude": "-90.11485361745258"
    }
  },
  {
    "service_request": "2023-980699",
    "request_type": "Trash/Recycling",
    "request_reason": "Repair Trash Cart",
    "date_created": "2023-03-06T18:34:54.000",
    "date_modified": "2023-03-06T18:34:55.000",
    "request_status": "Pending",
    "responsible_agency": "Department of Sanitation",
    "final_address": "2240 Constance St",
    "address_councildis": "B",
    "status": "Assigned to Contractor",
    "contractor": "Richards Disposal",
    "rowid": "980699",
    "final_x": "3678820.38856",
    "final_y": "521536.293305",
    "longitude": "-90.07687725347672",
    "latitude": "29.928124888596415",
    "geocoded_column": {
      "latitude": "29.928124888596415",
      "longitude": "-90.07687725347672"
    }
  },
  {
    "service_request": "2023-980698",
    "request_type": "Abandoned Vehicles",
    "request_reason": "Abandoned/Junk Vehicles",
    "date_created": "2023-03-06T18:31:40.000",
    "date_modified": "2023-03-06T18:31:40.000",
    "request_status": "Pending",
    "responsible_agency": "Department of Public Works",
    "final_address": "234 S Scott St",
    "address_councildis": "A",
    "status": "Pending",
    "rowid": "980698",
    "final_x": "3671376.11636",
    "final_y": "537221.84532",
    "longitude": "-90.09984415931179",
    "latitude": "29.971477356083266",
    "geocoded_column": {
      "latitude": "29.971477356083266",
      "longitude": "-90.09984415931179"
    }
  },
  {
    "service_request": "2023-980697",
    "request_type": "Trash/Recycling",
    "request_reason": "Order Trash Cart",
    "date_created": "2023-03-06T18:31:35.000",
    "date_modified": "2023-03-06T18:31:35.000",
    "request_status": "Pending",
    "responsible_agency": "Department of Sanitation",
    "final_address": "1724 Clio St",
    "address_councildis": "B",
    "status": "Assigned to Contractor",
    "contractor": "Richards Disposal",
    "rowid": "980697",
    "final_x": "3679138.50799",
    "final_y": "526693.81171",
    "longitude": "-90.0756943257652",
    "latitude": "29.942296769216746",
    "geocoded_column": {
      "latitude": "29.942296769216746",
      "longitude": "-90.0756943257652"
    }
  },
  {
    "service_request": "2023-980696",
    "request_type": "Abandoned Vehicles",
    "request_reason": "Abandoned/Junk Vehicles",
    "date_created": "2023-03-06T18:28:49.000",
    "date_modified": "2023-03-06T18:28:49.000",
    "request_status": "Pending",
    "responsible_agency": "Department of Public Works",
    "final_address": "234 S Scott St",
    "address_councildis": "A",
    "status": "Pending",
    "rowid": "980696",
    "final_x": "3671376.11636",
    "final_y": "537221.84532",
    "longitude": "-90.09984415931179",
    "latitude": "29.971477356083266",
    "geocoded_column": {
      "latitude": "29.971477356083266",
      "longitude": "-90.09984415931179"
    }
  },
  {
    "service_request": "2023-980695",
    "request_type": "Traffic Signals/Signs/Striping/Streetlights",
    "request_reason": "Street Light Outage/Malfunction",
    "date_created": "2023-03-06T18:28:43.000",
    "date_modified": "2023-03-06T18:28:44.000",
    "request_status": "Pending",
    "responsible_agency": "Department of Public Works",
    "final_address": "5107 Dryades St",
    "address_councildis": "B",
    "status": "Assigned to Contractor",
    "contractor": "Legacy Professional Services",
    "rowid": "980695",
    "final_x": "3668327.39854",
    "final_y": "521870.612282",
    "longitude": "-90.10999009292964",
    "latitude": "29.929356365141565",
    "geocoded_column": {
      "latitude": "29.929356365141565",
      "longitude": "-90.10999009292964"
    }
  },
  {
    "service_request": "2023-980694",
    "request_type": "Traffic Signals/Signs/Striping/Streetlights",
    "request_reason": "Street Light Outage/Malfunction",
    "date_created": "2023-03-06T18:28:05.000",
    "date_modified": "2023-03-06T18:28:05.000",
    "request_status": "Pending",
    "responsible_agency": "Department of Public Works",
    "final_address": "5600 Magazine St",
    "address_councildis": "A",
    "status": "Assigned to Contractor",
    "contractor": "Legacy Professional Services",
    "rowid": "980694",
    "final_x": "3665936.58068",
    "final_y": "518743.880951",
    "longitude": "-90.11764221006808",
    "latitude": "29.920828808885766",
    "geocoded_column": {
      "latitude": "29.920828808885766",
      "longitude": "-90.11764221006808"
    }
  },
  {
    "service_request": "2023-980693",
    "request_type": "Trash/Recycling",
    "request_reason": "Replace Trash Cart",
    "date_created": "2023-03-06T18:12:02.000",
    "date_modified": "2023-03-06T18:12:03.000",
    "request_status": "Pending",
    "responsible_agency": "Department of Sanitation",
    "final_address": "755 Aurora Oaks Dr",
    "address_councildis": "C",
    "status": "Assigned to Contractor",
    "contractor": "Richards Disposal",
    "rowid": "980693",
    "final_x": "3701195.19249",
    "final_y": "519580.398712",
    "longitude": "-90.00631703521971",
    "latitude": "29.922053264472993",
    "geocoded_column": {
      "latitude": "29.922053264472993",
      "longitude": "-90.00631703521971"
    }
  },
  {
    "service_request": "2023-980692",
    "request_type": "Trash/Recycling",
    "request_reason": "Missed Trash Pick-Up",
    "date_created": "2023-03-06T18:12:00.000",
    "date_modified": "2023-03-06T18:12:01.000",
    "request_status": "Pending",
    "responsible_agency": "Department of Sanitation",
    "final_address": "3074 Sullen Pl",
    "address_councildis": "C",
    "status": "Assigned to Contractor",
    "contractor": "Richards Disposal",
    "rowid": "980692",
    "final_x": "3707853.14174",
    "final_y": "519162.005111",
    "longitude": "-89.98531639739093",
    "latitude": "29.92068913125304",
    "geocoded_column": {
      "latitude": "29.92068913125304",
      "longitude": "-89.98531639739093"
    }
  },
  {
    "service_request": "2023-980691",
    "request_type": "Abandoned Vehicles",
    "request_reason": "Abandoned/Junk Vehicles",
    "date_created": "2023-03-06T18:08:55.000",
    "date_modified": "2023-03-06T18:09:35.000",
    "request_status": "Pending",
    "responsible_agency": "Department of Public Works",
    "final_address": "10331 Flossmoor Dr",
    "address_councildis": "E",
    "status": "Pending",
    "rowid": "980691",
    "final_x": "3710051.79262",
    "final_y": "564000.979169",
    "longitude": "-89.9767006106852",
    "latitude": "30.043908192744944",
    "geocoded_column": {
      "latitude": "30.043908192744944",
      "longitude": "-89.9767006106852"
    }
  },
  {
    "service_request": "2023-980690",
    "request_type": "Roads/Drainage",
    "request_reason": "Pothole",
    "date_created": "2023-03-06T18:00:13.000",
    "date_modified": "2023-03-06T18:00:13.000",
    "request_status": "Pending",
    "responsible_agency": "Department of Public Works",
    "final_address": "4334 Stemway Dr",
    "address_councildis": "D",
    "status": "Pending",
    "rowid": "980690",
    "final_x": "3697153.73565",
    "final_y": "551880.561686",
    "longitude": "-90.01790367207157",
    "latitude": "30.01099525991169",
    "geocoded_column": {
      "latitude": "30.01099525991169",
      "longitude": "-90.01790367207157"
    }
  },
  {
    "service_request": "2023-980689",
    "request_type": "Traffic Signals/Signs/Striping/Streetlights",
    "request_reason": "Request for Stop Sign",
    "date_created": "2023-03-06T17:54:17.000",
    "date_modified": "2023-03-06T17:54:17.000",
    "request_status": "Pending",
    "responsible_agency": "Department of Public Works",
    "final_address": "4334 Stemway Dr",
    "address_councildis": "D",
    "status": "Pending",
    "rowid": "980689",
    "final_x": "3697153.73565",
    "final_y": "551880.561686",
    "longitude": "-90.01790367207157",
    "latitude": "30.01099525991169",
    "geocoded_column": {
      "latitude": "30.01099525991169",
      "longitude": "-90.01790367207157"
    }
  },
  {
    "service_request": "2023-980688",
    "request_type": "Property Maintenance",
    "request_reason": "Property Maintenance",
    "date_created": "2023-03-06T17:42:53.000",
    "date_modified": "2023-03-06T17:42:53.000",
    "request_status": "Pending",
    "responsible_agency": "Department of Code Enforcement",
    "final_address": "8120 Aberdeen Rd",
    "address_councildis": "E",
    "status": "Pending",
    "rowid": "980688",
    "final_x": "3702771.06942",
    "final_y": "561240.560222",
    "longitude": "-89.99981226039519",
    "latitude": "30.036553135245324",
    "geocoded_column": {
      "latitude": "30.036553135245324",
      "longitude": "-89.99981226039519"
    }
  },
  {
    "service_request": "2023-980687",
    "request_type": "Traffic Signals/Signs/Striping/Streetlights",
    "request_reason": "Street Light Outage/Malfunction",
    "date_created": "2023-03-06T17:42:12.000",
    "date_modified": "2023-03-06T17:42:12.000",
    "request_status": "Pending",
    "responsible_agency": "Department of Public Works",
    "final_address": "641 Independence St A",
    "address_councildis": "C",
    "status": "Assigned to Contractor",
    "contractor": "Legacy Professional Services",
    "rowid": "980687",
    "final_x": "3690614.08214",
    "final_y": "533978.567109",
    "longitude": "-90.03920375337782",
    "latitude": "29.96197601446166",
    "geocoded_column": {
      "latitude": "29.96197601446166",
      "longitude": "-90.03920375337782"
    }
  },
  {
    "service_request": "2023-980686",
    "request_type": "Traffic Signals/Signs/Striping/Streetlights",
    "request_reason": "Street Name Sign Damaged or Missing",
    "date_created": "2023-03-06T17:33:50.000",
    "date_modified": "2023-03-06T17:33:50.000",
    "request_status": "Pending",
    "responsible_agency": "Department of Public Works",
    "final_address": "3315 N Robertson St",
    "address_councildis": "D",
    "status": "Pending",
    "rowid": "980686",
    "final_x": "3690320.18486",
    "final_y": "537281.935048",
    "longitude": "-90.04001409094204",
    "latitude": "29.971068241105808",
    "geocoded_column": {
      "latitude": "29.971068241105808",
      "longitude": "-90.04001409094204"
    }
  },
  {
    "service_request": "2023-980685",
    "request_type": "Traffic Signals/Signs/Striping/Streetlights",
    "request_reason": "Traffic Sign Missing/Damaged",
    "date_created": "2023-03-06T17:31:52.000",
    "date_modified": "2023-03-06T17:31:52.000",
    "request_status": "Pending",
    "responsible_agency": "Department of Public Works",
    "final_address": "2001 N Claiborne Ave",
    "address_councildis": "D",
    "status": "Pending",
    "rowid": "980685",
    "final_x": "3684113.15932",
    "final_y": "538114.465993",
    "longitude": "-90.05958744474631",
    "latitude": "29.973548590264578",
    "geocoded_column": {
      "latitude": "29.973548590264578",
      "longitude": "-90.05958744474631"
    }
  },
  {
    "service_request": "2023-980684",
    "request_type": "Roads/Drainage",
    "request_reason": "Street Subsidence (Sinking)",
    "date_created": "2023-03-06T17:29:54.000",
    "date_modified": "2023-03-06T17:33:22.000",
    "request_status": "Pending",
    "responsible_agency": "Department of Public Works",
    "final_address": "New Orleans,LA",
    "address_councildis": "D",
    "rowid": "980684",
    "final_x": "3685310.0",
    "final_y": "550163.08",
    "longitude": "-90.05538318372729",
    "latitude": "30.00664135174308",
    "geocoded_column": {
      "latitude": "30.00664135174308",
      "longitude": "-90.05538318372729"
    }
  },
  {
    "service_request": "2023-980683",
    "request_type": "Trash/Recycling",
    "request_reason": "Missed Trash Pick-Up",
    "date_created": "2023-03-06T17:28:55.000",
    "date_modified": "2023-03-06T17:28:56.000",
    "request_status": "Pending",
    "responsible_agency": "Department of Sanitation",
    "final_address": "13726 N Lemans St",
    "address_councildis": "E",
    "status": "Assigned to Contractor",
    "contractor": "Waste Pro",
    "rowid": "980683",
    "final_x": "3726788.91181",
    "final_y": "563566.63056",
    "longitude": "-89.92382164443553",
    "latitude": "30.042158425147097",
    "geocoded_column": {
      "latitude": "30.042158425147097",
      "longitude": "-89.92382164443553"
    }
  },
  {
    "service_request": "2023-980682",
    "request_type": "Abandoned Vehicles",
    "request_reason": "Abandoned/Junk Vehicles",
    "date_created": "2023-03-06T17:22:47.000",
    "date_modified": "2023-03-06T17:22:47.000",
    "request_status": "Pending",
    "responsible_agency": "Department of Public Works",
    "final_address": "8120 Aberdeen Rd",
    "address_councildis": "E",
    "status": "Pending",
    "rowid": "980682",
    "final_x": "3702771.06942",
    "final_y": "561240.560222",
    "longitude": "-89.99981226039519",
    "latitude": "30.036553135245324",
    "geocoded_column": {
      "latitude": "30.036553135245324",
      "longitude": "-89.99981226039519"
    }
  },
  {
    "service_request": "2023-980681",
    "request_type": "Health Related Request",
    "request_reason": "Noise Ordinance Complaint",
    "date_created": "2023-03-06T17:22:00.000",
    "date_modified": "2023-03-06T17:22:00.000",
    "request_status": "Pending",
    "responsible_agency": "Health Department",
    "final_address": "1737 Feliciana St",
    "address_councildis": "D",
    "status": "Pending",
    "rowid": "980681",
    "final_x": "3689401.22364",
    "final_y": "538550.002313",
    "longitude": "-90.04287118160441",
    "latitude": "29.97458346752421",
    "geocoded_column": {
      "latitude": "29.97458346752421",
      "longitude": "-90.04287118160441"
    }
  },
  {
    "service_request": "2023-980680",
    "request_type": "Trash/Recycling",
    "request_reason": "Order Recycling Cart",
    "date_created": "2023-03-06T17:10:25.000",
    "date_modified": "2023-03-06T17:10:25.000",
    "request_status": "Pending",
    "responsible_agency": "Department of Sanitation",
    "final_address": "1819 Joliet St",
    "address_councildis": "A",
    "status": "Pending",
    "rowid": "980680",
    "final_x": "3662454.79552",
    "final_y": "530986.484866",
    "longitude": "-90.12822623822095",
    "latitude": "29.954593204912403",
    "geocoded_column": {
      "latitude": "29.954593204912403",
      "longitude": "-90.12822623822095"
    }
  },
  {
    "service_request": "2023-980679",
    "request_type": "Trash/Recycling",
    "request_reason": "Missed Trash Pick-Up",
    "date_created": "2023-03-06T17:08:52.000",
    "date_modified": "2023-03-06T17:08:53.000",
    "request_status": "Pending",
    "responsible_agency": "Department of Sanitation",
    "final_address": "230 Bermuda Street (all of 200 block actually)",
    "status": "Assigned to Contractor",
    "rowid": "980679",
    "longitude": "0.0",
    "latitude": "0.0",
    "geocoded_column": {
      "latitude": "0.0",
      "longitude": "0.0"
    }
  },
  {
    "service_request": "2023-980678",
    "request_type": "Trash/Recycling",
    "request_reason": "Request a Large Item Pick Up",
    "date_created": "2023-03-06T17:04:05.000",
    "date_modified": "2023-03-06T17:04:06.000",
    "request_status": "Pending",
    "responsible_agency": "Department of Sanitation",
    "final_address": "1817 Jo Ann Pl",
    "address_councildis": "C",
    "status": "Assigned to Contractor",
    "contractor": "Richards Disposal",
    "rowid": "980678",
    "final_x": "3694920.92643",
    "final_y": "524324.518972",
    "longitude": "-90.02595131101532",
    "latitude": "29.93529628860649",
    "geocoded_column": {
      "latitude": "29.93529628860649",
      "longitude": "-90.02595131101532"
    }
  },
  {
    "service_request": "2023-980677",
    "request_type": "Trash/Recycling",
    "request_reason": "MIssed Recycling Pick-Up",
    "date_created": "2023-03-06T17:02:14.000",
    "date_modified": "2023-03-06T17:02:15.000",
    "request_status": "Pending",
    "responsible_agency": "Department of Sanitation",
    "final_address": "329 Bermuda St",
    "address_councildis": "C",
    "status": "Assigned to Contractor",
    "contractor": "Richards Disposal",
    "rowid": "980677",
    "final_x": "3686390.7949",
    "final_y": "530575.530562",
    "longitude": "-90.05266031842326",
    "latitude": "29.952749313015012",
    "geocoded_column": {
      "latitude": "29.952749313015012",
      "longitude": "-90.05266031842326"
    }
  },
  {
    "service_request": "2023-980676",
    "request_type": "Trash/Recycling",
    "request_reason": "Request a Large Item Pick Up",
    "date_created": "2023-03-06T16:56:48.000",
    "date_modified": "2023-03-06T16:56:49.000",
    "request_status": "Pending",
    "responsible_agency": "Department of Sanitation",
    "final_address": "7225 W Tamaron Blvd",
    "address_councildis": "E",
    "status": "Assigned to Contractor",
    "contractor": "Waste Pro",
    "rowid": "980676",
    "final_x": "3717862.09036",
    "final_y": "569513.138022",
    "longitude": "-89.95180689765473",
    "latitude": "30.058807788382246",
    "geocoded_column": {
      "latitude": "30.058807788382246",
      "longitude": "-89.95180689765473"
    }
  },
  {
    "service_request": "2023-980675",
    "request_type": "Trash/Recycling",
    "request_reason": "Request a Large Item Pick Up",
    "date_created": "2023-03-06T16:56:04.000",
    "date_modified": "2023-03-06T16:56:04.000",
    "request_status": "Pending",
    "responsible_agency": "Department of Sanitation",
    "final_address": "436 Turquoise St",
    "address_councildis": "D",
    "status": "Assigned to Contractor",
    "contractor": "IV Waste",
    "rowid": "980675",
    "final_x": "3668114.40193",
    "final_y": "555284.141657",
    "longitude": "-90.10953591851649",
    "latitude": "30.021238591286437",
    "geocoded_column": {
      "latitude": "30.021238591286437",
      "longitude": "-90.10953591851649"
    }
  },
  {
    "service_request": "2023-980674",
    "request_type": "Trash/Recycling",
    "request_reason": "Request a Large Item Pick Up",
    "date_created": "2023-03-06T16:53:14.000",
    "date_modified": "2023-03-06T16:53:15.000",
    "request_status": "Pending",
    "responsible_agency": "Department of Sanitation",
    "final_address": "8923 Palm St",
    "address_councildis": "A",
    "status": "Assigned to Contractor",
    "contractor": "Richards Disposal",
    "rowid": "980674",
    "final_x": "3665518.39213",
    "final_y": "536747.210247",
    "longitude": "-90.1183596751716",
    "latitude": "29.970344354996584",
    "geocoded_column": {
      "latitude": "29.970344354996584",
      "longitude": "-90.1183596751716"
    }
  },
  {
    "service_request": "2023-980673",
    "request_type": "Trash/Recycling",
    "request_reason": "Order Trash Cart",
    "date_created": "2023-03-06T16:48:09.000",
    "date_modified": "2023-03-06T16:48:10.000",
    "request_status": "Pending",
    "responsible_agency": "Department of Sanitation",
    "final_address": "5819 General Haig St",
    "address_councildis": "A",
    "status": "Assigned to Contractor",
    "contractor": "IV Waste",
    "rowid": "980673",
    "final_x": "3670496.45979",
    "final_y": "545939.851984",
    "longitude": "-90.10232645830946",
    "latitude": "29.99547490934054",
    "geocoded_column": {
      "latitude": "29.99547490934054",
      "longitude": "-90.10232645830946"
    }
  },
  {
    "service_request": "2023-980672",
    "request_type": "Roads/Drainage",
    "request_reason": "Ditch Issue",
    "date_created": "2023-03-06T16:46:34.000",
    "date_modified": "2023-03-06T16:46:34.000",
    "request_status": "Pending",
    "responsible_agency": "Department of Public Works",
    "final_address": "3470 Dumaine St",
    "address_councildis": "A",
    "status": "Pending",
    "rowid": "980672",
    "final_x": "3674532.32136",
    "final_y": "539482.438666",
    "longitude": "-90.08979891043495",
    "latitude": "29.97759941676859",
    "geocoded_column": {
      "latitude": "29.97759941676859",
      "longitude": "-90.08979891043495"
    }
  },
  {
    "service_request": "2023-980671",
    "request_type": "Mosquito, Termite & Rodent Control",
    "request_reason": "Non-Rodent Complaint (Mice, Possums, Snakes)",
    "date_created": "2023-03-06T16:46:33.000",
    "date_modified": "2023-03-06T16:46:34.000",
    "request_status": "Pending",
    "responsible_agency": "Mosquito, Termite & Rodent Control Board",
    "final_address": "1241 Carondelet St",
    "address_councildis": "B",
    "status": "Pending",
    "rowid": "980671",
    "final_x": "3679117.87733",
    "final_y": "526347.02803",
    "longitude": "-90.07577147759903",
    "latitude": "29.941343851812388",
    "geocoded_column": {
      "latitude": "29.941343851812388",
      "longitude": "-90.07577147759903"
    }
  },
  {
    "service_request": "2023-980670",
    "request_type": "Traffic Signals/Signs/Striping/Streetlights",
    "request_reason": "Street Light Outage/Malfunction",
    "date_created": "2023-03-06T16:44:37.000",
    "date_modified": "2023-03-06T16:44:37.000",
    "request_status": "Pending",
    "responsible_agency": "Department of Public Works",
    "final_address": "2715 First St",
    "address_councildis": "B",
    "status": "Assigned to Contractor",
    "contractor": "Legacy Professional Services",
    "rowid": "980670",
    "final_x": "3674728.64193",
    "final_y": "526641.669438",
    "longitude": "-90.08961905900301",
    "latitude": "29.94228574600177",
    "geocoded_column": {
      "latitude": "29.94228574600177",
      "longitude": "-90.08961905900301"
    }
  },
  {
    "service_request": "2023-980669",
    "request_type": "Trash/Recycling",
    "request_reason": "Illegal Dumping",
    "date_created": "2023-03-06T16:41:30.000",
    "date_modified": "2023-03-06T16:42:34.000",
    "request_status": "Pending",
    "responsible_agency": "Department of Sanitation",
    "final_address": "8008 Trapier Ave, New Orleans, Louisiana, 70127",
    "address_councildis": "E",
    "rowid": "980669",
    "final_x": "3705962.01047",
    "final_y": "564563.536289",
    "longitude": "-89.98960516317912",
    "latitude": "30.045587507412648",
    "geocoded_column": {
      "latitude": "30.045587507412648",
      "longitude": "-89.98960516317912"
    }
  },
  {
    "service_request": "2023-980668",
    "request_type": "Trash/Recycling",
    "request_reason": "Repair Trash Cart",
    "date_created": "2023-03-06T16:41:21.000",
    "date_modified": "2023-03-06T16:41:22.000",
    "request_status": "Pending",
    "responsible_agency": "Department of Sanitation",
    "final_address": "4350 Frenchmen St",
    "address_councildis": "D",
    "status": "Assigned to Contractor",
    "contractor": "IV Waste",
    "rowid": "980668",
    "final_x": "3683547.33737",
    "final_y": "548677.923731",
    "longitude": "-90.06100398363331",
    "latitude": "30.002611644743673",
    "geocoded_column": {
      "latitude": "30.002611644743673",
      "longitude": "-90.06100398363331"
    }
  },
  {
    "service_request": "2023-980667",
    "request_type": "Abandoned Vehicles",
    "request_reason": "Abandoned/Junk Vehicles",
    "date_created": "2023-03-06T16:40:28.000",
    "date_modified": "2023-03-06T16:40:28.000",
    "request_status": "Pending",
    "responsible_agency": "Department of Public Works",
    "final_address": "2311 Joliet St",
    "address_councildis": "A",
    "status": "Pending",
    "rowid": "980667",
    "final_x": "3663616.33594",
    "final_y": "532254.346051",
    "longitude": "-90.1245162935537",
    "latitude": "29.95804576983999",
    "geocoded_column": {
      "latitude": "29.95804576983999",
      "longitude": "-90.1245162935537"
    }
  },
  {
    "service_request": "2023-980666",
    "request_type": "Roads/Drainage",
    "request_reason": "Catch Basin - Clogged",
    "date_created": "2023-03-06T16:38:52.000",
    "date_modified": "2023-03-06T16:38:52.000",
    "request_status": "Pending",
    "responsible_agency": "Department of Public Works",
    "final_address": "5878 General Haig St",
    "address_councildis": "A",
    "status": "Pending",
    "rowid": "980666",
    "final_x": "3670415.33838",
    "final_y": "546400.661393",
    "longitude": "-90.10256707841563",
    "latitude": "29.996744371783667",
    "geocoded_column": {
      "latitude": "29.996744371783667",
      "longitude": "-90.10256707841563"
    }
  },
  {
    "service_request": "2023-980665",
    "request_type": "Trash/Recycling",
    "request_reason": "Missed Trash Pick-Up",
    "date_created": "2023-03-06T16:37:28.000",
    "date_modified": "2023-03-06T16:37:29.000",
    "request_status": "Pending",
    "responsible_agency": "Department of Sanitation",
    "final_address": "4618 Arthur Dr",
    "address_councildis": "E",
    "status": "Assigned to Contractor",
    "contractor": "Waste Pro",
    "rowid": "980665",
    "final_x": "3707705.95659",
    "final_y": "554607.338136",
    "longitude": "-89.98446390128218",
    "latitude": "30.018155531764542",
    "geocoded_column": {
      "latitude": "30.018155531764542",
      "longitude": "-89.98446390128218"
    }
  },
  {
    "service_request": "2023-980663",
    "request_type": "Abandoned Vehicles",
    "request_reason": "Abandoned/Junk Vehicles",
    "date_created": "2023-03-06T16:34:17.000",
    "date_modified": "2023-03-06T16:34:17.000",
    "request_status": "Pending",
    "responsible_agency": "Department of Public Works",
    "final_address": "8008 Trapier Ave, New Orleans, Louisiana, 70127",
    "address_councildis": "E",
    "status": "Pending",
    "rowid": "980663",
    "final_x": "3705962.01047",
    "final_y": "564563.536289",
    "longitude": "-89.98960516317912",
    "latitude": "30.045587507412648",
    "geocoded_column": {
      "latitude": "30.045587507412648",
      "longitude": "-89.98960516317912"
    }
  },
  {
    "service_request": "2023-980662",
    "request_type": "Abandoned Vehicles",
    "request_reason": "Abandoned/Junk Vehicles",
    "date_created": "2023-03-06T16:32:41.000",
    "date_modified": "2023-03-06T16:32:41.000",
    "request_status": "Pending",
    "responsible_agency": "Department of Public Works",
    "final_address": "8008 Trapier Ave, New Orleans, Louisiana, 70127",
    "address_councildis": "E",
    "status": "Pending",
    "rowid": "980662",
    "final_x": "3705962.01047",
    "final_y": "564563.536289",
    "longitude": "-89.98960516317912",
    "latitude": "30.045587507412648",
    "geocoded_column": {
      "latitude": "30.045587507412648",
      "longitude": "-89.98960516317912"
    }
  },
  {
    "service_request": "2023-980661",
    "request_type": "Trash/Recycling",
    "request_reason": "Replace Trash Cart",
    "date_created": "2023-03-06T16:27:40.000",
    "date_modified": "2023-03-06T16:27:40.000",
    "request_status": "Pending",
    "responsible_agency": "Department of Sanitation",
    "final_address": "1204 Lowerline St",
    "address_councildis": "A",
    "status": "Assigned to Contractor",
    "contractor": "Richards Disposal",
    "rowid": "980661",
    "final_x": "3663686.14183",
    "final_y": "526897.984958",
    "longitude": "-90.1244743064776",
    "latitude": "29.94331548011511",
    "geocoded_column": {
      "latitude": "29.94331548011511",
      "longitude": "-90.1244743064776"
    }
  },
  {
    "service_request": "2023-980660",
    "request_type": "Traffic Signals/Signs/Striping/Streetlights",
    "request_reason": "Street Light Outage/Malfunction",
    "date_created": "2023-03-06T16:27:25.000",
    "date_modified": "2023-03-06T16:27:26.000",
    "request_status": "Pending",
    "responsible_agency": "Department of Public Works",
    "final_address": "1320 Marigny St",
    "address_councildis": "C",
    "status": "Assigned to Contractor",
    "contractor": "Legacy Professional Services",
    "rowid": "980660",
    "final_x": "3685306.08508",
    "final_y": "537239.589512",
    "longitude": "-90.05585074503183",
    "latitude": "29.97110646840198",
    "geocoded_column": {
      "latitude": "29.97110646840198",
      "longitude": "-90.05585074503183"
    }
  },
  {
    "service_request": "2023-980659",
    "request_type": "Trash/Recycling",
    "request_reason": "Replace Trash Cart",
    "date_created": "2023-03-06T16:27:12.000",
    "date_modified": "2023-03-06T16:27:12.000",
    "request_status": "Pending",
    "responsible_agency": "Department of Sanitation",
    "final_address": "1202 Lowerline St",
    "address_councildis": "A",
    "status": "Assigned to Contractor",
    "contractor": "Richards Disposal",
    "rowid": "980659",
    "final_x": "3663680.10554",
    "final_y": "526887.383358",
    "longitude": "-90.12449371779262",
    "latitude": "29.943286504211677",
    "geocoded_column": {
      "latitude": "29.943286504211677",
      "longitude": "-90.12449371779262"
    }
  },
  {
    "service_request": "2023-980658",
    "request_type": "Trash/Recycling",
    "request_reason": "Missed Trash Pick-Up",
    "date_created": "2023-03-06T16:22:16.000",
    "date_modified": "2023-03-06T16:22:16.000",
    "request_status": "Pending",
    "responsible_agency": "Department of Sanitation",
    "final_address": "425 Celeste St",
    "address_councildis": "B",
    "status": "Assigned to Contractor",
    "contractor": "Richards Disposal",
    "rowid": "980658",
    "final_x": "3682253.27951",
    "final_y": "521476.733881",
    "longitude": "-90.06604248169063",
    "latitude": "29.927857167766927",
    "geocoded_column": {
      "latitude": "29.927857167766927",
      "longitude": "-90.06604248169063"
    }
  },
  {
    "service_request": "2023-980657",
    "request_type": "Trash/Recycling",
    "request_reason": "Request a Large Item Pick Up",
    "date_created": "2023-03-06T16:22:10.000",
    "date_modified": "2023-03-06T16:22:11.000",
    "request_status": "Pending",
    "responsible_agency": "Department of Sanitation",
    "final_address": "1568 Mandolin St",
    "address_councildis": "D",
    "status": "Assigned to Contractor",
    "contractor": "IV Waste",
    "rowid": "980657",
    "final_x": "3679290.3453",
    "final_y": "548020.562898",
    "longitude": "-90.07447519590816",
    "latitude": "30.000933422936768",
    "geocoded_column": {
      "latitude": "30.000933422936768",
      "longitude": "-90.07447519590816"
    }
  },
  {
    "service_request": "2023-980656",
    "request_type": "Trash/Recycling",
    "request_reason": "Request a Large Item Pick Up",
    "date_created": "2023-03-06T16:22:07.000",
    "date_modified": "2023-03-06T16:22:07.000",
    "request_status": "Pending",
    "responsible_agency": "Department of Sanitation",
    "final_address": "2025 Spain St",
    "address_councildis": "D",
    "status": "Assigned to Contractor",
    "contractor": "IV Waste",
    "rowid": "980656",
    "final_x": "3685896.51446",
    "final_y": "539950.232458",
    "longitude": "-90.05389050670242",
    "latitude": "29.97854167369995",
    "geocoded_column": {
      "latitude": "29.97854167369995",
      "longitude": "-90.05389050670242"
    }
  },
  {
    "service_request": "2023-980655",
    "request_type": "Trash/Recycling",
    "request_reason": "Illegal Dumping",
    "date_created": "2023-03-06T16:20:49.000",
    "date_modified": "2023-03-06T16:20:49.000",
    "request_status": "Pending",
    "responsible_agency": "Department of Sanitation",
    "final_address": "1301 Saux Ln",
    "address_councildis": "C",
    "status": "Pending",
    "rowid": "980655",
    "final_x": "3692676.69987",
    "final_y": "526539.74419",
    "longitude": "-90.03295694043658",
    "latitude": "29.941457617753517",
    "geocoded_column": {
      "latitude": "29.941457617753517",
      "longitude": "-90.03295694043658"
    }
  },
  {
    "service_request": "2023-980654",
    "request_type": "Trash/Recycling",
    "request_reason": "Order Recycling Cart",
    "date_created": "2023-03-06T16:18:05.000",
    "date_modified": "2023-03-06T16:18:06.000",
    "request_status": "Pending",
    "responsible_agency": "Department of Sanitation",
    "final_address": "2206 Mandeville St",
    "address_councildis": "D",
    "status": "Pending",
    "rowid": "980654",
    "final_x": "3685408.23529",
    "final_y": "540482.845963",
    "longitude": "-90.05541390878801",
    "latitude": "29.980021155885957",
    "geocoded_column": {
      "latitude": "29.980021155885957",
      "longitude": "-90.05541390878801"
    }
  },
  {
    "service_request": "2023-980653",
    "request_type": "Roads/Drainage",
    "request_reason": "Accessibility Ramps, Curbs and Sidewalk Repair",
    "date_created": "2023-03-06T16:16:12.000",
    "date_modified": "2023-03-06T16:16:12.000",
    "request_status": "Pending",
    "responsible_agency": "Department of Public Works",
    "final_address": "6978 Martin Dr",
    "address_councildis": "E",
    "status": "Reviewed",
    "rowid": "980653",
    "final_x": "3698798.2776",
    "final_y": "558270.90902",
    "longitude": "-90.0124752089717",
    "latitude": "30.028514271131005",
    "geocoded_column": {
      "latitude": "30.028514271131005",
      "longitude": "-90.0124752089717"
    }
  },
  {
    "service_request": "2023-980652",
    "request_type": "Trash/Recycling",
    "request_reason": "Request a Large Item Pick Up",
    "date_created": "2023-03-06T16:16:05.000",
    "date_modified": "2023-03-06T16:16:06.000",
    "request_status": "Pending",
    "responsible_agency": "Department of Sanitation",
    "final_address": "15 Tradewinds Ct",
    "address_councildis": "E",
    "status": "Assigned to Contractor",
    "contractor": "Waste Pro",
    "rowid": "980652",
    "final_x": "3715572.44063",
    "final_y": "570788.789543",
    "longitude": "-89.95899583312217",
    "latitude": "30.062391009146324",
    "geocoded_column": {
      "latitude": "30.062391009146324",
      "longitude": "-89.95899583312217"
    }
  },
  {
    "service_request": "2023-980651",
    "request_type": "Trash/Recycling",
    "request_reason": "Repair Recycling Cart",
    "date_created": "2023-03-06T16:13:24.000",
    "date_modified": "2023-03-06T16:13:24.000",
    "request_status": "Pending",
    "responsible_agency": "Department of Sanitation",
    "final_address": "14050 Partridge Ln",
    "address_councildis": "E",
    "status": "Pending",
    "rowid": "980651",
    "final_x": "3719544.51973",
    "final_y": "571703.5482",
    "longitude": "-89.9464051502583",
    "latitude": "30.064774618092088",
    "geocoded_column": {
      "latitude": "30.064774618092088",
      "longitude": "-89.9464051502583"
    }
  },
  {
    "service_request": "2023-980650",
    "request_type": "Trash/Recycling",
    "request_reason": "Order Recycling Cart",
    "date_created": "2023-03-06T16:10:02.000",
    "date_modified": "2023-03-06T16:10:03.000",
    "request_status": "Pending",
    "responsible_agency": "Department of Sanitation",
    "final_address": "7611 Expedition Dr",
    "address_councildis": "E",
    "status": "Pending",
    "rowid": "980650",
    "final_x": "3726021.87385",
    "final_y": "571377.821736",
    "longitude": "-89.9259425313077",
    "latitude": "30.063661842942327",
    "geocoded_column": {
      "latitude": "30.063661842942327",
      "longitude": "-89.9259425313077"
    }
  },
  {
    "service_request": "2023-980649",
    "request_type": "Trash/Recycling",
    "request_reason": "Order Trash Cart",
    "date_created": "2023-03-06T16:09:30.000",
    "date_modified": "2023-03-06T16:09:30.000",
    "request_status": "Pending",
    "responsible_agency": "Department of Sanitation",
    "final_address": "7611 Expedition Dr",
    "address_councildis": "E",
    "status": "Assigned to Contractor",
    "contractor": "Waste Pro",
    "rowid": "980649",
    "final_x": "3726021.87385",
    "final_y": "571377.821736",
    "longitude": "-89.9259425313077",
    "latitude": "30.063661842942327",
    "geocoded_column": {
      "latitude": "30.063661842942327",
      "longitude": "-89.9259425313077"
    }
  },
  {
    "service_request": "2023-980648",
    "request_type": "Roads/Drainage",
    "request_reason": "Alley Way",
    "date_created": "2023-03-06T16:09:22.000",
    "date_modified": "2023-03-06T16:09:22.000",
    "request_status": "Pending",
    "responsible_agency": "Department of Public Works",
    "final_address": "6712 Orleans Ave",
    "address_councildis": "A",
    "status": "Pending",
    "rowid": "980648",
    "final_x": "3671237.72161",
    "final_y": "552015.740246",
    "longitude": "-90.0997782526155",
    "latitude": "30.01215955701992",
    "geocoded_column": {
      "latitude": "30.01215955701992",
      "longitude": "-90.0997782526155"
    }
  },
  {
    "service_request": "2023-980647",
    "request_type": "Roads/Drainage",
    "request_reason": "Debris in Roadway",
    "date_created": "2023-03-06T16:07:26.000",
    "date_modified": "2023-03-06T16:07:26.000",
    "request_status": "Pending",
    "responsible_agency": "Department of Public Works",
    "final_address": "N ROMAN ST & PORT ST",
    "address_councildis": "D",
    "status": "Pending",
    "rowid": "980647",
    "final_x": "3688089.6",
    "final_y": "539014.88",
    "longitude": "-90.04699711562681",
    "latitude": "29.97590226919062",
    "geocoded_column": {
      "latitude": "29.97590226919062",
      "longitude": "-90.04699711562681"
    }
  },
  {
    "service_request": "2023-980646",
    "request_type": "Trash/Recycling",
    "request_reason": "Replace Trash Cart",
    "date_created": "2023-03-06T16:07:18.000",
    "date_modified": "2023-03-06T16:07:19.000",
    "request_status": "Pending",
    "responsible_agency": "Department of Sanitation",
    "final_address": "2504 Delachaise St",
    "address_councildis": "B",
    "status": "Assigned to Contractor",
    "contractor": "Richards Disposal",
    "rowid": "980646",
    "final_x": "3672495.06772",
    "final_y": "524388.00678",
    "longitude": "-90.09674775101395",
    "latitude": "29.936155380162383",
    "geocoded_column": {
      "latitude": "29.936155380162383",
      "longitude": "-90.09674775101395"
    }
  },
  {
    "service_request": "2023-980645",
    "request_type": "Traffic Signals/Signs/Striping/Streetlights",
    "request_reason": "Traffic Sign Missing/Damaged",
    "date_created": "2023-03-06T16:06:49.000",
    "date_modified": "2023-03-06T16:06:49.000",
    "request_status": "Pending",
    "responsible_agency": "Department of Public Works",
    "final_address": "221 N Alexander St",
    "address_councildis": "A",
    "status": "Pending",
    "rowid": "980645",
    "final_x": "3670311.76058",
    "final_y": "539701.24225",
    "longitude": "-90.10312149011716",
    "latitude": "29.978326322848872",
    "geocoded_column": {
      "latitude": "29.978326322848872",
      "longitude": "-90.10312149011716"
    }
  },
  {
    "service_request": "2023-980644",
    "request_type": "Trash/Recycling",
    "request_reason": "Request a Large Item Pick Up",
    "date_created": "2023-03-06T16:03:02.000",
    "date_modified": "2023-03-06T16:03:03.000",
    "request_status": "Pending",
    "responsible_agency": "Department of Sanitation",
    "final_address": "1429 General Ogden St",
    "address_councildis": "A",
    "status": "Assigned to Contractor",
    "contractor": "Richards Disposal",
    "rowid": "980644",
    "final_x": "3660535.81965",
    "final_y": "530954.481538",
    "longitude": "-90.1342867090966",
    "latitude": "29.95456056120541",
    "geocoded_column": {
      "latitude": "29.95456056120541",
      "longitude": "-90.1342867090966"
    }
  },
  {
    "service_request": "2023-980643",
    "request_type": "Trash/Recycling",
    "request_reason": "Request a Large Item Pick Up",
    "date_created": "2023-03-06T16:02:49.000",
    "date_modified": "2023-03-06T16:02:50.000",
    "request_status": "Pending",
    "responsible_agency": "Department of Sanitation",
    "final_address": "8700 Scottsdale Dr",
    "address_councildis": "E",
    "status": "Assigned to Contractor",
    "contractor": "Waste Pro",
    "rowid": "980643",
    "final_x": "3704868.3827",
    "final_y": "561704.081695",
    "longitude": "-89.99316723761072",
    "latitude": "30.037760356361723",
    "geocoded_column": {
      "latitude": "30.037760356361723",
      "longitude": "-89.99316723761072"
    }
  },
  {
    "service_request": "2023-980641",
    "request_type": "Trash/Recycling",
    "request_reason": "MIssed Recycling Pick-Up",
    "date_created": "2023-03-06T15:57:27.000",
    "date_modified": "2023-03-06T15:57:28.000",
    "request_status": "Pending",
    "responsible_agency": "Department of Sanitation",
    "final_address": "3435 Hyman Pl",
    "address_councildis": "C",
    "status": "Assigned to Contractor",
    "contractor": "Richards Disposal",
    "rowid": "980641",
    "final_x": "3700890.49162",
    "final_y": "518472.826294",
    "longitude": "-90.00731930078373",
    "latitude": "29.919017519493206",
    "geocoded_column": {
      "latitude": "29.919017519493206",
      "longitude": "-90.00731930078373"
    }
  },
  {
    "service_request": "2023-980640",
    "request_type": "Trash/Recycling",
    "request_reason": "Missed Trash Pick-Up",
    "date_created": "2023-03-06T15:55:47.000",
    "date_modified": "2023-03-06T15:55:48.000",
    "request_status": "Pending",
    "responsible_agency": "Department of Sanitation",
    "final_address": "8528 Panola St",
    "address_councildis": "A",
    "status": "Assigned to Contractor",
    "contractor": "Richards Disposal",
    "rowid": "980640",
    "final_x": "3662829.64173",
    "final_y": "531813.562371",
    "longitude": "-90.12701511949327",
    "latitude": "29.95685655469224",
    "geocoded_column": {
      "latitude": "29.95685655469224",
      "longitude": "-90.12701511949327"
    }
  },
  {
    "service_request": "2023-980637",
    "request_type": "Trash/Recycling",
    "request_reason": "Missed Trash Pick-Up",
    "date_created": "2023-03-06T15:54:33.000",
    "date_modified": "2023-03-06T15:54:34.000",
    "request_status": "Pending",
    "responsible_agency": "Department of Sanitation",
    "final_address": "8526 Panola St",
    "address_councildis": "A",
    "status": "Assigned to Contractor",
    "contractor": "Richards Disposal",
    "rowid": "980637",
    "final_x": "3662839.02042",
    "final_y": "531804.739011",
    "longitude": "-90.12698579774666",
    "latitude": "29.95683202181691",
    "geocoded_column": {
      "latitude": "29.95683202181691",
      "longitude": "-90.12698579774666"
    }
  },
  {
    "service_request": "2023-980636",
    "request_type": "Property Maintenance",
    "request_reason": "Property Maintenance",
    "date_created": "2023-03-06T15:54:09.000",
    "date_modified": "2023-03-06T15:54:10.000",
    "request_status": "Pending",
    "responsible_agency": "Department of Code Enforcement",
    "final_address": "1714 General Ogden St",
    "address_councildis": "A",
    "status": "Pending",
    "rowid": "980636",
    "final_x": "3661116.61165",
    "final_y": "531709.559555",
    "longitude": "-90.13242779623349",
    "latitude": "29.956620058065923",
    "geocoded_column": {
      "latitude": "29.956620058065923",
      "longitude": "-90.13242779623349"
    }
  },
  {
    "service_request": "2023-980634",
    "request_type": "Abandoned Vehicles",
    "request_reason": "Abandoned/Junk Vehicles",
    "date_created": "2023-03-06T15:51:40.000",
    "date_modified": "2023-03-06T15:51:41.000",
    "request_status": "Pending",
    "responsible_agency": "Department of Public Works",
    "final_address": "1712 General Ogden St",
    "address_councildis": "A",
    "status": "Pending",
    "rowid": "980634",
    "final_x": "3661105.08973",
    "final_y": "531697.853571",
    "longitude": "-90.13246456630175",
    "latitude": "29.956588202423923",
    "geocoded_column": {
      "latitude": "29.956588202423923",
      "longitude": "-90.13246456630175"
    }
  },
  {
    "service_request": "2023-980633",
    "request_type": "Traffic Signals/Signs/Striping/Streetlights",
    "request_reason": "Street Light Outage/Malfunction",
    "date_created": "2023-03-06T15:51:03.000",
    "date_modified": "2023-03-06T15:51:04.000",
    "request_status": "Pending",
    "responsible_agency": "Department of Public Works",
    "final_address": "4623 Metropolitan Dr",
    "address_councildis": "D",
    "status": "Assigned to Contractor",
    "contractor": "Legacy Professional Services",
    "rowid": "980633",
    "final_x": "3690758.19484",
    "final_y": "550734.076117",
    "longitude": "-90.03815059562498",
    "latitude": "30.008043178263232",
    "geocoded_column": {
      "latitude": "30.008043178263232",
      "longitude": "-90.03815059562498"
    }
  },
  {
    "service_request": "2023-980632",
    "request_type": "Trash/Recycling",
    "request_reason": "MIssed Recycling Pick-Up",
    "date_created": "2023-03-06T15:50:55.000",
    "date_modified": "2023-03-06T15:50:55.000",
    "request_status": "Pending",
    "responsible_agency": "Department of Sanitation",
    "final_address": "5818 E Louis Prima Dr",
    "address_councildis": "E",
    "status": "Assigned to Contractor",
    "contractor": "Waste Pro",
    "rowid": "980632",
    "final_x": "3715688.51653",
    "final_y": "562722.940768",
    "longitude": "-89.95893473783745",
    "latitude": "30.040209399888393",
    "geocoded_column": {
      "latitude": "30.040209399888393",
      "longitude": "-89.95893473783745"
    }
  },
  {
    "service_request": "2023-980630",
    "request_type": "Parks & Parkways",
    "request_reason": "Request Tree Service (Right of Way/Public Property)",
    "date_created": "2023-03-06T15:50:54.000",
    "date_modified": "2023-03-06T15:55:02.000",
    "case_close_date": "2023-03-06T09:55:02.000",
    "request_status": "Closed",
    "responsible_agency": "Department of Parks & Parkway",
    "final_address": "1516 Camp St",
    "address_councildis": "B",
    "status": "Duplicate Request",
    "rowid": "980630",
    "final_x": "3679806.64111",
    "final_y": "523760.020859",
    "longitude": "-90.07368670736403",
    "latitude": "29.93420963516469",
    "geocoded_column": {
      "latitude": "29.93420963516469",
      "longitude": "-90.07368670736403"
    }
  },
  {
    "service_request": "2023-980629",
    "request_type": "Abandoned Vehicles",
    "request_reason": "Abandoned/Junk Vehicles",
    "date_created": "2023-03-06T15:50:41.000",
    "date_modified": "2023-03-06T15:50:41.000",
    "request_status": "Pending",
    "responsible_agency": "Department of Public Works",
    "final_address": "S CLAIBORNE AVE & LEONIDAS ST",
    "address_councildis": "A",
    "status": "Pending",
    "rowid": "980629",
    "final_x": "3663485.8",
    "final_y": "532694.38",
    "longitude": "-90.12491383757029",
    "latitude": "29.959259505870826",
    "geocoded_column": {
      "latitude": "29.959259505870826",
      "longitude": "-90.12491383757029"
    }
  },
  {
    "service_request": "2023-980628",
    "request_type": "Traffic Signals/Signs/Striping/Streetlights",
    "request_reason": "Street Light Outage/Malfunction",
    "date_created": "2023-03-06T15:47:55.000",
    "date_modified": "2023-03-06T15:47:56.000",
    "request_status": "Pending",
    "responsible_agency": "Department of Public Works",
    "final_address": "4845 Metropolitan Dr",
    "address_councildis": "D",
    "status": "Assigned to Contractor",
    "contractor": "Legacy Professional Services",
    "rowid": "980628",
    "final_x": "3690673.76092",
    "final_y": "551210.534741",
    "longitude": "-90.03840033569315",
    "latitude": "30.009355887879764",
    "geocoded_column": {
      "latitude": "30.009355887879764",
      "longitude": "-90.03840033569315"
    }
  },
  {
    "service_request": "2023-980624",
    "request_type": "Trash/Recycling",
    "request_reason": "Request a Large Item Pick Up",
    "date_created": "2023-03-06T15:41:01.000",
    "date_modified": "2023-03-06T15:41:02.000",
    "request_status": "Pending",
    "responsible_agency": "Department of Sanitation",
    "final_address": "2402 Annette St",
    "address_councildis": "D",
    "status": "Assigned to Contractor",
    "contractor": "IV Waste",
    "rowid": "980624",
    "final_x": "3682647.75912",
    "final_y": "540977.630219",
    "longitude": "-90.06411532205",
    "latitude": "29.98146600337929",
    "geocoded_column": {
      "latitude": "29.98146600337929",
      "longitude": "-90.06411532205"
    }
  },
  {
    "service_request": "2023-980623",
    "request_type": "Trash/Recycling",
    "request_reason": "Replace Trash Cart",
    "date_created": "2023-03-06T15:33:56.000",
    "date_modified": "2023-03-06T15:35:20.000",
    "request_status": "Pending",
    "responsible_agency": "Department of Sanitation",
    "final_address": "2219 Rev. John Raphael, Jr. Way",
    "address_councildis": "B",
    "status": "Assigned to Contractor",
    "contractor": "Richards Disposal",
    "rowid": "980623",
    "final_x": "3675657.50817",
    "final_y": "525980.187837",
    "longitude": "-90.08670914031946",
    "latitude": "29.940439134120812",
    "geocoded_column": {
      "latitude": "29.940439134120812",
      "longitude": "-90.08670914031946"
    }
  },
  {
    "service_request": "2023-980622",
    "request_type": "Trash/Recycling",
    "request_reason": "Return Trash Cart",
    "date_created": "2023-03-06T15:31:42.000",
    "date_modified": "2023-03-06T15:31:43.000",
    "request_status": "Pending",
    "responsible_agency": "Department of Sanitation",
    "final_address": "926 Harding Dr",
    "address_councildis": "A",
    "status": "Assigned to Contractor",
    "contractor": "Richards Disposal",
    "rowid": "980622",
    "final_x": "3674410.09921",
    "final_y": "539926.161418",
    "longitude": "-90.0901697254339",
    "latitude": "29.97882314918236",
    "geocoded_column": {
      "latitude": "29.97882314918236",
      "longitude": "-90.0901697254339"
    }
  },
  {
    "service_request": "2023-980619",
    "request_type": "Parks & Parkways",
    "request_reason": "Request Tree Service (Right of Way/Public Property)",
    "date_created": "2023-03-06T15:29:50.000",
    "date_modified": "2023-03-06T15:29:50.000",
    "request_status": "Pending",
    "responsible_agency": "Department of Parks & Parkway",
    "final_address": "811 Sixth St",
    "address_councildis": "B",
    "status": "Pending",
    "rowid": "980619",
    "final_x": "3677196.33384",
    "final_y": "519735.298744",
    "longitude": "-90.08206611480388",
    "latitude": "29.92322160515462",
    "geocoded_column": {
      "latitude": "29.92322160515462",
      "longitude": "-90.08206611480388"
    }
  },
  {
    "service_request": "2023-980618",
    "request_type": "Trash/Recycling",
    "request_reason": "Return Trash Cart",
    "date_created": "2023-03-06T15:29:01.000",
    "date_modified": "2023-03-06T15:29:02.000",
    "request_status": "Pending",
    "responsible_agency": "Department of Sanitation",
    "final_address": "228 S Hennessey St",
    "address_councildis": "A",
    "status": "Assigned to Contractor",
    "contractor": "Richards Disposal",
    "rowid": "980618",
    "final_x": "3669896.87879",
    "final_y": "538375.697289",
    "longitude": "-90.10447673955322",
    "latitude": "29.974693763200456",
    "geocoded_column": {
      "latitude": "29.974693763200456",
      "longitude": "-90.10447673955322"
    }
  },
  {
    "service_request": "2023-980617",
    "request_type": "Trash/Recycling",
    "request_reason": "Missed Trash Pick-Up",
    "date_created": "2023-03-06T15:28:29.000",
    "date_modified": "2023-03-06T15:28:30.000",
    "request_status": "Pending",
    "responsible_agency": "Department of Sanitation",
    "final_address": "2546 Dumaine St",
    "address_councildis": "D",
    "status": "Assigned to Contractor",
    "contractor": "Richards Disposal",
    "rowid": "980617",
    "final_x": "3677631.4349",
    "final_y": "537108.97012",
    "longitude": "-90.08009284159667",
    "latitude": "29.97098034853283",
    "geocoded_column": {
      "latitude": "29.97098034853283",
      "longitude": "-90.08009284159667"
    }
  },
  {
    "service_request": "2023-980616",
    "request_type": "Trash/Recycling",
    "request_reason": "Missed Trash Pick-Up",
    "date_created": "2023-03-06T15:27:32.000",
    "date_modified": "2023-03-06T15:27:33.000",
    "request_status": "Pending",
    "responsible_agency": "Department of Sanitation",
    "final_address": "2546 Dumaine St",
    "address_councildis": "D",
    "status": "Assigned to Contractor",
    "contractor": "Richards Disposal",
    "rowid": "980616",
    "final_x": "3677631.4349",
    "final_y": "537108.97012",
    "longitude": "-90.08009284159667",
    "latitude": "29.97098034853283",
    "geocoded_column": {
      "latitude": "29.97098034853283",
      "longitude": "-90.08009284159667"
    }
  },
  {
    "service_request": "2023-980615",
    "request_type": "Trash/Recycling",
    "request_reason": "Replace Trash Cart",
    "date_created": "2023-03-06T15:24:31.000",
    "date_modified": "2023-03-06T15:24:32.000",
    "request_status": "Pending",
    "responsible_agency": "Department of Sanitation",
    "final_address": "926 Harding Dr",
    "address_councildis": "A",
    "status": "Assigned to Contractor",
    "contractor": "Richards Disposal",
    "rowid": "980615",
    "final_x": "3674410.09921",
    "final_y": "539926.161418",
    "longitude": "-90.0901697254339",
    "latitude": "29.97882314918236",
    "geocoded_column": {
      "latitude": "29.97882314918236",
      "longitude": "-90.0901697254339"
    }
  },
  {
    "service_request": "2023-980614",
    "request_type": "Trash/Recycling",
    "request_reason": "Missed Trash Pick-Up",
    "date_created": "2023-03-06T15:23:25.000",
    "date_modified": "2023-03-06T15:23:25.000",
    "request_status": "Pending",
    "responsible_agency": "Department of Sanitation",
    "final_address": "612 Moss St",
    "address_councildis": "A",
    "status": "Assigned to Contractor",
    "contractor": "Richards Disposal",
    "rowid": "980614",
    "final_x": "3674346.33147",
    "final_y": "538326.226953",
    "longitude": "-90.09042594106351",
    "latitude": "29.974425777838345",
    "geocoded_column": {
      "latitude": "29.974425777838345",
      "longitude": "-90.09042594106351"
    }
  },
  {
    "service_request": "2023-980613",
    "request_type": "Trash/Recycling",
    "request_reason": "Missed Trash Pick-Up",
    "date_created": "2023-03-06T15:21:11.000",
    "date_modified": "2023-03-06T15:21:12.000",
    "request_status": "Pending",
    "responsible_agency": "Department of Sanitation",
    "final_address": "2125 Bienville Ave",
    "address_councildis": "B",
    "status": "Assigned to Contractor",
    "contractor": "Richards Disposal",
    "rowid": "980613",
    "final_x": "3677594.92187",
    "final_y": "534467.585925",
    "longitude": "-90.0802993767018",
    "latitude": "29.963718539246827",
    "geocoded_column": {
      "latitude": "29.963718539246827",
      "longitude": "-90.0802993767018"
    }
  },
  {
    "service_request": "2023-980611",
    "request_type": "Traffic Signals/Signs/Striping/Streetlights",
    "request_reason": "Street Light Outage/Malfunction",
    "date_created": "2023-03-06T15:19:07.000",
    "date_modified": "2023-03-06T15:19:08.000",
    "request_status": "Pending",
    "responsible_agency": "Department of Public Works",
    "final_address": "5540 Grand Bayou Dr",
    "address_councildis": "E",
    "status": "Assigned to Contractor",
    "contractor": "Legacy Professional Services",
    "rowid": "980611",
    "final_x": "3725035.67795",
    "final_y": "564032.990241",
    "longitude": "-89.9293443967895",
    "latitude": "30.043499904694183",
    "geocoded_column": {
      "latitude": "30.043499904694183",
      "longitude": "-89.9293443967895"
    }
  },
  {
    "service_request": "2023-980610",
    "request_type": "Trash/Recycling",
    "request_reason": "Request a Large Item Pick Up",
    "date_created": "2023-03-06T15:18:58.000",
    "date_modified": "2023-03-06T15:18:59.000",
    "request_status": "Pending",
    "responsible_agency": "Department of Sanitation",
    "final_address": "11123 Winchester Park Dr",
    "address_councildis": "E",
    "status": "Assigned to Contractor",
    "contractor": "Waste Pro",
    "rowid": "980610",
    "final_x": "3714943.59717",
    "final_y": "561309.779614",
    "longitude": "-89.96134237144803",
    "latitude": "30.036348323046827",
    "geocoded_column": {
      "latitude": "30.036348323046827",
      "longitude": "-89.96134237144803"
    }
  },
  {
    "service_request": "2023-980609",
    "request_type": "Trash/Recycling",
    "request_reason": "Request a Large Item Pick Up",
    "date_created": "2023-03-06T15:16:55.000",
    "date_modified": "2023-03-06T15:16:56.000",
    "request_status": "Pending",
    "responsible_agency": "Department of Sanitation",
    "final_address": "5872 Catina St",
    "address_councildis": "A",
    "status": "Assigned to Contractor",
    "contractor": "IV Waste",
    "rowid": "980609",
    "final_x": "3666695.27463",
    "final_y": "547009.995345",
    "longitude": "-90.11429812312022",
    "latitude": "29.998529176112786",
    "geocoded_column": {
      "latitude": "29.998529176112786",
      "longitude": "-90.11429812312022"
    }
  },
  {
    "service_request": "2023-980608",
    "request_type": "Traffic Signals/Signs/Striping/Streetlights",
    "request_reason": "Street Light Outage/Malfunction",
    "date_created": "2023-03-06T15:15:39.000",
    "date_modified": "2023-03-06T15:15:40.000",
    "request_status": "Pending",
    "responsible_agency": "Department of Public Works",
    "final_address": "1601 Maura Pl",
    "address_councildis": "C",
    "status": "Assigned to Contractor",
    "contractor": "Legacy Professional Services",
    "rowid": "980608",
    "final_x": "3699193.27639",
    "final_y": "524947.367165",
    "longitude": "-90.01244091465475",
    "latitude": "29.936874176570875",
    "geocoded_column": {
      "latitude": "29.936874176570875",
      "longitude": "-90.01244091465475"
    }
  },
  {
    "service_request": "2023-980607",
    "request_type": "Trash/Recycling",
    "request_reason": "MIssed Recycling Pick-Up",
    "date_created": "2023-03-06T15:14:43.000",
    "date_modified": "2023-03-06T15:14:44.000",
    "request_status": "Pending",
    "responsible_agency": "Department of Sanitation",
    "final_address": "222 Bermuda St",
    "address_councildis": "C",
    "status": "Assigned to Contractor",
    "contractor": "Richards Disposal",
    "rowid": "980607",
    "final_x": "3686189.28252",
    "final_y": "530959.197314",
    "longitude": "-90.05328306967309",
    "latitude": "29.953810456675818",
    "geocoded_column": {
      "latitude": "29.953810456675818",
      "longitude": "-90.05328306967309"
    }
  },
  {
    "service_request": "2023-980606",
    "request_type": "Trash/Recycling",
    "request_reason": "Repair Trash Cart",
    "date_created": "2023-03-06T15:09:27.000",
    "date_modified": "2023-03-06T15:09:28.000",
    "request_status": "Pending",
    "responsible_agency": "Department of Sanitation",
    "final_address": "13 Assumption Pl",
    "address_councildis": "E",
    "status": "Assigned to Contractor",
    "contractor": "Waste Pro",
    "rowid": "980606",
    "final_x": "3726270.62957",
    "final_y": "564490.646369",
    "longitude": "-89.92542370952476",
    "latitude": "30.04471660437021",
    "geocoded_column": {
      "latitude": "30.04471660437021",
      "longitude": "-89.92542370952476"
    }
  },
  {
    "service_request": "2023-980605",
    "request_type": "Trash/Recycling",
    "request_reason": "Request a Large Item Pick Up",
    "date_created": "2023-03-06T15:07:48.000",
    "date_modified": "2023-03-06T15:07:49.000",
    "request_status": "Pending",
    "responsible_agency": "Department of Sanitation",
    "final_address": "6318 St Roch Ave",
    "address_councildis": "D",
    "status": "Assigned to Contractor",
    "contractor": "IV Waste",
    "rowid": "980605",
    "final_x": "3684735.78108",
    "final_y": "556448.228122",
    "longitude": "-90.05697610554044",
    "latitude": "30.023940804063226",
    "geocoded_column": {
      "latitude": "30.023940804063226",
      "longitude": "-90.05697610554044"
    }
  },
  {
    "service_request": "2023-980604",
    "request_type": "Abandoned Vehicles",
    "request_reason": "Abandoned/Junk Vehicles",
    "date_created": "2023-03-06T15:03:53.000",
    "date_modified": "2023-03-06T15:03:53.000",
    "request_status": "Pending",
    "responsible_agency": "Department of Public Works",
    "final_address": "712 Weiblen Pl",
    "address_councildis": "A",
    "status": "Pending",
    "rowid": "980604",
    "final_x": "3668275.89588",
    "final_y": "542536.346445",
    "longitude": "-90.10945586842351",
    "latitude": "29.986181843086264",
    "geocoded_column": {
      "latitude": "29.986181843086264",
      "longitude": "-90.10945586842351"
    }
  },
  {
    "service_request": "2023-980603",
    "request_type": "Trash/Recycling",
    "request_reason": "Missed Trash Pick-Up",
    "date_created": "2023-03-06T15:03:37.000",
    "date_modified": "2023-03-06T15:03:38.000",
    "request_status": "Pending",
    "responsible_agency": "Department of Sanitation",
    "final_address": "1008 Soniat St",
    "address_councildis": "B",
    "status": "Assigned to Contractor",
    "contractor": "Richards Disposal",
    "rowid": "980603",
    "final_x": "3668294.56782",
    "final_y": "519071.903671",
    "longitude": "-90.11018804439786",
    "latitude": "29.92166176771244",
    "geocoded_column": {
      "latitude": "29.92166176771244",
      "longitude": "-90.11018804439786"
    }
  },
  {
    "service_request": "2023-980602",
    "request_type": "Trash/Recycling",
    "request_reason": "Replace Trash Cart",
    "date_created": "2023-03-06T15:03:07.000",
    "date_modified": "2023-03-06T15:03:08.000",
    "request_status": "Pending",
    "responsible_agency": "Department of Sanitation",
    "final_address": "2631 N Rampart St",
    "address_councildis": "C",
    "status": "Assigned to Contractor",
    "contractor": "IV Waste",
    "rowid": "980602",
    "final_x": "3687280.91734",
    "final_y": "536000.055495",
    "longitude": "-90.04965783071319",
    "latitude": "29.96763749554285",
    "geocoded_column": {
      "latitude": "29.96763749554285",
      "longitude": "-90.04965783071319"
    }
  },
  {
    "service_request": "2023-980601",
    "request_type": "Traffic Signals/Signs/Striping/Streetlights",
    "request_reason": "Street Name Sign Damaged or Missing",
    "date_created": "2023-03-06T15:00:07.000",
    "date_modified": "2023-03-06T15:00:07.000",
    "request_status": "Pending",
    "responsible_agency": "Department of Public Works",
    "final_address": "601 Chartres St",
    "address_councildis": "C",
    "status": "Pending",
    "rowid": "980601",
    "final_x": "3682597.22933",
    "final_y": "531981.524227",
    "longitude": "-90.06458953360378",
    "latitude": "29.956731357279285",
    "geocoded_column": {
      "latitude": "29.956731357279285",
      "longitude": "-90.06458953360378"
    }
  },
  {
    "service_request": "2023-980600",
    "request_type": "Trash/Recycling",
    "request_reason": "Order Trash Cart",
    "date_created": "2023-03-06T14:58:09.000",
    "date_modified": "2023-03-06T14:58:10.000",
    "request_status": "Pending",
    "responsible_agency": "Department of Sanitation",
    "final_address": "1147 Governor Nicholls St",
    "address_councildis": "C",
    "status": "Assigned to Contractor",
    "contractor": "Richards Disposal",
    "rowid": "980600",
    "final_x": "3682237.15586",
    "final_y": "535114.449414",
    "longitude": "-90.06561707897829",
    "latitude": "29.9653567884289",
    "geocoded_column": {
      "latitude": "29.9653567884289",
      "longitude": "-90.06561707897829"
    }
  },
  {
    "service_request": "2023-980599",
    "request_type": "Abandoned Vehicles",
    "request_reason": "Abandoned/Junk Vehicles",
    "date_created": "2023-03-06T14:58:01.000",
    "date_modified": "2023-03-06T14:58:01.000",
    "request_status": "Pending",
    "responsible_agency": "Department of Public Works",
    "final_address": "4203 Annunciation St",
    "address_councildis": "B",
    "status": "Pending",
    "rowid": "980599",
    "final_x": "3671859.51463",
    "final_y": "517857.736886",
    "longitude": "-90.09897630315227",
    "latitude": "29.918218075990982",
    "geocoded_column": {
      "latitude": "29.918218075990982",
      "longitude": "-90.09897630315227"
    }
  },
  {
    "service_request": "2023-980598",
    "request_type": "Trash/Recycling",
    "request_reason": "Replace Recycling Cart",
    "date_created": "2023-03-06T14:57:41.000",
    "date_modified": "2023-03-06T14:57:42.000",
    "request_status": "Pending",
    "responsible_agency": "Department of Sanitation",
    "final_address": "435 Pelican Ave",
    "address_councildis": "C",
    "status": "Pending",
    "rowid": "980598",
    "final_x": "3686765.25782",
    "final_y": "530619.580994",
    "longitude": "-90.05147637861255",
    "latitude": "29.952858923241703",
    "geocoded_column": {
      "latitude": "29.952858923241703",
      "longitude": "-90.05147637861255"
    }
  },
  {
    "service_request": "2023-980597",
    "request_type": "Traffic Signals/Signs/Striping/Streetlights",
    "request_reason": "Street Name Sign Damaged or Missing",
    "date_created": "2023-03-06T14:56:26.000",
    "date_modified": "2023-03-06T14:56:27.000",
    "request_status": "Pending",
    "responsible_agency": "Department of Public Works",
    "final_address": "EUNICE DR & HAMMOND ST",
    "address_councildis": "E",
    "status": "Pending",
    "rowid": "980597",
    "final_x": "3710507.8",
    "final_y": "556193.18",
    "longitude": "-89.97555184305692",
    "latitude": "30.02242498857672",
    "geocoded_column": {
      "latitude": "30.02242498857672",
      "longitude": "-89.97555184305692"
    }
  },
  {
    "service_request": "2023-980596",
    "request_type": "Trash/Recycling",
    "request_reason": "Missed Trash Pick-Up",
    "date_created": "2023-03-06T14:54:14.000",
    "date_modified": "2023-03-06T15:21:31.000",
    "request_status": "Pending",
    "responsible_agency": "Department of Sanitation",
    "final_address": "3211 Bienville St, New Orleans, Louisiana, 70119",
    "address_councildis": "B",
    "status": "Assigned to Contractor",
    "rowid": "980596",
    "final_x": "3674288.68014",
    "final_y": "536993.857608",
    "longitude": "-90.09065365372902",
    "latitude": "29.97076393422216",
    "geocoded_column": {
      "latitude": "29.97076393422216",
      "longitude": "-90.09065365372902"
    }
  },
  {
    "service_request": "2023-980595",
    "request_type": "Trash/Recycling",
    "request_reason": "Request a Large Item Pick Up",
    "date_created": "2023-03-06T14:50:13.000",
    "date_modified": "2023-03-06T15:01:28.000",
    "case_close_date": "2023-03-06T09:01:28.000",
    "request_status": "Closed",
    "responsible_agency": "Department of Sanitation",
    "final_address": "6118 Perlita St",
    "address_councildis": "D",
    "status": "Assigned to Contractor",
    "contractor": "IV Waste",
    "contractor_action": "Completed",
    "rowid": "980595",
    "final_x": "3678193.00302",
    "final_y": "555051.102425",
    "longitude": "-90.07769840510363",
    "latitude": "30.02029798788809",
    "geocoded_column": {
      "latitude": "30.02029798788809",
      "longitude": "-90.07769840510363"
    }
  },
  {
    "service_request": "2023-980594",
    "request_type": "Trash/Recycling",
    "request_reason": "Request a Large Item Pick Up",
    "date_created": "2023-03-06T14:49:10.000",
    "date_modified": "2023-03-06T14:49:11.000",
    "request_status": "Pending",
    "responsible_agency": "Department of Sanitation",
    "final_address": "1917 Audubon St",
    "address_councildis": "A",
    "status": "Assigned to Contractor",
    "contractor": "Richards Disposal",
    "rowid": "980594",
    "final_x": "3665893.88397",
    "final_y": "528467.527232",
    "longitude": "-90.1174512913647",
    "latitude": "29.947566986291942",
    "geocoded_column": {
      "latitude": "29.947566986291942",
      "longitude": "-90.1174512913647"
    }
  },
  {
    "service_request": "2023-980593",
    "request_type": "Trash/Recycling",
    "request_reason": "Replace Trash Cart",
    "date_created": "2023-03-06T14:48:41.000",
    "date_modified": "2023-03-06T14:48:41.000",
    "request_status": "Pending",
    "responsible_agency": "Department of Sanitation",
    "final_address": "1919 Pine St",
    "address_councildis": "A",
    "status": "Assigned to Contractor",
    "contractor": "Richards Disposal",
    "rowid": "980593",
    "final_x": "3665455.28532",
    "final_y": "528801.336192",
    "longitude": "-90.11882495231607",
    "latitude": "29.94849764299678",
    "geocoded_column": {
      "latitude": "29.94849764299678",
      "longitude": "-90.11882495231607"
    }
  },
  {
    "service_request": "2023-980592",
    "request_type": "Roads/Drainage",
    "request_reason": "Street Flooding / Drainage",
    "date_created": "2023-03-06T14:46:22.000",
    "date_modified": "2023-03-06T14:46:22.000",
    "request_status": "Pending",
    "responsible_agency": "Department of Public Works",
    "final_address": "1312 Fourth St",
    "address_councildis": "B",
    "status": "Pending",
    "rowid": "980592",
    "final_x": "3676798.07061",
    "final_y": "521688.551033",
    "longitude": "-90.08325601535799",
    "latitude": "29.928604368207992",
    "geocoded_column": {
      "latitude": "29.928604368207992",
      "longitude": "-90.08325601535799"
    }
  },
  {
    "service_request": "2023-980591",
    "request_type": "Trash/Recycling",
    "request_reason": "Replace Trash Cart",
    "date_created": "2023-03-06T14:45:00.000",
    "date_modified": "2023-03-06T14:45:00.000",
    "request_status": "Pending",
    "responsible_agency": "Department of Sanitation",
    "final_address": "49 Winners Cir",
    "address_councildis": "E",
    "status": "Assigned to Contractor",
    "contractor": "Waste Pro",
    "rowid": "980591",
    "final_x": "3715888.69285",
    "final_y": "570252.245671",
    "longitude": "-89.9580165201457",
    "latitude": "30.06090530240643",
    "geocoded_column": {
      "latitude": "30.06090530240643",
      "longitude": "-89.9580165201457"
    }
  },
  {
    "service_request": "2023-980590",
    "request_type": "Trash/Recycling",
    "request_reason": "Missed Trash Pick-Up",
    "date_created": "2023-03-06T14:43:19.000",
    "date_modified": "2023-03-06T14:43:20.000",
    "request_status": "Pending",
    "responsible_agency": "Department of Sanitation",
    "final_address": "49 Winners Cir",
    "address_councildis": "E",
    "status": "Assigned to Contractor",
    "contractor": "Waste Pro",
    "rowid": "980590",
    "final_x": "3715888.69285",
    "final_y": "570252.245671",
    "longitude": "-89.9580165201457",
    "latitude": "30.06090530240643",
    "geocoded_column": {
      "latitude": "30.06090530240643",
      "longitude": "-89.9580165201457"
    }
  },
  {
    "service_request": "2023-980589",
    "request_type": "Traffic Signals/Signs/Striping/Streetlights",
    "request_reason": "Street Light Outage/Malfunction",
    "date_created": "2023-03-06T14:43:08.000",
    "date_modified": "2023-03-06T14:43:09.000",
    "request_status": "Pending",
    "responsible_agency": "Department of Public Works",
    "final_address": "5024 Read Blvd",
    "address_councildis": "E",
    "status": "Assigned to Contractor",
    "contractor": "Legacy Professional Services",
    "rowid": "980589",
    "final_x": "3712524.00306",
    "final_y": "557604.286747",
    "longitude": "-89.96912810970466",
    "latitude": "30.026239129239833",
    "geocoded_column": {
      "latitude": "30.026239129239833",
      "longitude": "-89.96912810970466"
    }
  },
  {
    "service_request": "2023-980588",
    "request_type": "Roads/Drainage",
    "request_reason": "Pothole",
    "date_created": "2023-03-06T14:42:29.000",
    "date_modified": "2023-03-06T14:42:29.000",
    "request_status": "Pending",
    "responsible_agency": "Department of Public Works",
    "final_address": "6360 Orleans Ave",
    "address_councildis": "A",
    "status": "Pending",
    "rowid": "980588",
    "final_x": "3671048.25761",
    "final_y": "549553.112275",
    "longitude": "-90.10046056791519",
    "latitude": "30.005393804103146",
    "geocoded_column": {
      "latitude": "30.005393804103146",
      "longitude": "-90.10046056791519"
    }
  },
  {
    "service_request": "2023-980587",
    "request_type": "Property Maintenance",
    "request_reason": "Property Maintenance",
    "date_created": "2023-03-06T14:42:21.000",
    "date_modified": "2023-03-06T14:42:22.000",
    "request_status": "Pending",
    "responsible_agency": "Department of Code Enforcement",
    "final_address": "4234 Alfred St",
    "address_councildis": "D",
    "status": "Pending",
    "rowid": "980587",
    "final_x": "3677557.75355",
    "final_y": "547875.939922",
    "longitude": "-90.07995358911155",
    "latitude": "30.000587986176445",
    "geocoded_column": {
      "latitude": "30.000587986176445",
      "longitude": "-90.07995358911155"
    }
  },
  {
    "service_request": "2023-980586",
    "request_type": "Property Maintenance",
    "request_reason": "Property Maintenance",
    "date_created": "2023-03-06T14:41:09.000",
    "date_modified": "2023-03-06T14:41:10.000",
    "request_status": "Pending",
    "responsible_agency": "Department of Code Enforcement",
    "final_address": "1322 Mandolin St",
    "address_councildis": "D",
    "status": "Pending",
    "rowid": "980586",
    "final_x": "3677420.94869",
    "final_y": "547951.48245",
    "longitude": "-90.0803831555901",
    "latitude": "30.000799815373316",
    "geocoded_column": {
      "latitude": "30.000799815373316",
      "longitude": "-90.0803831555901"
    }
  },
  {
    "service_request": "2023-980585",
    "request_type": "Trash/Recycling",
    "request_reason": "Illegal Dumping",
    "date_created": "2023-03-06T14:39:15.000",
    "date_modified": "2023-03-06T14:39:16.000",
    "request_status": "Pending",
    "responsible_agency": "Department of Code Enforcement",
    "final_address": "7952 Chef Menteur Hwy",
    "address_councildis": "E",
    "status": "Pending",
    "rowid": "980585",
    "final_x": "3704990.67249",
    "final_y": "552734.212822",
    "longitude": "-89.99311233184498",
    "latitude": "30.013092765926437",
    "geocoded_column": {
      "latitude": "30.013092765926437",
      "longitude": "-89.99311233184498"
    }
  },
  {
    "service_request": "2023-980584",
    "request_type": "Traffic Signals/Signs/Striping/Streetlights",
    "request_reason": "Street Light Outage/Malfunction",
    "date_created": "2023-03-06T14:38:40.000",
    "date_modified": "2023-03-06T14:38:41.000",
    "request_status": "Pending",
    "responsible_agency": "Department of Public Works",
    "final_address": "2021 Royal St",
    "address_councildis": "C",
    "status": "Assigned to Contractor",
    "contractor": "Legacy Professional Services",
    "rowid": "980584",
    "final_x": "3684527.59791",
    "final_y": "534848.98311",
    "longitude": "-90.05839331258237",
    "latitude": "29.964556970942553",
    "geocoded_column": {
      "latitude": "29.964556970942553",
      "longitude": "-90.05839331258237"
    }
  },
  {
    "service_request": "2023-980583",
    "request_type": "Traffic Signals/Signs/Striping/Streetlights",
    "request_reason": "Street Light Outage/Malfunction",
    "date_created": "2023-03-06T14:37:52.000",
    "date_modified": "2023-03-06T14:37:53.000",
    "request_status": "Pending",
    "responsible_agency": "Department of Public Works",
    "final_address": "7723 Hampson St",
    "address_councildis": "A",
    "status": "Assigned to Contractor",
    "contractor": "Legacy Professional Services",
    "rowid": "980583",
    "final_x": "3661761.25645",
    "final_y": "526266.050494",
    "longitude": "-90.1305726339203",
    "latitude": "29.941633559925393",
    "geocoded_column": {
      "latitude": "29.941633559925393",
      "longitude": "-90.1305726339203"
    }
  },
  {
    "service_request": "2023-980582",
    "request_type": "Trash/Recycling",
    "request_reason": "Order Recycling Cart",
    "date_created": "2023-03-06T14:34:17.000",
    "date_modified": "2023-03-06T14:34:17.000",
    "request_status": "Pending",
    "responsible_agency": "Department of Sanitation",
    "final_address": "6476 Louis Xiv St",
    "address_councildis": "A",
    "status": "Pending",
    "rowid": "980582",
    "final_x": "3668288.9033",
    "final_y": "550696.51426",
    "longitude": "-90.10913940963053",
    "latitude": "30.00861910716575",
    "geocoded_column": {
      "latitude": "30.00861910716575",
      "longitude": "-90.10913940963053"
    }
  },
  {
    "service_request": "2023-980581",
    "request_type": "Trash/Recycling",
    "request_reason": "Order Recycling Cart",
    "date_created": "2023-03-06T14:27:23.000",
    "date_modified": "2023-03-06T14:27:24.000",
    "request_status": "Pending",
    "responsible_agency": "Department of Sanitation",
    "final_address": "16 Rosedown Ct",
    "address_councildis": "C",
    "status": "Pending",
    "rowid": "980581",
    "final_x": "3720761.82246",
    "final_y": "510756.839407",
    "longitude": "-89.94489166383273",
    "latitude": "29.897154037747146",
    "geocoded_column": {
      "latitude": "29.897154037747146",
      "longitude": "-89.94489166383273"
    }
  },
  {
    "service_request": "2023-980580",
    "request_type": "Safety & Permits",
    "request_reason": "Safety & Permits Request (Cyber Incident Back Up)",
    "date_created": "2023-03-06T14:27:14.000",
    "date_modified": "2023-03-06T14:27:14.000",
    "request_status": "Pending",
    "responsible_agency": "Safety and Permits",
    "final_address": "6249 Canal Blvd",
    "address_councildis": "A",
    "status": "Pending",
    "rowid": "980580",
    "final_x": "3668800.89498",
    "final_y": "549093.002515",
    "longitude": "-90.10757605162142",
    "latitude": "30.004194959285186",
    "geocoded_column": {
      "latitude": "30.004194959285186",
      "longitude": "-90.10757605162142"
    }
  },
  {
    "service_request": "2023-980579",
    "request_type": "Trash/Recycling",
    "request_reason": "Repair Trash Cart",
    "date_created": "2023-03-06T14:26:45.000",
    "date_modified": "2023-03-06T14:27:55.000",
    "request_status": "Pending",
    "responsible_agency": "Department of Sanitation",
    "final_address": "4 English Turn Dr",
    "address_councildis": "C",
    "status": "Assigned to Contractor",
    "contractor": "Richards Disposal",
    "rowid": "980579",
    "final_x": "3718854.56172",
    "final_y": "514843.284659",
    "longitude": "-89.9507549088151",
    "latitude": "29.908453729860483",
    "geocoded_column": {
      "latitude": "29.908453729860483",
      "longitude": "-89.9507549088151"
    }
  },
  {
    "service_request": "2023-980578",
    "request_type": "Trash/Recycling",
    "request_reason": "Replace Trash Cart",
    "date_created": "2023-03-06T14:25:31.000",
    "date_modified": "2023-03-06T14:25:32.000",
    "request_status": "Pending",
    "responsible_agency": "Department of Sanitation",
    "final_address": "1330 Egania St",
    "address_councildis": "E",
    "status": "Assigned to Contractor",
    "contractor": "Waste Pro",
    "rowid": "980578",
    "final_x": "3697022.10045",
    "final_y": "535052.801734",
    "longitude": "-90.01892942364589",
    "latitude": "29.964729220930135",
    "geocoded_column": {
      "latitude": "29.964729220930135",
      "longitude": "-90.01892942364589"
    }
  },
  {
    "service_request": "2023-980577",
    "request_type": "Parks & Parkways",
    "request_reason": "Request Tree Service (Right of Way/Public Property)",
    "date_created": "2023-03-06T14:24:45.000",
    "date_modified": "2023-03-06T15:18:16.000",
    "case_close_date": "2023-03-06T09:18:16.000",
    "request_status": "Closed",
    "responsible_agency": "Department of Parks & Parkway",
    "final_address": "701 Elysian Fields Ave",
    "address_councildis": "C",
    "status": "Resolved",
    "rowid": "980577",
    "final_x": "3685201.74914",
    "final_y": "534915.785926",
    "longitude": "-90.05626204515983",
    "latitude": "29.96472001300901",
    "geocoded_column": {
      "latitude": "29.96472001300901",
      "longitude": "-90.05626204515983"
    }
  },
  {
    "service_request": "2023-980576",
    "request_type": "Trash/Recycling",
    "request_reason": "MIssed Recycling Pick-Up",
    "date_created": "2023-03-06T14:24:35.000",
    "date_modified": "2023-03-06T14:24:36.000",
    "request_status": "Pending",
    "responsible_agency": "Department of Sanitation",
    "final_address": "6600 Brunswick Ct",
    "address_councildis": "C",
    "status": "Assigned to Contractor",
    "contractor": "Richards Disposal",
    "rowid": "980576",
    "final_x": "3708281.60344",
    "final_y": "516986.576757",
    "longitude": "-89.98404481393781",
    "latitude": "29.914693594101156",
    "geocoded_column": {
      "latitude": "29.914693594101156",
      "longitude": "-89.98404481393781"
    }
  },
  {
    "service_request": "2023-980574",
    "request_type": "Trash/Recycling",
    "request_reason": "Order Trash Cart",
    "date_created": "2023-03-06T14:23:01.000",
    "date_modified": "2023-03-06T14:23:02.000",
    "request_status": "Pending",
    "responsible_agency": "Department of Sanitation",
    "final_address": "2501 Urquhart St",
    "address_councildis": "C",
    "status": "Assigned to Contractor",
    "contractor": "IV Waste",
    "rowid": "980574",
    "final_x": "3687188.68137",
    "final_y": "537268.328392",
    "longitude": "-90.04990425174077",
    "latitude": "29.971127643955974",
    "geocoded_column": {
      "latitude": "29.971127643955974",
      "longitude": "-90.04990425174077"
    }
  },
  {
    "service_request": "2023-980573",
    "request_type": "Roads/Drainage",
    "request_reason": "Pothole",
    "date_created": "2023-03-06T14:14:18.000",
    "date_modified": "2023-03-06T14:14:18.000",
    "request_status": "Pending",
    "responsible_agency": "Department of Public Works",
    "final_address": "MEMPHIS ST & VIRGINIA CT",
    "address_councildis": "A",
    "status": "Pending",
    "rowid": "980573",
    "final_x": "3668666.4",
    "final_y": "542314.18",
    "longitude": "-90.1082299166784",
    "latitude": "29.985559486453997",
    "geocoded_column": {
      "latitude": "29.985559486453997",
      "longitude": "-90.1082299166784"
    }
  },
  {
    "service_request": "2023-980572",
    "request_type": "Roads/Drainage",
    "request_reason": "Catch Basin - Broken/Damage",
    "date_created": "2023-03-06T14:13:26.000",
    "date_modified": "2023-03-06T14:13:26.000",
    "request_status": "Pending",
    "responsible_agency": "Department of Public Works",
    "final_address": "5738 Pasteur Blvd",
    "address_councildis": "D",
    "status": "Pending",
    "rowid": "980572",
    "final_x": "3682687.83445",
    "final_y": "554263.463768",
    "longitude": "-90.06352371817202",
    "latitude": "30.017996069990858",
    "geocoded_column": {
      "latitude": "30.017996069990858",
      "longitude": "-90.06352371817202"
    }
  },