[
  {
    "service_request": "2023-1030207",
    "request_type": "Traffic Signals/Signs/Striping/Streetlights",
    "request_reason": "Traffic Signal Malfunctioning/Damaged",
    "date_created": "2023-08-29T00:43:36.000",
    "date_modified": "2023-08-29T00:43:36.000",
    "request_status": "Pending",
    "responsible_agency": "Department of Public Works",
    "final_address": "2139 St Charles Ave",
    "address_councildis": "B",
    "status": "Pending",
    "rowid": "1030207",
    "final_x": "3677621.90754",
    "final_y": "523797.543291",
    "longitude": "-90.08058254632918",
    "latitude": "29.934378668248424",
    "geocoded_column": {
      "latitude": "29.934378668248424",
      "longitude": "-90.08058254632918"
    }
  },
  {
    "service_request": "2023-1030206",
    "request_type": "Traffic Signals/Signs/Striping/Streetlights",
    "request_reason": "Street Light Outage/Malfunction",
    "date_created": "2023-08-29T00:09:04.000",
    "date_modified": "2023-08-29T00:09:05.000",
    "request_status": "Pending",
    "responsible_agency": "Department of Public Works",
    "final_address": "1590 Calhoun St",
    "address_councildis": "A",
    "status": "Assigned to Contractor",
    "contractor": "Legacy Professional Services",
    "rowid": "1030206",
    "final_x": "3664818.82324",
    "final_y": "523010.052923",
    "longitude": "-90.12102799997402",
    "latitude": "29.932592000057483",
    "geocoded_column": {
      "latitude": "29.932592000057483",
      "longitude": "-90.12102799997402"
    }
  },
  {
    "service_request": "2023-1030204",
    "request_type": "Abandoned Vehicles",
    "request_reason": "Abandoned/Junk Vehicles",
    "date_created": "2023-08-28T22:26:33.000",
    "date_modified": "2023-08-28T22:26:33.000",
    "request_status": "Pending",
    "responsible_agency": "Department of Public Works",
    "final_address": "2010 Second St",
    "address_councildis": "B",
    "status": "Pending",
    "rowid": "1030204",
    "final_x": "3675819.79374",
    "final_y": "524310.139516",
    "longitude": "-90.0862541624071",
    "latitude": "29.9358421929424",
    "geocoded_column": {
      "latitude": "29.9358421929424",
      "longitude": "-90.0862541624071"
    }
  },
  {
    "service_request": "2023-1030203",
    "request_type": "Safety & Permits",
    "request_reason": "Licenses & Permits",
    "date_created": "2023-08-28T22:18:51.000",
    "date_modified": "2023-08-28T22:18:51.000",
    "request_status": "Pending",
    "responsible_agency": "Safety and Permits",
    "final_address": "2123 Iberville St",
    "address_councildis": "B",
    "status": "Pending",
    "rowid": "1030203",
    "final_x": "3677373.39029",
    "final_y": "534162.606405",
    "longitude": "-90.08100947764704",
    "latitude": "29.962886608206436",
    "geocoded_column": {
      "latitude": "29.962886608206436",
      "longitude": "-90.08100947764704"
    }
  },
  {
    "service_request": "2023-1030202",
    "request_type": "Roads/Drainage",
    "request_reason": "Street Subsidence (Sinking)",
    "date_created": "2023-08-28T21:58:32.000",
    "date_modified": "2023-08-28T21:58:32.000",
    "request_status": "Pending",
    "responsible_agency": "Department of Public Works",
    "final_address": "3311 Palmyra St",
    "address_councildis": "B",
    "status": "Pending",
    "rowid": "1030202",
    "final_x": "3673064.85217",
    "final_y": "535949.439111",
    "longitude": "-90.09455431959005",
    "latitude": "29.9679285741509",
    "geocoded_column": {
      "latitude": "29.9679285741509",
      "longitude": "-90.09455431959005"
    }
  },
  {
    "service_request": "2023-1030201",
    "request_type": "Roads/Drainage",
    "request_reason": "Pothole",
    "date_created": "2023-08-28T20:56:46.000",
    "date_modified": "2023-08-28T20:56:46.000",
    "request_status": "Pending",
    "responsible_agency": "Department of Public Works",
    "final_address": "1200 BLK Exposition Blvd",
    "address_councildis": "A",
    "status": "Pending",
    "rowid": "1030201",
    "final_x": "3663771.10484",
    "final_y": "521261.715794",
    "longitude": "-90.12439380645745",
    "latitude": "29.92781506230865",
    "geocoded_column": {
      "latitude": "29.92781506230865",
      "longitude": "-90.12439380645745"
    }
  },
  {
    "service_request": "2023-1030200",
    "request_type": "Traffic Signals/Signs/Striping/Streetlights",
    "request_reason": "Street Light Outage/Malfunction",
    "date_created": "2023-08-28T20:48:46.000",
    "date_modified": "2023-08-28T20:48:46.000",
    "request_status": "Pending",
    "responsible_agency": "Department of Public Works",
    "final_address": "5726 St Charles Ave",
    "address_councildis": "A",
    "status": "Assigned to Contractor",
    "contractor": "Legacy Professional Services",
    "rowid": "1030200",
    "final_x": "3666288.55757",
    "final_y": "522017.200314",
    "longitude": "-90.1164214428881",
    "latitude": "29.929819131740146",
    "geocoded_column": {
      "latitude": "29.929819131740146",
      "longitude": "-90.1164214428881"
    }
  },
  {
    "service_request": "2023-1030199",
    "request_type": "Trash/Recycling",
    "request_reason": "Request a Large Item Pick Up",
    "date_created": "2023-08-28T20:45:18.000",
    "date_modified": "2023-08-28T20:45:19.000",
    "request_status": "Pending",
    "responsible_agency": "Department of Sanitation",
    "final_address": "7910 Plum St, New Orleans, Louisiana, 70118",
    "address_councildis": "A",
    "status": "Assigned to Contractor",
    "contractor": "Richards Disposal",
    "rowid": "1030199",
    "final_x": "3662686.40915",
    "final_y": "528146.935487",
    "longitude": "-90.12758923835077",
    "latitude": "29.946778658062975",
    "geocoded_column": {
      "latitude": "29.946778658062975",
      "longitude": "-90.12758923835077"
    }
  },
  {
    "service_request": "2023-1030198",
    "request_type": "Property Maintenance",
    "request_reason": "Property Maintenance",
    "date_created": "2023-08-28T20:38:15.000",
    "date_modified": "2023-08-28T20:38:15.000",
    "request_status": "Pending",
    "responsible_agency": "Department of Code Enforcement",
    "final_address": "3427 Urquhart St",
    "address_councildis": "C",
    "status": "Pending",
    "rowid": "1030198",
    "final_x": "3690578.52368",
    "final_y": "536418.951239",
    "longitude": "-90.03922900615072",
    "latitude": "29.96868731949666",
    "geocoded_column": {
      "latitude": "29.96868731949666",
      "longitude": "-90.03922900615072"
    }
  },
  {
    "service_request": "2023-1030197",
    "request_type": "Property Maintenance",
    "request_reason": "Property Maintenance",
    "date_created": "2023-08-28T20:34:29.000",
    "date_modified": "2023-08-28T20:34:29.000",
    "request_status": "Pending",
    "responsible_agency": "Department of Code Enforcement",
    "final_address": "1331 Marigny St",
    "address_councildis": "C",
    "status": "Pending",
    "rowid": "1030197",
    "final_x": "3685386.42818",
    "final_y": "537324.926472",
    "longitude": "-90.0555940059566",
    "latitude": "29.9713386520975",
    "geocoded_column": {
      "latitude": "29.9713386520975",
      "longitude": "-90.0555940059566"
    }
  },
  {
    "service_request": "2023-1030196",
    "request_type": "Roads/Drainage",
    "request_reason": "Pothole",
    "date_created": "2023-08-28T20:24:58.000",
    "date_modified": "2023-08-28T20:24:58.000",
    "request_status": "Pending",
    "responsible_agency": "Department of Public Works",
    "final_address": "5823 Perrier St",
    "address_councildis": "A",
    "status": "Pending",
    "rowid": "1030196",
    "final_x": "3665601.07367",
    "final_y": "520421.208184",
    "longitude": "-90.11864512991228",
    "latitude": "29.92545071542357",
    "geocoded_column": {
      "latitude": "29.92545071542357",
      "longitude": "-90.11864512991228"
    }
  },
  {
    "service_request": "2023-1030195",
    "request_type": "Traffic Signals/Signs/Striping/Streetlights",
    "request_reason": "Street Light Outage/Malfunction",
    "date_created": "2023-08-28T20:18:12.000",
    "date_modified": "2023-08-28T20:18:13.000",
    "request_status": "Pending",
    "responsible_agency": "Department of Public Works",
    "final_address": "2538 DAbadie St",
    "address_councildis": "D",
    "status": "Assigned to Contractor",
    "contractor": "Legacy Professional Services",
    "rowid": "1030195",
    "final_x": "3679690.68002",
    "final_y": "540588.856907",
    "longitude": "-90.0734686433955",
    "latitude": "29.98048674485679",
    "geocoded_column": {
      "latitude": "29.98048674485679",
      "longitude": "-90.0734686433955"
    }
  },
  {
    "service_request": "2023-1030194",
    "request_type": "Roads/Drainage",
    "request_reason": "Pothole",
    "date_created": "2023-08-28T20:09:26.000",
    "date_modified": "2023-08-28T20:09:26.000",
    "request_status": "Pending",
    "responsible_agency": "Department of Public Works",
    "final_address": "6216 Camp St",
    "address_councildis": "A",
    "status": "Pending",
    "rowid": "1030194",
    "final_x": "3663748.11187",
    "final_y": "519930.497272",
    "longitude": "-90.12451072353035",
    "latitude": "29.92415529590064",
    "geocoded_column": {
      "latitude": "29.92415529590064",
      "longitude": "-90.12451072353035"
    }
  },
  {
    "service_request": "2023-1030193",
    "request_type": "Traffic Signals/Signs/Striping/Streetlights",
    "request_reason": "Street Light Outage/Malfunction",
    "date_created": "2023-08-28T20:05:29.000",
    "date_modified": "2023-08-28T20:05:29.000",
    "request_status": "Pending",
    "responsible_agency": "Department of Public Works",
    "final_address": "3500 Wall Blvd",
    "address_councildis": "C",
    "status": "Assigned to Contractor",
    "contractor": "Legacy Professional Services",
    "rowid": "1030193",
    "final_x": "3696997.98179",
    "final_y": "523893.496636",
    "longitude": "-90.01940968485056",
    "latitude": "29.93404579846133",
    "geocoded_column": {
      "latitude": "29.93404579846133",
      "longitude": "-90.01940968485056"
    }
  },
  {
    "service_request": "2023-1030192",
    "request_type": "Trash/Recycling",
    "request_reason": "Replace Trash Cart",
    "date_created": "2023-08-28T19:57:58.000",
    "date_modified": "2023-08-28T19:57:58.000",
    "request_status": "Pending",
    "responsible_agency": "Department of Sanitation",
    "final_address": "6030 Coliseum St",
    "address_councildis": "A",
    "status": "Assigned to Contractor",
    "contractor": "Richards Disposal",
    "rowid": "1030192",
    "final_x": "3664743.47194",
    "final_y": "520238.86124",
    "longitude": "-90.12135841230429",
    "latitude": "29.924974288917436",
    "geocoded_column": {
      "latitude": "29.924974288917436",
      "longitude": "-90.12135841230429"
    }
  },
  {
    "service_request": "2023-1030191",
    "request_type": "Trash/Recycling",
    "request_reason": "Replace Trash Cart",
    "date_created": "2023-08-28T19:53:49.000",
    "date_modified": "2023-08-28T19:53:49.000",
    "request_status": "Pending",
    "responsible_agency": "Department of Sanitation",
    "final_address": "5534 Fontainebleau Dr",
    "address_councildis": "A",
    "status": "Assigned to Contractor",
    "contractor": "Richards Disposal",
    "rowid": "1030191",
    "final_x": "3668613.36378",
    "final_y": "529685.652033",
    "longitude": "-90.10882370690327",
    "latitude": "29.950836804578714",
    "geocoded_column": {
      "latitude": "29.950836804578714",
      "longitude": "-90.10882370690327"
    }
  },
  {
    "service_request": "2023-1030190",
    "request_type": "Trash/Recycling",
    "request_reason": "Missed Trash Pick-Up",
    "date_created": "2023-08-28T19:41:23.000",
    "date_modified": "2023-08-28T19:41:23.000",
    "request_status": "Pending",
    "responsible_agency": "Department of Sanitation",
    "final_address": "809 N Rocheblave St",
    "address_councildis": "D",
    "status": "Assigned to Contractor",
    "contractor": "Richards Disposal",
    "rowid": "1030190",
    "final_x": "3677765.29634",
    "final_y": "536713.153927",
    "longitude": "-90.07968376611245",
    "latitude": "29.969887962881344",
    "geocoded_column": {
      "latitude": "29.969887962881344",
      "longitude": "-90.07968376611245"
    }
  },
  {
    "service_request": "2023-1030188",
    "request_type": "Trash/Recycling",
    "request_reason": "Replace Recycling Cart",
    "date_created": "2023-08-28T19:24:04.000",
    "date_modified": "2023-08-28T19:24:04.000",
    "request_status": "Pending",
    "responsible_agency": "Department of Sanitation",
    "final_address": "607 Barracks St",
    "address_councildis": "C",
    "status": "Pending",
    "rowid": "1030188",
    "final_x": "3684128.05628",
    "final_y": "534037.797061",
    "longitude": "-90.05968350783063",
    "latitude": "29.96233870640495",
    "geocoded_column": {
      "latitude": "29.96233870640495",
      "longitude": "-90.05968350783063"
    }
  },
  {
    "service_request": "2023-1030187",
    "request_type": "Trash/Recycling",
    "request_reason": "Request a Large Item Pick Up",
    "date_created": "2023-08-28T19:06:38.000",
    "date_modified": "2023-08-28T19:06:39.000",
    "request_status": "Pending",
    "responsible_agency": "Department of Sanitation",
    "final_address": "3708 Silver Maple Ct",
    "address_councildis": "C",
    "status": "Assigned to Contractor",
    "contractor": "Richards Disposal",
    "rowid": "1030187",
    "final_x": "3703186.15716",
    "final_y": "512716.321649",
    "longitude": "-90.0002845079094",
    "latitude": "29.903115849182093",
    "geocoded_column": {
      "latitude": "29.903115849182093",
      "longitude": "-90.0002845079094"
    }
  },
  {
    "service_request": "2023-1030186",
    "request_type": "Utility Poles",
    "request_reason": "Utility Pole Leaning",
    "date_created": "2023-08-28T19:01:35.000",
    "date_modified": "2023-08-28T19:01:39.000",
    "request_status": "Pending",
    "responsible_agency": "Utility Company Collective",
    "final_address": "4908 Pecan St",
    "address_councildis": "E",
    "status": "Pending",
    "rowid": "1030186",
    "final_x": "3701654.75191",
    "final_y": "555110.973529",
    "longitude": "-90.0035648305922",
    "latitude": "30.019734815594887",
    "geocoded_column": {
      "latitude": "30.019734815594887",
      "longitude": "-90.0035648305922"
    }
  },
  {
    "service_request": "2023-1030185",
    "request_type": "Trash/Recycling",
    "request_reason": "Request a Large Item Pick Up",
    "date_created": "2023-08-28T18:57:05.000",
    "date_modified": "2023-08-28T18:57:06.000",
    "request_status": "Pending",
    "responsible_agency": "Department of Sanitation",
    "final_address": "6617 Avenue B",
    "address_councildis": "A",
    "status": "Assigned to Contractor",
    "contractor": "IV Waste",
    "rowid": "1030185",
    "final_x": "3665773.17357",
    "final_y": "552172.251414",
    "longitude": "-90.1170379507839",
    "latitude": "30.012750533742825",
    "geocoded_column": {
      "latitude": "30.012750533742825",
      "longitude": "-90.1170379507839"
    }
  },
  {
    "service_request": "2023-1030184",
    "request_type": "Trash/Recycling",
    "request_reason": "Request a Large Item Pick Up",
    "date_created": "2023-08-28T18:50:25.000",
    "date_modified": "2023-08-28T18:50:26.000",
    "request_status": "Pending",
    "responsible_agency": "Department of Sanitation",
    "final_address": "2022 Lapeyrouse St",
    "address_councildis": "D",
    "status": "Assigned to Contractor",
    "contractor": "IV Waste",
    "rowid": "1030184",
    "final_x": "3680800.73685",
    "final_y": "538693.917321",
    "longitude": "-90.07002859316158",
    "latitude": "29.975242712295202",
    "geocoded_column": {
      "latitude": "29.975242712295202",
      "longitude": "-90.07002859316158"
    }
  },
  {
    "service_request": "2023-1030183",
    "request_type": "Trash/Recycling",
    "request_reason": "Repair Trash Cart",
    "date_created": "2023-08-28T18:48:25.000",
    "date_modified": "2023-08-28T18:48:26.000",
    "request_status": "Pending",
    "responsible_agency": "Department of Sanitation",
    "final_address": "927 N Gayoso St",
    "address_councildis": "A",
    "status": "Assigned to Contractor",
    "contractor": "Richards Disposal",
    "rowid": "1030183",
    "final_x": "3676277.69525",
    "final_y": "538481.668297",
    "longitude": "-90.08432087605551",
    "latitude": "29.974795442392953",
    "geocoded_column": {
      "latitude": "29.974795442392953",
      "longitude": "-90.08432087605551"
    }
  },
  {
    "service_request": "2023-1030182",
    "request_type": "Abandoned Vehicles",
    "request_reason": "Abandoned/Junk Vehicles",
    "date_created": "2023-08-28T18:42:59.000",
    "date_modified": "2023-08-28T18:42:59.000",
    "request_status": "Pending",
    "responsible_agency": "Department of Public Works",
    "final_address": "3146 N Claiborne Ave",
    "address_councildis": "D",
    "status": "Pending",
    "rowid": "1030182",
    "final_x": "3689857.84176",
    "final_y": "537728.910408",
    "longitude": "-90.04145831192021",
    "latitude": "29.972311606777694",
    "geocoded_column": {
      "latitude": "29.972311606777694",
      "longitude": "-90.04145831192021"
    }
  },
  {
    "service_request": "2023-1030181",
    "request_type": "Roads/Drainage",
    "request_reason": "Catch Basin - Clogged",
    "date_created": "2023-08-28T18:32:01.000",
    "date_modified": "2023-08-28T18:32:01.000",
    "request_status": "Pending",
    "responsible_agency": "Department of Public Works",
    "final_address": "737 Napoleon Ave",
    "address_councildis": "B",
    "status": "Pending",
    "rowid": "1030181",
    "final_x": "3671199.72379",
    "final_y": "518375.27647",
    "longitude": "-90.1010413436244",
    "latitude": "29.919660672842603",
    "geocoded_column": {
      "latitude": "29.919660672842603",
      "longitude": "-90.1010413436244"
    }
  },
  {
    "service_request": "2023-1030180",
    "request_type": "Trash/Recycling",
    "request_reason": "Request a Large Item Pick Up",
    "date_created": "2023-08-28T18:31:20.000",
    "date_modified": "2023-08-28T18:31:21.000",
    "request_status": "Pending",
    "responsible_agency": "Department of Sanitation",
    "final_address": "919 Upperline St",
    "address_councildis": "B",
    "status": "Assigned to Contractor",
    "contractor": "Richards Disposal",
    "rowid": "1030180",
    "final_x": "3669066.92135",
    "final_y": "518753.729207",
    "longitude": "-90.10776079151617",
    "latitude": "29.920764195930413",
    "geocoded_column": {
      "latitude": "29.920764195930413",
      "longitude": "-90.10776079151617"
    }
  },
  {
    "service_request": "2023-1030179",
    "request_type": "Parks & Parkways",
    "request_reason": "Request Tree Service (Right of Way/Public Property)",
    "date_created": "2023-08-28T18:27:17.000",
    "date_modified": "2023-08-28T18:31:07.000",
    "request_status": "Pending",
    "responsible_agency": "Department of Parks & Parkway",
    "final_address": "135 S Pierce St",
    "address_councildis": "A",
    "status": "Pending",
    "rowid": "1030179",
    "final_x": "3671211.61729",
    "final_y": "537795.03092",
    "longitude": "-90.100344193749",
    "latitude": "29.97305829137467",
    "geocoded_column": {
      "latitude": "29.97305829137467",
      "longitude": "-90.100344193749"
    }
  },
  {
    "service_request": "2023-1030178",
    "request_type": "Trash/Recycling",
    "request_reason": "Request a Large Item Pick Up",
    "date_created": "2023-08-28T18:25:41.000",
    "date_modified": "2023-08-28T18:25:42.000",
    "request_status": "Pending",
    "responsible_agency": "Department of Sanitation",
    "final_address": "919 Upperline St",
    "address_councildis": "B",
    "status": "Assigned to Contractor",
    "contractor": "Richards Disposal",
    "rowid": "1030178",
    "final_x": "3669066.92135",
    "final_y": "518753.729207",
    "longitude": "-90.10776079151617",
    "latitude": "29.920764195930413",
    "geocoded_column": {
      "latitude": "29.920764195930413",
      "longitude": "-90.10776079151617"
    }
  },
  {
    "service_request": "2023-1030177",
    "request_type": "Parks & Parkways",
    "request_reason": "Request Tree Service (Right of Way/Public Property)",
    "date_created": "2023-08-28T18:23:37.000",
    "date_modified": "2023-08-28T18:23:37.000",
    "request_status": "Pending",
    "responsible_agency": "Department of Parks & Parkway",
    "final_address": "7610 Willow St",
    "address_councildis": "A",
    "status": "Pending",
    "rowid": "1030177",
    "final_x": "3663644.27431",
    "final_y": "527728.019775",
    "longitude": "-90.12457884825608",
    "latitude": "29.945599024471058",
    "geocoded_column": {
      "latitude": "29.945599024471058",
      "longitude": "-90.12457884825608"
    }
  },
  {
    "service_request": "2023-1030176",
    "request_type": "Roads/Drainage",
    "request_reason": "Catch Basin - Clogged",
    "date_created": "2023-08-28T18:21:58.000",
    "date_modified": "2023-08-28T18:21:58.000",
    "request_status": "Pending",
    "responsible_agency": "Department of Public Works",
    "final_address": "339 N Olympia St",
    "address_councildis": "A",
    "status": "Pending",
    "rowid": "1030176",
    "final_x": "3670070.92366",
    "final_y": "540548.298827",
    "longitude": "-90.10385343652078",
    "latitude": "29.980662548805945",
    "geocoded_column": {
      "latitude": "29.980662548805945",
      "longitude": "-90.10385343652078"
    }
  },
  {
    "service_request": "2023-1030175",
    "request_type": "Roads/Drainage",
    "request_reason": "WaterMain Break",
    "date_created": "2023-08-28T18:19:02.000",
    "date_modified": "2023-08-28T18:19:02.000",
    "request_status": "Pending",
    "responsible_agency": "Department of Public Works",
    "final_address": "4460 General Meyer Ave",
    "address_councildis": "C",
    "status": "Pending",
    "rowid": "1030175",
    "final_x": "3700536.24253",
    "final_y": "524157.044348",
    "longitude": "-90.00822998470447",
    "latitude": "29.934658427058004",
    "geocoded_column": {
      "latitude": "29.934658427058004",
      "longitude": "-90.00822998470447"
    }
  },
  {
    "service_request": "2023-1030174",
    "request_type": "Roads/Drainage",
    "request_reason": "Catch Basin - Clogged",
    "date_created": "2023-08-28T18:16:48.000",
    "date_modified": "2023-08-28T18:16:48.000",
    "request_status": "Pending",
    "responsible_agency": "Department of Public Works",
    "final_address": "2010 Philip St",
    "address_councildis": "B",
    "status": "Pending",
    "rowid": "1030174",
    "final_x": "3676265.72501",
    "final_y": "524611.728892",
    "longitude": "-90.08483597379107",
    "latitude": "29.936658112421895",
    "geocoded_column": {
      "latitude": "29.936658112421895",
      "longitude": "-90.08483597379107"
    }
  },
  {
    "service_request": "2023-1030173",
    "request_type": "Health Related Request",
    "request_reason": "Noise Ordinance Complaint",
    "date_created": "2023-08-28T18:15:19.000",
    "date_modified": "2023-08-28T18:15:19.000",
    "request_status": "Pending",
    "responsible_agency": "Health Department",
    "final_address": "1500 Richland Rd",
    "address_councildis": "C",
    "status": "Pending",
    "rowid": "1030173",
    "final_x": "3698047.46173",
    "final_y": "525699.233277",
    "longitude": "-90.0160309999581",
    "latitude": "29.938977817329878",
    "geocoded_column": {
      "latitude": "29.938977817329878",
      "longitude": "-90.0160309999581"
    }
  },
  {
    "service_request": "2023-1030172",
    "request_type": "Roads/Drainage",
    "request_reason": "Catch Basin - Clogged",
    "date_created": "2023-08-28T18:11:18.000",
    "date_modified": "2023-08-28T18:12:18.000",
    "request_status": "Pending",
    "responsible_agency": "Department of Public Works",
    "final_address": "4135 Ulloa St",
    "address_councildis": "A",
    "status": "Pending",
    "rowid": "1030172",
    "final_x": "3669302.19156",
    "final_y": "536855.556872",
    "longitude": "-90.10640632186929",
    "latitude": "29.970531410541604",
    "geocoded_column": {
      "latitude": "29.970531410541604",
      "longitude": "-90.10640632186929"
    }
  },
  {
    "service_request": "2023-1030171",
    "request_type": "Trash/Recycling",
    "request_reason": "Return Recycling Cart",
    "date_created": "2023-08-28T18:11:10.000",
    "date_modified": "2023-08-28T18:11:10.000",
    "request_status": "Pending",
    "responsible_agency": "Department of Sanitation",
    "final_address": "3504 Palmyra St",
    "address_councildis": "B",
    "status": "Pending",
    "rowid": "1030171",
    "final_x": "3672295.27719",
    "final_y": "536379.491335",
    "longitude": "-90.09697001393641",
    "latitude": "29.969133927624423",
    "geocoded_column": {
      "latitude": "29.969133927624423",
      "longitude": "-90.09697001393641"
    }
  },
  {
    "service_request": "2023-1030170",
    "request_type": "Trash/Recycling",
    "request_reason": "Request a Large Item Pick Up",
    "date_created": "2023-08-28T18:09:11.000",
    "date_modified": "2023-08-28T18:09:11.000",
    "request_status": "Pending",
    "responsible_agency": "Department of Sanitation",
    "final_address": "3504 Palmyra St",
    "address_councildis": "B",
    "status": "Assigned to Contractor",
    "contractor": "Richards Disposal",
    "rowid": "1030170",
    "final_x": "3672295.27719",
    "final_y": "536379.491335",
    "longitude": "-90.09697001393641",
    "latitude": "29.969133927624423",
    "geocoded_column": {
      "latitude": "29.969133927624423",
      "longitude": "-90.09697001393641"
    }
  },
  {
    "service_request": "2023-1030169",
    "request_type": "Roads/Drainage",
    "request_reason": "Catch Basin - Clogged",
    "date_created": "2023-08-28T18:06:58.000",
    "date_modified": "2023-08-28T18:06:58.000",
    "request_status": "Pending",
    "responsible_agency": "Department of Public Works",
    "final_address": "2010 Philip St",
    "address_councildis": "B",
    "status": "Pending",
    "rowid": "1030169",
    "final_x": "3676265.72501",
    "final_y": "524611.728892",
    "longitude": "-90.08483597379107",
    "latitude": "29.936658112421895",
    "geocoded_column": {
      "latitude": "29.936658112421895",
      "longitude": "-90.08483597379107"
    }
  },
  {
    "service_request": "2023-1030168",
    "request_type": "Abandoned Vehicles",
    "request_reason": "Abandoned/Junk Vehicles",
    "date_created": "2023-08-28T18:06:01.000",
    "date_modified": "2023-08-28T18:06:01.000",
    "request_status": "Pending",
    "responsible_agency": "Department of Public Works",
    "final_address": "5900 Warwick Ct",
    "address_councildis": "C",
    "status": "Pending",
    "rowid": "1030168",
    "final_x": "3705503.60209",
    "final_y": "515946.065012",
    "longitude": "-89.99285150579055",
    "latitude": "29.911922201281634",
    "geocoded_column": {
      "latitude": "29.911922201281634",
      "longitude": "-89.99285150579055"
    }
  },
  {
    "service_request": "2023-1030167",
    "request_type": "Roads/Drainage",
    "request_reason": "Street Flooding / Drainage",
    "date_created": "2023-08-28T18:04:46.000",
    "date_modified": "2023-08-28T18:04:46.000",
    "request_status": "Pending",
    "responsible_agency": "Department of Public Works",
    "final_address": "2618 DAbadie St",
    "address_councildis": "D",
    "status": "Pending",
    "rowid": "1030167",
    "final_x": "3679366.56219",
    "final_y": "540840.089995",
    "longitude": "-90.07448362947659",
    "latitude": "29.98118734359128",
    "geocoded_column": {
      "latitude": "29.98118734359128",
      "longitude": "-90.07448362947659"
    }
  },
  {
    "service_request": "2023-1030166",
    "request_type": "Roads/Drainage",
    "request_reason": "Catch Basin - Clogged",
    "date_created": "2023-08-28T18:02:04.000",
    "date_modified": "2023-08-28T18:02:04.000",
    "request_status": "Pending",
    "responsible_agency": "Department of Public Works",
    "final_address": "737 Napoleon Ave",
    "address_councildis": "B",
    "status": "Pending",
    "rowid": "1030166",
    "final_x": "3671199.72379",
    "final_y": "518375.27647",
    "longitude": "-90.1010413436244",
    "latitude": "29.919660672842603",
    "geocoded_column": {
      "latitude": "29.919660672842603",
      "longitude": "-90.1010413436244"
    }
  },
  {
    "service_request": "2023-1030165",
    "request_type": "Abandoned Vehicles",
    "request_reason": "Abandoned/Junk Vehicles",
    "date_created": "2023-08-28T17:50:21.000",
    "date_modified": "2023-08-28T17:50:21.000",
    "request_status": "Pending",
    "responsible_agency": "Department of Public Works",
    "final_address": "1027 Seventh St",
    "address_councildis": "B",
    "status": "Pending",
    "rowid": "1030165",
    "final_x": "3676476.96232",
    "final_y": "520269.563576",
    "longitude": "-90.08431851525762",
    "latitude": "29.924712241482638",
    "geocoded_column": {
      "latitude": "29.924712241482638",
      "longitude": "-90.08431851525762"
    }
  },
  {
    "service_request": "2023-1030164",
    "request_type": "Traffic Signals/Signs/Striping/Streetlights",
    "request_reason": "Street Light Outage/Malfunction",
    "date_created": "2023-08-28T17:46:42.000",
    "date_modified": "2023-08-28T17:46:43.000",
    "request_status": "Pending",
    "responsible_agency": "Department of Public Works",
    "final_address": "3520 Mansfield Ave",
    "address_councildis": "C",
    "status": "Assigned to Contractor",
    "contractor": "Legacy Professional Services",
    "rowid": "1030164",
    "final_x": "3709085.75249",
    "final_y": "517789.233462",
    "longitude": "-89.98147677276347",
    "latitude": "29.91687455851722",
    "geocoded_column": {
      "latitude": "29.91687455851722",
      "longitude": "-89.98147677276347"
    }
  },
  {
    "service_request": "2023-1030163",
    "request_type": "Abandoned Vehicles",
    "request_reason": "Abandoned/Junk Vehicles",
    "date_created": "2023-08-28T17:44:27.000",
    "date_modified": "2023-08-28T17:44:27.000",
    "request_status": "Pending",
    "responsible_agency": "Department of Public Works",
    "final_address": "2000 BLK Laharpe St",
    "address_councildis": "D",
    "status": "Pending",
    "rowid": "1030163",
    "final_x": "3680685.6235",
    "final_y": "538457.275235",
    "longitude": "-90.07040038896741",
    "latitude": "29.974595517633425",
    "geocoded_column": {
      "latitude": "29.974595517633425",
      "longitude": "-90.07040038896741"
    }
  },
  {
    "service_request": "2023-1030162",
    "request_type": "Abandoned Vehicles",
    "request_reason": "Abandoned/Junk Vehicles",
    "date_created": "2023-08-28T17:34:21.000",
    "date_modified": "2023-08-28T17:34:21.000",
    "request_status": "Pending",
    "responsible_agency": "Department of Public Works",
    "status": "Pending",
    "rowid": "1030162",
    "longitude": "0.0",
    "latitude": "0.0",
    "geocoded_column": {
      "latitude": "0.0",
      "longitude": "0.0"
    }
  },
  {
    "service_request": "2023-1030161",
    "request_type": "Trash/Recycling",
    "request_reason": "Order Recycling Cart",
    "date_created": "2023-08-28T17:24:09.000",
    "date_modified": "2023-08-28T17:24:09.000",
    "request_status": "Pending",
    "responsible_agency": "Department of Sanitation",
    "final_address": "2803 Spain St",
    "address_councildis": "D",
    "status": "Pending",
    "rowid": "1030161",
    "final_x": "3685630.01327",
    "final_y": "543065.776269",
    "longitude": "-90.05462240349966",
    "latitude": "29.9871164978751",
    "geocoded_column": {
      "latitude": "29.9871164978751",
      "longitude": "-90.05462240349966"
    }
  },
  {
    "service_request": "2023-1030160",
    "request_type": "Trash/Recycling",
    "request_reason": "Request a Large Item Pick Up",
    "date_created": "2023-08-28T17:23:23.000",
    "date_modified": "2023-08-28T17:23:24.000",
    "request_status": "Pending",
    "responsible_agency": "Department of Sanitation",
    "final_address": "3115 Cambronne St",
    "address_councildis": "A",
    "status": "Assigned to Contractor",
    "contractor": "Richards Disposal",
    "rowid": "1030160",
    "final_x": "3665862.62208",
    "final_y": "534192.005765",
    "longitude": "-90.11735819040102",
    "latitude": "29.963308346819495",
    "geocoded_column": {
      "latitude": "29.963308346819495",
      "longitude": "-90.11735819040102"
    }
  },
  {
    "service_request": "2023-1030159",
    "request_type": "Trash/Recycling",
    "request_reason": "Order Trash Cart",
    "date_created": "2023-08-28T17:22:41.000",
    "date_modified": "2023-08-28T17:22:41.000",
    "request_status": "Pending",
    "responsible_agency": "Department of Sanitation",
    "final_address": "2803 Spain St",
    "address_councildis": "D",
    "status": "Assigned to Contractor",
    "contractor": "IV Waste",
    "rowid": "1030159",
    "final_x": "3685630.01327",
    "final_y": "543065.776269",
    "longitude": "-90.05462240349966",
    "latitude": "29.9871164978751",
    "geocoded_column": {
      "latitude": "29.9871164978751",
      "longitude": "-90.05462240349966"
    }
  },
  {
    "service_request": "2023-1030157",
    "request_type": "Trash/Recycling",
    "request_reason": "Start Trash Service",
    "date_created": "2023-08-28T17:16:21.000",
    "date_modified": "2023-08-28T17:16:22.000",
    "request_status": "Pending",
    "responsible_agency": "Department of Sanitation",
    "final_address": "907 N Rocheblave St",
    "address_councildis": "D",
    "status": "Assigned to Contractor",
    "contractor": "Richards Disposal",
    "rowid": "1030157",
    "final_x": "3677995.48699",
    "final_y": "537025.569288",
    "longitude": "-90.07894600079469",
    "latitude": "29.970740071315408",
    "geocoded_column": {
      "latitude": "29.970740071315408",
      "longitude": "-90.07894600079469"
    }
  },
  {
    "service_request": "2023-1030156",
    "request_type": "Roads/Drainage",
    "request_reason": "Catch Basin - Broken/Damage",
    "date_created": "2023-08-28T17:15:19.000",
    "date_modified": "2023-08-28T17:15:19.000",
    "request_status": "Pending",
    "responsible_agency": "Department of Public Works",
    "final_address": "FAIRMONT DR & MONTEREY ST",
    "address_councildis": "D",
    "status": "Pending",
    "rowid": "1030156",
    "final_x": "3684703.7",
    "final_y": "547173.88",
    "longitude": "-90.0574037973419",
    "latitude": "29.998440709303342",
    "geocoded_column": {
      "latitude": "29.998440709303342",
      "longitude": "-90.0574037973419"
    }
  },
  {
    "service_request": "2023-1030154",
    "request_type": "Trash/Recycling",
    "request_reason": "Request a Large Item Pick Up",
    "date_created": "2023-08-28T17:11:13.000",
    "date_modified": "2023-08-28T17:11:14.000",
    "request_status": "Pending",
    "responsible_agency": "Department of Sanitation",
    "final_address": "6019 Franklin Ave",
    "address_councildis": "D",
    "status": "Assigned to Contractor",
    "contractor": "IV Waste",
    "rowid": "1030154",
    "final_x": "3686492.8141",
    "final_y": "555380.859033",
    "longitude": "-90.0514619632428",
    "latitude": "30.02095200290788",
    "geocoded_column": {
      "latitude": "30.02095200290788",
      "longitude": "-90.0514619632428"
    }
  },
  {
    "service_request": "2023-1030153",
    "request_type": "Property Maintenance",
    "request_reason": "Property Maintenance",
    "date_created": "2023-08-28T17:09:50.000",
    "date_modified": "2023-08-28T17:17:41.000",
    "request_status": "Pending",
    "responsible_agency": "Department of Code Enforcement",
    "final_address": "4345 Kennon Ave",
    "address_councildis": "D",
    "rowid": "1030153",
    "final_x": "3677559.53845",
    "final_y": "548392.701202",
    "longitude": "-90.07993009319792",
    "latitude": "30.00200884295755",
    "geocoded_column": {
      "latitude": "30.00200884295755",
      "longitude": "-90.07993009319792"
    }
  },
  {
    "service_request": "2023-1030152",
    "request_type": "Traffic Signals/Signs/Striping/Streetlights",
    "request_reason": "Street Light Outage/Malfunction",
    "date_created": "2023-08-28T17:06:12.000",
    "date_modified": "2023-08-28T17:06:13.000",
    "request_status": "Pending",
    "responsible_agency": "Department of Public Works",
    "final_address": "10921 Yardley Rd",
    "address_councildis": "E",
    "status": "Assigned to Contractor",
    "contractor": "Legacy Professional Services",
    "rowid": "1030152",
    "final_x": "3711749.06616",
    "final_y": "563655.616929",
    "longitude": "-89.97134950863015",
    "latitude": "30.042903222499742",
    "geocoded_column": {
      "latitude": "30.042903222499742",
      "longitude": "-89.97134950863015"
    }
  },
  {
    "service_request": "2023-1030151",
    "request_type": "Trash/Recycling",
    "request_reason": "Request a Large Item Pick Up",
    "date_created": "2023-08-28T17:06:07.000",
    "date_modified": "2023-08-28T17:06:08.000",
    "request_status": "Pending",
    "responsible_agency": "Department of Sanitation",
    "final_address": "5451 Douglass St",
    "address_councildis": "E",
    "status": "Assigned to Contractor",
    "contractor": "Waste Pro",
    "rowid": "1030151",
    "final_x": "3696971.18723",
    "final_y": "531778.544835",
    "longitude": "-90.01920878753401",
    "latitude": "29.955727779670823",
    "geocoded_column": {
      "latitude": "29.955727779670823",
      "longitude": "-90.01920878753401"
    }
  },
  {
    "service_request": "2023-1030149",
    "request_type": "Trash/Recycling",
    "request_reason": "MIssed Recycling Pick-Up",
    "date_created": "2023-08-28T16:57:28.000",
    "date_modified": "2023-08-28T16:57:29.000",
    "request_status": "Pending",
    "responsible_agency": "Department of Sanitation",
    "final_address": "7400 Benson St",
    "address_councildis": "E",
    "status": "Assigned to Contractor",
    "contractor": "Waste Pro",
    "rowid": "1030149",
    "final_x": "3704740.12081",
    "final_y": "561784.763103",
    "longitude": "-89.99356959212953",
    "latitude": "30.037986322677465",
    "geocoded_column": {
      "latitude": "30.037986322677465",
      "longitude": "-89.99356959212953"
    }
  },
  {
    "service_request": "2023-1030148",
    "request_type": "Trash/Recycling",
    "request_reason": "Request a Large Item Pick Up",
    "date_created": "2023-08-28T16:52:37.000",
    "date_modified": "2023-08-28T16:52:38.000",
    "request_status": "Pending",
    "responsible_agency": "Department of Sanitation",
    "final_address": "2400 Hudson Pl",
    "address_councildis": "C",
    "status": "Assigned to Contractor",
    "contractor": "Richards Disposal",
    "rowid": "1030148",
    "final_x": "3703670.05591",
    "final_y": "522344.499578",
    "longitude": "-89.99840333602641",
    "latitude": "29.929574539983918",
    "geocoded_column": {
      "latitude": "29.929574539983918",
      "longitude": "-89.99840333602641"
    }
  },
  {
    "service_request": "2023-1030147",
    "request_type": "Trash/Recycling",
    "request_reason": "Repair Trash Cart",
    "date_created": "2023-08-28T16:50:50.000",
    "date_modified": "2023-08-28T16:50:51.000",
    "request_status": "Pending",
    "responsible_agency": "Department of Sanitation",
    "final_address": "4658 Lurline St",
    "address_councildis": "E",
    "status": "Assigned to Contractor",
    "contractor": "Waste Pro",
    "rowid": "1030147",
    "final_x": "3711946.10968",
    "final_y": "555630.002201",
    "longitude": "-89.97102833466641",
    "latitude": "30.020829529197275",
    "geocoded_column": {
      "latitude": "30.020829529197275",
      "longitude": "-89.97102833466641"
    }
  },
  {
    "service_request": "2023-1030146",
    "request_type": "Health Related Request",
    "request_reason": "Noise Ordinance Complaint",
    "date_created": "2023-08-28T16:48:28.000",
    "date_modified": "2023-08-28T16:48:29.000",
    "request_status": "Pending",
    "responsible_agency": "Health Department",
    "final_address": "869 Magazine St",
    "address_councildis": "B",
    "status": "Pending",
    "rowid": "1030146",
    "final_x": "3681011.26427",
    "final_y": "527338.701375",
    "longitude": "-90.06975916844665",
    "latitude": "29.944013348697567",
    "geocoded_column": {
      "latitude": "29.944013348697567",
      "longitude": "-90.06975916844665"
    }
  },
  {
    "service_request": "2023-1030145",
    "request_type": "Trash/Recycling",
    "request_reason": "Request a Large Item Pick Up",
    "date_created": "2023-08-28T16:46:47.000",
    "date_modified": "2023-08-28T16:46:48.000",
    "request_status": "Pending",
    "responsible_agency": "Department of Sanitation",
    "final_address": "2625 Sage St",
    "address_councildis": "D",
    "status": "Assigned to Contractor",
    "contractor": "IV Waste",
    "rowid": "1030145",
    "final_x": "3687440.05858",
    "final_y": "545532.353488",
    "longitude": "-90.04881779577448",
    "latitude": "29.993843036872054",
    "geocoded_column": {
      "latitude": "29.993843036872054",
      "longitude": "-90.04881779577448"
    }
  },
  {
    "service_request": "2023-1030144",
    "request_type": "Parks & Parkways",
    "request_reason": "Request Tree Service (Right of Way/Public Property)",
    "date_created": "2023-08-28T16:44:18.000",
    "date_modified": "2023-08-28T16:45:20.000",
    "request_status": "Pending",
    "responsible_agency": "Department of Parks & Parkway",
    "final_address": "7535 St Charles Ave",
    "address_councildis": "A",
    "status": "Pending",
    "rowid": "1030144",
    "final_x": "3661982.55149",
    "final_y": "525650.403773",
    "longitude": "-90.1298943716589",
    "latitude": "29.93993433795985",
    "geocoded_column": {
      "latitude": "29.93993433795985",
      "longitude": "-90.1298943716589"
    }
  },
  {
    "service_request": "2023-1030143",
    "request_type": "Trash/Recycling",
    "request_reason": "Request a Large Item Pick Up",
    "date_created": "2023-08-28T16:43:23.000",
    "date_modified": "2023-08-28T16:43:24.000",
    "request_status": "Pending",
    "responsible_agency": "Department of Sanitation",
    "final_address": "762 Delachaise St",
    "address_councildis": "B",
    "status": "Assigned to Contractor",
    "contractor": "Richards Disposal",
    "rowid": "1030143",
    "final_x": "3675107.23336",
    "final_y": "518355.413046",
    "longitude": "-90.08870793027232",
    "latitude": "29.919489926158708",
    "geocoded_column": {
      "latitude": "29.919489926158708",
      "longitude": "-90.08870793027232"
    }
  },
  {
    "service_request": "2023-1030142",
    "request_type": "Trash/Recycling",
    "request_reason": "Order Trash Cart",
    "date_created": "2023-08-28T16:43:13.000",
    "date_modified": "2023-08-28T16:43:13.000",
    "request_status": "Pending",
    "responsible_agency": "Department of Sanitation",
    "final_address": "7920 Sandpiper Dr",
    "address_councildis": "E",
    "status": "Assigned to Contractor",
    "contractor": "Waste Pro",
    "rowid": "1030142",
    "final_x": "3715250.84267",
    "final_y": "570468.884519",
    "longitude": "-89.96002452066276",
    "latitude": "30.061522004932417",
    "geocoded_column": {
      "latitude": "30.061522004932417",
      "longitude": "-89.96002452066276"
    }
  },
  {
    "service_request": "2023-1030141",
    "request_type": "Trash/Recycling",
    "request_reason": "MIssed Recycling Pick-Up",
    "date_created": "2023-08-28T16:35:49.000",
    "date_modified": "2023-08-28T16:35:50.000",
    "request_status": "Pending",
    "responsible_agency": "Department of Sanitation",
    "final_address": "54 Yosemite Dr",
    "address_councildis": "C",
    "status": "Assigned to Contractor",
    "contractor": "Richards Disposal",
    "rowid": "1030141",
    "final_x": "3699871.68912",
    "final_y": "516636.787445",
    "longitude": "-90.01060201708664",
    "latitude": "29.91400141714129",
    "geocoded_column": {
      "latitude": "29.91400141714129",
      "longitude": "-90.01060201708664"
    }
  },
  {
    "service_request": "2023-1030140",
    "request_type": "Trash/Recycling",
    "request_reason": "Replace Trash Cart",
    "date_created": "2023-08-28T16:33:24.000",
    "date_modified": "2023-08-28T16:33:25.000",
    "request_status": "Pending",
    "responsible_agency": "Department of Sanitation",
    "final_address": "45 Flamingo St",
    "address_councildis": "D",
    "status": "Assigned to Contractor",
    "contractor": "IV Waste",
    "rowid": "1030140",
    "final_x": "3674462.81076",
    "final_y": "555325.207449",
    "longitude": "-90.08947527757411",
    "latitude": "30.02116354520433",
    "geocoded_column": {
      "latitude": "30.02116354520433",
      "longitude": "-90.08947527757411"
    }
  },
  {
    "service_request": "2023-1030139",
    "request_type": "Mosquito, Termite & Rodent Control",
    "request_reason": "Non-Rodent Complaint (Mice, Possums, Snakes)",
    "date_created": "2023-08-28T16:30:29.000",
    "date_modified": "2023-08-28T16:30:29.000",
    "request_status": "Pending",
    "responsible_agency": "Mosquito, Termite & Rodent Control Board",
    "final_address": "123 Lavergne St",
    "address_councildis": "C",
    "status": "Pending",
    "rowid": "1030139",
    "final_x": "3686447.88521",
    "final_y": "531131.678082",
    "longitude": "-90.05246042305565",
    "latitude": "29.95427677358761",
    "geocoded_column": {
      "latitude": "29.95427677358761",
      "longitude": "-90.05246042305565"
    }
  },
  {
    "service_request": "2023-1030138",
    "request_type": "Trash/Recycling",
    "request_reason": "Request a Large Item Pick Up",
    "date_created": "2023-08-28T16:28:19.000",
    "date_modified": "2023-08-28T16:28:19.000",
    "request_status": "Pending",
    "responsible_agency": "Department of Sanitation",
    "final_address": "4600 Dale St",
    "address_councildis": "E",
    "status": "Assigned to Contractor",
    "contractor": "Waste Pro",
    "rowid": "1030138",
    "final_x": "3699422.0202",
    "final_y": "554208.578328",
    "longitude": "-90.01065240336078",
    "latitude": "30.017324629339555",
    "geocoded_column": {
      "latitude": "30.017324629339555",
      "longitude": "-90.01065240336078"
    }
  },
  {
    "service_request": "2023-1030137",
    "request_type": "Mosquito, Termite & Rodent Control",
    "request_reason": "Non-Rodent Complaint (Mice, Possums, Snakes)",
    "date_created": "2023-08-28T16:28:01.000",
    "date_modified": "2023-08-28T16:28:01.000",
    "request_status": "Pending",
    "responsible_agency": "Mosquito, Termite & Rodent Control Board",
    "final_address": "123 Lavergne St",
    "address_councildis": "C",
    "status": "Pending",
    "rowid": "1030137",
    "final_x": "3686447.88521",
    "final_y": "531131.678082",
    "longitude": "-90.05246042305565",
    "latitude": "29.95427677358761",
    "geocoded_column": {
      "latitude": "29.95427677358761",
      "longitude": "-90.05246042305565"
    }
  },
  {
    "service_request": "2023-1030136",
    "request_type": "Trash/Recycling",
    "request_reason": "Order Trash Cart",
    "date_created": "2023-08-28T16:27:11.000",
    "date_modified": "2023-08-28T16:27:12.000",
    "request_status": "Pending",
    "responsible_agency": "Department of Sanitation",
    "final_address": "850 Tchoupitoulas St",
    "address_councildis": "B",
    "status": "Assigned to Contractor",
    "contractor": "Empire Services",
    "rowid": "1030136",
    "final_x": "3681751.7988",
    "final_y": "527256.750463",
    "longitude": "-90.06742395643104",
    "latitude": "29.943765535935917",
    "geocoded_column": {
      "latitude": "29.943765535935917",
      "longitude": "-90.06742395643104"
    }
  },
  {
    "service_request": "2023-1030135",
    "request_type": "Abandoned Vehicles",
    "request_reason": "Abandoned/Junk Vehicles",
    "date_created": "2023-08-28T16:21:48.000",
    "date_modified": "2023-08-28T16:21:48.000",
    "request_status": "Pending",
    "responsible_agency": "Department of Public Works",
    "final_address": "E RENAISSANCE CT & CHANELLE CT",
    "address_councildis": "E",
    "status": "Pending",
    "rowid": "1030135",
    "final_x": "3717353.2",
    "final_y": "567749.38",
    "longitude": "-89.95348257227225",
    "latitude": "30.05397504379702",
    "geocoded_column": {
      "latitude": "30.05397504379702",
      "longitude": "-89.95348257227225"
    }
  },
  {
    "service_request": "2023-1030134",
    "request_type": "Traffic Signals/Signs/Striping/Streetlights",
    "request_reason": "Street Light Outage/Malfunction",
    "date_created": "2023-08-28T16:21:21.000",
    "date_modified": "2023-08-28T16:21:22.000",
    "request_status": "Pending",
    "responsible_agency": "Department of Public Works",
    "final_address": "13445 N Nemours St",
    "address_councildis": "E",
    "status": "Assigned to Contractor",
    "contractor": "Legacy Professional Services",
    "rowid": "1030134",
    "final_x": "3725458.67993",
    "final_y": "562795.402208",
    "longitude": "-89.92805551844552",
    "latitude": "30.04008279210425",
    "geocoded_column": {
      "latitude": "30.04008279210425",
      "longitude": "-89.92805551844552"
    }
  },
  {
    "service_request": "2023-1030133",
    "request_type": "Abandoned Vehicles",
    "request_reason": "Abandoned/Junk Vehicles",
    "date_created": "2023-08-28T16:20:48.000",
    "date_modified": "2023-08-28T16:20:48.000",
    "request_status": "Pending",
    "responsible_agency": "Department of Public Works",
    "final_address": "12931 Chanelle Ct",
    "address_councildis": "E",
    "status": "Pending",
    "rowid": "1030133",
    "final_x": "3717055.63692",
    "final_y": "567483.821156",
    "longitude": "-89.95443318702804",
    "latitude": "30.0532547157596",
    "geocoded_column": {
      "latitude": "30.0532547157596",
      "longitude": "-89.95443318702804"
    }
  },
  {
    "service_request": "2023-1030132",
    "request_type": "Abandoned Vehicles",
    "request_reason": "Abandoned/Junk Vehicles",
    "date_created": "2023-08-28T16:18:59.000",
    "date_modified": "2023-08-28T16:18:59.000",
    "request_status": "Pending",
    "responsible_agency": "Department of Public Works",
    "final_address": "2425 Jonquil St",
    "address_councildis": "D",
    "status": "Pending",
    "rowid": "1030132",
    "final_x": "3685965.20866",
    "final_y": "547167.230417",
    "longitude": "-90.05341893520952",
    "latitude": "29.998383739959504",
    "geocoded_column": {
      "latitude": "29.998383739959504",
      "longitude": "-90.05341893520952"
    }
  },
  {
    "service_request": "2023-1030131",
    "request_type": "Abandoned Vehicles",
    "request_reason": "Abandoned/Junk Vehicles",
    "date_created": "2023-08-28T16:18:34.000",
    "date_modified": "2023-08-28T16:18:35.000",
    "request_status": "Pending",
    "responsible_agency": "Department of Public Works",
    "final_address": "CHATELAIN DR & CARMEL PL",
    "address_councildis": "E",
    "status": "Pending",
    "rowid": "1030131",
    "final_x": "3715670.32",
    "final_y": "566627.79",
    "longitude": "-89.95884421358133",
    "latitude": "30.05094674655524",
    "geocoded_column": {
      "latitude": "30.05094674655524",
      "longitude": "-89.95884421358133"
    }
  },
  {
    "service_request": "2023-1030130",
    "request_type": "Traffic Signals/Signs/Striping/Streetlights",
    "request_reason": "Street Light Outage/Malfunction",
    "date_created": "2023-08-28T16:18:03.000",
    "date_modified": "2023-08-28T16:18:04.000",
    "request_status": "Pending",
    "responsible_agency": "Department of Public Works",
    "final_address": "2436 Mercedes Blvd",
    "address_councildis": "C",
    "status": "Assigned to Contractor",
    "contractor": "Legacy Professional Services",
    "rowid": "1030130",
    "final_x": "3698131.39735",
    "final_y": "522117.71033",
    "longitude": "-90.01589601291147",
    "latitude": "29.929127212208062",
    "geocoded_column": {
      "latitude": "29.929127212208062",
      "longitude": "-90.01589601291147"
    }
  },
  {
    "service_request": "2023-1030129",
    "request_type": "Trash/Recycling",
    "request_reason": "MIssed Recycling Pick-Up",
    "date_created": "2023-08-28T16:16:31.000",
    "date_modified": "2023-08-28T16:16:32.000",
    "request_status": "Pending",
    "responsible_agency": "Department of Sanitation",
    "final_address": "60 Yosemite Dr",
    "address_councildis": "C",
    "status": "Assigned to Contractor",
    "contractor": "Richards Disposal",
    "rowid": "1030129",
    "final_x": "3699738.33597",
    "final_y": "516500.445045",
    "longitude": "-90.01102788677301",
    "latitude": "29.91363075398537",
    "geocoded_column": {
      "latitude": "29.91363075398537",
      "longitude": "-90.01102788677301"
    }
  },
  {
    "service_request": "2023-1030128",
    "request_type": "Abandoned Vehicles",
    "request_reason": "Abandoned/Junk Vehicles",
    "date_created": "2023-08-28T16:15:35.000",
    "date_modified": "2023-08-28T16:15:35.000",
    "request_status": "Pending",
    "responsible_agency": "Department of Public Works",
    "final_address": "7410 W Renaissance Ct",
    "address_councildis": "E",
    "status": "Pending",
    "rowid": "1030128",
    "final_x": "3715987.53452",
    "final_y": "568224.614885",
    "longitude": "-89.9577810290672",
    "latitude": "30.055326892754618",
    "geocoded_column": {
      "latitude": "30.055326892754618",
      "longitude": "-89.9577810290672"
    }
  },
  {
    "service_request": "2023-1030127",
    "request_type": "Traffic Signals/Signs/Striping/Streetlights",
    "request_reason": "Street Light Outage/Malfunction",
    "date_created": "2023-08-28T16:15:06.000",
    "date_modified": "2023-08-28T16:20:35.000",
    "request_status": "Pending",
    "responsible_agency": "Department of Public Works",
    "final_address": "4601 Eastview Dr",
    "address_councildis": "E",
    "status": "Assigned to Contractor",
    "contractor": "Legacy Professional Services",
    "rowid": "1030127",
    "final_x": "3705303.30929",
    "final_y": "554424.599",
    "longitude": "-89.99206205947887",
    "latitude": "30.017730620305397",
    "geocoded_column": {
      "latitude": "30.017730620305397",
      "longitude": "-89.99206205947887"
    }
  },
  {
    "service_request": "2023-1030126",
    "request_type": "Trash/Recycling",
    "request_reason": "Request a Large Item Pick Up",
    "date_created": "2023-08-28T16:13:53.000",
    "date_modified": "2023-08-28T16:13:53.000",
    "request_status": "Pending",
    "responsible_agency": "Department of Sanitation",
    "final_address": "2239 Josephine St",
    "address_councildis": "B",
    "status": "Assigned to Contractor",
    "contractor": "Richards Disposal",
    "rowid": "1030126",
    "final_x": "3676351.09512",
    "final_y": "526025.53331",
    "longitude": "-90.08451781069654",
    "latitude": "29.940543052232904",
    "geocoded_column": {
      "latitude": "29.940543052232904",
      "longitude": "-90.08451781069654"
    }
  },
  {
    "service_request": "2023-1030125",
    "request_type": "Trash/Recycling",
    "request_reason": "Request a Large Item Pick Up",
    "date_created": "2023-08-28T16:13:43.000",
    "date_modified": "2023-08-28T16:13:44.000",
    "request_status": "Pending",
    "responsible_agency": "Department of Sanitation",
    "final_address": "4433 Bundy Rd",
    "address_councildis": "E",
    "status": "Assigned to Contractor",
    "contractor": "Waste Pro",
    "rowid": "1030125",
    "final_x": "3709596.89771",
    "final_y": "554243.015832",
    "longitude": "-89.97850290654733",
    "latitude": "30.017092445008448",
    "geocoded_column": {
      "latitude": "30.017092445008448",
      "longitude": "-89.97850290654733"
    }
  },
  {
    "service_request": "2023-1030124",
    "request_type": "Utility Poles",
    "request_reason": "Utility Pole Leaning",
    "date_created": "2023-08-28T16:13:38.000",
    "date_modified": "2023-08-28T16:13:43.000",
    "request_status": "Pending",
    "responsible_agency": "Utility Company Collective",
    "final_address": "1216 N Villere St",
    "address_councildis": "C",
    "status": "Pending",
    "rowid": "1030124",
    "final_x": "3681600.3917",
    "final_y": "535811.038343",
    "longitude": "-90.06760364855023",
    "latitude": "29.967291524576066",
    "geocoded_column": {
      "latitude": "29.967291524576066",
      "longitude": "-90.06760364855023"
    }
  },
  {
    "service_request": "2023-1030123",
    "request_type": "Trash/Recycling",
    "request_reason": "Request a Large Item Pick Up",
    "date_created": "2023-08-28T16:13:26.000",
    "date_modified": "2023-08-28T16:13:28.000",
    "request_status": "Pending",
    "responsible_agency": "Department of Sanitation",
    "final_address": "2223 Josephine St",
    "address_councildis": "B",
    "status": "Assigned to Contractor",
    "contractor": "Richards Disposal",
    "rowid": "1030123",
    "final_x": "3676429.59611",
    "final_y": "525928.506109",
    "longitude": "-90.08427330902596",
    "latitude": "29.940273906635678",
    "geocoded_column": {
      "latitude": "29.940273906635678",
      "longitude": "-90.08427330902596"
    }
  },
  {
    "service_request": "2023-1030122",
    "request_type": "Trash/Recycling",
    "request_reason": "Request a Large Item Pick Up",
    "date_created": "2023-08-28T16:12:24.000",
    "date_modified": "2023-08-28T16:12:24.000",
    "request_status": "Pending",
    "responsible_agency": "Department of Sanitation",
    "final_address": "7812 Willow St",
    "address_councildis": "A",
    "status": "Assigned to Contractor",
    "contractor": "Richards Disposal",
    "rowid": "1030122",
    "final_x": "3663148.46285",
    "final_y": "528185.949888",
    "longitude": "-90.12612906184087",
    "latitude": "29.94687255790315",
    "geocoded_column": {
      "latitude": "29.94687255790315",
      "longitude": "-90.12612906184087"
    }
  },
  {
    "service_request": "2023-1030121",
    "request_type": "Traffic Signals/Signs/Striping/Streetlights",
    "request_reason": "Street Light Outage/Malfunction",
    "date_created": "2023-08-28T16:12:05.000",
    "date_modified": "2023-08-28T16:12:05.000",
    "request_status": "Pending",
    "responsible_agency": "Department of Public Works",
    "final_address": "4575 Eastview Dr",
    "address_councildis": "E",
    "status": "Assigned to Contractor",
    "contractor": "Legacy Professional Services",
    "rowid": "1030121",
    "final_x": "3705315.63659",
    "final_y": "554322.773016",
    "longitude": "-89.99202687645865",
    "latitude": "30.017450241285232",
    "geocoded_column": {
      "latitude": "30.017450241285232",
      "longitude": "-89.99202687645865"
    }
  },
  {
    "service_request": "2023-1030120",
    "request_type": "Roads/Drainage",
    "request_reason": "Pothole",
    "date_created": "2023-08-28T16:11:44.000",
    "date_modified": "2023-08-28T16:11:44.000",
    "request_status": "Pending",
    "responsible_agency": "Department of Public Works",
    "final_address": "1312 Milan St",
    "address_councildis": "B",
    "status": "Pending",
    "rowid": "1030120",
    "final_x": "3671625.82823",
    "final_y": "520286.919608",
    "longitude": "-90.09963137110304",
    "latitude": "29.92490447494246",
    "geocoded_column": {
      "latitude": "29.92490447494246",
      "longitude": "-90.09963137110304"
    }
  },
  {
    "service_request": "2023-1030119",
    "request_type": "Trash/Recycling",
    "request_reason": "Replace Trash Cart",
    "date_created": "2023-08-28T16:10:07.000",
    "date_modified": "2023-08-28T16:10:08.000",
    "request_status": "Pending",
    "responsible_agency": "Department of Sanitation",
    "final_address": "1332 Riviera Ave",
    "address_councildis": "D",
    "status": "Assigned to Contractor",
    "contractor": "IV Waste",
    "rowid": "1030119",
    "final_x": "3677501.48949",
    "final_y": "550747.872853",
    "longitude": "-90.08003209622315",
    "latitude": "30.008486472733843",
    "geocoded_column": {
      "latitude": "30.008486472733843",
      "longitude": "-90.08003209622315"
    }
  },
  {
    "service_request": "2023-1030118",
    "request_type": "Trash/Recycling",
    "request_reason": "Replace Trash Cart",
    "date_created": "2023-08-28T15:59:33.000",
    "date_modified": "2023-08-28T15:59:34.000",
    "request_status": "Pending",
    "responsible_agency": "Department of Sanitation",
    "final_address": "2857 Annunciation St",
    "address_councildis": "B",
    "status": "Assigned to Contractor",
    "contractor": "Richards Disposal",
    "rowid": "1030118",
    "final_x": "3677245.7764",
    "final_y": "519679.140728",
    "longitude": "-90.08191197942094",
    "latitude": "29.923065704093972",
    "geocoded_column": {
      "latitude": "29.923065704093972",
      "longitude": "-90.08191197942094"
    }
  },
  {
    "service_request": "2023-1030117",
    "request_type": "Trash/Recycling",
    "request_reason": "Request a Large Item Pick Up",
    "date_created": "2023-08-28T15:52:46.000",
    "date_modified": "2023-08-28T15:52:47.000",
    "request_status": "Pending",
    "responsible_agency": "Department of Sanitation",
    "final_address": "6709 Deanne St",
    "address_councildis": "D",
    "status": "Assigned to Contractor",
    "contractor": "Waste Pro",
    "rowid": "1030117",
    "final_x": "3696060.57782",
    "final_y": "555422.062169",
    "longitude": "-90.02122924823972",
    "latitude": "30.02076751521016",
    "geocoded_column": {
      "latitude": "30.02076751521016",
      "longitude": "-90.02122924823972"
    }
  },
  {
    "service_request": "2023-1030116",
    "request_type": "Trash/Recycling",
    "request_reason": "Illegal Dumping",
    "date_created": "2023-08-28T15:51:46.000",
    "date_modified": "2023-08-28T15:51:47.000",
    "request_status": "Pending",
    "responsible_agency": "Department of Sanitation",
    "final_address": "102 Fontainebleau Dr",
    "address_councildis": "A",
    "status": "Pending",
    "rowid": "1030116",
    "final_x": "3667190.98964",
    "final_y": "530345.428866",
    "longitude": "-90.11329267719117",
    "latitude": "29.95269269494452",
    "geocoded_column": {
      "latitude": "29.95269269494452",
      "longitude": "-90.11329267719117"
    }
  },
  {
    "service_request": "2023-1030115",
    "request_type": "Traffic Signals/Signs/Striping/Streetlights",
    "request_reason": "Traffic Signal Malfunctioning/Damaged",
    "date_created": "2023-08-28T15:49:58.000",
    "date_modified": "2023-08-28T15:49:58.000",
    "request_status": "Pending",
    "responsible_agency": "Department of Public Works",
    "final_address": "760 Harrison Ave",
    "address_councildis": "A",
    "status": "Pending",
    "rowid": "1030115",
    "final_x": "3669127.11316",
    "final_y": "549118.469139",
    "longitude": "-90.10654460468272",
    "latitude": "30.004255384142354",
    "geocoded_column": {
      "latitude": "30.004255384142354",
      "longitude": "-90.10654460468272"
    }
  },
  {
    "service_request": "2023-1030114",
    "request_type": "Trash/Recycling",
    "request_reason": "Order Recycling Cart",
    "date_created": "2023-08-28T15:48:27.000",
    "date_modified": "2023-08-28T15:48:28.000",
    "request_status": "Pending",
    "responsible_agency": "Department of Sanitation",
    "final_address": "1013 Burdette St",
    "address_councildis": "A",
    "status": "Pending",
    "rowid": "1030114",
    "final_x": "3662432.46407",
    "final_y": "527161.892287",
    "longitude": "-90.12842374417713",
    "latitude": "29.944077449433962",
    "geocoded_column": {
      "latitude": "29.944077449433962",
      "longitude": "-90.12842374417713"
    }
  },
  {
    "service_request": "2023-1030113",
    "request_type": "Roads/Drainage",
    "request_reason": "Pothole",
    "date_created": "2023-08-28T15:48:18.000",
    "date_modified": "2023-08-28T15:48:18.000",
    "request_status": "Pending",
    "responsible_agency": "Department of Public Works",
    "final_address": "4216 Chestnut St",
    "address_councildis": "B",
    "status": "Pending",
    "rowid": "1030113",
    "final_x": "3671574.31393",
    "final_y": "519539.203703",
    "longitude": "-90.09981939416457",
    "latitude": "29.922850019854593",
    "geocoded_column": {
      "latitude": "29.922850019854593",
      "longitude": "-90.09981939416457"
    }
  },
  {
    "service_request": "2023-1030112",
    "request_type": "Trash/Recycling",
    "request_reason": "Request a Large Item Pick Up",
    "date_created": "2023-08-28T15:46:00.000",
    "date_modified": "2023-08-28T15:46:01.000",
    "request_status": "Pending",
    "responsible_agency": "Department of Sanitation",
    "final_address": "1416 Lesseps St",
    "address_councildis": "D",
    "status": "Assigned to Contractor",
    "contractor": "IV Waste",
    "rowid": "1030112",
    "final_x": "3692973.15152",
    "final_y": "536355.279431",
    "longitude": "-90.03166895037546",
    "latitude": "29.968437663535227",
    "geocoded_column": {
      "latitude": "29.968437663535227",
      "longitude": "-90.03166895037546"
    }
  },
  {
    "service_request": "2023-1030111",
    "request_type": "Property Maintenance",
    "request_reason": "Property Maintenance",
    "date_created": "2023-08-28T15:45:49.000",
    "date_modified": "2023-08-28T15:47:49.000",
    "request_status": "Pending",
    "responsible_agency": "Department of Code Enforcement",
    "final_address": "PRESSBURG ST & RAY AVE",
    "address_councildis": "E",
    "status": "Pending",
    "rowid": "1030111",
    "final_x": "3698709.9",
    "final_y": "555164.38",
    "longitude": "-90.01286760111047",
    "latitude": "30.01997530441961",
    "geocoded_column": {
      "latitude": "30.01997530441961",
      "longitude": "-90.01286760111047"
    }
  },
  {
    "service_request": "2023-1030110",
    "request_type": "Trash/Recycling",
    "request_reason": "Repair Trash Cart",
    "date_created": "2023-08-28T15:44:31.000",
    "date_modified": "2023-08-28T15:44:31.000",
    "request_status": "Pending",
    "responsible_agency": "Department of Sanitation",
    "final_address": "7020 Ridgefield Dr",
    "address_councildis": "E",
    "status": "Assigned to Contractor",
    "contractor": "Waste Pro",
    "rowid": "1030110",
    "final_x": "3719386.4389",
    "final_y": "569480.585574",
    "longitude": "-89.9469898723",
    "latitude": "30.05866765984254",
    "geocoded_column": {
      "latitude": "30.05866765984254",
      "longitude": "-89.9469898723"
    }
  },
  {
    "service_request": "2023-1030109",
    "request_type": "Property Maintenance",
    "request_reason": "Property Maintenance",
    "date_created": "2023-08-28T15:43:46.000",
    "date_modified": "2023-08-28T15:48:31.000",
    "request_status": "Pending",
    "responsible_agency": "Department of Code Enforcement",
    "final_address": "DWYER RD & RAY AVE",
    "address_councildis": "E",
    "status": "Pending",
    "rowid": "1030109",
    "final_x": "3698679.2",
    "final_y": "555448.68",
    "longitude": "-90.01295425147069",
    "latitude": "30.02075799401413",
    "geocoded_column": {
      "latitude": "30.02075799401413",
      "longitude": "-90.01295425147069"
    }
  },
  {
    "service_request": "2023-1030108",
    "request_type": "Property Maintenance",
    "request_reason": "Property Maintenance",
    "date_created": "2023-08-28T15:43:06.000",
    "date_modified": "2023-08-28T15:43:06.000",
    "request_status": "Pending",
    "responsible_agency": "Department of Code Enforcement",
    "final_address": "23 Curran Rd",
    "address_councildis": "E",
    "status": "Pending",
    "rowid": "1030108",
    "final_x": "3703005.80772",
    "final_y": "562112.043871",
    "longitude": "-89.99903837416963",
    "latitude": "30.038941860000588",
    "geocoded_column": {
      "latitude": "30.038941860000588",
      "longitude": "-89.99903837416963"
    }
  },
  {
    "service_request": "2023-1030107",
    "request_type": "Property Maintenance",
    "request_reason": "Property Maintenance",
    "date_created": "2023-08-28T15:42:20.000",
    "date_modified": "2023-08-28T15:42:20.000",
    "request_status": "Pending",
    "responsible_agency": "Department of Code Enforcement",
    "final_address": "4422 Painters St",
    "address_councildis": "D",
    "status": "Pending",
    "rowid": "1030107",
    "final_x": "3686235.72726",
    "final_y": "549114.040403",
    "longitude": "-90.05249562424653",
    "latitude": "30.003728452413878",
    "geocoded_column": {
      "latitude": "30.003728452413878",
      "longitude": "-90.05249562424653"
    }
  },
  {
    "service_request": "2023-1030106",
    "request_type": "Trash/Recycling",
    "request_reason": "Request a Large Item Pick Up",
    "date_created": "2023-08-28T15:40:14.000",
    "date_modified": "2023-08-28T15:40:28.000",
    "request_status": "Pending",
    "responsible_agency": "Department of Sanitation",
    "final_address": "2439 Palmer Ave",
    "address_councildis": "A",
    "status": "Assigned to Contractor",
    "contractor": "Richards Disposal",
    "rowid": "1030106",
    "final_x": "3666496.6985",
    "final_y": "525836.844029",
    "longitude": "-90.11563623398682",
    "latitude": "29.940315853218774",
    "geocoded_column": {
      "latitude": "29.940315853218774",
      "longitude": "-90.11563623398682"
    }
  },
  {
    "service_request": "2023-1030105",
    "request_type": "Trash/Recycling",
    "request_reason": "Missed Trash Pick-Up",
    "date_created": "2023-08-28T15:39:39.000",
    "date_modified": "2023-08-28T15:39:39.000",
    "request_status": "Pending",
    "responsible_agency": "Department of Sanitation",
    "final_address": "5714 General Diaz St",
    "address_councildis": "A",
    "status": "Assigned to Contractor",
    "contractor": "IV Waste",
    "rowid": "1030105",
    "final_x": "3669260.51719",
    "final_y": "545497.682",
    "longitude": "-90.10624565382413",
    "latitude": "29.994295546433356",
    "geocoded_column": {
      "latitude": "29.994295546433356",
      "longitude": "-90.10624565382413"
    }
  },
  {
    "service_request": "2023-1030104",
    "request_type": "Roads/Drainage",
    "request_reason": "Pothole",
    "date_created": "2023-08-28T15:35:48.000",
    "date_modified": "2023-08-28T15:35:48.000",
    "request_status": "Pending",
    "responsible_agency": "Department of Public Works",
    "final_address": "1305 Marengo St",
    "address_councildis": "B",
    "status": "Pending",
    "rowid": "1030104",
    "final_x": "3672072.52596",
    "final_y": "520243.666104",
    "longitude": "-90.0982227615015",
    "latitude": "29.924772309522446",
    "geocoded_column": {
      "latitude": "29.924772309522446",
      "longitude": "-90.0982227615015"
    }
  },
  {
    "service_request": "2023-1030103",
    "request_type": "Abandoned Vehicles",
    "request_reason": "Abandoned/Junk Vehicles",
    "date_created": "2023-08-28T15:35:01.000",
    "date_modified": "2023-08-28T15:35:01.000",
    "request_status": "Pending",
    "responsible_agency": "Department of Public Works",
    "final_address": "3100 Banks St, New Orleans, Louisiana, 70119",
    "address_councildis": "B",
    "status": "Pending",
    "rowid": "1030103",
    "final_x": "3673242.86356",
    "final_y": "535116.448326",
    "longitude": "-90.09402060475061",
    "latitude": "29.96563283697744",
    "geocoded_column": {
      "latitude": "29.96563283697744",
      "longitude": "-90.09402060475061"
    }
  },
  {
    "service_request": "2023-1030102",
    "request_type": "Trash/Recycling",
    "request_reason": "Replace Trash Cart",
    "date_created": "2023-08-28T15:34:44.000",
    "date_modified": "2023-08-28T15:34:45.000",
    "request_status": "Pending",
    "responsible_agency": "Department of Sanitation",
    "final_address": "6537 Avenue A",
    "address_councildis": "A",
    "status": "Assigned to Contractor",
    "contractor": "IV Waste",
    "rowid": "1030102",
    "final_x": "3666058.5136",
    "final_y": "551639.507029",
    "longitude": "-90.1161543087211",
    "latitude": "30.011277341483385",
    "geocoded_column": {
      "latitude": "30.011277341483385",
      "longitude": "-90.1161543087211"
    }
  },
  {
    "service_request": "2023-1030101",
    "request_type": "Abandoned Vehicles",
    "request_reason": "Abandoned/Junk Vehicles",
    "date_created": "2023-08-28T15:33:23.000",
    "date_modified": "2023-08-28T15:36:30.000",
    "request_status": "Pending",
    "responsible_agency": "Department of Public Works",
    "final_address": "3800 BLK N Rocheblave St",
    "address_councildis": "D",
    "status": "Pending",
    "rowid": "1030101",
    "final_x": "3692568.62368",
    "final_y": "540313.685236",
    "longitude": "-90.03280457969271",
    "latitude": "29.979334501164548",
    "geocoded_column": {
      "latitude": "29.979334501164548",
      "longitude": "-90.03280457969271"
    }
  },
  {
    "service_request": "2023-1030100",
    "request_type": "Trash/Recycling",
    "request_reason": "MIssed Recycling Pick-Up",
    "date_created": "2023-08-28T15:32:43.000",
    "date_modified": "2023-08-28T18:22:45.000",
    "case_close_date": "2023-08-28T13:22:45.000",
    "request_status": "Closed",
    "responsible_agency": "Department of Sanitation",
    "final_address": "3103 Gravier St",
    "address_councildis": "B",
    "status": "Resolved",
    "contractor": "Richards Disposal",
    "contractor_action": "Completed",
    "rowid": "1030100",
    "final_x": "3672565.69921",
    "final_y": "534152.878981",
    "longitude": "-90.09619192118011",
    "latitude": "29.963003465431914",
    "geocoded_column": {
      "latitude": "29.963003465431914",
      "longitude": "-90.09619192118011"
    }
  },
  {
    "service_request": "2023-1030099",
    "request_type": "Trash/Recycling",
    "request_reason": "Illegal Dumping",
    "date_created": "2023-08-28T15:32:36.000",
    "date_modified": "2023-08-28T15:32:36.000",
    "request_status": "Pending",
    "responsible_agency": "Department of Sanitation",
    "final_address": "2015 Fourth St",
    "address_councildis": "B",
    "status": "Pending",
    "rowid": "1030099",
    "final_x": "3675347.95745",
    "final_y": "524031.148092",
    "longitude": "-90.08775333436502",
    "latitude": "29.935089169412034",
    "geocoded_column": {
      "latitude": "29.935089169412034",
      "longitude": "-90.08775333436502"
    }
  },
  {
    "service_request": "2023-1030098",
    "request_type": "Trash/Recycling",
    "request_reason": "Missed Trash Pick-Up",
    "date_created": "2023-08-28T15:30:48.000",
    "date_modified": "2023-08-28T15:30:49.000",
    "request_status": "Pending",
    "responsible_agency": "Department of Sanitation",
    "final_address": "7531 Vincent Rd",
    "address_councildis": "E",
    "status": "Assigned to Contractor",
    "contractor": "Waste Pro",
    "rowid": "1030098",
    "final_x": "3718857.94956",
    "final_y": "571240.259304",
    "longitude": "-89.94859313915694",
    "latitude": "30.063523599564835",
    "geocoded_column": {
      "latitude": "30.063523599564835",
      "longitude": "-89.94859313915694"
    }
  },
  {
    "service_request": "2023-1030097",
    "request_type": "Trash/Recycling",
    "request_reason": "MIssed Recycling Pick-Up",
    "date_created": "2023-08-28T15:30:16.000",
    "date_modified": "2023-08-28T15:30:17.000",
    "request_status": "Pending",
    "responsible_agency": "Department of Sanitation",
    "final_address": "5320 N Rampart St",
    "address_councildis": "E",
    "status": "Assigned to Contractor",
    "contractor": "Waste Pro",
    "rowid": "1030097",
    "final_x": "3696863.40573",
    "final_y": "533545.043525",
    "longitude": "-90.01948516329269",
    "latitude": "29.96058842556014",
    "geocoded_column": {
      "latitude": "29.96058842556014",
      "longitude": "-90.01948516329269"
    }
  },
  {
    "service_request": "2023-1030096",
    "request_type": "Trash/Recycling",
    "request_reason": "Request a Large Item Pick Up",
    "date_created": "2023-08-28T15:29:51.000",
    "date_modified": "2023-08-28T15:29:52.000",
    "request_status": "Pending",
    "responsible_agency": "Department of Sanitation",
    "final_address": "7531 Vincent Rd",
    "address_councildis": "E",
    "status": "Assigned to Contractor",
    "contractor": "Waste Pro",
    "rowid": "1030096",
    "final_x": "3718857.94956",
    "final_y": "571240.259304",
    "longitude": "-89.94859313915694",
    "latitude": "30.063523599564835",
    "geocoded_column": {
      "latitude": "30.063523599564835",
      "longitude": "-89.94859313915694"
    }
  },
  {
    "service_request": "2023-1030095",
    "request_type": "Abandoned Vehicles",
    "request_reason": "Abandoned/Junk Vehicles",
    "date_created": "2023-08-28T15:28:46.000",
    "date_modified": "2023-08-28T15:28:46.000",
    "request_status": "Pending",
    "responsible_agency": "Department of Public Works",
    "final_address": "3800 BLK N Rocheblave St",
    "address_councildis": "D",
    "status": "Pending",
    "rowid": "1030095",
    "final_x": "3692568.62368",
    "final_y": "540313.685236",
    "longitude": "-90.03280457969271",
    "latitude": "29.979334501164548",
    "geocoded_column": {
      "latitude": "29.979334501164548",
      "longitude": "-90.03280457969271"
    }
  },
  {
    "service_request": "2023-1030094",
    "request_type": "Trash/Recycling",
    "request_reason": "Request a Large Item Pick Up",
    "date_created": "2023-08-28T15:28:40.000",
    "date_modified": "2023-08-28T15:28:41.000",
    "request_status": "Pending",
    "responsible_agency": "Department of Sanitation",
    "final_address": "4617 Rosemont Pl Apt A",
    "address_councildis": "E",
    "status": "Assigned to Contractor",
    "contractor": "Waste Pro",
    "rowid": "1030094",
    "final_x": "3702864.26698",
    "final_y": "554206.606808",
    "longitude": "-89.9997764419282",
    "latitude": "30.017209502686562",
    "geocoded_column": {
      "latitude": "30.017209502686562",
      "longitude": "-89.9997764419282"
    }
  },
  {
    "service_request": "2023-1030093",
    "request_type": "Roads/Drainage",
    "request_reason": "Road Shoulder Repair",
    "date_created": "2023-08-28T15:28:26.000",
    "date_modified": "2023-08-28T15:28:26.000",
    "request_status": "Pending",
    "responsible_agency": "Department of Public Works",
    "final_address": "FAIRMONT DR & MONTREAL ST",
    "address_councildis": "D",
    "status": "Pending",
    "rowid": "1030093",
    "final_x": "3684993.0",
    "final_y": "546673.88",
    "longitude": "-90.05650750102352",
    "latitude": "29.997057027779825",
    "geocoded_column": {
      "latitude": "29.997057027779825",
      "longitude": "-90.05650750102352"
    }
  },
  {
    "service_request": "2023-1030092",
    "request_type": "Trash/Recycling",
    "request_reason": "Order Recycling Cart",
    "date_created": "2023-08-28T15:28:16.000",
    "date_modified": "2023-08-28T15:28:16.000",
    "request_status": "Pending",
    "responsible_agency": "Department of Sanitation",
    "final_address": "7613 Hampson St",
    "address_councildis": "A",
    "status": "Pending",
    "rowid": "1030092",
    "final_x": "3662062.1552",
    "final_y": "525992.054589",
    "longitude": "-90.12963171860397",
    "latitude": "29.940871470111038",
    "geocoded_column": {
      "latitude": "29.940871470111038",
      "longitude": "-90.12963171860397"
    }
  },
  {
    "service_request": "2023-1030091",
    "request_type": "Traffic Signals/Signs/Striping/Streetlights",
    "request_reason": "Street Light Outage/Malfunction",
    "date_created": "2023-08-28T15:26:24.000",
    "date_modified": "2023-08-28T15:26:25.000",
    "request_status": "Pending",
    "responsible_agency": "Department of Public Works",
    "final_address": "520 Seguin St",
    "address_councildis": "C",
    "status": "Assigned to Contractor",
    "contractor": "Legacy Professional Services",
    "rowid": "1030091",
    "final_x": "3686554.43478",
    "final_y": "529841.095425",
    "longitude": "-90.052169546897",
    "latitude": "29.950724837467966",
    "geocoded_column": {
      "latitude": "29.950724837467966",
      "longitude": "-90.052169546897"
    }
  },
  {
    "service_request": "2023-1030090",
    "request_type": "Traffic Signals/Signs/Striping/Streetlights",
    "request_reason": "Street Light Outage/Malfunction",
    "date_created": "2023-08-28T15:25:15.000",
    "date_modified": "2023-08-28T15:25:16.000",
    "request_status": "Pending",
    "responsible_agency": "Department of Public Works",
    "final_address": "520 Seguin St",
    "address_councildis": "C",
    "status": "Assigned to Contractor",
    "contractor": "Legacy Professional Services",
    "rowid": "1030090",
    "final_x": "3686554.43478",
    "final_y": "529841.095425",
    "longitude": "-90.052169546897",
    "latitude": "29.950724837467966",
    "geocoded_column": {
      "latitude": "29.950724837467966",
      "longitude": "-90.052169546897"
    }
  },
  {
    "service_request": "2023-1030089",
    "request_type": "Trash/Recycling",
    "request_reason": "Repair Trash Cart",
    "date_created": "2023-08-28T15:23:58.000",
    "date_modified": "2023-08-28T15:23:59.000",
    "request_status": "Pending",
    "responsible_agency": "Department of Sanitation",
    "final_address": "2817 Dumaine St",
    "address_councildis": "A",
    "status": "Assigned to Contractor",
    "contractor": "Richards Disposal",
    "rowid": "1030089",
    "final_x": "3676602.74241",
    "final_y": "537990.742409",
    "longitude": "-90.08331120921606",
    "latitude": "29.9734358178031",
    "geocoded_column": {
      "latitude": "29.9734358178031",
      "longitude": "-90.08331120921606"
    }
  },
  {
    "service_request": "2023-1030088",
    "request_type": "Trash/Recycling",
    "request_reason": "Start Trash Service",
    "date_created": "2023-08-28T15:22:31.000",
    "date_modified": "2023-08-28T15:22:32.000",
    "request_status": "Pending",
    "responsible_agency": "Department of Sanitation",
    "final_address": "2546 Myrtle St",
    "address_councildis": "D",
    "status": "Assigned to Contractor",
    "contractor": "IV Waste",
    "rowid": "1030088",
    "final_x": "3686945.9087",
    "final_y": "545962.58632",
    "longitude": "-90.05036352240758",
    "latitude": "29.995041245125616",
    "geocoded_column": {
      "latitude": "29.995041245125616",
      "longitude": "-90.05036352240758"
    }
  },
  {
    "service_request": "2023-1030087",
    "request_type": "Traffic Signals/Signs/Striping/Streetlights",
    "request_reason": "Street Light Outage/Malfunction",
    "date_created": "2023-08-28T15:20:36.000",
    "date_modified": "2023-08-28T15:20:37.000",
    "request_status": "Pending",
    "responsible_agency": "Department of Public Works",
    "final_address": "7301 Restgate Rd",
    "address_councildis": "E",
    "status": "Assigned to Contractor",
    "contractor": "Legacy Professional Services",
    "rowid": "1030087",
    "final_x": "3710589.65694",
    "final_y": "563611.912929",
    "longitude": "-89.97501531593832",
    "latitude": "30.042820895860814",
    "geocoded_column": {
      "latitude": "30.042820895860814",
      "longitude": "-89.97501531593832"
    }
  },
  {
    "service_request": "2023-1030086",
    "request_type": "Traffic Signals/Signs/Striping/Streetlights",
    "request_reason": "Traffic Signal Malfunctioning/Damaged",
    "date_created": "2023-08-28T15:19:59.000",
    "date_modified": "2023-08-28T15:19:59.000",
    "request_status": "Pending",
    "responsible_agency": "Department of Public Works",
    "final_address": "CHEF MENTEUR HWY & LOUISA ST",
    "address_councildis": "D",
    "status": "Pending",
    "rowid": "1030086",
    "final_x": "3691347.4",
    "final_y": "549732.88",
    "longitude": "-90.03632492843472",
    "latitude": "30.00527193180098",
    "geocoded_column": {
      "latitude": "30.00527193180098",
      "longitude": "-90.03632492843472"
    }
  },
  {
    "service_request": "2023-1030085",
    "request_type": "Trash/Recycling",
    "request_reason": "Illegal Dumping",
    "date_created": "2023-08-28T15:19:50.000",
    "date_modified": "2023-08-28T15:19:51.000",
    "request_status": "Pending",
    "responsible_agency": "Department of Sanitation",
    "final_address": "9424 Fig St",
    "address_councildis": "A",
    "status": "Pending",
    "rowid": "1030085",
    "final_x": "3662795.93485",
    "final_y": "536292.227591",
    "longitude": "-90.12697266383009",
    "latitude": "29.9691723965511",
    "geocoded_column": {
      "latitude": "29.9691723965511",
      "longitude": "-90.12697266383009"
    }
  },
  {
    "service_request": "2023-1030084",
    "request_type": "Trash/Recycling",
    "request_reason": "Request a Large Item Pick Up",
    "date_created": "2023-08-28T15:17:17.000",
    "date_modified": "2023-08-28T15:17:17.000",
    "request_status": "Pending",
    "responsible_agency": "Department of Sanitation",
    "final_address": "14050 Kingswood Dr",
    "address_councildis": "E",
    "status": "Assigned to Contractor",
    "contractor": "Waste Pro",
    "rowid": "1030084",
    "final_x": "3719552.09394",
    "final_y": "568577.908581",
    "longitude": "-89.94650079235394",
    "latitude": "30.056180161634703",
    "geocoded_column": {
      "latitude": "30.056180161634703",
      "longitude": "-89.94650079235394"
    }
  },
  {
    "service_request": "2023-1030083",
    "request_type": "Traffic Signals/Signs/Striping/Streetlights",
    "request_reason": "Street Light Outage/Malfunction",
    "date_created": "2023-08-28T15:15:39.000",
    "date_modified": "2023-08-28T15:15:39.000",
    "request_status": "Pending",
    "responsible_agency": "Department of Public Works",
    "final_address": "FIESTA ST & COMET ST",
    "address_councildis": "C",
    "status": "Assigned to Contractor",
    "contractor": "Legacy Professional Services",
    "rowid": "1030083",
    "final_x": "3699965.5",
    "final_y": "521814.08",
    "longitude": "-90.01011721307832",
    "latitude": "29.928234221924626",
    "geocoded_column": {
      "latitude": "29.928234221924626",
      "longitude": "-90.01011721307832"
    }
  },
  {
    "service_request": "2023-1030082",
    "request_type": "Trash/Recycling",
    "request_reason": "Replace Trash Cart",
    "date_created": "2023-08-28T15:15:18.000",
    "date_modified": "2023-08-28T15:15:19.000",
    "request_status": "Pending",
    "responsible_agency": "Department of Sanitation",
    "final_address": "2827 St Thomas St",
    "address_councildis": "B",
    "status": "Assigned to Contractor",
    "contractor": "Richards Disposal",
    "rowid": "1030082",
    "final_x": "3677792.99931",
    "final_y": "519252.035255",
    "longitude": "-90.08019935161909",
    "latitude": "29.921874857685197",
    "geocoded_column": {
      "latitude": "29.921874857685197",
      "longitude": "-90.08019935161909"
    }
  },
  {
    "service_request": "2023-1030081",
    "request_type": "Mosquito, Termite & Rodent Control",
    "request_reason": "Rodent Complaint (Rats)",
    "date_created": "2023-08-28T15:13:43.000",
    "date_modified": "2023-08-28T15:13:43.000",
    "request_status": "Pending",
    "responsible_agency": "Mosquito, Termite & Rodent Control Board",
    "final_address": "6319 Dorothea St",
    "address_councildis": "D",
    "status": "Pending",
    "rowid": "1030081",
    "final_x": "3696721.45386",
    "final_y": "557694.957467",
    "longitude": "-90.01905871176541",
    "latitude": "30.026996288054562",
    "geocoded_column": {
      "latitude": "30.026996288054562",
      "longitude": "-90.01905871176541"
    }
  },
  {
    "service_request": "2023-1030080",
    "request_type": "Trash/Recycling",
    "request_reason": "Request a Large Item Pick Up",
    "date_created": "2023-08-28T15:13:35.000",
    "date_modified": "2023-08-28T15:13:36.000",
    "request_status": "Pending",
    "responsible_agency": "Department of Sanitation",
    "final_address": "1500 Crescent St",
    "address_councildis": "D",
    "status": "Assigned to Contractor",
    "contractor": "IV Waste",
    "rowid": "1030080",
    "final_x": "3678544.07925",
    "final_y": "552388.871062",
    "longitude": "-90.07668136542954",
    "latitude": "30.012967231372674",
    "geocoded_column": {
      "latitude": "30.012967231372674",
      "longitude": "-90.07668136542954"
    }
  },
  {
    "service_request": "2023-1030079",
    "request_type": "Trash/Recycling",
    "request_reason": "Request a Large Item Pick Up",
    "date_created": "2023-08-28T15:11:15.000",
    "date_modified": "2023-08-28T15:11:16.000",
    "request_status": "Pending",
    "responsible_agency": "Department of Sanitation",
    "final_address": "4112 Clematis St",
    "address_councildis": "D",
    "status": "Assigned to Contractor",
    "contractor": "IV Waste",
    "rowid": "1030079",
    "final_x": "3685150.52521",
    "final_y": "548056.62005",
    "longitude": "-90.05596119261682",
    "latitude": "30.00085423821965",
    "geocoded_column": {
      "latitude": "30.00085423821965",
      "longitude": "-90.05596119261682"
    }
  },
  {
    "service_request": "2023-1030078",
    "request_type": "Trash/Recycling",
    "request_reason": "Request a Large Item Pick Up",
    "date_created": "2023-08-28T15:10:52.000",
    "date_modified": "2023-08-28T15:10:53.000",
    "request_status": "Pending",
    "responsible_agency": "Department of Sanitation",
    "final_address": "7111 Neptune Ct",
    "address_councildis": "E",
    "status": "Assigned to Contractor",
    "contractor": "Waste Pro",
    "rowid": "1030078",
    "final_x": "3701808.37655",
    "final_y": "559336.056989",
    "longitude": "-90.0029244281839",
    "latitude": "30.031347263532464",
    "geocoded_column": {
      "latitude": "30.031347263532464",
      "longitude": "-90.0029244281839"
    }
  },
  {
    "service_request": "2023-1030077",
    "request_type": "Trash/Recycling",
    "request_reason": "MIssed Recycling Pick-Up",
    "date_created": "2023-08-28T15:07:40.000",
    "date_modified": "2023-08-28T15:07:40.000",
    "request_status": "Pending",
    "responsible_agency": "Department of Sanitation",
    "final_address": "4400 BLK Elba St",
    "address_councildis": "B",
    "status": "Assigned to Contractor",
    "contractor": "Richards Disposal",
    "rowid": "1030077",
    "final_x": "3669665.58288",
    "final_y": "530460.659339",
    "longitude": "-90.1054751011141",
    "latitude": "29.952936859642445",
    "geocoded_column": {
      "latitude": "29.952936859642445",
      "longitude": "-90.1054751011141"
    }
  },
  {
    "service_request": "2023-1030076",
    "request_type": "Trash/Recycling",
    "request_reason": "Order Recycling Cart",
    "date_created": "2023-08-28T15:03:42.000",
    "date_modified": "2023-08-28T15:03:42.000",
    "request_status": "Pending",
    "responsible_agency": "Department of Sanitation",
    "final_address": "7724 Marquis St",
    "address_councildis": "E",
    "status": "Pending",
    "rowid": "1030076",
    "final_x": "3710922.8028",
    "final_y": "566690.116963",
    "longitude": "-89.97384702826919",
    "latitude": "30.051273852556243",
    "geocoded_column": {
      "latitude": "30.051273852556243",
      "longitude": "-89.97384702826919"
    }
  },
  {
    "service_request": "2023-1030073",
    "request_type": "Trash/Recycling",
    "request_reason": "Request a Large Item Pick Up",
    "date_created": "2023-08-28T15:02:15.000",
    "date_modified": "2023-08-28T15:02:16.000",
    "request_status": "Pending",
    "responsible_agency": "Department of Sanitation",
    "final_address": "5105 Perrier St",
    "address_councildis": "B",
    "status": "Assigned to Contractor",
    "contractor": "Richards Disposal",
    "rowid": "1030073",
    "final_x": "3668270.91578",
    "final_y": "519934.801528",
    "longitude": "-90.11023362940858",
    "latitude": "29.92403515823449",
    "geocoded_column": {
      "latitude": "29.92403515823449",
      "longitude": "-90.11023362940858"
    }
  },
  {
    "service_request": "2023-1030072",
    "request_type": "Trash/Recycling",
    "request_reason": "Missed Trash Pick-Up",
    "date_created": "2023-08-28T14:59:14.000",
    "date_modified": "2023-08-28T14:59:15.000",
    "request_status": "Pending",
    "responsible_agency": "Department of Sanitation",
    "final_address": "13147 Chateau Ct",
    "address_councildis": "E",
    "status": "Assigned to Contractor",
    "contractor": "Waste Pro",
    "rowid": "1030072",
    "final_x": "3724183.55078",
    "final_y": "561870.769759",
    "longitude": "-89.93212100849695",
    "latitude": "30.037583371383114",
    "geocoded_column": {
      "latitude": "30.037583371383114",
      "longitude": "-89.93212100849695"
    }
  },
  {
    "service_request": "2023-1030069",
    "request_type": "Parks & Parkways",
    "request_reason": "Request Tree Service (Right of Way/Public Property)",
    "date_created": "2023-08-28T14:58:54.000",
    "date_modified": "2023-08-28T15:03:23.000",
    "case_close_date": "2023-08-28T10:03:23.000",
    "request_status": "Closed",
    "responsible_agency": "Department of Parks & Parkway",
    "final_address": "3825 Napoleon Ave",
    "address_councildis": "B",
    "status": "Duplicate Request",
    "rowid": "1030069",
    "final_x": "3670156.96718",
    "final_y": "528719.81856",
    "longitude": "-90.1039824962895",
    "latitude": "29.948135630497777",
    "geocoded_column": {
      "latitude": "29.948135630497777",
      "longitude": "-90.1039824962895"
    }
  },
  {
    "service_request": "2023-1030068",
    "request_type": "Traffic Signals/Signs/Striping/Streetlights",
    "request_reason": "Striping/Road Surface Markings",
    "date_created": "2023-08-28T14:57:42.000",
    "date_modified": "2023-08-28T14:57:42.000",
    "request_status": "Pending",
    "responsible_agency": "Department of Public Works",
    "final_address": "ST CHARLES AVE & WASHINGTON AVE",
    "address_councildis": "B",
    "status": "Pending",
    "rowid": "1030068",
    "final_x": "3675940.1",
    "final_y": "522504.88",
    "longitude": "-90.08593639663825",
    "latitude": "29.930874717273824",
    "geocoded_column": {
      "latitude": "29.930874717273824",
      "longitude": "-90.08593639663825"
    }
  },
  {
    "service_request": "2023-1030067",
    "request_type": "Trash/Recycling",
    "request_reason": "Request a Large Item Pick Up",
    "date_created": "2023-08-28T14:47:08.000",
    "date_modified": "2023-08-28T14:47:10.000",
    "request_status": "Pending",
    "responsible_agency": "Department of Sanitation",
    "final_address": "1821 N Gayoso St",
    "address_councildis": "D",
    "status": "Assigned to Contractor",
    "contractor": "IV Waste",
    "rowid": "1030067",
    "final_x": "3679183.75298",
    "final_y": "542144.184205",
    "longitude": "-90.07501579139473",
    "latitude": "29.984778669947502",
    "geocoded_column": {
      "latitude": "29.984778669947502",
      "longitude": "-90.07501579139473"
    }
  },
  {
    "service_request": "2023-1030066",
    "request_type": "Roads/Drainage",
    "request_reason": "Street Subsidence (Sinking)",
    "date_created": "2023-08-28T14:39:47.000",
    "date_modified": "2023-08-28T14:39:47.000",
    "request_status": "Pending",
    "responsible_agency": "Department of Public Works",
    "final_address": "4835 Ken Ct",
    "address_councildis": "C",
    "status": "Pending",
    "rowid": "1030066",
    "final_x": "3702029.77169",
    "final_y": "518449.933046",
    "longitude": "-90.00372404310144",
    "latitude": "29.918918269507994",
    "geocoded_column": {
      "latitude": "29.918918269507994",
      "longitude": "-90.00372404310144"
    }
  },
  {
    "service_request": "2023-1030065",
    "request_type": "Trash/Recycling",
    "request_reason": "Repair Recycling Cart",
    "date_created": "2023-08-28T14:39:21.000",
    "date_modified": "2023-08-28T14:39:21.000",
    "request_status": "Pending",
    "responsible_agency": "Department of Sanitation",
    "final_address": "3501 Plymouth Pl",
    "address_councildis": "C",
    "status": "Pending",
    "rowid": "1030065",
    "final_x": "3702719.80516",
    "final_y": "518154.325878",
    "longitude": "-90.00155682501382",
    "latitude": "29.91808341674454",
    "geocoded_column": {
      "latitude": "29.91808341674454",
      "longitude": "-90.00155682501382"
    }
  },
  {
    "service_request": "2023-1030064",
    "request_type": "Property Maintenance",
    "request_reason": "Property Maintenance",
    "date_created": "2023-08-28T14:39:10.000",
    "date_modified": "2023-08-28T14:39:10.000",
    "request_status": "Pending",
    "responsible_agency": "Department of Code Enforcement",
    "final_address": "1800 St Anthony St",
    "address_councildis": "D",
    "status": "Pending",
    "rowid": "1030064",
    "final_x": "3683242.41468",
    "final_y": "538795.620297",
    "longitude": "-90.06231357442493",
    "latitude": "29.97544811390805",
    "geocoded_column": {
      "latitude": "29.97544811390805",
      "longitude": "-90.06231357442493"
    }
  },
  {
    "service_request": "2023-1030063",
    "request_type": "Trash/Recycling",
    "request_reason": "MIssed Recycling Pick-Up",
    "date_created": "2023-08-28T14:38:09.000",
    "date_modified": "2023-08-28T14:38:10.000",
    "request_status": "Pending",
    "responsible_agency": "Department of Sanitation",
    "final_address": "7538 Forum Blvd",
    "address_councildis": "E",
    "status": "Assigned to Contractor",
    "contractor": "Waste Pro",
    "rowid": "1030063",
    "final_x": "3720602.11686",
    "final_y": "572780.145897",
    "longitude": "-89.94302072944572",
    "latitude": "30.067699567831244",
    "geocoded_column": {
      "latitude": "30.067699567831244",
      "longitude": "-89.94302072944572"
    }
  },
  {
    "service_request": "2023-1030062",
    "request_type": "Trash/Recycling",
    "request_reason": "Illegal Dumping",
    "date_created": "2023-08-28T14:34:20.000",
    "date_modified": "2023-08-28T14:34:20.000",
    "request_status": "Pending",
    "responsible_agency": "Department of Sanitation",
    "final_address": "2700 BLK Franklin Ave",
    "address_councildis": "D",
    "status": "Pending",
    "rowid": "1030062",
    "final_x": "3687401.31578",
    "final_y": "542406.459594",
    "longitude": "-90.04905085082761",
    "latitude": "29.98524914064041",
    "geocoded_column": {
      "latitude": "29.98524914064041",
      "longitude": "-90.04905085082761"
    }
  },
  {
    "service_request": "2023-1030061",
    "request_type": "Property Maintenance",
    "request_reason": "Property Maintenance",
    "date_created": "2023-08-28T14:32:25.000",
    "date_modified": "2023-08-28T14:33:57.000",
    "request_status": "Pending",
    "responsible_agency": "Department of Code Enforcement",
    "final_address": "8513 Bill St",
    "address_councildis": "E",
    "status": "Pending",
    "rowid": "1030061",
    "final_x": "3703509.5203",
    "final_y": "563146.677856",
    "longitude": "-89.99740839077428",
    "latitude": "30.04177055851585",
    "geocoded_column": {
      "latitude": "30.04177055851585",
      "longitude": "-89.99740839077428"
    }
  },