[
  {
    "service_request": "2024-1065102",
    "request_type": "Property Maintenance",
    "request_reason": "Property Maintenance",
    "date_created": "2024-01-31T23:34:24.000",
    "date_modified": "2024-01-31T23:34:24.000",
    "request_status": "Pending",
    "responsible_agency": "Department of Code Enforcement",
    "final_address": "2623 Hudson Pl",
    "address_councildis": "C",
    "status": "Pending",
    "rowid": "1065102",
    "final_x": "3703343.58506",
    "final_y": "521326.709625",
    "longitude": "-89.99947133986437",
    "latitude": "29.926786425697088",
    "geocoded_column": {
      "latitude": "29.926786425697088",
      "longitude": "-89.99947133986437"
    }
  },
  {
    "service_request": "2024-1065101",
    "request_type": "Roads/Drainage",
    "request_reason": "Pothole",
    "date_created": "2024-01-31T22:49:16.000",
    "date_modified": "2024-01-31T22:49:16.000",
    "request_status": "Pending",
    "responsible_agency": "Department of Public Works",
    "final_address": "4216 Chestnut St",
    "address_councildis": "B",
    "status": "Pending",
    "rowid": "1065101",
    "final_x": "3671574.31393",
    "final_y": "519539.203703",
    "longitude": "-90.09981939416457",
    "latitude": "29.922850019854593",
    "geocoded_column": {
      "latitude": "29.922850019854593",
      "longitude": "-90.09981939416457"
    }
  },
  {
    "service_request": "2024-1065100",
    "request_type": "Trash/Recycling",
    "request_reason": "Replace Trash Cart",
    "date_created": "2024-01-31T22:37:29.000",
    "date_modified": "2024-01-31T22:37:30.000",
    "request_status": "Pending",
    "responsible_agency": "Department of Sanitation",
    "final_address": "5 Dunleith Ct",
    "address_councildis": "A",
    "status": "Assigned to Contractor",
    "contractor": "Richards Disposal",
    "rowid": "1065100",
    "final_x": "3663421.26419",
    "final_y": "525145.177469",
    "longitude": "-90.12536893761157",
    "latitude": "29.938503499486984",
    "geocoded_column": {
      "latitude": "29.938503499486984",
      "longitude": "-90.12536893761157"
    }
  },
  {
    "service_request": "2024-1065099",
    "request_type": "Trash/Recycling",
    "request_reason": "MIssed Recycling Pick-Up",
    "date_created": "2024-01-31T22:23:14.000",
    "date_modified": "2024-01-31T22:23:19.000",
    "request_status": "Pending",
    "responsible_agency": "Department of Sanitation",
    "final_address": "2707 Dryades St",
    "address_councildis": "B",
    "status": "Assigned to Contractor",
    "contractor": "Richards Disposal",
    "rowid": "1065099",
    "final_x": "3675504.75624",
    "final_y": "523600.792955",
    "longitude": "-90.08727309552222",
    "latitude": "29.933901145512046",
    "geocoded_column": {
      "latitude": "29.933901145512046",
      "longitude": "-90.08727309552222"
    }
  },
  {
    "service_request": "2024-1065098",
    "request_type": "Safety & Permits",
    "request_reason": "Licenses & Permits",
    "date_created": "2024-01-31T22:16:03.000",
    "date_modified": "2024-01-31T22:16:03.000",
    "request_status": "Pending",
    "responsible_agency": "Safety and Permits",
    "final_address": "3633 Fairmont Dr",
    "address_councildis": "D",
    "status": "Pending",
    "rowid": "1065098",
    "final_x": "3685560.35913",
    "final_y": "545767.839312",
    "longitude": "-90.05474717944614",
    "latitude": "29.994548344921675",
    "geocoded_column": {
      "latitude": "29.994548344921675",
      "longitude": "-90.05474717944614"
    }
  },
  {
    "service_request": "2024-1065097",
    "request_type": "Abandoned Vehicles",
    "request_reason": "Abandoned/Junk Vehicles",
    "date_created": "2024-01-31T22:10:38.000",
    "date_modified": "2024-01-31T22:10:38.000",
    "request_status": "Pending",
    "responsible_agency": "Department of Public Works",
    "final_address": "5000 BLK Lakeshore Dr",
    "address_councildis": "D",
    "status": "Pending",
    "rowid": "1065097",
    "final_x": "3690002.60093",
    "final_y": "560100.866462",
    "longitude": "-90.04020377415162",
    "latitude": "30.033821818421103",
    "geocoded_column": {
      "latitude": "30.033821818421103",
      "longitude": "-90.04020377415162"
    }
  },
  {
    "service_request": "2024-1065096",
    "request_type": "Abandoned Vehicles",
    "request_reason": "Abandoned/Junk Vehicles",
    "date_created": "2024-01-31T22:02:22.000",
    "date_modified": "2024-01-31T22:02:22.000",
    "request_status": "Pending",
    "responsible_agency": "Department of Public Works",
    "final_address": "1668 Pleasure St",
    "address_councildis": "D",
    "status": "Pending",
    "rowid": "1065096",
    "final_x": "3680434.96047",
    "final_y": "544788.486799",
    "longitude": "-90.07097175510896",
    "latitude": "29.99201173298",
    "geocoded_column": {
      "latitude": "29.99201173298",
      "longitude": "-90.07097175510896"
    }
  },
  {
    "service_request": "2024-1065095",
    "request_type": "Abandoned Vehicles",
    "request_reason": "Abandoned/Junk Vehicles",
    "date_created": "2024-01-31T21:57:44.000",
    "date_modified": "2024-01-31T21:57:44.000",
    "request_status": "Pending",
    "responsible_agency": "Department of Public Works",
    "final_address": "5510 Wingate Dr",
    "address_councildis": "D",
    "status": "Pending",
    "rowid": "1065095",
    "final_x": "3681291.62543",
    "final_y": "553109.138647",
    "longitude": "-90.06797548008936",
    "latitude": "30.014864566169432",
    "geocoded_column": {
      "latitude": "30.014864566169432",
      "longitude": "-90.06797548008936"
    }
  },
  {
    "service_request": "2024-1065094",
    "request_type": "Trash/Recycling",
    "request_reason": "Replace Trash Cart",
    "date_created": "2024-01-31T21:46:30.000",
    "date_modified": "2024-01-31T21:46:30.000",
    "request_status": "Pending",
    "responsible_agency": "Department of Sanitation",
    "final_address": "805 Roosevelt Pl",
    "address_councildis": "A",
    "status": "Assigned to Contractor",
    "contractor": "Richards Disposal",
    "rowid": "1065094",
    "final_x": "3673511.08276",
    "final_y": "539718.969162",
    "longitude": "-90.09301624771327",
    "latitude": "29.97828023006953",
    "geocoded_column": {
      "latitude": "29.97828023006953",
      "longitude": "-90.09301624771327"
    }
  },
  {
    "service_request": "2024-1065093",
    "request_type": "Trash/Recycling",
    "request_reason": "Order Recycling Cart",
    "date_created": "2024-01-31T21:42:23.000",
    "date_modified": "2024-01-31T21:42:23.000",
    "request_status": "Pending",
    "responsible_agency": "Department of Sanitation",
    "final_address": "807 Roosevelt Pl",
    "address_councildis": "A",
    "status": "Pending",
    "rowid": "1065093",
    "final_x": "3673514.33934",
    "final_y": "539732.44161",
    "longitude": "-90.09300550164367",
    "latitude": "29.978317177773494",
    "geocoded_column": {
      "latitude": "29.978317177773494",
      "longitude": "-90.09300550164367"
    }
  },
  {
    "service_request": "2024-1065092",
    "request_type": "Trash/Recycling",
    "request_reason": "Replace Trash Cart",
    "date_created": "2024-01-31T21:40:52.000",
    "date_modified": "2024-01-31T21:40:52.000",
    "request_status": "Pending",
    "responsible_agency": "Department of Sanitation",
    "final_address": "807 Roosevelt Pl",
    "address_councildis": "A",
    "status": "Assigned to Contractor",
    "contractor": "Richards Disposal",
    "rowid": "1065092",
    "final_x": "3673514.33934",
    "final_y": "539732.44161",
    "longitude": "-90.09300550164367",
    "latitude": "29.978317177773494",
    "geocoded_column": {
      "latitude": "29.978317177773494",
      "longitude": "-90.09300550164367"
    }
  },
  {
    "service_request": "2024-1065091",
    "request_type": "Trash/Recycling",
    "request_reason": "Replace Trash Cart",
    "date_created": "2024-01-31T20:49:51.000",
    "date_modified": "2024-01-31T20:49:52.000",
    "request_status": "Pending",
    "responsible_agency": "Department of Sanitation",
    "final_address": "576 Audubon St",
    "address_councildis": "A",
    "status": "Assigned to Contractor",
    "contractor": "Richards Disposal",
    "rowid": "1065091",
    "final_x": "3662944.91015",
    "final_y": "524284.735164",
    "longitude": "-90.12690144487883",
    "latitude": "29.93615135572155",
    "geocoded_column": {
      "latitude": "29.93615135572155",
      "longitude": "-90.12690144487883"
    }
  },
  {
    "service_request": "2024-1065090",
    "request_type": "Trash/Recycling",
    "request_reason": "Request a Large Item Pick Up",
    "date_created": "2024-01-31T19:45:45.000",
    "date_modified": "2024-01-31T19:45:45.000",
    "request_status": "Pending",
    "responsible_agency": "Department of Sanitation",
    "final_address": "7718 Maple St",
    "address_councildis": "A",
    "status": "Assigned to Contractor",
    "contractor": "Richards Disposal",
    "rowid": "1065090",
    "final_x": "3661963.78183",
    "final_y": "526427.219006",
    "longitude": "-90.12992787319855",
    "latitude": "29.942070875112904",
    "geocoded_column": {
      "latitude": "29.942070875112904",
      "longitude": "-90.12992787319855"
    }
  },
  {
    "service_request": "2024-1065088",
    "request_type": "Trash/Recycling",
    "request_reason": "MIssed Recycling Pick-Up",
    "date_created": "2024-01-31T19:12:16.000",
    "date_modified": "2024-01-31T19:12:17.000",
    "request_status": "Pending",
    "responsible_agency": "Department of Sanitation",
    "final_address": "1301 General Taylor St",
    "address_councildis": "B",
    "status": "Assigned to Contractor",
    "contractor": "Richards Disposal",
    "rowid": "1065088",
    "final_x": "3672844.37032",
    "final_y": "520291.135864",
    "longitude": "-90.09578468200387",
    "latitude": "29.924879936904606",
    "geocoded_column": {
      "latitude": "29.924879936904606",
      "longitude": "-90.09578468200387"
    }
  },
  {
    "service_request": "2024-1065087",
    "request_type": "Roads/Drainage",
    "request_reason": "Pothole",
    "date_created": "2024-01-31T18:24:57.000",
    "date_modified": "2024-01-31T18:24:57.000",
    "request_status": "Pending",
    "responsible_agency": "Department of Public Works",
    "final_address": "4216 Chestnut St",
    "address_councildis": "B",
    "status": "Pending",
    "rowid": "1065087",
    "final_x": "3671574.31393",
    "final_y": "519539.203703",
    "longitude": "-90.09981939416457",
    "latitude": "29.922850019854593",
    "geocoded_column": {
      "latitude": "29.922850019854593",
      "longitude": "-90.09981939416457"
    }
  },
  {
    "service_request": "2024-1065086",
    "request_type": "Trash/Recycling",
    "request_reason": "Replace Recycling Cart",
    "date_created": "2024-01-31T18:09:40.000",
    "date_modified": "2024-01-31T18:09:40.000",
    "request_status": "Pending",
    "responsible_agency": "Department of Sanitation",
    "final_address": "5418 Pratt Dr",
    "address_councildis": "D",
    "status": "Pending",
    "rowid": "1065086",
    "final_x": "3680278.98229",
    "final_y": "552493.599382",
    "longitude": "-90.07119636678235",
    "latitude": "30.013202765413453",
    "geocoded_column": {
      "latitude": "30.013202765413453",
      "longitude": "-90.07119636678235"
    }
  },
  {
    "service_request": "2024-1065085",
    "request_type": "Trash/Recycling",
    "request_reason": "Request a Large Item Pick Up",
    "date_created": "2024-01-31T17:50:44.000",
    "date_modified": "2024-01-31T17:50:45.000",
    "request_status": "Pending",
    "responsible_agency": "Department of Sanitation",
    "final_address": "11300 S Parkwood Ct",
    "address_councildis": "E",
    "status": "Assigned to Contractor",
    "contractor": "Waste Pro",
    "rowid": "1065085",
    "final_x": "3716924.78373",
    "final_y": "559068.849116",
    "longitude": "-89.95516667639004",
    "latitude": "30.03012129048611",
    "geocoded_column": {
      "latitude": "30.03012129048611",
      "longitude": "-89.95516667639004"
    }
  },
  {
    "service_request": "2024-1065084",
    "request_type": "Trash/Recycling",
    "request_reason": "Missed Trash Pick-Up",
    "date_created": "2024-01-31T17:47:46.000",
    "date_modified": "2024-01-31T17:47:47.000",
    "request_status": "Pending",
    "responsible_agency": "Department of Sanitation",
    "final_address": "1636 Broadway St",
    "address_councildis": "A",
    "status": "Assigned to Contractor",
    "contractor": "Richards Disposal",
    "rowid": "1065084",
    "final_x": "3665093.39424",
    "final_y": "527963.461439",
    "longitude": "-90.1199956123294",
    "latitude": "29.946204299856205",
    "geocoded_column": {
      "latitude": "29.946204299856205",
      "longitude": "-90.1199956123294"
    }
  },
  {
    "service_request": "2024-1065083",
    "request_type": "Property Maintenance",
    "request_reason": "Property Maintenance",
    "date_created": "2024-01-31T17:45:56.000",
    "date_modified": "2024-01-31T17:45:56.000",
    "request_status": "Pending",
    "responsible_agency": "Department of Code Enforcement",
    "final_address": "2438 Feliciana St",
    "address_councildis": "D",
    "status": "Pending",
    "rowid": "1065083",
    "final_x": "3690019.29084",
    "final_y": "541310.287628",
    "longitude": "-90.04082084571561",
    "latitude": "29.982154117331397",
    "geocoded_column": {
      "latitude": "29.982154117331397",
      "longitude": "-90.04082084571561"
    }
  },
  {
    "service_request": "2024-1065081",
    "request_type": "Trash/Recycling",
    "request_reason": "Request a Large Item Pick Up",
    "date_created": "2024-01-31T17:37:24.000",
    "date_modified": "2024-01-31T17:37:25.000",
    "request_status": "Pending",
    "responsible_agency": "Department of Sanitation",
    "final_address": "3500 Calhoun St",
    "address_councildis": "A",
    "status": "Assigned to Contractor",
    "contractor": "Richards Disposal",
    "rowid": "1065081",
    "final_x": "3667670.5474",
    "final_y": "529474.745729",
    "longitude": "-90.11180775201161",
    "latitude": "29.950284551471032",
    "geocoded_column": {
      "latitude": "29.950284551471032",
      "longitude": "-90.11180775201161"
    }
  },
  {
    "service_request": "2024-1065080",
    "request_type": "Roads/Drainage",
    "request_reason": "Street Flooding / Drainage",
    "date_created": "2024-01-31T17:36:48.000",
    "date_modified": "2024-01-31T17:36:48.000",
    "request_status": "Pending",
    "responsible_agency": "Department of Public Works",
    "final_address": "2837 Ponce De Leon St",
    "address_councildis": "A",
    "status": "Pending",
    "rowid": "1065080",
    "final_x": "3678049.75163",
    "final_y": "540523.416331",
    "longitude": "-90.07865366727364",
    "latitude": "29.98035631365456",
    "geocoded_column": {
      "latitude": "29.98035631365456",
      "longitude": "-90.07865366727364"
    }
  },
  {
    "service_request": "2024-1065079",
    "request_type": "Trash/Recycling",
    "request_reason": "Request a Large Item Pick Up",
    "date_created": "2024-01-31T17:35:25.000",
    "date_modified": "2024-01-31T17:35:25.000",
    "request_status": "Pending",
    "responsible_agency": "Department of Sanitation",
    "final_address": "5438 N Prieur St",
    "address_councildis": "E",
    "status": "Assigned to Contractor",
    "contractor": "Waste Pro",
    "rowid": "1065079",
    "final_x": "3698340.99421",
    "final_y": "536837.69332",
    "longitude": "-90.01469960594203",
    "latitude": "29.96959536797665",
    "geocoded_column": {
      "latitude": "29.96959536797665",
      "longitude": "-90.01469960594203"
    }
  },
  {
    "service_request": "2024-1065078",
    "request_type": "Trash/Recycling",
    "request_reason": "Request a Large Item Pick Up",
    "date_created": "2024-01-31T17:27:52.000",
    "date_modified": "2024-01-31T17:27:53.000",
    "request_status": "Pending",
    "responsible_agency": "Department of Sanitation",
    "final_address": "6737 Deanne St",
    "address_councildis": "D",
    "status": "Assigned to Contractor",
    "contractor": "Waste Pro",
    "rowid": "1065078",
    "final_x": "3695989.65008",
    "final_y": "555561.341145",
    "longitude": "-90.02144831939718",
    "latitude": "30.021152712746023",
    "geocoded_column": {
      "latitude": "30.021152712746023",
      "longitude": "-90.02144831939718"
    }
  },
  {
    "service_request": "2024-1065077",
    "request_type": "Abandoned Vehicles",
    "request_reason": "Vehicle Blocking Your Driveway",
    "date_created": "2024-01-31T17:25:27.000",
    "date_modified": "2024-01-31T17:25:27.000",
    "request_status": "Pending",
    "responsible_agency": "Department of Public Works",
    "final_address": "1015 N Broad St",
    "address_councildis": "A",
    "status": "Pending",
    "rowid": "1065077",
    "final_x": "3677412.77058",
    "final_y": "538027.154697",
    "longitude": "-90.08075171356579",
    "latitude": "29.973511616164796",
    "geocoded_column": {
      "latitude": "29.973511616164796",
      "longitude": "-90.08075171356579"
    }
  },
  {
    "service_request": "2024-1065076",
    "request_type": "Trash/Recycling",
    "request_reason": "Request a Large Item Pick Up",
    "date_created": "2024-01-31T17:17:23.000",
    "date_modified": "2024-01-31T17:17:24.000",
    "request_status": "Pending",
    "responsible_agency": "Department of Sanitation",
    "final_address": "931 Sister St, New Orleans, Louisiana, 70117",
    "address_councildis": "E",
    "status": "Assigned to Contractor",
    "contractor": "Waste Pro",
    "rowid": "1065076",
    "final_x": "3694566.51888",
    "final_y": "533978.403845",
    "longitude": "-90.02672263593091",
    "latitude": "29.961852230577342",
    "geocoded_column": {
      "latitude": "29.961852230577342",
      "longitude": "-90.02672263593091"
    }
  },
  {
    "service_request": "2024-1065075",
    "request_type": "Trash/Recycling",
    "request_reason": "Request a Large Item Pick Up",
    "date_created": "2024-01-31T17:16:00.000",
    "date_modified": "2024-01-31T17:16:00.000",
    "request_status": "Pending",
    "responsible_agency": "Department of Sanitation",
    "final_address": "931 Sister St, New Orleans, Louisiana, 70117",
    "address_councildis": "E",
    "status": "Assigned to Contractor",
    "contractor": "Waste Pro",
    "rowid": "1065075",
    "final_x": "3694566.51888",
    "final_y": "533978.403845",
    "longitude": "-90.02672263593091",
    "latitude": "29.961852230577342",
    "geocoded_column": {
      "latitude": "29.961852230577342",
      "longitude": "-90.02672263593091"
    }
  },
  {
    "service_request": "2024-1065073",
    "request_type": "Trash/Recycling",
    "request_reason": "Request a Large Item Pick Up",
    "date_created": "2024-01-31T16:59:54.000",
    "date_modified": "2024-01-31T16:59:54.000",
    "request_status": "Pending",
    "responsible_agency": "Department of Sanitation",
    "final_address": "3316 Johnny Jackson Jr Blvd",
    "address_councildis": "D",
    "status": "Assigned to Contractor",
    "contractor": "IV Waste",
    "rowid": "1065073",
    "final_x": "3691730.41308",
    "final_y": "544718.016463",
    "longitude": "-90.03529438610262",
    "latitude": "29.99147096090832",
    "geocoded_column": {
      "latitude": "29.99147096090832",
      "longitude": "-90.03529438610262"
    }
  },
  {
    "service_request": "2024-1065072",
    "request_type": "Abandoned Vehicles",
    "request_reason": "Abandoned/Junk Vehicles",
    "date_created": "2024-01-31T16:51:24.000",
    "date_modified": "2024-01-31T16:51:24.000",
    "request_status": "Pending",
    "responsible_agency": "Department of Public Works",
    "final_address": "611 N Miro St",
    "address_councildis": "D",
    "status": "Pending",
    "rowid": "1065072",
    "final_x": "3677756.84738",
    "final_y": "535648.935302",
    "longitude": "-90.07974721811472",
    "latitude": "29.966961978722015",
    "geocoded_column": {
      "latitude": "29.966961978722015",
      "longitude": "-90.07974721811472"
    }
  },
  {
    "service_request": "2024-1065071",
    "request_type": "Trash/Recycling",
    "request_reason": "Illegal Dumping",
    "date_created": "2024-01-31T16:51:03.000",
    "date_modified": "2024-01-31T16:51:04.000",
    "request_status": "Pending",
    "responsible_agency": "Department of Sanitation",
    "final_address": "HUDSON ST & MAINE ST",
    "address_councildis": "C",
    "status": "Pending",
    "rowid": "1065071",
    "final_x": "3694657.0",
    "final_y": "520050.98",
    "longitude": "-90.02693834276008",
    "latitude": "29.923553789426688",
    "geocoded_column": {
      "latitude": "29.923553789426688",
      "longitude": "-90.02693834276008"
    }
  },
  {
    "service_request": "2024-1065070",
    "request_type": "Trash/Recycling",
    "request_reason": "Request a Large Item Pick Up",
    "date_created": "2024-01-31T16:49:24.000",
    "date_modified": "2024-01-31T16:49:25.000",
    "request_status": "Pending",
    "responsible_agency": "Department of Sanitation",
    "final_address": "4614 Tulip St",
    "address_councildis": "E",
    "status": "Assigned to Contractor",
    "contractor": "Waste Pro",
    "rowid": "1065070",
    "final_x": "3702079.47095",
    "final_y": "553561.229271",
    "longitude": "-90.00227974823311",
    "latitude": "30.015460051573626",
    "geocoded_column": {
      "latitude": "30.015460051573626",
      "longitude": "-90.00227974823311"
    }
  },
  {
    "service_request": "2024-1065069",
    "request_type": "Trash/Recycling",
    "request_reason": "Replace Trash Cart",
    "date_created": "2024-01-31T16:45:26.000",
    "date_modified": "2024-01-31T16:45:27.000",
    "request_status": "Pending",
    "responsible_agency": "Department of Sanitation",
    "final_address": "5026 Loyola Ave",
    "address_councildis": "B",
    "status": "Assigned to Contractor",
    "contractor": "Richards Disposal",
    "rowid": "1065069",
    "final_x": "3668572.8779",
    "final_y": "522828.316283",
    "longitude": "-90.10918285886576",
    "latitude": "29.93198253673753",
    "geocoded_column": {
      "latitude": "29.93198253673753",
      "longitude": "-90.10918285886576"
    }
  },
  {
    "service_request": "2024-1065068",
    "request_type": "Abandoned Vehicles",
    "request_reason": "Abandoned/Junk Vehicles",
    "date_created": "2024-01-31T16:45:05.000",
    "date_modified": "2024-01-31T16:45:06.000",
    "request_status": "Pending",
    "responsible_agency": "Department of Public Works",
    "final_address": "435 S Norman C Francis Prkwy",
    "address_councildis": "B",
    "status": "Pending",
    "rowid": "1065068",
    "final_x": "3672165.91694",
    "final_y": "535599.824902",
    "longitude": "-90.09740510201316",
    "latitude": "29.966993944428843",
    "geocoded_column": {
      "latitude": "29.966993944428843",
      "longitude": "-90.09740510201316"
    }
  },
  {
    "service_request": "2024-1065067",
    "request_type": "Trash/Recycling",
    "request_reason": "Illegal Dumping",
    "date_created": "2024-01-31T16:42:42.000",
    "date_modified": "2024-01-31T16:42:42.000",
    "request_status": "Pending",
    "responsible_agency": "Department of Sanitation",
    "final_address": "HAYNE BLVD & JAHNCKE RD",
    "address_councildis": "E",
    "status": "Pending",
    "rowid": "1065067",
    "final_x": "3713201.4",
    "final_y": "569554.08",
    "longitude": "-89.96653722879982",
    "latitude": "30.05907404803106",
    "geocoded_column": {
      "latitude": "30.05907404803106",
      "longitude": "-89.96653722879982"
    }
  },
  {
    "service_request": "2024-1065066",
    "request_type": "Trash/Recycling",
    "request_reason": "Request a Large Item Pick Up",
    "date_created": "2024-01-31T16:42:26.000",
    "date_modified": "2024-01-31T16:42:27.000",
    "request_status": "Pending",
    "responsible_agency": "Department of Sanitation",
    "final_address": "5317 Douglass St",
    "address_councildis": "E",
    "status": "Assigned to Contractor",
    "contractor": "Waste Pro",
    "rowid": "1065066",
    "final_x": "3696381.23191",
    "final_y": "531917.787075",
    "longitude": "-90.02106661305902",
    "latitude": "29.956129237803463",
    "geocoded_column": {
      "latitude": "29.956129237803463",
      "longitude": "-90.02106661305902"
    }
  },
  {
    "service_request": "2024-1065065",
    "request_type": "Trash/Recycling",
    "request_reason": "Return Trash Cart",
    "date_created": "2024-01-31T16:39:23.000",
    "date_modified": "2024-01-31T16:39:23.000",
    "request_status": "Pending",
    "responsible_agency": "Department of Sanitation",
    "final_address": "2311 Leon C Simon Dr",
    "address_councildis": "D",
    "status": "Assigned to Contractor",
    "contractor": "IV Waste",
    "rowid": "1065065",
    "final_x": "3684244.59234",
    "final_y": "557085.875674",
    "longitude": "-90.05850574828108",
    "latitude": "30.025709134039257",
    "geocoded_column": {
      "latitude": "30.025709134039257",
      "longitude": "-90.05850574828108"
    }
  },
  {
    "service_request": "2024-1065064",
    "request_type": "Abandoned Vehicles",
    "request_reason": "Vehicle Blocking Your Driveway",
    "date_created": "2024-01-31T16:34:24.000",
    "date_modified": "2024-01-31T16:34:25.000",
    "request_status": "Pending",
    "responsible_agency": "Department of Public Works",
    "final_address": "425 Vallette St",
    "address_councildis": "C",
    "status": "Pending",
    "rowid": "1065064",
    "final_x": "3687503.71618",
    "final_y": "530140.245249",
    "longitude": "-90.04916162303545",
    "latitude": "29.951518178220784",
    "geocoded_column": {
      "latitude": "29.951518178220784",
      "longitude": "-90.04916162303545"
    }
  },
  {
    "service_request": "2024-1065063",
    "request_type": "Roads/Drainage",
    "request_reason": "Damaged Sidewalk",
    "date_created": "2024-01-31T16:33:10.000",
    "date_modified": "2024-01-31T16:33:11.000",
    "request_status": "Pending",
    "responsible_agency": "Department of Public Works",
    "final_address": "4500 Camelot Dr",
    "address_councildis": "E",
    "status": "Pending",
    "rowid": "1065063",
    "final_x": "3708461.4636",
    "final_y": "554111.16092",
    "longitude": "-89.98209529281216",
    "latitude": "30.016766760718138",
    "geocoded_column": {
      "latitude": "30.016766760718138",
      "longitude": "-89.98209529281216"
    }
  },
  {
    "service_request": "2024-1065062",
    "request_type": "Traffic Signals/Signs/Striping/Streetlights",
    "request_reason": "Street Light Knocked Down/Leaning",
    "date_created": "2024-01-31T16:23:26.000",
    "date_modified": "2024-01-31T16:23:26.000",
    "request_status": "Pending",
    "responsible_agency": "Department of Public Works",
    "final_address": "5520 S Johnson St",
    "address_councildis": "A",
    "status": "Pending",
    "contractor": "Legacy Professional Services",
    "rowid": "1065062",
    "final_x": "3668043.07661",
    "final_y": "527032.002878",
    "longitude": "-90.11071379366118",
    "latitude": "29.943556876760592",
    "geocoded_column": {
      "latitude": "29.943556876760592",
      "longitude": "-90.11071379366118"
    }
  },
  {
    "service_request": "2024-1065061",
    "request_type": "Trash/Recycling",
    "request_reason": "Replace Recycling Cart",
    "date_created": "2024-01-31T16:20:46.000",
    "date_modified": "2024-01-31T16:20:46.000",
    "request_status": "Pending",
    "responsible_agency": "Department of Sanitation",
    "final_address": "1538 S Carrollton Ave",
    "address_councildis": "A",
    "status": "Pending",
    "rowid": "1065061",
    "final_x": "3662849.51949",
    "final_y": "529384.613441",
    "longitude": "-90.12703309712448",
    "latitude": "29.950177154453034",
    "geocoded_column": {
      "latitude": "29.950177154453034",
      "longitude": "-90.12703309712448"
    }
  },
  {
    "service_request": "2024-1065060",
    "request_type": "Trash/Recycling",
    "request_reason": "Repair Trash Cart",
    "date_created": "2024-01-31T16:20:26.000",
    "date_modified": "2024-01-31T16:20:27.000",
    "request_status": "Pending",
    "responsible_agency": "Department of Sanitation",
    "final_address": "3422 Ursula Spencer Way",
    "address_councildis": "D",
    "status": "Assigned to Contractor",
    "contractor": "IV Waste",
    "rowid": "1065060",
    "final_x": "3693389.52157",
    "final_y": "544685.795919",
    "longitude": "-90.03005481021106",
    "latitude": "29.991330582697422",
    "geocoded_column": {
      "latitude": "29.991330582697422",
      "longitude": "-90.03005481021106"
    }
  },
  {
    "service_request": "2024-1065059",
    "request_type": "Trash/Recycling",
    "request_reason": "Replace Recycling Cart",
    "date_created": "2024-01-31T16:15:14.000",
    "date_modified": "2024-01-31T16:15:14.000",
    "request_status": "Pending",
    "responsible_agency": "Department of Sanitation",
    "final_address": "102 Lark St",
    "address_councildis": "D",
    "status": "Pending",
    "rowid": "1065059",
    "final_x": "3674886.09646",
    "final_y": "556396.967962",
    "longitude": "-90.08810100982849",
    "latitude": "30.024097858263044",
    "geocoded_column": {
      "latitude": "30.024097858263044",
      "longitude": "-90.08810100982849"
    }
  },
  {
    "service_request": "2024-1065058",
    "request_type": "Trash/Recycling",
    "request_reason": "Replace Trash Cart",
    "date_created": "2024-01-31T16:14:31.000",
    "date_modified": "2024-01-31T16:14:32.000",
    "request_status": "Pending",
    "responsible_agency": "Department of Sanitation",
    "final_address": "4105 Elba St",
    "address_councildis": "B",
    "status": "Assigned to Contractor",
    "contractor": "Richards Disposal",
    "rowid": "1065058",
    "final_x": "3670597.78823",
    "final_y": "529964.734081",
    "longitude": "-90.10254842019313",
    "latitude": "29.951545728057816",
    "geocoded_column": {
      "latitude": "29.951545728057816",
      "longitude": "-90.10254842019313"
    }
  },
  {
    "service_request": "2024-1065056",
    "request_type": "Traffic Signals/Signs/Striping/Streetlights",
    "request_reason": "Street Light Outage/Malfunction",
    "date_created": "2024-01-31T15:58:36.000",
    "date_modified": "2024-01-31T15:58:36.000",
    "request_status": "Pending",
    "responsible_agency": "Department of Public Works",
    "final_address": "5011 N Rampart St",
    "address_councildis": "E",
    "status": "Assigned to Contractor",
    "contractor": "Legacy Professional Services",
    "rowid": "1065056",
    "final_x": "3695971.16669",
    "final_y": "533850.370565",
    "longitude": "-90.02229163039189",
    "latitude": "29.96145606751464",
    "geocoded_column": {
      "latitude": "29.96145606751464",
      "longitude": "-90.02229163039189"
    }
  },
  {
    "service_request": "2024-1065055",
    "request_type": "Trash/Recycling",
    "request_reason": "Replace Trash Cart",
    "date_created": "2024-01-31T15:56:33.000",
    "date_modified": "2024-01-31T15:56:34.000",
    "request_status": "Pending",
    "responsible_agency": "Department of Sanitation",
    "final_address": "9319 Fig St",
    "address_councildis": "A",
    "status": "Assigned to Contractor",
    "contractor": "Richards Disposal",
    "rowid": "1065055",
    "final_x": "3663083.54298",
    "final_y": "536122.665095",
    "longitude": "-90.12607001406765",
    "latitude": "29.96869782643663",
    "geocoded_column": {
      "latitude": "29.96869782643663",
      "longitude": "-90.12607001406765"
    }
  },
  {
    "service_request": "2024-1065054",
    "request_type": "Trash/Recycling",
    "request_reason": "Replace Trash Cart",
    "date_created": "2024-01-31T15:55:13.000",
    "date_modified": "2024-01-31T15:55:14.000",
    "request_status": "Pending",
    "responsible_agency": "Department of Sanitation",
    "final_address": "9319 Fig St",
    "address_councildis": "A",
    "status": "Assigned to Contractor",
    "contractor": "Richards Disposal",
    "rowid": "1065054",
    "final_x": "3663083.54298",
    "final_y": "536122.665095",
    "longitude": "-90.12607001406765",
    "latitude": "29.96869782643663",
    "geocoded_column": {
      "latitude": "29.96869782643663",
      "longitude": "-90.12607001406765"
    }
  },
  {
    "service_request": "2024-1065053",
    "request_type": "Trash/Recycling",
    "request_reason": "MIssed Recycling Pick-Up",
    "date_created": "2024-01-31T15:54:51.000",
    "date_modified": "2024-01-31T15:54:52.000",
    "request_status": "Pending",
    "responsible_agency": "Department of Sanitation",
    "final_address": "2225 St Ann St",
    "address_councildis": "D",
    "status": "Assigned to Contractor",
    "contractor": "Richards Disposal",
    "rowid": "1065053",
    "final_x": "3678423.77282",
    "final_y": "536130.111943",
    "longitude": "-90.07762441265268",
    "latitude": "29.96826497089667",
    "geocoded_column": {
      "latitude": "29.96826497089667",
      "longitude": "-90.07762441265268"
    }
  },
  {
    "service_request": "2024-1065052",
    "request_type": "Property Maintenance",
    "request_reason": "Property Maintenance",
    "date_created": "2024-01-31T15:51:56.000",
    "date_modified": "2024-01-31T15:51:56.000",
    "request_status": "Pending",
    "responsible_agency": "Department of Code Enforcement",
    "final_address": "12200 S Interstate 10 Service Rd",
    "address_councildis": "E",
    "status": "Pending",
    "rowid": "1065052",
    "final_x": "3716031.73228",
    "final_y": "565401.199458",
    "longitude": "-89.9577484658929",
    "latitude": "30.047562198756683",
    "geocoded_column": {
      "latitude": "30.047562198756683",
      "longitude": "-89.9577484658929"
    }
  },
  {
    "service_request": "2024-1065051",
    "request_type": "Roads/Drainage",
    "request_reason": "Pothole",
    "date_created": "2024-01-31T15:50:48.000",
    "date_modified": "2024-01-31T15:50:48.000",
    "request_status": "Pending",
    "responsible_agency": "Department of Public Works",
    "final_address": "1301 Constantinople St",
    "address_councildis": "B",
    "status": "Pending",
    "rowid": "1065051",
    "final_x": "3672430.66305",
    "final_y": "520250.7726",
    "longitude": "-90.09709199725775",
    "latitude": "29.924781230435865",
    "geocoded_column": {
      "latitude": "29.924781230435865",
      "longitude": "-90.09709199725775"
    }
  },
  {
    "service_request": "2024-1065049",
    "request_type": "Trash/Recycling",
    "request_reason": "Illegal Dumping",
    "date_created": "2024-01-31T15:48:07.000",
    "date_modified": "2024-01-31T15:48:07.000",
    "request_status": "Pending",
    "responsible_agency": "Department of Sanitation",
    "final_address": "2222 Philip St",
    "address_councildis": "B",
    "status": "Pending",
    "rowid": "1065049",
    "final_x": "3675827.74325",
    "final_y": "525267.423485",
    "longitude": "-90.08619617228692",
    "latitude": "29.93847417246127",
    "geocoded_column": {
      "latitude": "29.93847417246127",
      "longitude": "-90.08619617228692"
    }
  },
  {
    "service_request": "2024-1065048",
    "request_type": "Roads/Drainage",
    "request_reason": "Pothole",
    "date_created": "2024-01-31T15:44:46.000",
    "date_modified": "2024-01-31T15:44:46.000",
    "request_status": "Pending",
    "responsible_agency": "Department of Public Works",
    "final_address": "1312 Milan St",
    "address_councildis": "B",
    "status": "Pending",
    "rowid": "1065048",
    "final_x": "3671625.82823",
    "final_y": "520286.919608",
    "longitude": "-90.09963137110304",
    "latitude": "29.92490447494246",
    "geocoded_column": {
      "latitude": "29.92490447494246",
      "longitude": "-90.09963137110304"
    }
  },
  {
    "service_request": "2024-1065047",
    "request_type": "Traffic Signals/Signs/Striping/Streetlights",
    "request_reason": "Street Name Sign Damaged or Missing",
    "date_created": "2024-01-31T15:44:32.000",
    "date_modified": "2024-01-31T15:44:32.000",
    "request_status": "Pending",
    "responsible_agency": "Department of Public Works",
    "final_address": "INTREPID ST & ENDEAVORS CT",
    "address_councildis": "E",
    "status": "Pending",
    "rowid": "1065047",
    "final_x": "3726343.2",
    "final_y": "570759.18",
    "longitude": "-89.92495084974166",
    "latitude": "30.061949985106406",
    "geocoded_column": {
      "latitude": "30.061949985106406",
      "longitude": "-89.92495084974166"
    }
  },
  {
    "service_request": "2024-1065046",
    "request_type": "Abandoned Vehicles",
    "request_reason": "Abandoned/Junk Vehicles",
    "date_created": "2024-01-31T15:40:32.000",
    "date_modified": "2024-01-31T15:40:32.000",
    "request_status": "Pending",
    "responsible_agency": "Department of Public Works",
    "final_address": "8010 Breakwater Dr",
    "address_councildis": "A",
    "status": "Pending",
    "rowid": "1065046",
    "final_x": "3665510.43476",
    "final_y": "557833.670363",
    "longitude": "-90.1176782965409",
    "latitude": "30.028325105218137",
    "geocoded_column": {
      "latitude": "30.028325105218137",
      "longitude": "-90.1176782965409"
    }
  },
  {
    "service_request": "2024-1065045",
    "request_type": "Trash/Recycling",
    "request_reason": "Order Trash Cart",
    "date_created": "2024-01-31T15:39:21.000",
    "date_modified": "2024-01-31T15:39:21.000",
    "request_status": "Pending",
    "responsible_agency": "Department of Sanitation",
    "final_address": "1029 Broadway, Minden, Louisiana, 71055",
    "status": "Assigned to Contractor",
    "rowid": "1065045",
    "longitude": "0.0",
    "latitude": "0.0",
    "geocoded_column": {
      "latitude": "0.0",
      "longitude": "0.0"
    }
  },
  {
    "service_request": "2024-1065044",
    "request_type": "Trash/Recycling",
    "request_reason": "Request a Large Item Pick Up",
    "date_created": "2024-01-31T15:38:09.000",
    "date_modified": "2024-01-31T15:38:10.000",
    "request_status": "Pending",
    "responsible_agency": "Department of Sanitation",
    "final_address": "1515 Melpomene St",
    "address_councildis": "B",
    "status": "Assigned to Contractor",
    "contractor": "Richards Disposal",
    "rowid": "1065044",
    "final_x": "3679558.7725",
    "final_y": "525361.465277",
    "longitude": "-90.07441367381219",
    "latitude": "29.938620568523433",
    "geocoded_column": {
      "latitude": "29.938620568523433",
      "longitude": "-90.07441367381219"
    }
  },
  {
    "service_request": "2024-1065043",
    "request_type": "Property Maintenance",
    "request_reason": "Property Maintenance",
    "date_created": "2024-01-31T15:36:39.000",
    "date_modified": "2024-01-31T15:36:39.000",
    "request_status": "Pending",
    "responsible_agency": "Department of Code Enforcement",
    "final_address": "3333 Gravier St",
    "address_councildis": "B",
    "status": "Pending",
    "rowid": "1065043",
    "final_x": "3671759.63745",
    "final_y": "534580.110341",
    "longitude": "-90.09872283447639",
    "latitude": "29.964202114292107",
    "geocoded_column": {
      "latitude": "29.964202114292107",
      "longitude": "-90.09872283447639"
    }
  },
  {
    "service_request": "2024-1065042",
    "request_type": "Trash/Recycling",
    "request_reason": "Replace Trash Cart",
    "date_created": "2024-01-31T15:35:45.000",
    "date_modified": "2024-01-31T15:35:45.000",
    "request_status": "Pending",
    "responsible_agency": "Department of Sanitation",
    "final_address": "9319 Fig St",
    "address_councildis": "A",
    "status": "Assigned to Contractor",
    "contractor": "Richards Disposal",
    "rowid": "1065042",
    "final_x": "3663083.54298",
    "final_y": "536122.665095",
    "longitude": "-90.12607001406765",
    "latitude": "29.96869782643663",
    "geocoded_column": {
      "latitude": "29.96869782643663",
      "longitude": "-90.12607001406765"
    }
  },
  {
    "service_request": "2024-1065041",
    "request_type": "Trash/Recycling",
    "request_reason": "Replace Trash Cart",
    "date_created": "2024-01-31T15:27:00.000",
    "date_modified": "2024-01-31T15:27:00.000",
    "request_status": "Pending",
    "responsible_agency": "Department of Sanitation",
    "final_address": "7722 Spruce St",
    "address_councildis": "A",
    "status": "Assigned to Contractor",
    "contractor": "Richards Disposal",
    "rowid": "1065041",
    "final_x": "3664765.09146",
    "final_y": "529569.455553",
    "longitude": "-90.12097853189991",
    "latitude": "29.950629820364885",
    "geocoded_column": {
      "latitude": "29.950629820364885",
      "longitude": "-90.12097853189991"
    }
  },
  {
    "service_request": "2024-1065040",
    "request_type": "Trash/Recycling",
    "request_reason": "Repair Trash Cart",
    "date_created": "2024-01-31T15:25:16.000",
    "date_modified": "2024-01-31T15:25:17.000",
    "request_status": "Pending",
    "responsible_agency": "Department of Sanitation",
    "final_address": "2429 Hyman Pl",
    "address_councildis": "C",
    "status": "Assigned to Contractor",
    "contractor": "Richards Disposal",
    "rowid": "1065040",
    "final_x": "3701021.60522",
    "final_y": "522098.906618",
    "longitude": "-90.00677293700672",
    "latitude": "29.92898381972668",
    "geocoded_column": {
      "latitude": "29.92898381972668",
      "longitude": "-90.00677293700672"
    }
  },
  {
    "service_request": "2024-1065039",
    "request_type": "Traffic Signals/Signs/Striping/Streetlights",
    "request_reason": "Street Light Outage/Malfunction",
    "date_created": "2024-01-31T15:22:29.000",
    "date_modified": "2024-01-31T15:22:30.000",
    "request_status": "Pending",
    "responsible_agency": "Department of Public Works",
    "final_address": "7901 Parry St",
    "address_councildis": "E",
    "status": "Assigned to Contractor",
    "contractor": "Legacy Professional Services",
    "rowid": "1065039",
    "final_x": "3713876.31749",
    "final_y": "569295.759014",
    "longitude": "-89.96441364651923",
    "latitude": "30.05834161820311",
    "geocoded_column": {
      "latitude": "30.05834161820311",
      "longitude": "-89.96441364651923"
    }
  },
  {
    "service_request": "2024-1065038",
    "request_type": "Parks & Parkways",
    "request_reason": "Request Tree Service (Right of Way/Public Property)",
    "date_created": "2024-01-31T15:20:30.000",
    "date_modified": "2024-01-31T15:20:30.000",
    "request_status": "Pending",
    "responsible_agency": "Department of Parks & Parkway",
    "final_address": "1700 BLK Jena St",
    "address_councildis": "B",
    "status": "Pending",
    "rowid": "1065038",
    "final_x": "3670393.92558",
    "final_y": "521379.590887",
    "longitude": "-90.10348307331647",
    "latitude": "29.927945385458685",
    "geocoded_column": {
      "latitude": "29.927945385458685",
      "longitude": "-90.10348307331647"
    }
  },
  {
    "service_request": "2024-1065037",
    "request_type": "Parks & Parkways",
    "request_reason": "Request Tree Service (Right of Way/Public Property)",
    "date_created": "2024-01-31T15:18:36.000",
    "date_modified": "2024-01-31T15:18:36.000",
    "request_status": "Pending",
    "responsible_agency": "Department of Parks & Parkway",
    "final_address": "3333 Gravier St",
    "address_councildis": "B",
    "status": "Pending",
    "rowid": "1065037",
    "final_x": "3671759.63745",
    "final_y": "534580.110341",
    "longitude": "-90.09872283447639",
    "latitude": "29.964202114292107",
    "geocoded_column": {
      "latitude": "29.964202114292107",
      "longitude": "-90.09872283447639"
    }
  },
  {
    "service_request": "2024-1065036",
    "request_type": "Trash/Recycling",
    "request_reason": "Repair Recycling Cart",
    "date_created": "2024-01-31T15:18:18.000",
    "date_modified": "2024-01-31T15:18:18.000",
    "request_status": "Pending",
    "responsible_agency": "Department of Sanitation",
    "final_address": "2317 Second St",
    "address_councildis": "B",
    "status": "Pending",
    "rowid": "1065036",
    "final_x": "3675264.54805",
    "final_y": "525275.213885",
    "longitude": "-90.08797397144585",
    "latitude": "29.938512436527837",
    "geocoded_column": {
      "latitude": "29.938512436527837",
      "longitude": "-90.08797397144585"
    }
  },
  {
    "service_request": "2024-1065035",
    "request_type": "Trash/Recycling",
    "request_reason": "Request a Large Item Pick Up",
    "date_created": "2024-01-31T15:16:16.000",
    "date_modified": "2024-01-31T15:16:16.000",
    "request_status": "Pending",
    "responsible_agency": "Department of Sanitation",
    "final_address": "4560 Francisco Verrett Dr",
    "address_councildis": "E",
    "status": "Assigned to Contractor",
    "contractor": "Waste Pro",
    "rowid": "1065035",
    "final_x": "3704299.35614",
    "final_y": "554026.151256",
    "longitude": "-89.9952488368954",
    "latitude": "30.016667317013255",
    "geocoded_column": {
      "latitude": "30.016667317013255",
      "longitude": "-89.9952488368954"
    }
  },
  {
    "service_request": "2024-1065034",
    "request_type": "Abandoned Vehicles",
    "request_reason": "Abandoned/Junk Vehicles",
    "date_created": "2024-01-31T15:16:08.000",
    "date_modified": "2024-01-31T15:20:02.000",
    "request_status": "Pending",
    "responsible_agency": "Department of Public Works",
    "final_address": "2426 Deers St",
    "address_councildis": "D",
    "status": "Pending",
    "rowid": "1065034",
    "final_x": "3688206.13347",
    "final_y": "541594.616524",
    "longitude": "-90.04653757259943",
    "latitude": "29.98299203331465",
    "geocoded_column": {
      "latitude": "29.98299203331465",
      "longitude": "-90.04653757259943"
    }
  },
  {
    "service_request": "2024-1065033",
    "request_type": "Traffic Signals/Signs/Striping/Streetlights",
    "request_reason": "Traffic Sign Missing/Damaged",
    "date_created": "2024-01-31T15:10:44.000",
    "date_modified": "2024-01-31T15:10:45.000",
    "request_status": "Pending",
    "responsible_agency": "Department of Public Works",
    "final_address": "GENERAL DE GAULLE DR & RUE PARC FONTAINE",
    "address_councildis": "C",
    "status": "Pending",
    "rowid": "1065033",
    "final_x": "3699739.8",
    "final_y": "518436.18",
    "longitude": "-90.01095275472566",
    "latitude": "29.91895331992069",
    "geocoded_column": {
      "latitude": "29.91895331992069",
      "longitude": "-90.01095275472566"
    }
  },
  {
    "service_request": "2024-1065032",
    "request_type": "Trash/Recycling",
    "request_reason": "Return Trash Cart",
    "date_created": "2024-01-31T15:09:36.000",
    "date_modified": "2024-01-31T15:09:37.000",
    "case_close_date": "2024-01-29T18:00:00.000",
    "request_status": "Closed",
    "responsible_agency": "Department of Sanitation",
    "final_address": "13710 Lourdes St",
    "address_councildis": "E",
    "status": "Assigned to Contractor",
    "contractor": "Waste Pro",
    "contractor_action": "Completed",
    "rowid": "1065032",
    "final_x": "3727351.75763",
    "final_y": "561363.964254",
    "longitude": "-89.92212859663363",
    "latitude": "30.036082956935807",
    "geocoded_column": {
      "latitude": "30.036082956935807",
      "longitude": "-89.92212859663363"
    }
  },
  {
    "service_request": "2024-1065031",
    "request_type": "Roads/Drainage",
    "request_reason": "Man hole cover issue",
    "date_created": "2024-01-31T15:07:56.000",
    "date_modified": "2024-01-31T15:07:56.000",
    "request_status": "Pending",
    "responsible_agency": "Department of Public Works",
    "final_address": "917 Dumaine St",
    "address_councildis": "C",
    "status": "Pending",
    "rowid": "1065031",
    "final_x": "3682339.55554",
    "final_y": "533590.571653",
    "longitude": "-90.06534695924431",
    "latitude": "29.961163531429314",
    "geocoded_column": {
      "latitude": "29.961163531429314",
      "longitude": "-90.06534695924431"
    }
  },
  {
    "service_request": "2024-1065030",
    "request_type": "Abandoned Vehicles",
    "request_reason": "Abandoned/Junk Vehicles",
    "date_created": "2024-01-31T15:03:46.000",
    "date_modified": "2024-01-31T15:03:46.000",
    "request_status": "Closed",
    "responsible_agency": "Department of Public Works",
    "final_address": "1500 Tricou St",
    "address_councildis": "E",
    "status": "Inspected",
    "rowid": "1065030",
    "final_x": "3700683.28042",
    "final_y": "534497.199941",
    "longitude": "-90.00738804638381",
    "latitude": "29.96308552823668",
    "geocoded_column": {
      "latitude": "29.96308552823668",
      "longitude": "-90.00738804638381"
    }
  },
  {
    "service_request": "2024-1065027",
    "request_type": "Trash/Recycling",
    "request_reason": "Order Trash Cart",
    "date_created": "2024-01-31T14:57:54.000",
    "date_modified": "2024-01-31T14:57:54.000",
    "request_status": "Pending",
    "responsible_agency": "Department of Sanitation",
    "final_address": "4831 Cerise Ave",
    "address_councildis": "E",
    "status": "Assigned to Contractor",
    "contractor": "Waste Pro",
    "rowid": "1065027",
    "final_x": "3708627.43851",
    "final_y": "556242.661722",
    "longitude": "-89.98149143278616",
    "latitude": "30.022622176141155",
    "geocoded_column": {
      "latitude": "30.022622176141155",
      "longitude": "-89.98149143278616"
    }
  },
  {
    "service_request": "2024-1065026",
    "request_type": "Roads/Drainage",
    "request_reason": "Catch Basin - Clogged",
    "date_created": "2024-01-31T14:56:13.000",
    "date_modified": "2024-01-31T14:56:14.000",
    "request_status": "Pending",
    "responsible_agency": "Department of Public Works",
    "final_address": "222 Walnut St",
    "address_councildis": "A",
    "status": "Pending",
    "rowid": "1065026",
    "final_x": "3661301.00986",
    "final_y": "521243.491065",
    "longitude": "-90.13219195846244",
    "latitude": "29.927836378738213",
    "geocoded_column": {
      "latitude": "29.927836378738213",
      "longitude": "-90.13219195846244"
    }
  },
  {
    "service_request": "2024-1065025",
    "request_type": "Trash/Recycling",
    "request_reason": "Repair Trash Cart",
    "date_created": "2024-01-31T14:53:20.000",
    "date_modified": "2024-01-31T14:53:20.000",
    "request_status": "Pending",
    "responsible_agency": "Department of Sanitation",
    "final_address": "917 Dumaine St",
    "address_councildis": "C",
    "status": "Assigned to Contractor",
    "contractor": "Empire Services",
    "rowid": "1065025",
    "final_x": "3682339.55554",
    "final_y": "533590.571653",
    "longitude": "-90.06534695924431",
    "latitude": "29.961163531429314",
    "geocoded_column": {
      "latitude": "29.961163531429314",
      "longitude": "-90.06534695924431"
    }
  },
  {
    "service_request": "2024-1065024",
    "request_type": "Abandoned Vehicles",
    "request_reason": "Abandoned/Junk Vehicles",
    "date_created": "2024-01-31T14:52:14.000",
    "date_modified": "2024-01-31T14:56:18.000",
    "request_status": "Pending",
    "responsible_agency": "Department of Public Works",
    "final_address": "8000 Breakwater Dr",
    "address_councildis": "A",
    "status": "Pending",
    "rowid": "1065024",
    "final_x": "3665411.47661",
    "final_y": "557823.074715",
    "longitude": "-90.11799135536138",
    "latitude": "30.02829885736284",
    "geocoded_column": {
      "latitude": "30.02829885736284",
      "longitude": "-90.11799135536138"
    }
  },
  {
    "service_request": "2024-1065023",
    "request_type": "Property Maintenance",
    "request_reason": "Property Maintenance",
    "date_created": "2024-01-31T14:51:59.000",
    "date_modified": "2024-01-31T14:51:59.000",
    "request_status": "Pending",
    "responsible_agency": "Department of Code Enforcement",
    "final_address": "1015 N Broad St",
    "address_councildis": "A",
    "status": "Pending",
    "rowid": "1065023",
    "final_x": "3677412.77058",
    "final_y": "538027.154697",
    "longitude": "-90.08075171356579",
    "latitude": "29.973511616164796",
    "geocoded_column": {
      "latitude": "29.973511616164796",
      "longitude": "-90.08075171356579"
    }
  },
  {
    "service_request": "2024-1065022",
    "request_type": "Trash/Recycling",
    "request_reason": "Request a Large Item Pick Up",
    "date_created": "2024-01-31T14:51:57.000",
    "date_modified": "2024-01-31T14:51:58.000",
    "request_status": "Pending",
    "responsible_agency": "Department of Sanitation",
    "final_address": "108 Liberty Terrace Dr",
    "address_councildis": "D",
    "status": "Assigned to Contractor",
    "contractor": "IV Waste",
    "rowid": "1065022",
    "final_x": "3689580.68035",
    "final_y": "545385.01448",
    "longitude": "-90.0420611511767",
    "latitude": "29.993371751178458",
    "geocoded_column": {
      "latitude": "29.993371751178458",
      "longitude": "-90.0420611511767"
    }
  },
  {
    "service_request": "2024-1065021",
    "request_type": "Trash/Recycling",
    "request_reason": "Request a Large Item Pick Up",
    "date_created": "2024-01-31T14:51:23.000",
    "date_modified": "2024-01-31T14:51:24.000",
    "request_status": "Pending",
    "responsible_agency": "Department of Sanitation",
    "final_address": "3224 Dante St",
    "address_councildis": "A",
    "status": "Assigned to Contractor",
    "contractor": "Richards Disposal",
    "rowid": "1065021",
    "final_x": "3666331.62087",
    "final_y": "534307.058501",
    "longitude": "-90.11587327915336",
    "latitude": "29.963611010355564",
    "geocoded_column": {
      "latitude": "29.963611010355564",
      "longitude": "-90.11587327915336"
    }
  },
  {
    "service_request": "2024-1065020",
    "request_type": "Property Maintenance",
    "request_reason": "Property Maintenance",
    "date_created": "2024-01-31T14:50:18.000",
    "date_modified": "2024-01-31T14:50:18.000",
    "request_status": "Pending",
    "responsible_agency": "Department of Code Enforcement",
    "final_address": "1015 N Broad St",
    "address_councildis": "A",
    "status": "Pending",
    "rowid": "1065020",
    "final_x": "3677412.77058",
    "final_y": "538027.154697",
    "longitude": "-90.08075171356579",
    "latitude": "29.973511616164796",
    "geocoded_column": {
      "latitude": "29.973511616164796",
      "longitude": "-90.08075171356579"
    }
  },
  {
    "service_request": "2024-1065019",
    "request_type": "Trash/Recycling",
    "request_reason": "Request a Large Item Pick Up",
    "date_created": "2024-01-31T14:49:42.000",
    "date_modified": "2024-01-31T14:49:43.000",
    "request_status": "Pending",
    "responsible_agency": "Department of Sanitation",
    "final_address": "2567 N Tonti St",
    "address_councildis": "D",
    "status": "Assigned to Contractor",
    "contractor": "IV Waste",
    "rowid": "1065019",
    "final_x": "3687066.02703",
    "final_y": "540953.892875",
    "longitude": "-90.05016126451855",
    "latitude": "29.98126542633378",
    "geocoded_column": {
      "latitude": "29.98126542633378",
      "longitude": "-90.05016126451855"
    }
  },
  {
    "service_request": "2024-1065018",
    "request_type": "Property Maintenance",
    "request_reason": "Property Maintenance",
    "date_created": "2024-01-31T14:46:41.000",
    "date_modified": "2024-01-31T14:46:41.000",
    "request_status": "Pending",
    "responsible_agency": "Department of Code Enforcement",
    "final_address": "7831 Brevard Ave",
    "address_councildis": "E",
    "status": "Pending",
    "rowid": "1065018",
    "final_x": "3706064.00631",
    "final_y": "564058.102369",
    "longitude": "-89.98930154588817",
    "latitude": "30.04419447602943",
    "geocoded_column": {
      "latitude": "30.04419447602943",
      "longitude": "-89.98930154588817"
    }
  },
  {
    "service_request": "2024-1065017",
    "request_type": "Trash/Recycling",
    "request_reason": "Repair Recycling Cart",
    "date_created": "2024-01-31T14:46:29.000",
    "date_modified": "2024-01-31T14:46:29.000",
    "request_status": "Pending",
    "responsible_agency": "Department of Sanitation",
    "final_address": "1710 Valence St",
    "address_councildis": "B",
    "status": "Pending",
    "rowid": "1065017",
    "final_x": "3669643.87841",
    "final_y": "521226.114553",
    "longitude": "-90.10585599538028",
    "latitude": "29.927545489138605",
    "geocoded_column": {
      "latitude": "29.927545489138605",
      "longitude": "-90.10585599538028"
    }
  },
  {
    "service_request": "2024-1065016",
    "request_type": "Trash/Recycling",
    "request_reason": "Repair Trash Cart",
    "date_created": "2024-01-31T14:43:38.000",
    "date_modified": "2024-01-31T14:43:39.000",
    "request_status": "Pending",
    "responsible_agency": "Department of Sanitation",
    "final_address": "2547 Jasmine St",
    "address_councildis": "D",
    "status": "Assigned to Contractor",
    "contractor": "IV Waste",
    "rowid": "1065016",
    "final_x": "3686604.79855",
    "final_y": "548099.580818",
    "longitude": "-90.0513655249643",
    "latitude": "30.0009277071427",
    "geocoded_column": {
      "latitude": "30.0009277071427",
      "longitude": "-90.0513655249643"
    }
  },
  {
    "service_request": "2024-1065015",
    "request_type": "Trash/Recycling",
    "request_reason": "Order Recycling Cart",
    "date_created": "2024-01-31T14:43:19.000",
    "date_modified": "2024-01-31T14:43:19.000",
    "request_status": "Pending",
    "responsible_agency": "Department of Sanitation",
    "final_address": "215 12Th St",
    "address_councildis": "A",
    "status": "Pending",
    "rowid": "1065015",
    "final_x": "3665517.63258",
    "final_y": "547856.219922",
    "longitude": "-90.1179899582178",
    "latitude": "30.0008903997364",
    "geocoded_column": {
      "latitude": "30.0008903997364",
      "longitude": "-90.1179899582178"
    }
  },
  {
    "service_request": "2024-1065014",
    "request_type": "Health Related Request",
    "request_reason": "Noise Ordinance Complaint",
    "date_created": "2024-01-31T14:40:04.000",
    "date_modified": "2024-01-31T14:40:05.000",
    "request_status": "Pending",
    "responsible_agency": "Health Department",
    "final_address": "8937 Nelson St",
    "address_councildis": "A",
    "status": "Pending",
    "rowid": "1065014",
    "final_x": "3662840.84787",
    "final_y": "533967.282245",
    "longitude": "-90.12690813031305",
    "latitude": "29.962778258920405",
    "geocoded_column": {
      "latitude": "29.962778258920405",
      "longitude": "-90.12690813031305"
    }
  },
  {
    "service_request": "2024-1065013",
    "request_type": "Trash/Recycling",
    "request_reason": "Request a Large Item Pick Up",
    "date_created": "2024-01-31T14:36:52.000",
    "date_modified": "2024-01-31T14:36:52.000",
    "request_status": "Pending",
    "responsible_agency": "Department of Sanitation",
    "final_address": "7600 Pineridge St",
    "address_councildis": "E",
    "status": "Assigned to Contractor",
    "contractor": "Waste Pro",
    "rowid": "1065013",
    "final_x": "3718988.41765",
    "final_y": "571913.837352",
    "longitude": "-89.94815498715998",
    "latitude": "30.0653713212009",
    "geocoded_column": {
      "latitude": "30.0653713212009",
      "longitude": "-89.94815498715998"
    }
  },
  {
    "service_request": "2024-1065012",
    "request_type": "Trash/Recycling",
    "request_reason": "Repair Trash Cart",
    "date_created": "2024-01-31T14:35:04.000",
    "date_modified": "2024-01-31T14:35:05.000",
    "request_status": "Pending",
    "responsible_agency": "Department of Sanitation",
    "final_address": "13610 N Lemans St",
    "address_councildis": "E",
    "status": "Assigned to Contractor",
    "contractor": "Waste Pro",
    "rowid": "1065012",
    "final_x": "3725917.40883",
    "final_y": "563163.437408",
    "longitude": "-89.92659153134662",
    "latitude": "30.04107925941976",
    "geocoded_column": {
      "latitude": "30.04107925941976",
      "longitude": "-89.92659153134662"
    }
  },
  {
    "service_request": "2024-1065011",
    "request_type": "Trash/Recycling",
    "request_reason": "Return Recycling Cart",
    "date_created": "2024-01-31T14:34:27.000",
    "date_modified": "2024-01-31T14:36:01.000",
    "request_status": "Pending",
    "responsible_agency": "Department of Sanitation",
    "final_address": "1434 Polymnia St",
    "address_councildis": "B",
    "status": "Pending",
    "rowid": "1065011",
    "final_x": "3679294.12328",
    "final_y": "524364.308476",
    "longitude": "-90.07528376362102",
    "latitude": "29.935886709238606",
    "geocoded_column": {
      "latitude": "29.935886709238606",
      "longitude": "-90.07528376362102"
    }
  },
  {
    "service_request": "2024-1065010",
    "request_type": "Trash/Recycling",
    "request_reason": "Request a Large Item Pick Up",
    "date_created": "2024-01-31T14:33:45.000",
    "date_modified": "2024-01-31T14:33:46.000",
    "request_status": "Pending",
    "responsible_agency": "Department of Sanitation",
    "final_address": "202 S Norman C Francis Prkwy",
    "address_councildis": "B",
    "status": "Assigned to Contractor",
    "contractor": "Richards Disposal",
    "rowid": "1065010",
    "final_x": "3673031.133",
    "final_y": "536266.810375",
    "longitude": "-90.09464997125464",
    "latitude": "29.9688022404716",
    "geocoded_column": {
      "latitude": "29.9688022404716",
      "longitude": "-90.09464997125464"
    }
  },
  {
    "service_request": "2024-1065009",
    "request_type": "Roads/Drainage",
    "request_reason": "Pothole",
    "date_created": "2024-01-31T14:31:24.000",
    "date_modified": "2024-01-31T14:31:24.000",
    "request_status": "Pending",
    "responsible_agency": "Department of Public Works",
    "final_address": "CROWDER BLVD & LAKE FOREST BLVD",
    "address_councildis": "E",
    "status": "Pending",
    "rowid": "1065009",
    "final_x": "3705341.2",
    "final_y": "557778.38",
    "longitude": "-89.99181827867378",
    "latitude": "30.026951000024866",
    "geocoded_column": {
      "latitude": "30.026951000024866",
      "longitude": "-89.99181827867378"
    }
  },
  {
    "service_request": "2024-1065008",
    "request_type": "Roads/Drainage",
    "request_reason": "Unpermitted work in ROW",
    "date_created": "2024-01-31T14:30:30.000",
    "date_modified": "2024-01-31T14:30:30.000",
    "request_status": "Pending",
    "responsible_agency": "Department of Public Works",
    "final_address": "3636 St Charles Ave",
    "address_councildis": "B",
    "status": "Pending",
    "rowid": "1065008",
    "final_x": "3673311.79393",
    "final_y": "521063.456377",
    "longitude": "-90.09428281378497",
    "latitude": "29.926989680558854",
    "geocoded_column": {
      "latitude": "29.926989680558854",
      "longitude": "-90.09428281378497"
    }
  },
  {
    "service_request": "2024-1065007",
    "request_type": "Trash/Recycling",
    "request_reason": "Replace Trash Cart",
    "date_created": "2024-01-31T14:30:24.000",
    "date_modified": "2024-01-31T14:30:25.000",
    "request_status": "Pending",
    "responsible_agency": "Department of Sanitation",
    "final_address": "829 Atlantic Ave",
    "address_councildis": "C",
    "status": "Assigned to Contractor",
    "contractor": "Richards Disposal",
    "rowid": "1065007",
    "final_x": "3688692.40335",
    "final_y": "528450.964544",
    "longitude": "-90.04546828798084",
    "latitude": "29.946836550989424",
    "geocoded_column": {
      "latitude": "29.946836550989424",
      "longitude": "-90.04546828798084"
    }
  },
  {
    "service_request": "2024-1065006",
    "request_type": "Trash/Recycling",
    "request_reason": "Illegal Dumping",
    "date_created": "2024-01-31T14:29:46.000",
    "date_modified": "2024-01-31T14:29:46.000",
    "request_status": "Pending",
    "responsible_agency": "Department of Sanitation",
    "final_address": "2168 Florida Ave",
    "address_councildis": "D",
    "status": "Pending",
    "rowid": "1065006",
    "final_x": "3684409.60578",
    "final_y": "542354.894861",
    "longitude": "-90.0585022081231",
    "latitude": "29.985199217126496",
    "geocoded_column": {
      "latitude": "29.985199217126496",
      "longitude": "-90.0585022081231"
    }
  },
  {
    "service_request": "2024-1065005",
    "request_type": "Roads/Drainage",
    "request_reason": "Pothole",
    "date_created": "2024-01-31T14:29:20.000",
    "date_modified": "2024-01-31T14:30:02.000",
    "case_close_date": "2024-01-31T08:30:02.000",
    "request_status": "Closed",
    "responsible_agency": "Department of Public Works",
    "final_address": "1226 First St",
    "address_councildis": "B",
    "status": "Resolved",
    "rowid": "1065005",
    "final_x": "3677697.0308",
    "final_y": "521955.047802",
    "longitude": "-90.08040898724394",
    "latitude": "29.929310149723737",
    "geocoded_column": {
      "latitude": "29.929310149723737",
      "longitude": "-90.08040898724394"
    }
  },
  {
    "service_request": "2024-1065004",
    "request_type": "Roads/Drainage",
    "request_reason": "Pothole",
    "date_created": "2024-01-31T14:20:31.000",
    "date_modified": "2024-01-31T14:21:05.000",
    "case_close_date": "2024-01-31T08:21:05.000",
    "request_status": "Closed",
    "responsible_agency": "Department of Public Works",
    "final_address": "1400 BLK First St",
    "address_councildis": "B",
    "status": "Resolved",
    "rowid": "1065004",
    "final_x": "3677373.59896",
    "final_y": "522568.719086",
    "longitude": "-90.08140883519773",
    "latitude": "29.931007266044883",
    "geocoded_column": {
      "latitude": "29.931007266044883",
      "longitude": "-90.08140883519773"
    }
  },
  {
    "service_request": "2024-1065003",
    "request_type": "Trash/Recycling",
    "request_reason": "Request a Large Item Pick Up",
    "date_created": "2024-01-31T14:18:44.000",
    "date_modified": "2024-01-31T14:18:45.000",
    "request_status": "Pending",
    "responsible_agency": "Department of Sanitation",
    "final_address": "2317 Jena St",
    "address_councildis": "B",
    "status": "Assigned to Contractor",
    "contractor": "Richards Disposal",
    "rowid": "1065003",
    "final_x": "3670224.54535",
    "final_y": "523474.156091",
    "longitude": "-90.10394682726233",
    "latitude": "29.933709766065302",
    "geocoded_column": {
      "latitude": "29.933709766065302",
      "longitude": "-90.10394682726233"
    }
  },
  {
    "service_request": "2024-1065002",
    "request_type": "Trash/Recycling",
    "request_reason": "Repair Recycling Cart",
    "date_created": "2024-01-31T14:18:04.000",
    "date_modified": "2024-01-31T14:18:04.000",
    "request_status": "Pending",
    "responsible_agency": "Department of Sanitation",
    "final_address": "54 Neron Pl",
    "address_councildis": "A",
    "status": "Pending",
    "rowid": "1065002",
    "final_x": "3665595.85876",
    "final_y": "530230.857217",
    "longitude": "-90.11833324104131",
    "latitude": "29.95242426478679",
    "geocoded_column": {
      "latitude": "29.95242426478679",
      "longitude": "-90.11833324104131"
    }
  },
  {
    "service_request": "2024-1065001",
    "request_type": "Trash/Recycling",
    "request_reason": "Repair Trash Cart",
    "date_created": "2024-01-31T14:17:15.000",
    "date_modified": "2024-01-31T14:17:15.000",
    "request_status": "Pending",
    "responsible_agency": "Department of Sanitation",
    "final_address": "54 Neron Pl",
    "address_councildis": "A",
    "status": "Assigned to Contractor",
    "contractor": "Richards Disposal",
    "rowid": "1065001",
    "final_x": "3665595.85876",
    "final_y": "530230.857217",
    "longitude": "-90.11833324104131",
    "latitude": "29.95242426478679",
    "geocoded_column": {
      "latitude": "29.95242426478679",
      "longitude": "-90.11833324104131"
    }
  },
  {
    "service_request": "2024-1064999",
    "request_type": "Trash/Recycling",
    "request_reason": "Repair Trash Cart",
    "date_created": "2024-01-31T14:17:11.000",
    "date_modified": "2024-01-31T14:17:12.000",
    "request_status": "Pending",
    "responsible_agency": "Department of Sanitation",
    "final_address": "8911 Bunker Hill Rd",
    "address_councildis": "E",
    "status": "Assigned to Contractor",
    "contractor": "Waste Pro",
    "rowid": "1064999",
    "final_x": "3705872.09387",
    "final_y": "561640.549919",
    "longitude": "-89.98999764469443",
    "latitude": "30.037553352135095",
    "geocoded_column": {
      "latitude": "30.037553352135095",
      "longitude": "-89.98999764469443"
    }
  },
  {
    "service_request": "2024-1064998",
    "request_type": "Roads/Drainage",
    "request_reason": "Pothole",
    "date_created": "2024-01-31T14:17:01.000",
    "date_modified": "2024-01-31T14:31:56.000",
    "request_status": "Pending",
    "responsible_agency": "Department of Public Works",
    "final_address": "1000 Opelousas Ave, New Orleans, Louisiana, 70114",
    "address_councildis": "C",
    "rowid": "1064998",
    "final_x": "3688693.00131",
    "final_y": "529004.325888",
    "longitude": "-90.04544676248187",
    "latitude": "29.948358086871497",
    "geocoded_column": {
      "latitude": "29.948358086871497",
      "longitude": "-90.04544676248187"
    }
  },
  {
    "service_request": "2024-1064997",
    "request_type": "Trash/Recycling",
    "request_reason": "Request a Large Item Pick Up",
    "date_created": "2024-01-31T14:06:10.000",
    "date_modified": "2024-01-31T14:06:10.000",
    "request_status": "Pending",
    "responsible_agency": "Department of Sanitation",
    "final_address": "215 Liberty Terrace Dr",
    "address_councildis": "D",
    "status": "Assigned to Contractor",
    "contractor": "IV Waste",
    "rowid": "1064997",
    "final_x": "3689624.26211",
    "final_y": "545553.612432",
    "longitude": "-90.04191748151301",
    "latitude": "29.993833984143052",
    "geocoded_column": {
      "latitude": "29.993833984143052",
      "longitude": "-90.04191748151301"
    }
  },
  {
    "service_request": "2024-1064996",
    "request_type": "Trash/Recycling",
    "request_reason": "Repair Trash Cart",
    "date_created": "2024-01-31T14:06:02.000",
    "date_modified": "2024-01-31T14:06:02.000",
    "request_status": "Pending",
    "responsible_agency": "Department of Sanitation",
    "final_address": "7700 St Charles Ave",
    "address_councildis": "A",
    "status": "Assigned to Contractor",
    "contractor": "Richards Disposal",
    "rowid": "1064996",
    "final_x": "3661580.99885",
    "final_y": "525823.957821",
    "longitude": "-90.13115639045508",
    "latitude": "29.940423146864543",
    "geocoded_column": {
      "latitude": "29.940423146864543",
      "longitude": "-90.13115639045508"
    }
  },
  {
    "service_request": "2024-1064995",
    "request_type": "Roads/Drainage",
    "request_reason": "Catch Basin - Clogged",
    "date_created": "2024-01-31T14:05:54.000",
    "date_modified": "2024-01-31T14:06:24.000",
    "case_close_date": "2024-01-31T08:06:24.000",
    "request_status": "Closed",
    "responsible_agency": "Department of Public Works",
    "final_address": "2600 BLK Canal St",
    "address_councildis": "B",
    "status": "Resolved",
    "rowid": "1064995",
    "final_x": "3675742.5599",
    "final_y": "534769.125131",
    "longitude": "-90.08613859226006",
    "latitude": "29.96460323874769",
    "geocoded_column": {
      "latitude": "29.96460323874769",
      "longitude": "-90.08613859226006"
    }
  },
  {
    "service_request": "2024-1064994",
    "request_type": "Roads/Drainage",
    "request_reason": "Catch Basin - Clogged",
    "date_created": "2024-01-31T14:05:00.000",
    "date_modified": "2024-01-31T14:05:20.000",
    "case_close_date": "2024-01-31T08:05:20.000",
    "request_status": "Closed",
    "responsible_agency": "Department of Public Works",
    "final_address": "3300 BLK Canal St",
    "address_councildis": "B",
    "status": "Resolved",
    "rowid": "1064994",
    "final_x": "3673380.86744",
    "final_y": "536563.608419",
    "longitude": "-90.09353534498136",
    "latitude": "29.96960793454063",
    "geocoded_column": {
      "latitude": "29.96960793454063",
      "longitude": "-90.09353534498136"
    }
  },
  {
    "service_request": "2024-1064993",
    "request_type": "Abandoned Vehicles",
    "request_reason": "Abandoned/Junk Vehicles",
    "date_created": "2024-01-31T14:03:54.000",
    "date_modified": "2024-01-31T14:05:10.000",
    "request_status": "Pending",
    "responsible_agency": "Department of Public Works",
    "final_address": "923 S Telemachus St",
    "address_councildis": "B",
    "status": "Pending",
    "rowid": "1064993",
    "final_x": "3670014.78074",
    "final_y": "534378.504773",
    "longitude": "-90.10423978862856",
    "latitude": "29.96369934529523",
    "geocoded_column": {
      "latitude": "29.96369934529523",
      "longitude": "-90.10423978862856"
    }
  },
  {
    "service_request": "2024-1064992",
    "request_type": "Roads/Drainage",
    "request_reason": "Catch Basin - Clogged",
    "date_created": "2024-01-31T14:03:11.000",
    "date_modified": "2024-01-31T14:03:45.000",
    "case_close_date": "2024-01-31T08:03:45.000",
    "request_status": "Closed",
    "responsible_agency": "Department of Public Works",
    "final_address": "4000 BLK Canal St",
    "address_councildis": "A",
    "status": "Resolved",
    "rowid": "1064992",
    "final_x": "3671265.28703",
    "final_y": "538272.092207",
    "longitude": "-90.10015847891161",
    "latitude": "29.97436846070621",
    "geocoded_column": {
      "latitude": "29.97436846070621",
      "longitude": "-90.10015847891161"
    }
  },
  {
    "service_request": "2024-1064991",
    "request_type": "Traffic Signals/Signs/Striping/Streetlights",
    "request_reason": "Street Light Outage/Malfunction",
    "date_created": "2024-01-31T14:02:09.000",
    "date_modified": "2024-01-31T14:02:10.000",
    "request_status": "Pending",
    "responsible_agency": "Department of Public Works",
    "final_address": "8422 Pritchard Pl",
    "address_councildis": "A",
    "status": "Assigned to Contractor",
    "contractor": "Legacy Professional Services",
    "rowid": "1064991",
    "final_x": "3665096.33261",
    "final_y": "533713.202181",
    "longitude": "-90.11979406962979",
    "latitude": "29.962014132016293",
    "geocoded_column": {
      "latitude": "29.962014132016293",
      "longitude": "-90.11979406962979"
    }
  },
  {
    "service_request": "2024-1064990",
    "request_type": "Roads/Drainage",
    "request_reason": "Catch Basin - Clogged",
    "date_created": "2024-01-31T14:01:02.000",
    "date_modified": "2024-01-31T14:01:36.000",
    "case_close_date": "2024-01-31T08:01:36.000",
    "request_status": "Closed",
    "responsible_agency": "Department of Public Works",
    "final_address": "1900 BLK Jackson Ave",
    "address_councildis": "B",
    "status": "Resolved",
    "rowid": "1064990",
    "final_x": "3676550.7653",
    "final_y": "525092.418763",
    "longitude": "-90.08391954101585",
    "latitude": "29.937971308904363",
    "geocoded_column": {
      "latitude": "29.937971308904363",
      "longitude": "-90.08391954101585"
    }
  },
  {
    "service_request": "2024-1064989",
    "request_type": "Abandoned Vehicles",
    "request_reason": "Abandoned/Junk Vehicles",
    "date_created": "2024-01-31T14:00:30.000",
    "date_modified": "2024-01-31T14:00:30.000",
    "request_status": "Pending",
    "responsible_agency": "Department of Public Works",
    "final_address": "1921 Burgundy St",
    "address_councildis": "C",
    "status": "Pending",
    "rowid": "1064989",
    "final_x": "3684112.86063",
    "final_y": "535539.768518",
    "longitude": "-90.0596787727184",
    "latitude": "29.96646907457239",
    "geocoded_column": {
      "latitude": "29.96646907457239",
      "longitude": "-90.0596787727184"
    }
  },
  {
    "service_request": "2024-1064987",
    "request_type": "Roads/Drainage",
    "request_reason": "Catch Basin - Clogged",
    "date_created": "2024-01-31T13:59:46.000",
    "date_modified": "2024-01-31T14:00:07.000",
    "case_close_date": "2024-01-31T08:00:07.000",
    "request_status": "Closed",
    "responsible_agency": "Department of Public Works",
    "final_address": "2100 BLK Jackson Ave",
    "address_councildis": "B",
    "status": "Resolved",
    "rowid": "1064987",
    "final_x": "3676113.52963",
    "final_y": "525663.099708",
    "longitude": "-90.08528030864296",
    "latitude": "29.939553596163726",
    "geocoded_column": {
      "latitude": "29.939553596163726",
      "longitude": "-90.08528030864296"
    }
  },
  {
    "service_request": "2024-1064986",
    "request_type": "Trash/Recycling",
    "request_reason": "MIssed Recycling Pick-Up",
    "date_created": "2024-01-31T13:57:21.000",
    "date_modified": "2024-01-31T14:47:51.000",
    "case_close_date": "2024-01-31T08:47:51.000",
    "request_status": "Closed",
    "responsible_agency": "Department of Sanitation",
    "final_address": "5648 Canal Blvd",
    "address_councildis": "A",
    "status": "Invalid Request",
    "contractor": "IV Waste",
    "contractor_action": "Invalid Pick-Up",
    "rowid": "1064986",
    "final_x": "3668172.93863",
    "final_y": "545288.698767",
    "longitude": "-90.10968823207998",
    "latitude": "29.9937528945276",
    "geocoded_column": {
      "latitude": "29.9937528945276",
      "longitude": "-90.10968823207998"
    }
  },
  {
    "service_request": "2024-1064985",
    "request_type": "Trash/Recycling",
    "request_reason": "Repair Trash Cart",
    "date_created": "2024-01-31T13:55:35.000",
    "date_modified": "2024-01-31T13:55:36.000",
    "request_status": "Pending",
    "responsible_agency": "Department of Sanitation",
    "final_address": "3201 Ursulines Ave",
    "address_councildis": "A",
    "status": "Assigned to Contractor",
    "contractor": "Richards Disposal",
    "rowid": "1064985",
    "final_x": "3675887.17832",
    "final_y": "539604.736842",
    "longitude": "-90.08551560162239",
    "latitude": "29.977895195074616",
    "geocoded_column": {
      "latitude": "29.977895195074616",
      "longitude": "-90.08551560162239"
    }
  },
  {
    "service_request": "2024-1064984",
    "request_type": "Traffic Signals/Signs/Striping/Streetlights",
    "request_reason": "Road Surface Marking Maintenance-Parking Lane",
    "date_created": "2024-01-31T13:55:12.000",
    "date_modified": "2024-01-31T13:55:12.000",
    "request_status": "Pending",
    "responsible_agency": "Department of Public Works",
    "final_address": "6200 BLK Marquette Pl",
    "address_councildis": "A",
    "status": "Pending",
    "rowid": "1064984",
    "final_x": "3665249.9047",
    "final_y": "523376.730593",
    "longitude": "-90.11965484560014",
    "latitude": "29.933587699335103",
    "geocoded_column": {
      "latitude": "29.933587699335103",
      "longitude": "-90.11965484560014"
    }
  },
  {
    "service_request": "2024-1064983",
    "request_type": "Roads/Drainage",
    "request_reason": "Catch Basin - Clogged",
    "date_created": "2024-01-31T13:54:47.000",
    "date_modified": "2024-01-31T13:55:11.000",
    "case_close_date": "2024-01-31T07:55:11.000",
    "request_status": "Closed",
    "responsible_agency": "Department of Public Works",
    "final_address": "2600 BLK Jackson Ave",
    "address_councildis": "B",
    "status": "Resolved",
    "rowid": "1064983",
    "final_x": "3675129.19793",
    "final_y": "526943.769391",
    "longitude": "-90.08834404996146",
    "latitude": "29.94310446067774",
    "geocoded_column": {
      "latitude": "29.94310446067774",
      "longitude": "-90.08834404996146"
    }
  },
  {
    "service_request": "2024-1064982",
    "request_type": "Trash/Recycling",
    "request_reason": "Order Trash Cart",
    "date_created": "2024-01-31T13:53:38.000",
    "date_modified": "2024-01-31T13:53:38.000",
    "request_status": "Pending",
    "responsible_agency": "Department of Sanitation",
    "final_address": "2009 L. B. Landry Ave",
    "address_councildis": "C",
    "status": "Assigned to Contractor",
    "contractor": "Richards Disposal",
    "rowid": "1064982",
    "final_x": "3689890.25449",
    "final_y": "523313.181179",
    "longitude": "-90.04186908054359",
    "latitude": "29.93267232115361",
    "geocoded_column": {
      "latitude": "29.93267232115361",
      "longitude": "-90.04186908054359"
    }
  },
  {
    "service_request": "2024-1064981",
    "request_type": "Trash/Recycling",
    "request_reason": "Request a Large Item Pick Up",
    "date_created": "2024-01-31T13:53:35.000",
    "date_modified": "2024-01-31T13:53:36.000",
    "request_status": "Pending",
    "responsible_agency": "Department of Sanitation",
    "final_address": "805 N White St",
    "address_councildis": "A",
    "status": "Assigned to Contractor",
    "contractor": "Richards Disposal",
    "rowid": "1064981",
    "final_x": "3676504.91093",
    "final_y": "537661.497736",
    "longitude": "-90.08363152234736",
    "latitude": "29.972533441723204",
    "geocoded_column": {
      "latitude": "29.972533441723204",
      "longitude": "-90.08363152234736"
    }
  },
  {
    "service_request": "2024-1064980",
    "request_type": "Abandoned Vehicles",
    "request_reason": "Abandoned/Junk Vehicles",
    "date_created": "2024-01-31T13:45:50.000",
    "date_modified": "2024-01-31T13:45:50.000",
    "request_status": "Pending",
    "responsible_agency": "Department of Public Works",
    "final_address": "4400 BLK Prytania St",
    "address_councildis": "B",
    "status": "Pending",
    "rowid": "1064980",
    "final_x": "3670683.51227",
    "final_y": "520299.824017",
    "longitude": "-90.10260552380939",
    "latitude": "29.92496782175203",
    "geocoded_column": {
      "latitude": "29.92496782175203",
      "longitude": "-90.10260552380939"
    }
  },
  {
    "service_request": "2024-1064979",
    "request_type": "Roads/Drainage",
    "request_reason": "Pothole",
    "date_created": "2024-01-31T13:44:58.000",
    "date_modified": "2024-01-31T13:44:58.000",
    "request_status": "Pending",
    "responsible_agency": "Department of Public Works",
    "final_address": "1039 Toulouse St",
    "address_councildis": "C",
    "status": "Pending",
    "rowid": "1064979",
    "final_x": "3681223.94594",
    "final_y": "533016.80922",
    "longitude": "-90.06888984432662",
    "latitude": "29.95961977854526",
    "geocoded_column": {
      "latitude": "29.95961977854526",
      "longitude": "-90.06888984432662"
    }
  },
  {
    "service_request": "2024-1064978",
    "request_type": "Roads/Drainage",
    "request_reason": "Street Subsidence (Sinking)",
    "date_created": "2024-01-31T13:40:13.000",
    "date_modified": "2024-01-31T13:40:14.000",
    "request_status": "Pending",
    "responsible_agency": "Department of Public Works",
    "final_address": "5623 Milne St",
    "address_councildis": "A",
    "status": "Pending",
    "rowid": "1064978",
    "final_x": "3666866.15559",
    "final_y": "544926.738703",
    "longitude": "-90.11382834886828",
    "latitude": "29.992795935284583",
    "geocoded_column": {
      "latitude": "29.992795935284583",
      "longitude": "-90.11382834886828"
    }
  },
  {
    "service_request": "2024-1064977",
    "request_type": "Trash/Recycling",
    "request_reason": "MIssed Recycling Pick-Up",
    "date_created": "2024-01-31T13:40:12.000",
    "date_modified": "2024-01-31T14:45:18.000",
    "case_close_date": "2024-01-31T08:45:18.000",
    "request_status": "Closed",
    "responsible_agency": "Department of Sanitation",
    "final_address": "5648 Canal Blvd",
    "address_councildis": "A",
    "status": "Invalid Request",
    "contractor": "IV Waste",
    "contractor_action": "Invalid Request",
    "rowid": "1064977",
    "final_x": "3668172.93863",
    "final_y": "545288.698767",
    "longitude": "-90.10968823207998",
    "latitude": "29.9937528945276",
    "geocoded_column": {
      "latitude": "29.9937528945276",
      "longitude": "-90.10968823207998"
    }
  },
  {
    "service_request": "2024-1064976",
    "request_type": "Trash/Recycling",
    "request_reason": "Replace Trash Cart",
    "date_created": "2024-01-31T13:37:32.000",
    "date_modified": "2024-01-31T13:37:32.000",
    "request_status": "Pending",
    "responsible_agency": "Department of Sanitation",
    "final_address": "3502 Banks St",
    "address_councildis": "B",
    "status": "Assigned to Contractor",
    "contractor": "Richards Disposal",
    "rowid": "1064976",
    "final_x": "3672050.21294",
    "final_y": "536005.978631",
    "longitude": "-90.09775666561171",
    "latitude": "29.96811416182851",
    "geocoded_column": {
      "latitude": "29.96811416182851",
      "longitude": "-90.09775666561171"
    }
  },
  {
    "service_request": "2024-1064975",
    "request_type": "Parks & Parkways",
    "request_reason": "Tree Stump (removal, grind)",
    "date_created": "2024-01-31T13:36:21.000",
    "date_modified": "2024-01-31T13:36:22.000",
    "request_status": "Pending",
    "responsible_agency": "Department of Parks & Parkway",
    "final_address": "1629 Fourth St",
    "address_councildis": "B",
    "status": "Pending",
    "rowid": "1064975",
    "final_x": "3676046.08104",
    "final_y": "522975.166779",
    "longitude": "-90.08558566221707",
    "latitude": "29.932164679950585",
    "geocoded_column": {
      "latitude": "29.932164679950585",
      "longitude": "-90.08558566221707"
    }
  },
  {
    "service_request": "2024-1064974",
    "request_type": "Trash/Recycling",
    "request_reason": "Repair Recycling Cart",
    "date_created": "2024-01-31T13:34:43.000",
    "date_modified": "2024-01-31T13:34:43.000",
    "request_status": "Pending",
    "responsible_agency": "Department of Sanitation",
    "final_address": "7627 St Charles Ave",
    "address_councildis": "A",
    "status": "Pending",
    "rowid": "1064974",
    "final_x": "3661781.03904",
    "final_y": "525819.338429",
    "longitude": "-90.13052498079325",
    "latitude": "29.940404672599303",
    "geocoded_column": {
      "latitude": "29.940404672599303",
      "longitude": "-90.13052498079325"
    }
  },
  {
    "service_request": "2024-1064973",
    "request_type": "Roads/Drainage",
    "request_reason": "Accessibility Ramps, Curbs and Sidewalk Repair",
    "date_created": "2024-01-31T13:34:09.000",
    "date_modified": "2024-01-31T13:34:09.000",
    "request_status": "Pending",
    "responsible_agency": "Department of Public Works",
    "final_address": "1629 Fourth St",
    "address_councildis": "B",
    "status": "Pending",
    "rowid": "1064973",
    "final_x": "3676046.08104",
    "final_y": "522975.166779",
    "longitude": "-90.08558566221707",
    "latitude": "29.932164679950585",
    "geocoded_column": {
      "latitude": "29.932164679950585",
      "longitude": "-90.08558566221707"
    }
  },
  {
    "service_request": "2024-1064972",
    "request_type": "Traffic Signals/Signs/Striping/Streetlights",
    "request_reason": "Street Light Outage/Malfunction",
    "date_created": "2024-01-31T13:32:34.000",
    "date_modified": "2024-01-31T13:32:35.000",
    "request_status": "Pending",
    "responsible_agency": "Department of Public Works",
    "final_address": "1629 Fourth St",
    "address_councildis": "B",
    "status": "Assigned to Contractor",
    "contractor": "Legacy Professional Services",
    "rowid": "1064972",
    "final_x": "3676046.08104",
    "final_y": "522975.166779",
    "longitude": "-90.08558566221707",
    "latitude": "29.932164679950585",
    "geocoded_column": {
      "latitude": "29.932164679950585",
      "longitude": "-90.08558566221707"
    }
  },
  {
    "service_request": "2024-1064971",
    "request_type": "Trash/Recycling",
    "request_reason": "Request a Large Item Pick Up",
    "date_created": "2024-01-31T13:30:15.000",
    "date_modified": "2024-01-31T13:30:16.000",
    "request_status": "Pending",
    "responsible_agency": "Department of Sanitation",
    "final_address": "3000 St Peter St",
    "address_councildis": "A",
    "status": "Assigned to Contractor",
    "contractor": "Richards Disposal",
    "rowid": "1064971",
    "final_x": "3675606.82094",
    "final_y": "537603.158344",
    "longitude": "-90.08646985935256",
    "latitude": "29.972399930460636",
    "geocoded_column": {
      "latitude": "29.972399930460636",
      "longitude": "-90.08646985935256"
    }
  },
  {
    "service_request": "2024-1064970",
    "request_type": "Trash/Recycling",
    "request_reason": "Request a Large Item Pick Up",
    "date_created": "2024-01-31T13:28:22.000",
    "date_modified": "2024-01-31T13:28:23.000",
    "request_status": "Pending",
    "responsible_agency": "Department of Sanitation",
    "final_address": "1310 N Gayoso St A",
    "address_councildis": "A",
    "status": "Assigned to Contractor",
    "contractor": "Richards Disposal",
    "rowid": "1064970",
    "final_x": "3676826.24641",
    "final_y": "539776.47937",
    "longitude": "-90.08254377387026",
    "latitude": "29.97833927536216",
    "geocoded_column": {
      "latitude": "29.97833927536216",
      "longitude": "-90.08254377387026"
    }
  },
  {
    "service_request": "2024-1064969",
    "request_type": "Trash/Recycling",
    "request_reason": "Missed Trash Pick-Up",
    "date_created": "2024-01-31T13:28:03.000",
    "date_modified": "2024-01-31T13:28:04.000",
    "request_status": "Pending",
    "responsible_agency": "Department of Sanitation",
    "final_address": "7701 Hampson St",
    "address_councildis": "A",
    "status": "Assigned to Contractor",
    "contractor": "Richards Disposal",
    "rowid": "1064969",
    "final_x": "3661883.6512",
    "final_y": "526147.30611",
    "longitude": "-90.13019014356051",
    "latitude": "29.94130351740061",
    "geocoded_column": {
      "latitude": "29.94130351740061",
      "longitude": "-90.13019014356051"
    }
  },
  {
    "service_request": "2024-1064968",
    "request_type": "Traffic Signals/Signs/Striping/Streetlights",
    "request_reason": "Street Light Outage/Malfunction",
    "date_created": "2024-01-31T13:25:35.000",
    "date_modified": "2024-01-31T13:25:36.000",
    "request_status": "Pending",
    "responsible_agency": "Department of Public Works",
    "final_address": "1632 Fourth St",
    "address_councildis": "B",
    "status": "Assigned to Contractor",
    "contractor": "Legacy Professional Services",
    "rowid": "1064968",
    "final_x": "3675991.85582",
    "final_y": "522947.140667",
    "longitude": "-90.08575780939195",
    "latitude": "29.93208924078341",
    "geocoded_column": {
      "latitude": "29.93208924078341",
      "longitude": "-90.08575780939195"
    }
  },
  {
    "service_request": "2024-1064967",
    "request_type": "Abandoned Vehicles",
    "request_reason": "Vehicle Blocking Your Driveway",
    "date_created": "2024-01-31T13:24:20.000",
    "date_modified": "2024-01-31T13:24:20.000",
    "request_status": "Pending",
    "responsible_agency": "Department of Public Works",
    "final_address": "1760 Moss Street",
    "address_councildis": "A",
    "status": "Pending",
    "rowid": "1064967",
    "final_x": "3675326.68654",
    "final_y": "542926.638925",
    "longitude": "-90.08717172915334",
    "latitude": "29.987046052348358",
    "geocoded_column": {
      "latitude": "29.987046052348358",
      "longitude": "-90.08717172915334"
    }
  },
  {
    "service_request": "2024-1064966",
    "request_type": "Abandoned Vehicles",
    "request_reason": "Vehicle Blocking Your Driveway",
    "date_created": "2024-01-31T13:23:22.000",
    "date_modified": "2024-01-31T13:23:22.000",
    "request_status": "Pending",
    "responsible_agency": "Department of Public Works",
    "final_address": "1760 Moss Street",
    "address_councildis": "A",
    "status": "Pending",
    "rowid": "1064966",
    "final_x": "3675326.68654",
    "final_y": "542926.638925",
    "longitude": "-90.08717172915334",
    "latitude": "29.987046052348358",
    "geocoded_column": {
      "latitude": "29.987046052348358",
      "longitude": "-90.08717172915334"
    }
  },
  {
    "service_request": "2024-1064965",
    "request_type": "Trash/Recycling",
    "request_reason": "Replace Trash Cart",
    "date_created": "2024-01-31T13:20:53.000",
    "date_modified": "2024-01-31T13:20:53.000",
    "request_status": "Pending",
    "responsible_agency": "Department of Sanitation",
    "final_address": "334 Whitney Ave",
    "address_councildis": "C",
    "status": "Assigned to Contractor",
    "contractor": "Richards Disposal",
    "rowid": "1064965",
    "final_x": "3690362.61737",
    "final_y": "530399.345218",
    "longitude": "-90.04012539995959",
    "latitude": "29.95214220376626",
    "geocoded_column": {
      "latitude": "29.95214220376626",
      "longitude": "-90.04012539995959"
    }
  },
  {
    "service_request": "2024-1064964",
    "request_type": "Abandoned Vehicles",
    "request_reason": "Abandoned/Junk Vehicles",
    "date_created": "2024-01-31T13:20:43.000",
    "date_modified": "2024-01-31T13:20:43.000",
    "request_status": "Pending",
    "responsible_agency": "Department of Public Works",
    "final_address": "600 BLK S Genois St",
    "address_councildis": "B",
    "status": "Pending",
    "rowid": "1064964",
    "final_x": "3671299.83551",
    "final_y": "535486.759523",
    "longitude": "-90.10014403971064",
    "latitude": "29.966708710714375",
    "geocoded_column": {
      "latitude": "29.966708710714375",
      "longitude": "-90.10014403971064"
    }
  },
  {
    "service_request": "2024-1064963",
    "request_type": "Trash/Recycling",
    "request_reason": "Request a Large Item Pick Up",
    "date_created": "2024-01-31T13:13:29.000",
    "date_modified": "2024-01-31T13:13:57.000",
    "request_status": "Pending",
    "responsible_agency": "Department of Sanitation",
    "final_address": "10123 Pressburg St",
    "address_councildis": "E",
    "status": "Assigned to Contractor",
    "contractor": "Waste Pro",
    "rowid": "1064963",
    "final_x": "3712900.93394",
    "final_y": "557235.021531",
    "longitude": "-89.96795096999632",
    "latitude": "30.02521145121954",
    "geocoded_column": {
      "latitude": "30.02521145121954",
      "longitude": "-89.96795096999632"
    }
  },
  {
    "service_request": "2024-1064962",
    "request_type": "Traffic Signals/Signs/Striping/Streetlights",
    "request_reason": "Street Light Outage/Malfunction",
    "date_created": "2024-01-31T13:11:48.000",
    "date_modified": "2024-01-31T13:11:49.000",
    "request_status": "Pending",
    "responsible_agency": "Department of Public Works",
    "final_address": "513 Patterson St",
    "address_councildis": "C",
    "status": "Assigned to Contractor",
    "contractor": "Legacy Professional Services",
    "rowid": "1064962",
    "final_x": "3686918.26486",
    "final_y": "531379.175554",
    "longitude": "-90.05096640901736",
    "latitude": "29.95494284024043",
    "geocoded_column": {
      "latitude": "29.95494284024043",
      "longitude": "-90.05096640901736"
    }
  },
  {
    "service_request": "2024-1064961",
    "request_type": "Property Maintenance",
    "request_reason": "Property Maintenance",
    "date_created": "2024-01-31T13:10:58.000",
    "date_modified": "2024-01-31T13:41:32.000",
    "case_close_date": "2024-01-31T07:41:32.000",
    "request_status": "Closed",
    "responsible_agency": "Department of Code Enforcement",
    "final_address": "3332 Bienville Ave",
    "address_councildis": "B",
    "status": "Resolved",
    "rowid": "1064961",
    "final_x": "3673809.34177",
    "final_y": "537186.40436",
    "longitude": "-90.09216087896863",
    "latitude": "29.971307657927564",
    "geocoded_column": {
      "latitude": "29.971307657927564",
      "longitude": "-90.09216087896863"
    }
  },
  {
    "service_request": "2024-1064960",
    "request_type": "Traffic Signals/Signs/Striping/Streetlights",
    "request_reason": "Street Light Outage/Malfunction",
    "date_created": "2024-01-31T13:10:44.000",
    "date_modified": "2024-01-31T13:10:45.000",
    "request_status": "Pending",
    "responsible_agency": "Department of Public Works",
    "final_address": "513 Patterson St",
    "address_councildis": "C",
    "status": "Assigned to Contractor",
    "contractor": "Legacy Professional Services",
    "rowid": "1064960",
    "final_x": "3686918.26486",
    "final_y": "531379.175554",
    "longitude": "-90.05096640901736",
    "latitude": "29.95494284024043",
    "geocoded_column": {
      "latitude": "29.95494284024043",
      "longitude": "-90.05096640901736"
    }
  },
  {
    "service_request": "2024-1064959",
    "request_type": "Trash/Recycling",
    "request_reason": "Illegal Dumping",
    "date_created": "2024-01-31T13:09:32.000",
    "date_modified": "2024-01-31T13:09:32.000",
    "request_status": "Pending",
    "responsible_agency": "Department of Sanitation",
    "final_address": "3400 BLK Wall Blvd",
    "address_councildis": "C",
    "status": "Pending",
    "rowid": "1064959",
    "final_x": "3696074.28071",
    "final_y": "523830.5371",
    "longitude": "-90.02232803237084",
    "latitude": "29.933901773466054",
    "geocoded_column": {
      "latitude": "29.933901773466054",
      "longitude": "-90.02232803237084"
    }
  },
  {
    "service_request": "2024-1064958",
    "request_type": "Trash/Recycling",
    "request_reason": "Illegal Dumping",
    "date_created": "2024-01-31T13:08:11.000",
    "date_modified": "2024-01-31T13:11:11.000",
    "request_status": "Pending",
    "responsible_agency": "Department of Sanitation",
    "final_address": "2200 BLK Cypress Acres Dr",
    "address_councildis": "C",
    "status": "Pending",
    "rowid": "1064958",
    "final_x": "3696216.59703",
    "final_y": "522749.520234",
    "longitude": "-90.02191780684147",
    "latitude": "29.930924869812305",
    "geocoded_column": {
      "latitude": "29.930924869812305",
      "longitude": "-90.02191780684147"
    }
  },
  {
    "service_request": "2024-1064957",
    "request_type": "Abandoned Vehicles",
    "request_reason": "Abandoned/Junk Vehicles",
    "date_created": "2024-01-31T13:07:50.000",
    "date_modified": "2024-01-31T13:07:50.000",
    "request_status": "Pending",
    "responsible_agency": "Department of Public Works",
    "final_address": "2631 Bayou Rd",
    "address_councildis": "D",
    "status": "Pending",
    "rowid": "1064957",
    "final_x": "3678432.1101",
    "final_y": "539781.151818",
    "longitude": "-90.07747171069575",
    "latitude": "29.978303825273738",
    "geocoded_column": {
      "latitude": "29.978303825273738",
      "longitude": "-90.07747171069575"
    }
  },
  {
    "service_request": "2024-1064956",
    "request_type": "Trash/Recycling",
    "request_reason": "Replace Trash Cart",
    "date_created": "2024-01-31T13:06:18.000",
    "date_modified": "2024-01-31T13:06:18.000",
    "request_status": "Closed",
    "responsible_agency": "Department of Sanitation",
    "final_address": "1160 City Park Ave",
    "address_councildis": "A",
    "status": "Resolved",
    "rowid": "1064956",
    "final_x": "3673563.269",
    "final_y": "541408.29262",
    "longitude": "-90.09279365990783",
    "latitude": "29.982923737813014",
    "geocoded_column": {
      "latitude": "29.982923737813014",
      "longitude": "-90.09279365990783"
    }
  },