[
  {
    "service_request": "2022-888392",
    "request_type": "Trash/Recycling",
    "request_reason": "Missed Trash Pick-Up",
    "date_created": "2022-06-02T23:20:31.000",
    "date_modified": "2022-06-02T23:20:31.000",
    "request_status": "Pending",
    "responsible_agency": "Department of Sanitation",
    "final_address": "920 Euterpe St, New Orleans, Louisiana, 70130",
    "address_councildis": "B",
    "status": "Assigned to Contractor",
    "contractor": "Richards Disposal",
    "rowid": "888392",
    "final_x": "3677482.54018",
    "final_y": "525860.341053",
    "longitude": "-90.08095134832443",
    "latitude": "29.94005487265027",
    "geocoded_column": {
      "latitude": "29.94005487265027",
      "longitude": "-90.08095134832443"
    }
  },
  {
    "service_request": "2022-888391",
    "request_type": "Trash/Recycling",
    "request_reason": "Missed Trash Pick-Up",
    "date_created": "2022-06-02T22:26:14.000",
    "date_modified": "2022-06-02T22:26:15.000",
    "request_status": "Pending",
    "responsible_agency": "Department of Sanitation",
    "final_address": "1401 Terpsichore St",
    "address_councildis": "B",
    "status": "Assigned to Contractor",
    "contractor": "Richards Disposal",
    "rowid": "888391",
    "final_x": "3679812.38626",
    "final_y": "524863.905212",
    "longitude": "-90.07363025788041",
    "latitude": "29.937244778901164",
    "geocoded_column": {
      "latitude": "29.937244778901164",
      "longitude": "-90.07363025788041"
    }
  },
  {
    "service_request": "2022-888390",
    "request_type": "Safety & Permits",
    "request_reason": "Licenses & Permits",
    "date_created": "2022-06-02T22:23:41.000",
    "date_modified": "2022-06-02T22:23:42.000",
    "request_status": "Pending",
    "responsible_agency": "Safety and Permits",
    "final_address": "500 BLK Frenchmen St",
    "address_councildis": "C",
    "status": "Pending",
    "rowid": "888390",
    "final_x": "3684748.8178",
    "final_y": "534297.341298",
    "longitude": "-90.05771411106349",
    "latitude": "29.963033376306793",
    "geocoded_column": {
      "latitude": "29.963033376306793",
      "longitude": "-90.05771411106349"
    }
  },
  {
    "service_request": "2022-888388",
    "request_type": "Trash/Recycling",
    "request_reason": "Missed Trash Pick-Up",
    "date_created": "2022-06-02T22:20:21.000",
    "date_modified": "2022-06-02T22:20:21.000",
    "request_status": "Pending",
    "responsible_agency": "Department of Sanitation",
    "final_address": "2619 Short St, New Orleans, Louisiana, 70125",
    "address_councildis": "A",
    "status": "Assigned to Contractor",
    "contractor": "Richards Disposal",
    "rowid": "888388",
    "final_x": "3665844.02202",
    "final_y": "531914.033603",
    "longitude": "-90.11749325798682",
    "latitude": "29.95704521337064",
    "geocoded_column": {
      "latitude": "29.95704521337064",
      "longitude": "-90.11749325798682"
    }
  },
  {
    "service_request": "2022-888387",
    "request_type": "Traffic Signals/Signs/Striping/Streetlights",
    "request_reason": "Street Light Outage/Malfunction",
    "date_created": "2022-06-02T22:15:16.000",
    "date_modified": "2022-06-02T22:15:16.000",
    "request_status": "Pending",
    "responsible_agency": "Department of Public Works",
    "final_address": "1461 Magazine St",
    "address_councildis": "B",
    "status": "Pending",
    "contractor": "Royal Engineering",
    "rowid": "888387",
    "final_x": "3680202.78491",
    "final_y": "524023.150652",
    "longitude": "-90.0724269539209",
    "latitude": "29.934921174757065",
    "geocoded_column": {
      "latitude": "29.934921174757065",
      "longitude": "-90.0724269539209"
    }
  },
  {
    "service_request": "2022-888386",
    "request_type": "Trash/Recycling",
    "request_reason": "Missed Trash Pick-Up",
    "date_created": "2022-06-02T21:39:21.000",
    "date_modified": "2022-06-02T21:39:21.000",
    "request_status": "Pending",
    "responsible_agency": "Department of Sanitation",
    "final_address": "5119 Coliseum St, New Orleans, Louisiana, 70115",
    "address_councildis": "B",
    "status": "Assigned to Contractor",
    "contractor": "Richards Disposal",
    "rowid": "888386",
    "final_x": "3668209.2585",
    "final_y": "519691.775544",
    "longitude": "-90.11043644755027",
    "latitude": "29.923368723214477",
    "geocoded_column": {
      "latitude": "29.923368723214477",
      "longitude": "-90.11043644755027"
    }
  },
  {
    "service_request": "2022-888385",
    "request_type": "Traffic Signals/Signs/Striping/Streetlights",
    "request_reason": "Street Light Outage/Malfunction",
    "date_created": "2022-06-02T21:15:35.000",
    "date_modified": "2022-06-02T21:15:36.000",
    "request_status": "Pending",
    "responsible_agency": "Department of Public Works",
    "final_address": "2525 Hamilton St",
    "address_councildis": "A",
    "status": "Pending",
    "contractor": "Royal Engineering",
    "rowid": "888385",
    "final_x": "3662655.33312",
    "final_y": "534324.765125",
    "longitude": "-90.12748208462061",
    "latitude": "29.963766589494412",
    "geocoded_column": {
      "latitude": "29.963766589494412",
      "longitude": "-90.12748208462061"
    }
  },
  {
    "service_request": "2022-888384",
    "request_type": "Traffic Signals/Signs/Striping/Streetlights",
    "request_reason": "Street Light Outage/Malfunction",
    "date_created": "2022-06-02T21:14:26.000",
    "date_modified": "2022-06-02T21:14:26.000",
    "request_status": "Pending",
    "responsible_agency": "Department of Public Works",
    "final_address": "2533 Hamilton St",
    "address_councildis": "A",
    "status": "Pending",
    "contractor": "Royal Engineering",
    "rowid": "888384",
    "final_x": "3662682.42541",
    "final_y": "534356.999301",
    "longitude": "-90.1273954581014",
    "latitude": "29.963854438950772",
    "geocoded_column": {
      "latitude": "29.963854438950772",
      "longitude": "-90.1273954581014"
    }
  },
  {
    "service_request": "2022-888383",
    "request_type": "Trash/Recycling",
    "request_reason": "Request a Large Item Pick Up",
    "date_created": "2022-06-02T21:09:50.000",
    "date_modified": "2022-06-02T21:09:51.000",
    "request_status": "Pending",
    "responsible_agency": "Department of Sanitation",
    "final_address": "8302 Spruce St",
    "address_councildis": "A",
    "status": "Assigned to Contractor",
    "contractor": "Richards Disposal",
    "rowid": "888383",
    "final_x": "3663225.89466",
    "final_y": "530979.948546",
    "longitude": "-90.1257916127969",
    "latitude": "29.954552910286917",
    "geocoded_column": {
      "latitude": "29.954552910286917",
      "longitude": "-90.1257916127969"
    }
  },
  {
    "service_request": "2022-888382",
    "request_type": "Trash/Recycling",
    "request_reason": "Request a Large Item Pick Up",
    "date_created": "2022-06-02T21:07:58.000",
    "date_modified": "2022-06-02T21:07:59.000",
    "request_status": "Pending",
    "responsible_agency": "Department of Sanitation",
    "final_address": "1238 Fern St",
    "address_councildis": "A",
    "status": "Assigned to Contractor",
    "contractor": "Richards Disposal",
    "rowid": "888382",
    "final_x": "3662697.58163",
    "final_y": "528084.919935",
    "longitude": "-90.12755602307341",
    "latitude": "29.946607811891823",
    "geocoded_column": {
      "latitude": "29.946607811891823",
      "longitude": "-90.12755602307341"
    }
  },
  {
    "service_request": "2022-888381",
    "request_type": "Safety & Permits",
    "request_reason": "Licenses & Permits",
    "date_created": "2022-06-02T20:43:40.000",
    "date_modified": "2022-06-02T20:43:40.000",
    "request_status": "Pending",
    "responsible_agency": "Safety and Permits",
    "final_address": "14401 Chef Menteur Hwy",
    "address_councildis": "E",
    "status": "Pending",
    "rowid": "888381",
    "final_x": "3730862.58887",
    "final_y": "561723.310623",
    "longitude": "-89.91101978533842",
    "latitude": "30.036951651687797",
    "geocoded_column": {
      "latitude": "30.036951651687797",
      "longitude": "-89.91101978533842"
    }
  },
  {
    "service_request": "2022-888380",
    "request_type": "Trash/Recycling",
    "request_reason": "Missed Trash Pick-Up",
    "date_created": "2022-06-02T20:36:50.000",
    "date_modified": "2022-06-02T20:36:51.000",
    "request_status": "Pending",
    "responsible_agency": "Department of Sanitation",
    "final_address": "1724 Clio St",
    "address_councildis": "B",
    "status": "Assigned to Contractor",
    "contractor": "Richards Disposal",
    "rowid": "888380",
    "final_x": "3679138.50799",
    "final_y": "526693.81171",
    "longitude": "-90.0756943257652",
    "latitude": "29.942296769216746",
    "geocoded_column": {
      "latitude": "29.942296769216746",
      "longitude": "-90.0756943257652"
    }
  },
  {
    "service_request": "2022-888379",
    "request_type": "Trash/Recycling",
    "request_reason": "Missed Trash Pick-Up",
    "date_created": "2022-06-02T20:08:56.000",
    "date_modified": "2022-06-02T20:08:57.000",
    "request_status": "Pending",
    "responsible_agency": "Department of Sanitation",
    "final_address": "534 Fourth St",
    "address_councildis": "B",
    "status": "Assigned to Contractor",
    "contractor": "Richards Disposal",
    "rowid": "888379",
    "final_x": "3678372.54786",
    "final_y": "519342.279095",
    "longitude": "-90.07836684193953",
    "latitude": "29.922105558393508",
    "geocoded_column": {
      "latitude": "29.922105558393508",
      "longitude": "-90.07836684193953"
    }
  },
  {
    "service_request": "2022-888378",
    "request_type": "Traffic Signals/Signs/Striping/Streetlights",
    "request_reason": "Street Light Outage/Malfunction",
    "date_created": "2022-06-02T19:50:03.000",
    "date_modified": "2022-06-02T19:50:03.000",
    "request_status": "Pending",
    "responsible_agency": "Department of Public Works",
    "final_address": "4117 Palmyra St",
    "address_councildis": "A",
    "status": "Pending",
    "contractor": "Royal Engineering",
    "rowid": "888378",
    "final_x": "3670455.45243",
    "final_y": "537913.075721",
    "longitude": "-90.10272831273525",
    "latitude": "29.973405226455235",
    "geocoded_column": {
      "latitude": "29.973405226455235",
      "longitude": "-90.10272831273525"
    }
  },
  {
    "service_request": "2022-888377",
    "request_type": "Trash/Recycling",
    "request_reason": "Illegal Dumping",
    "date_created": "2022-06-02T19:29:16.000",
    "date_modified": "2022-06-02T19:29:16.000",
    "request_status": "Pending",
    "responsible_agency": "Department of Sanitation",
    "final_address": "5700 Tullis Dr",
    "address_councildis": "C",
    "status": "Pending",
    "rowid": "888377",
    "final_x": "3705093.55531",
    "final_y": "512744.214897",
    "longitude": "-89.9942638108508",
    "latitude": "29.903131392237807",
    "geocoded_column": {
      "latitude": "29.903131392237807",
      "longitude": "-89.9942638108508"
    }
  },
  {
    "service_request": "2022-888376",
    "request_type": "Trash/Recycling",
    "request_reason": "Order Trash Cart",
    "date_created": "2022-06-02T19:26:24.000",
    "date_modified": "2022-06-02T19:26:24.000",
    "request_status": "Pending",
    "responsible_agency": "Department of Sanitation",
    "final_address": "131 Alvin Callender St",
    "address_councildis": "A",
    "status": "Assigned to Contractor",
    "contractor": "Richards Disposal",
    "rowid": "888376",
    "final_x": "3661102.78694",
    "final_y": "523332.014843",
    "longitude": "-90.13274862517461",
    "latitude": "29.93358487702118",
    "geocoded_column": {
      "latitude": "29.93358487702118",
      "longitude": "-90.13274862517461"
    }
  },
  {
    "service_request": "2022-888375",
    "request_type": "Mosquito, Termite & Rodent Control",
    "request_reason": "Mosquito Complaint",
    "date_created": "2022-06-02T19:24:05.000",
    "date_modified": "2022-06-02T19:24:05.000",
    "request_status": "Pending",
    "responsible_agency": "Mosquito, Termite & Rodent Control Board",
    "final_address": "131 Alvin Callender St",
    "address_councildis": "A",
    "status": "Pending",
    "rowid": "888375",
    "final_x": "3661102.78694",
    "final_y": "523332.014843",
    "longitude": "-90.13274862517461",
    "latitude": "29.93358487702118",
    "geocoded_column": {
      "latitude": "29.93358487702118",
      "longitude": "-90.13274862517461"
    }
  },
  {
    "service_request": "2022-888374",
    "request_type": "Trash/Recycling",
    "request_reason": "Order Trash Cart",
    "date_created": "2022-06-02T19:11:05.000",
    "date_modified": "2022-06-02T19:11:05.000",
    "request_status": "Pending",
    "responsible_agency": "Department of Sanitation",
    "final_address": "6054 General Diaz St",
    "address_councildis": "A",
    "status": "Assigned to Contractor",
    "contractor": "Metro Disposal",
    "rowid": "888374",
    "final_x": "3669454.28442",
    "final_y": "547618.917074",
    "longitude": "-90.10556176863508",
    "latitude": "30.00012250210243",
    "geocoded_column": {
      "latitude": "30.00012250210243",
      "longitude": "-90.10556176863508"
    }
  },
  {
    "service_request": "2022-888373",
    "request_type": "Trash/Recycling",
    "request_reason": "Missed Trash Pick-Up",
    "date_created": "2022-06-02T19:10:58.000",
    "date_modified": "2022-06-02T19:10:59.000",
    "request_status": "Pending",
    "responsible_agency": "Department of Sanitation",
    "final_address": "2909 Broadway St",
    "address_councildis": "B",
    "status": "Assigned to Contractor",
    "contractor": "Richards Disposal",
    "rowid": "888373",
    "final_x": "3667585.16647",
    "final_y": "531637.183299",
    "longitude": "-90.11200456438573",
    "latitude": "29.956233050617865",
    "geocoded_column": {
      "latitude": "29.956233050617865",
      "longitude": "-90.11200456438573"
    }
  },
  {
    "service_request": "2022-888372",
    "request_type": "Trash/Recycling",
    "request_reason": "Missed Trash Pick-Up",
    "date_created": "2022-06-02T18:58:26.000",
    "date_modified": "2022-06-02T18:58:27.000",
    "request_status": "Pending",
    "responsible_agency": "Department of Sanitation",
    "final_address": "1409 Saint Mary St, New Orleans, Louisiana, 70130",
    "status": "Assigned to Contractor",
    "rowid": "888372",
    "longitude": "0.0",
    "latitude": "0.0",
    "geocoded_column": {
      "latitude": "0.0",
      "longitude": "0.0"
    }
  },
  {
    "service_request": "2022-888370",
    "request_type": "Parks & Parkways",
    "request_reason": "Request Tree Service (Right of Way/Public Property)",
    "date_created": "2022-06-02T18:41:50.000",
    "date_modified": "2022-06-02T18:41:50.000",
    "request_status": "Pending",
    "responsible_agency": "Department of Parks & Parkway",
    "final_address": "5923 Urquhart St",
    "address_councildis": "E",
    "status": "Pending",
    "rowid": "888370",
    "final_x": "3699297.29399",
    "final_y": "534228.215941",
    "longitude": "-90.01177459481447",
    "latitude": "29.96238994549854",
    "geocoded_column": {
      "latitude": "29.96238994549854",
      "longitude": "-90.01177459481447"
    }
  },
  {
    "service_request": "2022-888369",
    "request_type": "Trash/Recycling",
    "request_reason": "Replace Trash Cart",
    "date_created": "2022-06-02T18:39:01.000",
    "date_modified": "2022-06-02T18:39:01.000",
    "request_status": "Pending",
    "responsible_agency": "Department of Sanitation",
    "final_address": "1222 Kentucky St",
    "address_councildis": "D",
    "status": "Assigned to Contractor",
    "contractor": "Metro Disposal",
    "rowid": "888369",
    "final_x": "3693381.73168",
    "final_y": "535500.158086",
    "longitude": "-90.03040934690831",
    "latitude": "29.966073613662505",
    "geocoded_column": {
      "latitude": "29.966073613662505",
      "longitude": "-90.03040934690831"
    }
  },
  {
    "service_request": "2022-888368",
    "request_type": "Trash/Recycling",
    "request_reason": "Missed Trash Pick-Up",
    "date_created": "2022-06-02T18:29:33.000",
    "date_modified": "2022-06-02T18:29:34.000",
    "request_status": "Pending",
    "responsible_agency": "Department of Sanitation",
    "final_address": "905 Fern St",
    "address_councildis": "A",
    "status": "Assigned to Contractor",
    "contractor": "Richards Disposal",
    "rowid": "888368",
    "final_x": "3661908.35955",
    "final_y": "527107.489151",
    "longitude": "-90.13008030038823",
    "latitude": "29.943943001807053",
    "geocoded_column": {
      "latitude": "29.943943001807053",
      "longitude": "-90.13008030038823"
    }
  },
  {
    "service_request": "2022-888367",
    "request_type": "Property Maintenance",
    "request_reason": "Property Maintenance",
    "date_created": "2022-06-02T18:29:05.000",
    "date_modified": "2022-06-02T18:29:05.000",
    "request_status": "Pending",
    "responsible_agency": "Department of Code Enforcement",
    "final_address": "7948 Edgelake Ct",
    "address_councildis": "E",
    "status": "Pending",
    "rowid": "888367",
    "final_x": "3702992.94724",
    "final_y": "562263.602399",
    "longitude": "-89.99907343934925",
    "latitude": "30.039358998219676",
    "geocoded_column": {
      "latitude": "30.039358998219676",
      "longitude": "-89.99907343934925"
    }
  },
  {
    "service_request": "2022-888366",
    "request_type": "Trash/Recycling",
    "request_reason": "Missed Trash Pick-Up",
    "date_created": "2022-06-02T18:27:47.000",
    "date_modified": "2022-06-02T18:27:47.000",
    "request_status": "Pending",
    "responsible_agency": "Department of Sanitation",
    "final_address": "8701 Pritchard Pl",
    "address_councildis": "A",
    "status": "Assigned to Contractor",
    "contractor": "Richards Disposal",
    "rowid": "888366",
    "final_x": "3664491.29236",
    "final_y": "534366.411589",
    "longitude": "-90.1216828899228",
    "latitude": "29.963827849252564",
    "geocoded_column": {
      "latitude": "29.963827849252564",
      "longitude": "-90.1216828899228"
    }
  },
  {
    "service_request": "2022-888365",
    "request_type": "Trash/Recycling",
    "request_reason": "Replace Recycling Cart",
    "date_created": "2022-06-02T18:15:18.000",
    "date_modified": "2022-06-02T18:15:18.000",
    "request_status": "Pending",
    "responsible_agency": "Department of Sanitation",
    "final_address": "3017 Annette St",
    "address_councildis": "D",
    "status": "Pending",
    "rowid": "888365",
    "final_x": "3682584.93148",
    "final_y": "543685.007758",
    "longitude": "-90.06421904944601",
    "latitude": "29.98891225271109",
    "geocoded_column": {
      "latitude": "29.98891225271109",
      "longitude": "-90.06421904944601"
    }
  },
  {
    "service_request": "2022-888364",
    "request_type": "Property Maintenance",
    "request_reason": "Property Maintenance",
    "date_created": "2022-06-02T18:12:51.000",
    "date_modified": "2022-06-02T18:12:51.000",
    "request_status": "Pending",
    "responsible_agency": "Department of Code Enforcement",
    "final_address": "1569 Athis St",
    "address_councildis": "D",
    "status": "Pending",
    "rowid": "888364",
    "final_x": "3678916.07899",
    "final_y": "553855.734487",
    "longitude": "-90.07545517078597",
    "latitude": "30.0169893528633",
    "geocoded_column": {
      "latitude": "30.0169893528633",
      "longitude": "-90.07545517078597"
    }
  },
  {
    "service_request": "2022-888363",
    "request_type": "Roads/Drainage",
    "request_reason": "Accessibility Ramps, Curbs and Sidewalk Repair",
    "date_created": "2022-06-02T18:12:20.000",
    "date_modified": "2022-06-02T18:12:20.000",
    "request_status": "Pending",
    "responsible_agency": "Department of Public Works",
    "final_address": "3310 Desaix Blvd",
    "address_councildis": "A",
    "status": "Pending",
    "rowid": "888363",
    "final_x": "3677473.98376",
    "final_y": "543494.953038",
    "longitude": "-90.08036956071709",
    "latitude": "29.98854433077897",
    "geocoded_column": {
      "latitude": "29.98854433077897",
      "longitude": "-90.08036956071709"
    }
  },
  {
    "service_request": "2022-888362",
    "request_type": "Trash/Recycling",
    "request_reason": "Request a Large Item Pick Up",
    "date_created": "2022-06-02T18:06:28.000",
    "date_modified": "2022-06-02T18:06:29.000",
    "request_status": "Pending",
    "responsible_agency": "Department of Sanitation",
    "final_address": "3534 Paris Ave",
    "address_councildis": "D",
    "status": "Assigned to Contractor",
    "contractor": "Metro Disposal",
    "rowid": "888362",
    "final_x": "3679616.82895",
    "final_y": "545413.45384",
    "longitude": "-90.07353436034033",
    "latitude": "29.99375493005855",
    "geocoded_column": {
      "latitude": "29.99375493005855",
      "longitude": "-90.07353436034033"
    }
  },
  {
    "service_request": "2022-888361",
    "request_type": "Trash/Recycling",
    "request_reason": "Missed Trash Pick-Up",
    "date_created": "2022-06-02T18:01:59.000",
    "date_modified": "2022-06-02T18:02:00.000",
    "request_status": "Pending",
    "responsible_agency": "Department of Sanitation",
    "final_address": "628 St James St",
    "address_councildis": "B",
    "status": "Assigned to Contractor",
    "contractor": "Richards Disposal",
    "rowid": "888361",
    "final_x": "3681469.22556",
    "final_y": "521974.265722",
    "longitude": "-90.0685002176205",
    "latitude": "29.929249037333037",
    "geocoded_column": {
      "latitude": "29.929249037333037",
      "longitude": "-90.0685002176205"
    }
  },
  {
    "service_request": "2022-888360",
    "request_type": "Trash/Recycling",
    "request_reason": "Illegal Dumping",
    "date_created": "2022-06-02T17:57:50.000",
    "date_modified": "2022-06-02T17:57:50.000",
    "request_status": "Pending",
    "responsible_agency": "Department of Sanitation",
    "final_address": "1800 St Roch Ave",
    "address_councildis": "D",
    "status": "Pending",
    "rowid": "888360",
    "final_x": "3686155.711",
    "final_y": "539035.952394",
    "longitude": "-90.05310413310053",
    "latitude": "29.97601976439729",
    "geocoded_column": {
      "latitude": "29.97601976439729",
      "longitude": "-90.05310413310053"
    }
  },
  {
    "service_request": "2022-888359",
    "request_type": "Trash/Recycling",
    "request_reason": "Request a Large Item Pick Up",
    "date_created": "2022-06-02T17:56:51.000",
    "date_modified": "2022-06-02T17:56:52.000",
    "request_status": "Pending",
    "responsible_agency": "Department of Sanitation",
    "final_address": "1454 Farragut St",
    "address_councildis": "C",
    "status": "Assigned to Contractor",
    "contractor": "Richards Disposal",
    "rowid": "888359",
    "final_x": "3692379.17584",
    "final_y": "525732.194557",
    "longitude": "-90.03392519114193",
    "latitude": "29.93924641382243",
    "geocoded_column": {
      "latitude": "29.93924641382243",
      "longitude": "-90.03392519114193"
    }
  },
  {
    "service_request": "2022-888358",
    "request_type": "Property Maintenance",
    "request_reason": "Property Maintenance",
    "date_created": "2022-06-02T17:52:28.000",
    "date_modified": "2022-06-02T17:52:28.000",
    "request_status": "Pending",
    "responsible_agency": "Department of Code Enforcement",
    "final_address": "262 Hay Pl",
    "address_councildis": "A",
    "status": "Pending",
    "rowid": "888358",
    "final_x": "3665658.75559",
    "final_y": "554170.761752",
    "longitude": "-90.11733244212289",
    "latitude": "30.018249075559076",
    "geocoded_column": {
      "latitude": "30.018249075559076",
      "longitude": "-90.11733244212289"
    }
  },
  {
    "service_request": "2022-888357",
    "request_type": "Trash/Recycling",
    "request_reason": "Request a Large Item Pick Up",
    "date_created": "2022-06-02T17:46:34.000",
    "date_modified": "2022-06-02T17:46:34.000",
    "request_status": "Pending",
    "responsible_agency": "Department of Sanitation",
    "final_address": "3461 Constance St",
    "address_councildis": "B",
    "status": "Assigned to Contractor",
    "contractor": "Richards Disposal",
    "rowid": "888357",
    "final_x": "3674638.96763",
    "final_y": "519113.261431",
    "longitude": "-90.0901600600657",
    "latitude": "29.921587743853625",
    "geocoded_column": {
      "latitude": "29.921587743853625",
      "longitude": "-90.0901600600657"
    }
  },
  {
    "service_request": "2022-888356",
    "request_type": "Trash/Recycling",
    "request_reason": "Missed Trash Pick-Up",
    "date_created": "2022-06-02T17:44:28.000",
    "date_modified": "2022-06-02T17:44:28.000",
    "request_status": "Pending",
    "responsible_agency": "Department of Sanitation",
    "final_address": "1626 Seventh St",
    "address_councildis": "B",
    "status": "Assigned to Contractor",
    "contractor": "Richards Disposal",
    "rowid": "888356",
    "final_x": "3675069.77518",
    "final_y": "522282.50905",
    "longitude": "-90.08869151983959",
    "latitude": "29.9302892927334",
    "geocoded_column": {
      "latitude": "29.9302892927334",
      "longitude": "-90.08869151983959"
    }
  },
  {
    "service_request": "2022-888355",
    "request_type": "Abandoned Vehicles",
    "request_reason": "Vehicle Blocking Your Driveway",
    "date_created": "2022-06-02T17:33:30.000",
    "date_modified": "2022-06-02T17:33:30.000",
    "request_status": "Pending",
    "responsible_agency": "Department of Public Works",
    "final_address": "3000 St Peter St",
    "address_councildis": "A",
    "status": "Pending",
    "rowid": "888355",
    "final_x": "3675606.82094",
    "final_y": "537603.158344",
    "longitude": "-90.08646985935256",
    "latitude": "29.972399930460636",
    "geocoded_column": {
      "latitude": "29.972399930460636",
      "longitude": "-90.08646985935256"
    }
  },
  {
    "service_request": "2022-888354",
    "request_type": "Trash/Recycling",
    "request_reason": "Request a Large Item Pick Up",
    "date_created": "2022-06-02T17:28:14.000",
    "date_modified": "2022-06-02T17:28:14.000",
    "request_status": "Pending",
    "responsible_agency": "Department of Sanitation",
    "final_address": "3112 Laurel St",
    "address_councildis": "B",
    "status": "Assigned to Contractor",
    "contractor": "Richards Disposal",
    "rowid": "888354",
    "final_x": "3676441.69256",
    "final_y": "519494.000439",
    "longitude": "-90.08445653362152",
    "latitude": "29.922580750519934",
    "geocoded_column": {
      "latitude": "29.922580750519934",
      "longitude": "-90.08445653362152"
    }
  },
  {
    "service_request": "2022-888353",
    "request_type": "Trash/Recycling",
    "request_reason": "Replace Recycling Cart",
    "date_created": "2022-06-02T17:01:57.000",
    "date_modified": "2022-06-02T17:01:57.000",
    "request_status": "Pending",
    "responsible_agency": "Department of Sanitation",
    "final_address": "2720 Danbury Dr",
    "address_councildis": "C",
    "status": "Pending",
    "rowid": "888353",
    "final_x": "3703714.75806",
    "final_y": "520785.156793",
    "longitude": "-89.99831957290226",
    "latitude": "29.925285457513393",
    "geocoded_column": {
      "latitude": "29.925285457513393",
      "longitude": "-89.99831957290226"
    }
  },
  {
    "service_request": "2022-888352",
    "request_type": "Trash/Recycling",
    "request_reason": "Missed Trash Pick-Up",
    "date_created": "2022-06-02T16:54:08.000",
    "date_modified": "2022-06-02T16:54:09.000",
    "request_status": "Pending",
    "responsible_agency": "Department of Sanitation",
    "final_address": "4133 Vincennes Pl",
    "address_councildis": "B",
    "status": "Assigned to Contractor",
    "contractor": "Richards Disposal",
    "rowid": "888352",
    "final_x": "3668690.06023",
    "final_y": "530771.10797",
    "longitude": "-90.10854490304123",
    "latitude": "29.953819199199952",
    "geocoded_column": {
      "latitude": "29.953819199199952",
      "longitude": "-90.10854490304123"
    }
  },
  {
    "service_request": "2022-888351",
    "request_type": "Trash/Recycling",
    "request_reason": "Order Trash Cart",
    "date_created": "2022-06-02T16:54:06.000",
    "date_modified": "2022-06-02T16:54:07.000",
    "request_status": "Pending",
    "responsible_agency": "Department of Sanitation",
    "final_address": "5119 Coliseum St, New Orleans, Louisiana, 70115",
    "address_councildis": "B",
    "status": "Assigned to Contractor",
    "contractor": "Richards Disposal",
    "rowid": "888351",
    "final_x": "3668209.2585",
    "final_y": "519691.775544",
    "longitude": "-90.11043644755027",
    "latitude": "29.923368723214477",
    "geocoded_column": {
      "latitude": "29.923368723214477",
      "longitude": "-90.11043644755027"
    }
  },
  {
    "service_request": "2022-888350",
    "request_type": "Trash/Recycling",
    "request_reason": "Request a Large Item Pick Up",
    "date_created": "2022-06-02T16:52:47.000",
    "date_modified": "2022-06-02T16:52:48.000",
    "request_status": "Pending",
    "responsible_agency": "Department of Sanitation",
    "final_address": "4035 Chestnut St, New Orleans, Louisiana, 70115",
    "address_councildis": "B",
    "status": "Assigned to Contractor",
    "contractor": "Richards Disposal",
    "rowid": "888350",
    "final_x": "3672144.94548",
    "final_y": "519669.303928",
    "longitude": "-90.09801370318543",
    "latitude": "29.92319085051685",
    "geocoded_column": {
      "latitude": "29.92319085051685",
      "longitude": "-90.09801370318543"
    }
  },
  {
    "service_request": "2022-888349",
    "request_type": "Trash/Recycling",
    "request_reason": "Missed Trash Pick-Up",
    "date_created": "2022-06-02T16:46:35.000",
    "date_modified": "2022-06-02T16:46:35.000",
    "request_status": "Pending",
    "responsible_agency": "Department of Sanitation",
    "final_address": "1025 Richard St",
    "address_councildis": "B",
    "status": "Assigned to Contractor",
    "contractor": "Richards Disposal",
    "rowid": "888349",
    "final_x": "3680194.48725",
    "final_y": "523114.910523",
    "longitude": "-90.07248470048943",
    "latitude": "29.932424065033068",
    "geocoded_column": {
      "latitude": "29.932424065033068",
      "longitude": "-90.07248470048943"
    }
  },
  {
    "service_request": "2022-888348",
    "request_type": "Trash/Recycling",
    "request_reason": "Replace Trash Cart",
    "date_created": "2022-06-02T16:46:01.000",
    "date_modified": "2022-06-02T16:46:02.000",
    "request_status": "Pending",
    "responsible_agency": "Department of Sanitation",
    "final_address": "4912 Constance St",
    "address_councildis": "B",
    "status": "Assigned to Contractor",
    "contractor": "Richards Disposal",
    "rowid": "888348",
    "final_x": "3668852.29934",
    "final_y": "518168.139382",
    "longitude": "-90.10845801623154",
    "latitude": "29.919160319030162",
    "geocoded_column": {
      "latitude": "29.919160319030162",
      "longitude": "-90.10845801623154"
    }
  },
  {
    "service_request": "2022-888347",
    "request_type": "Traffic Signals/Signs/Striping/Streetlights",
    "request_reason": "Street Light Knocked Down/Leaning",
    "date_created": "2022-06-02T16:45:09.000",
    "date_modified": "2022-06-02T16:45:10.000",
    "request_status": "Pending",
    "responsible_agency": "Department of Public Works",
    "final_address": "800 Royal St",
    "address_councildis": "C",
    "status": "Pending",
    "contractor": "Royal Engineering",
    "rowid": "888347",
    "final_x": "3682814.15509",
    "final_y": "532767.737924",
    "longitude": "-90.06387704805003",
    "latitude": "29.958886570506237",
    "geocoded_column": {
      "latitude": "29.958886570506237",
      "longitude": "-90.06387704805003"
    }
  },
  {
    "service_request": "2022-888346",
    "request_type": "Traffic Signals/Signs/Striping/Streetlights",
    "request_reason": "Street Light Outage/Malfunction",
    "date_created": "2022-06-02T16:33:00.000",
    "date_modified": "2022-06-02T16:33:00.000",
    "request_status": "Pending",
    "responsible_agency": "Department of Public Works",
    "final_address": "3102 Mandeville St",
    "address_councildis": "D",
    "status": "Pending",
    "contractor": "Royal Engineering",
    "rowid": "888346",
    "final_x": "3685109.80629",
    "final_y": "544149.102222",
    "longitude": "-90.05622740914453",
    "latitude": "29.990111211636613",
    "geocoded_column": {
      "latitude": "29.990111211636613",
      "longitude": "-90.05622740914453"
    }
  },
  {
    "service_request": "2022-888345",
    "request_type": "Trash/Recycling",
    "request_reason": "Missed Trash Pick-Up",
    "date_created": "2022-06-02T16:32:18.000",
    "date_modified": "2022-06-02T16:32:19.000",
    "request_status": "Pending",
    "responsible_agency": "Department of Sanitation",
    "final_address": "1233 Fern St",
    "address_councildis": "A",
    "status": "Assigned to Contractor",
    "contractor": "Richards Disposal",
    "rowid": "888345",
    "final_x": "3662738.96365",
    "final_y": "528012.627967",
    "longitude": "-90.12742776672536",
    "latitude": "29.94640783468398",
    "geocoded_column": {
      "latitude": "29.94640783468398",
      "longitude": "-90.12742776672536"
    }
  },
  {
    "service_request": "2022-888344",
    "request_type": "Trash/Recycling",
    "request_reason": "Request a Large Item Pick Up",
    "date_created": "2022-06-02T16:30:50.000",
    "date_modified": "2022-06-02T16:30:50.000",
    "request_status": "Pending",
    "responsible_agency": "Department of Sanitation",
    "final_address": "2038 Annette St",
    "address_councildis": "D",
    "status": "Assigned to Contractor",
    "contractor": "Metro Disposal",
    "rowid": "888344",
    "final_x": "3682824.71765",
    "final_y": "539800.898954",
    "longitude": "-90.06359759117208",
    "latitude": "29.978225013143895",
    "geocoded_column": {
      "latitude": "29.978225013143895",
      "longitude": "-90.06359759117208"
    }
  },
  {
    "service_request": "2022-888343",
    "request_type": "Trash/Recycling",
    "request_reason": "Replace Trash Cart",
    "date_created": "2022-06-02T16:30:45.000",
    "date_modified": "2022-06-02T16:30:48.000",
    "request_status": "Pending",
    "responsible_agency": "Department of Sanitation",
    "final_address": "3202 Camp St",
    "address_councildis": "B",
    "status": "Assigned to Contractor",
    "contractor": "Richards Disposal",
    "rowid": "888343",
    "final_x": "3675601.02657",
    "final_y": "520263.010104",
    "longitude": "-90.08708378001597",
    "latitude": "29.924720446584885",
    "geocoded_column": {
      "latitude": "29.924720446584885",
      "longitude": "-90.08708378001597"
    }
  },
  {
    "service_request": "2022-888342",
    "request_type": "Trash/Recycling",
    "request_reason": "MIssed Recycling Pick-Up",
    "date_created": "2022-06-02T16:28:34.000",
    "date_modified": "2022-06-02T16:28:35.000",
    "request_status": "Pending",
    "responsible_agency": "Department of Sanitation",
    "final_address": "954 Felicity St",
    "address_councildis": "B",
    "status": "Assigned to Contractor",
    "contractor": "Richards Disposal",
    "rowid": "888342",
    "final_x": "3680186.53947",
    "final_y": "522794.030715",
    "longitude": "-90.07252093721202",
    "latitude": "29.931541991666755",
    "geocoded_column": {
      "latitude": "29.931541991666755",
      "longitude": "-90.07252093721202"
    }
  },
  {
    "service_request": "2022-888341",
    "request_type": "Trash/Recycling",
    "request_reason": "Order Recycling Cart",
    "date_created": "2022-06-02T16:27:24.000",
    "date_modified": "2022-06-02T16:27:24.000",
    "request_status": "Pending",
    "responsible_agency": "Department of Sanitation",
    "final_address": "6331 Annunciation St",
    "address_councildis": "A",
    "status": "Pending",
    "rowid": "888341",
    "final_x": "3662702.62304",
    "final_y": "518550.747831",
    "longitude": "-90.1278568011966",
    "latitude": "29.920391701008235",
    "geocoded_column": {
      "latitude": "29.920391701008235",
      "longitude": "-90.1278568011966"
    }
  },
  {
    "service_request": "2022-888340",
    "request_type": "Trash/Recycling",
    "request_reason": "Missed Trash Pick-Up",
    "date_created": "2022-06-02T16:18:42.000",
    "date_modified": "2022-06-02T16:18:43.000",
    "request_status": "Pending",
    "responsible_agency": "Department of Sanitation",
    "final_address": "1650 BLK Saint Thomas St",
    "address_councildis": "B",
    "status": "Assigned to Contractor",
    "contractor": "Richards Disposal",
    "rowid": "888340",
    "final_x": "3681398.10075",
    "final_y": "522214.000635",
    "longitude": "-90.06871639249725",
    "latitude": "29.929910387989512",
    "geocoded_column": {
      "latitude": "29.929910387989512",
      "longitude": "-90.06871639249725"
    }
  },
  {
    "service_request": "2022-888339",
    "request_type": "Trash/Recycling",
    "request_reason": "Request a Large Item Pick Up",
    "date_created": "2022-06-02T16:14:43.000",
    "date_modified": "2022-06-02T16:14:43.000",
    "request_status": "Pending",
    "responsible_agency": "Department of Sanitation",
    "final_address": "729 Pine St",
    "address_councildis": "A",
    "status": "Assigned to Contractor",
    "contractor": "Richards Disposal",
    "rowid": "888339",
    "final_x": "3663108.68525",
    "final_y": "525378.208189",
    "longitude": "-90.1263480364031",
    "latitude": "29.9391533171023",
    "geocoded_column": {
      "latitude": "29.9391533171023",
      "longitude": "-90.1263480364031"
    }
  },
  {
    "service_request": "2022-888338",
    "request_type": "Trash/Recycling",
    "request_reason": "Request a Large Item Pick Up",
    "date_created": "2022-06-02T16:13:04.000",
    "date_modified": "2022-06-02T16:13:04.000",
    "request_status": "Pending",
    "responsible_agency": "Department of Sanitation",
    "final_address": "1729 Pine St",
    "address_councildis": "A",
    "status": "Assigned to Contractor",
    "contractor": "Richards Disposal",
    "rowid": "888338",
    "final_x": "3665097.63962",
    "final_y": "528266.129344",
    "longitude": "-90.11997208873196",
    "latitude": "29.94703641544277",
    "geocoded_column": {
      "latitude": "29.94703641544277",
      "longitude": "-90.11997208873196"
    }
  },
  {
    "service_request": "2022-888337",
    "request_type": "Property Maintenance",
    "request_reason": "Property Maintenance",
    "date_created": "2022-06-02T16:11:19.000",
    "date_modified": "2022-06-02T16:11:19.000",
    "request_status": "Pending",
    "responsible_agency": "Department of Code Enforcement",
    "final_address": "4722 Iberville St",
    "address_councildis": "A",
    "status": "Pending",
    "rowid": "888337",
    "final_x": "3669180.48865",
    "final_y": "540233.406539",
    "longitude": "-90.10667647446289",
    "latitude": "29.979822942684986",
    "geocoded_column": {
      "latitude": "29.979822942684986",
      "longitude": "-90.10667647446289"
    }
  },
  {
    "service_request": "2022-888336",
    "request_type": "Trash/Recycling",
    "request_reason": "Missed Trash Pick-Up",
    "date_created": "2022-06-02T16:10:30.000",
    "date_modified": "2022-06-02T16:10:30.000",
    "request_status": "Pending",
    "responsible_agency": "Department of Sanitation",
    "final_address": "1719 Toledano St",
    "address_councildis": "B",
    "status": "Assigned to Contractor",
    "contractor": "Richards Disposal",
    "rowid": "888336",
    "final_x": "3674403.64788",
    "final_y": "522246.697082",
    "longitude": "-90.09079560780958",
    "latitude": "29.930210700280217",
    "geocoded_column": {
      "latitude": "29.930210700280217",
      "longitude": "-90.09079560780958"
    }
  },
  {
    "service_request": "2022-888335",
    "request_type": "Traffic Signals/Signs/Striping/Streetlights",
    "request_reason": "Traffic Signal Malfunctioning/Damaged",
    "date_created": "2022-06-02T16:08:28.000",
    "date_modified": "2022-06-02T16:08:29.000",
    "request_status": "Pending",
    "responsible_agency": "Department of Public Works",
    "final_address": "ELYSIAN FIELDS AVE & ROYAL ST",
    "address_councildis": "C",
    "status": "Pending",
    "rowid": "888335",
    "final_x": "3685076.0",
    "final_y": "534868.58",
    "longitude": "-90.05666081259835",
    "latitude": "29.96459406610029",
    "geocoded_column": {
      "latitude": "29.96459406610029",
      "longitude": "-90.05666081259835"
    }
  },
  {
    "service_request": "2022-888334",
    "request_type": "Trash/Recycling",
    "request_reason": "Illegal Dumping",
    "date_created": "2022-06-02T16:02:28.000",
    "date_modified": "2022-06-02T16:02:28.000",
    "request_status": "Pending",
    "responsible_agency": "Department of Sanitation",
    "final_address": "3000 BLK Hudson Pl",
    "address_councildis": "C",
    "status": "Pending",
    "rowid": "888334",
    "final_x": "3703112.61309",
    "final_y": "519532.806523",
    "longitude": "-90.00026633248318",
    "latitude": "29.921861204119768",
    "geocoded_column": {
      "latitude": "29.921861204119768",
      "longitude": "-90.00026633248318"
    }
  },
  {
    "service_request": "2022-888333",
    "request_type": "Trash/Recycling",
    "request_reason": "Illegal Dumping",
    "date_created": "2022-06-02T15:59:27.000",
    "date_modified": "2022-06-02T15:59:27.000",
    "request_status": "Pending",
    "responsible_agency": "Department of Sanitation",
    "final_address": "HUDSON PL & MACARTHUR BLVD",
    "address_councildis": "C",
    "status": "Pending",
    "rowid": "888333",
    "final_x": "3703200.5",
    "final_y": "519940.18",
    "longitude": "-89.9999739494199",
    "latitude": "29.92297852867745",
    "geocoded_column": {
      "latitude": "29.92297852867745",
      "longitude": "-89.9999739494199"
    }
  },
  {
    "service_request": "2022-888332",
    "request_type": "Property Maintenance",
    "request_reason": "Property Maintenance",
    "date_created": "2022-06-02T15:57:32.000",
    "date_modified": "2022-06-02T15:57:32.000",
    "request_status": "Pending",
    "responsible_agency": "Department of Code Enforcement",
    "final_address": "7630 Burke Ave",
    "address_councildis": "E",
    "status": "Pending",
    "rowid": "888332",
    "final_x": "3705326.75051",
    "final_y": "563001.059872",
    "longitude": "-89.99167070259158",
    "latitude": "30.041311785490947",
    "geocoded_column": {
      "latitude": "30.041311785490947",
      "longitude": "-89.99167070259158"
    }
  },
  {
    "service_request": "2022-888331",
    "request_type": "Trash/Recycling",
    "request_reason": "Missed Trash Pick-Up",
    "date_created": "2022-06-02T15:53:23.000",
    "date_modified": "2022-06-02T15:53:24.000",
    "request_status": "Pending",
    "responsible_agency": "Department of Sanitation",
    "final_address": "6034 St Charles Ave",
    "address_councildis": "A",
    "status": "Assigned to Contractor",
    "contractor": "Richards Disposal",
    "rowid": "888331",
    "final_x": "3665407.96992",
    "final_y": "522600.059258",
    "longitude": "-90.11918182093287",
    "latitude": "29.931447495065896",
    "geocoded_column": {
      "latitude": "29.931447495065896",
      "longitude": "-90.11918182093287"
    }
  },
  {
    "service_request": "2022-888330",
    "request_type": "Traffic Signals/Signs/Striping/Streetlights",
    "request_reason": "Traffic Signal Malfunctioning/Damaged",
    "date_created": "2022-06-02T15:48:06.000",
    "date_modified": "2022-06-02T15:48:07.000",
    "request_status": "Pending",
    "responsible_agency": "Department of Public Works",
    "final_address": "ELYSIAN FIELDS AVE & ROYAL ST",
    "address_councildis": "C",
    "status": "Pending",
    "rowid": "888330",
    "final_x": "3685076.0",
    "final_y": "534868.58",
    "longitude": "-90.05666081259835",
    "latitude": "29.96459406610029",
    "geocoded_column": {
      "latitude": "29.96459406610029",
      "longitude": "-90.05666081259835"
    }
  },
  {
    "service_request": "2022-888329",
    "request_type": "Trash/Recycling",
    "request_reason": "Replace Trash Cart",
    "date_created": "2022-06-02T15:48:02.000",
    "date_modified": "2022-06-02T15:48:02.000",
    "request_status": "Pending",
    "responsible_agency": "Department of Sanitation",
    "final_address": "4919 Laine Ave",
    "address_councildis": "E",
    "status": "Assigned to Contractor",
    "contractor": "Metro Disposal",
    "rowid": "888329",
    "final_x": "3705760.74481",
    "final_y": "556302.527514",
    "longitude": "-89.99054722001532",
    "latitude": "30.02287946671912",
    "geocoded_column": {
      "latitude": "30.02287946671912",
      "longitude": "-89.99054722001532"
    }
  },
  {
    "service_request": "2022-888328",
    "request_type": "Roads/Drainage",
    "request_reason": "Pothole",
    "date_created": "2022-06-02T15:40:19.000",
    "date_modified": "2022-06-02T15:40:20.000",
    "request_status": "Pending",
    "responsible_agency": "Department of Public Works",
    "final_address": "2354 Prentiss Ave",
    "address_councildis": "D",
    "status": "Pending",
    "rowid": "888328",
    "final_x": "3684870.80636",
    "final_y": "553842.056983",
    "longitude": "-90.05664120650005",
    "latitude": "30.016770657638855",
    "geocoded_column": {
      "latitude": "30.016770657638855",
      "longitude": "-90.05664120650005"
    }
  },
  {
    "service_request": "2022-888327",
    "request_type": "Roads/Drainage",
    "request_reason": "Accessibility Ramps, Curbs and Sidewalk Repair",
    "date_created": "2022-06-02T15:36:42.000",
    "date_modified": "2022-06-02T15:36:43.000",
    "request_status": "Pending",
    "responsible_agency": "Department of Public Works",
    "final_address": "140 S Pierce St",
    "address_councildis": "A",
    "status": "Pending",
    "rowid": "888327",
    "final_x": "3671306.99726",
    "final_y": "537708.210632",
    "longitude": "-90.1000459156391",
    "latitude": "29.972816742446327",
    "geocoded_column": {
      "latitude": "29.972816742446327",
      "longitude": "-90.1000459156391"
    }
  },
  {
    "service_request": "2022-888326",
    "request_type": "Roads/Drainage",
    "request_reason": "Street Flooding / Drainage",
    "date_created": "2022-06-02T15:36:31.000",
    "date_modified": "2022-06-02T15:36:31.000",
    "request_status": "Pending",
    "responsible_agency": "Department of Public Works",
    "final_address": "326 Filmore Ave",
    "address_councildis": "A",
    "status": "Pending",
    "rowid": "888326",
    "final_x": "3667707.51706",
    "final_y": "552038.407126",
    "longitude": "-90.1109309746209",
    "latitude": "30.012325909168794",
    "geocoded_column": {
      "latitude": "30.012325909168794",
      "longitude": "-90.1109309746209"
    }
  },
  {
    "service_request": "2022-888325",
    "request_type": "Abandoned Vehicles",
    "request_reason": "Abandoned/Junk Vehicles",
    "date_created": "2022-06-02T15:36:11.000",
    "date_modified": "2022-06-02T15:36:11.000",
    "request_status": "Pending",
    "responsible_agency": "Department of Public Works",
    "final_address": "6100 St Charles Ave",
    "address_councildis": "A",
    "status": "Pending",
    "rowid": "888325",
    "final_x": "3665293.51149",
    "final_y": "522718.581434",
    "longitude": "-90.11953919035874",
    "latitude": "29.931776727858114",
    "geocoded_column": {
      "latitude": "29.931776727858114",
      "longitude": "-90.11953919035874"
    }
  },
  {
    "service_request": "2022-888324",
    "request_type": "Trash/Recycling",
    "request_reason": "Return Trash Cart",
    "date_created": "2022-06-02T15:33:43.000",
    "date_modified": "2022-06-02T15:33:44.000",
    "request_status": "Pending",
    "responsible_agency": "Department of Sanitation",
    "final_address": "8016 Spruce St",
    "address_councildis": "A",
    "status": "Assigned to Contractor",
    "contractor": "Richards Disposal",
    "rowid": "888324",
    "final_x": "3664066.86573",
    "final_y": "530202.906561",
    "longitude": "-90.12316205565253",
    "latitude": "29.952391900736682",
    "geocoded_column": {
      "latitude": "29.952391900736682",
      "longitude": "-90.12316205565253"
    }
  },
  {
    "service_request": "2022-888323",
    "request_type": "Roads/Drainage",
    "request_reason": "Catch Basin - Clogged",
    "date_created": "2022-06-02T15:33:39.000",
    "date_modified": "2022-06-02T15:33:39.000",
    "request_status": "Pending",
    "responsible_agency": "Department of Public Works",
    "final_address": "326 Filmore Ave",
    "address_councildis": "A",
    "status": "Pending",
    "rowid": "888323",
    "final_x": "3667707.51706",
    "final_y": "552038.407126",
    "longitude": "-90.1109309746209",
    "latitude": "30.012325909168794",
    "geocoded_column": {
      "latitude": "30.012325909168794",
      "longitude": "-90.1109309746209"
    }
  },
  {
    "service_request": "2022-888322",
    "request_type": "Trash/Recycling",
    "request_reason": "Return Recycling Cart",
    "date_created": "2022-06-02T15:33:11.000",
    "date_modified": "2022-06-02T15:33:11.000",
    "request_status": "Pending",
    "responsible_agency": "Department of Sanitation",
    "final_address": "8016 Spruce St",
    "address_councildis": "A",
    "status": "Pending",
    "rowid": "888322",
    "final_x": "3664066.86573",
    "final_y": "530202.906561",
    "longitude": "-90.12316205565253",
    "latitude": "29.952391900736682",
    "geocoded_column": {
      "latitude": "29.952391900736682",
      "longitude": "-90.12316205565253"
    }
  },
  {
    "service_request": "2022-888321",
    "request_type": "Traffic Signals/Signs/Striping/Streetlights",
    "request_reason": "Street Name Sign Damaged or Missing",
    "date_created": "2022-06-02T15:31:03.000",
    "date_modified": "2022-06-02T15:31:04.000",
    "request_status": "Pending",
    "responsible_agency": "Department of Public Works",
    "final_address": "ROBERT E LEE BLVD & EGRET ST",
    "address_councildis": "D",
    "status": "Pending",
    "rowid": "888321",
    "final_x": "3673964.0",
    "final_y": "554408.88",
    "longitude": "-90.09108277144757",
    "latitude": "30.018658853227826",
    "geocoded_column": {
      "latitude": "30.018658853227826",
      "longitude": "-90.09108277144757"
    }
  },
  {
    "service_request": "2022-888320",
    "request_type": "Trash/Recycling",
    "request_reason": "Request a Large Item Pick Up",
    "date_created": "2022-06-02T15:30:59.000",
    "date_modified": "2022-06-02T15:31:00.000",
    "request_status": "Pending",
    "responsible_agency": "Department of Sanitation",
    "final_address": "1512 Euterpe St",
    "address_councildis": "B",
    "status": "Assigned to Contractor",
    "contractor": "Richards Disposal",
    "rowid": "888320",
    "final_x": "3679202.21275",
    "final_y": "524772.787836",
    "longitude": "-90.0755597714477",
    "latitude": "29.937012667074665",
    "geocoded_column": {
      "latitude": "29.937012667074665",
      "longitude": "-90.0755597714477"
    }
  },
  {
    "service_request": "2022-888319",
    "request_type": "Trash/Recycling",
    "request_reason": "Request a Large Item Pick Up",
    "date_created": "2022-06-02T15:28:59.000",
    "date_modified": "2022-06-02T15:29:11.000",
    "request_status": "Pending",
    "responsible_agency": "Department of Sanitation",
    "final_address": "1834 Annette St",
    "address_councildis": "D",
    "status": "Assigned to Contractor",
    "contractor": "Metro Disposal",
    "rowid": "888319",
    "final_x": "3682837.73045",
    "final_y": "539027.861834",
    "longitude": "-90.06358354762955",
    "latitude": "29.976099034123585",
    "geocoded_column": {
      "latitude": "29.976099034123585",
      "longitude": "-90.06358354762955"
    }
  },
  {
    "service_request": "2022-888318",
    "request_type": "Traffic Signals/Signs/Striping/Streetlights",
    "request_reason": "Street Light Outage/Malfunction",
    "date_created": "2022-06-02T15:23:38.000",
    "date_modified": "2022-06-02T15:23:39.000",
    "request_status": "Pending",
    "responsible_agency": "Department of Public Works",
    "final_address": "2214 Terpsichore St",
    "address_councildis": "B",
    "status": "Pending",
    "contractor": "Royal Engineering",
    "rowid": "888318",
    "final_x": "3676672.40936",
    "final_y": "526736.553598",
    "longitude": "-90.08347888142077",
    "latitude": "29.94248849055196",
    "geocoded_column": {
      "latitude": "29.94248849055196",
      "longitude": "-90.08347888142077"
    }
  },
  {
    "service_request": "2022-888317",
    "request_type": "Trash/Recycling",
    "request_reason": "MIssed Recycling Pick-Up",
    "date_created": "2022-06-02T15:22:53.000",
    "date_modified": "2022-06-02T15:22:53.000",
    "request_status": "Pending",
    "responsible_agency": "Department of Sanitation",
    "final_address": "1138 Josephine St, New Orleans, Louisiana, 70130",
    "address_councildis": "B",
    "status": "Assigned to Contractor",
    "contractor": "Richards Disposal",
    "rowid": "888317",
    "final_x": "3678939.07432",
    "final_y": "522549.966266",
    "longitude": "-90.0764674893942",
    "latitude": "29.930908578442235",
    "geocoded_column": {
      "latitude": "29.930908578442235",
      "longitude": "-90.0764674893942"
    }
  },
  {
    "service_request": "2022-888316",
    "request_type": "Trash/Recycling",
    "request_reason": "Missed Trash Pick-Up",
    "date_created": "2022-06-02T15:21:25.000",
    "date_modified": "2022-06-02T15:21:26.000",
    "request_status": "Pending",
    "responsible_agency": "Department of Sanitation",
    "final_address": "1138 Josephine St, New Orleans, Louisiana, 70130",
    "address_councildis": "B",
    "status": "Assigned to Contractor",
    "contractor": "Richards Disposal",
    "rowid": "888316",
    "final_x": "3678939.07432",
    "final_y": "522549.966266",
    "longitude": "-90.0764674893942",
    "latitude": "29.930908578442235",
    "geocoded_column": {
      "latitude": "29.930908578442235",
      "longitude": "-90.0764674893942"
    }
  },
  {
    "service_request": "2022-888315",
    "request_type": "Trash/Recycling",
    "request_reason": "Repair Recycling Cart",
    "date_created": "2022-06-02T15:20:23.000",
    "date_modified": "2022-06-02T15:20:24.000",
    "request_status": "Pending",
    "responsible_agency": "Department of Sanitation",
    "final_address": "5518 General Diaz St",
    "address_councildis": "A",
    "status": "Pending",
    "rowid": "888315",
    "final_x": "3669024.28942",
    "final_y": "543615.249742",
    "longitude": "-90.10705550638131",
    "latitude": "29.98912645772123",
    "geocoded_column": {
      "latitude": "29.98912645772123",
      "longitude": "-90.10705550638131"
    }
  },
  {
    "service_request": "2022-888314",
    "request_type": "Property Maintenance",
    "request_reason": "Property Maintenance",
    "date_created": "2022-06-02T15:18:29.000",
    "date_modified": "2022-06-02T15:18:30.000",
    "request_status": "Pending",
    "responsible_agency": "Department of Code Enforcement",
    "final_address": "2630 New Orleans St",
    "address_councildis": "D",
    "status": "Pending",
    "rowid": "888314",
    "final_x": "3681906.18421",
    "final_y": "541902.874572",
    "longitude": "-90.06642524499325",
    "latitude": "29.984032666788703",
    "geocoded_column": {
      "latitude": "29.984032666788703",
      "longitude": "-90.06642524499325"
    }
  },
  {
    "service_request": "2022-888313",
    "request_type": "Trash/Recycling",
    "request_reason": "Repair Trash Cart",
    "date_created": "2022-06-02T15:18:08.000",
    "date_modified": "2022-06-02T15:18:08.000",
    "request_status": "Pending",
    "responsible_agency": "Department of Sanitation",
    "final_address": "1472 Calhoun St",
    "address_councildis": "A",
    "status": "Assigned to Contractor",
    "contractor": "Richards Disposal",
    "rowid": "888313",
    "final_x": "3664413.2992",
    "final_y": "522179.083642",
    "longitude": "-90.12233593542001",
    "latitude": "29.93031888838618",
    "geocoded_column": {
      "latitude": "29.93031888838618",
      "longitude": "-90.12233593542001"
    }
  },
  {
    "service_request": "2022-888311",
    "request_type": "Trash/Recycling",
    "request_reason": "Missed Trash Pick-Up",
    "date_created": "2022-06-02T15:07:23.000",
    "date_modified": "2022-06-02T15:07:24.000",
    "request_status": "Pending",
    "responsible_agency": "Department of Sanitation",
    "final_address": "1226 Camp St",
    "address_councildis": "B",
    "status": "Assigned to Contractor",
    "contractor": "Richards Disposal",
    "rowid": "888311",
    "final_x": "3680233.31797",
    "final_y": "525500.806013",
    "longitude": "-90.07227922143048",
    "latitude": "29.938983313901723",
    "geocoded_column": {
      "latitude": "29.938983313901723",
      "longitude": "-90.07227922143048"
    }
  },
  {
    "service_request": "2022-888310",
    "request_type": "Roads/Drainage",
    "request_reason": "Pothole",
    "date_created": "2022-06-02T15:05:22.000",
    "date_modified": "2022-06-02T15:05:23.000",
    "request_status": "Pending",
    "responsible_agency": "Department of Public Works",
    "final_address": "823 Frenchmen St",
    "address_councildis": "C",
    "status": "Pending",
    "rowid": "888310",
    "final_x": "3684691.92329",
    "final_y": "535388.54791",
    "longitude": "-90.05785541915074",
    "latitude": "29.966035559204848",
    "geocoded_column": {
      "latitude": "29.966035559204848",
      "longitude": "-90.05785541915074"
    }
  },
  {
    "service_request": "2022-888309",
    "request_type": "Trash/Recycling",
    "request_reason": "Missed Trash Pick-Up",
    "date_created": "2022-06-02T14:59:48.000",
    "date_modified": "2022-06-02T14:59:48.000",
    "request_status": "Pending",
    "responsible_agency": "Department of Sanitation",
    "final_address": "2708 S Carrollton Ave",
    "address_councildis": "A",
    "status": "Assigned to Contractor",
    "contractor": "Richards Disposal",
    "rowid": "888309",
    "final_x": "3665652.67418",
    "final_y": "532454.124164",
    "longitude": "-90.11807938984224",
    "latitude": "29.958535867283196",
    "geocoded_column": {
      "latitude": "29.958535867283196",
      "longitude": "-90.11807938984224"
    }
  },
  {
    "service_request": "2022-888308",
    "request_type": "Trash/Recycling",
    "request_reason": "MIssed Recycling Pick-Up",
    "date_created": "2022-06-02T14:47:02.000",
    "date_modified": "2022-06-02T14:47:03.000",
    "request_status": "Pending",
    "responsible_agency": "Department of Sanitation",
    "final_address": "1437 Saint Mary St, New Orleans, Louisiana, 70130",
    "status": "Assigned to Contractor",
    "rowid": "888308",
    "longitude": "0.0",
    "latitude": "0.0",
    "geocoded_column": {
      "latitude": "0.0",
      "longitude": "0.0"
    }
  },
  {
    "service_request": "2022-888307",
    "request_type": "Property Maintenance",
    "request_reason": "Property Maintenance",
    "date_created": "2022-06-02T14:46:53.000",
    "date_modified": "2022-06-02T14:46:54.000",
    "request_status": "Pending",
    "responsible_agency": "Department of Code Enforcement",
    "final_address": "8716 Colapissa St",
    "address_councildis": "A",
    "status": "Pending",
    "rowid": "888307",
    "final_x": "3664819.62957",
    "final_y": "534916.932998",
    "longitude": "-90.12062762879188",
    "latitude": "29.96533205127093",
    "geocoded_column": {
      "latitude": "29.96533205127093",
      "longitude": "-90.12062762879188"
    }
  },
  {
    "service_request": "2022-888306",
    "request_type": "Roads/Drainage",
    "request_reason": "Street Flooding / Drainage",
    "date_created": "2022-06-02T14:40:58.000",
    "date_modified": "2022-06-02T14:40:58.000",
    "request_status": "Pending",
    "responsible_agency": "Department of Public Works",
    "final_address": "301 Alix St",
    "address_councildis": "C",
    "status": "Pending",
    "rowid": "888306",
    "final_x": "3686472.76502",
    "final_y": "529951.998849",
    "longitude": "-90.05242350314853",
    "latitude": "29.951032294609277",
    "geocoded_column": {
      "latitude": "29.951032294609277",
      "longitude": "-90.05242350314853"
    }
  },
  {
    "service_request": "2022-888305",
    "request_type": "Property Maintenance",
    "request_reason": "Property Maintenance",
    "date_created": "2022-06-02T14:40:47.000",
    "date_modified": "2022-06-02T14:40:48.000",
    "request_status": "Pending",
    "responsible_agency": "Department of Code Enforcement",
    "final_address": "7541 Morel St",
    "address_councildis": "E",
    "status": "Pending",
    "rowid": "888305",
    "final_x": "3719149.11903",
    "final_y": "571603.356904",
    "longitude": "-89.94765886612052",
    "latitude": "30.064512287519054",
    "geocoded_column": {
      "latitude": "30.064512287519054",
      "longitude": "-89.94765886612052"
    }
  },
  {
    "service_request": "2022-888304",
    "request_type": "Traffic Signals/Signs/Striping/Streetlights",
    "request_reason": "Street Light Outage/Malfunction",
    "date_created": "2022-06-02T14:37:39.000",
    "date_modified": "2022-06-02T14:37:40.000",
    "request_status": "Pending",
    "responsible_agency": "Department of Public Works",
    "final_address": "1828 Lesseps St",
    "address_councildis": "D",
    "status": "Pending",
    "contractor": "Royal Engineering",
    "rowid": "888304",
    "final_x": "3693380.46781",
    "final_y": "537957.027785",
    "longitude": "-90.03032510879974",
    "latitude": "29.97282917363317",
    "geocoded_column": {
      "latitude": "29.97282917363317",
      "longitude": "-90.03032510879974"
    }
  },
  {
    "service_request": "2022-888303",
    "request_type": "Roads/Drainage",
    "request_reason": "Catch Basin - Broken/Damage",
    "date_created": "2022-06-02T14:35:58.000",
    "date_modified": "2022-06-02T14:38:24.000",
    "case_close_date": "2022-06-02T09:38:24.000",
    "request_status": "Closed",
    "responsible_agency": "Department of Public Works",
    "final_address": "4921 America St",
    "address_councildis": "E",
    "status": "Resolved",
    "rowid": "888303",
    "final_x": "3699719.72068",
    "final_y": "555406.013209",
    "longitude": "-90.00966809011308",
    "latitude": "30.020607667043013",
    "geocoded_column": {
      "latitude": "30.020607667043013",
      "longitude": "-90.00966809011308"
    }
  },
  {
    "service_request": "2022-888302",
    "request_type": "Property Maintenance",
    "request_reason": "Property Maintenance",
    "date_created": "2022-06-02T14:34:28.000",
    "date_modified": "2022-06-02T14:34:28.000",
    "request_status": "Pending",
    "responsible_agency": "Department of Code Enforcement",
    "final_address": "2323 Ursulines Ave",
    "address_councildis": "D",
    "status": "Pending",
    "rowid": "888302",
    "final_x": "3678865.44328",
    "final_y": "537264.142728",
    "longitude": "-90.07619030582468",
    "latitude": "29.971369850917124",
    "geocoded_column": {
      "latitude": "29.971369850917124",
      "longitude": "-90.07619030582468"
    }
  },
  {
    "service_request": "2022-888301",
    "request_type": "Roads/Drainage",
    "request_reason": "Catch Basin - Broken/Damage",
    "date_created": "2022-06-02T14:32:33.000",
    "date_modified": "2022-06-02T14:33:21.000",
    "case_close_date": "2022-06-02T09:33:21.000",
    "request_status": "Closed",
    "responsible_agency": "Department of Public Works",
    "final_address": "4839 America St",
    "address_councildis": "E",
    "status": "Resolved",
    "rowid": "888301",
    "final_x": "3699777.04407",
    "final_y": "555011.673369",
    "longitude": "-90.00950136189685",
    "latitude": "30.019521561906668",
    "geocoded_column": {
      "latitude": "30.019521561906668",
      "longitude": "-90.00950136189685"
    }
  },
  {
    "service_request": "2022-888300",
    "request_type": "Roads/Drainage",
    "request_reason": "Catch Basin - Broken/Damage",
    "date_created": "2022-06-02T14:31:18.000",
    "date_modified": "2022-06-02T14:31:18.000",
    "request_status": "Pending",
    "responsible_agency": "Department of Public Works",
    "final_address": "500 Poydras St",
    "address_councildis": "B",
    "status": "Pending",
    "rowid": "888300",
    "final_x": "3681397.5229",
    "final_y": "529090.628608",
    "longitude": "-90.06847858556495",
    "latitude": "29.94881884297746",
    "geocoded_column": {
      "latitude": "29.94881884297746",
      "longitude": "-90.06847858556495"
    }
  },
  {
    "service_request": "2022-888299",
    "request_type": "Tax and Revenue",
    "request_reason": "General Tax Question",
    "date_created": "2022-06-02T14:30:31.000",
    "date_modified": "2022-06-02T15:37:12.000",
    "request_status": "Pending",
    "responsible_agency": "Bureau of Revenue",
    "final_address": "New Orleans,LA",
    "rowid": "888299",
    "longitude": "0.0",
    "latitude": "0.0",
    "geocoded_column": {
      "latitude": "0.0",
      "longitude": "0.0"
    }
  },
  {
    "service_request": "2022-888298",
    "request_type": "Trash/Recycling",
    "request_reason": "Missed Trash Pick-Up",
    "date_created": "2022-06-02T14:28:07.000",
    "date_modified": "2022-06-02T14:28:07.000",
    "request_status": "Pending",
    "responsible_agency": "Department of Sanitation",
    "final_address": "1519 Clio St",
    "address_councildis": "B",
    "status": "Assigned to Contractor",
    "contractor": "Richards Disposal",
    "rowid": "888298",
    "final_x": "3680029.01269",
    "final_y": "526205.63603",
    "longitude": "-90.07289975933006",
    "latitude": "29.940927543440537",
    "geocoded_column": {
      "latitude": "29.940927543440537",
      "longitude": "-90.07289975933006"
    }
  },
  {
    "service_request": "2022-888297",
    "request_type": "Roads/Drainage",
    "request_reason": "Catch Basin - Broken/Damage",
    "date_created": "2022-06-02T14:23:19.000",
    "date_modified": "2022-06-02T14:23:46.000",
    "case_close_date": "2022-06-02T09:23:46.000",
    "request_status": "Closed",
    "responsible_agency": "Department of Public Works",
    "final_address": "4764 Haydel St",
    "address_councildis": "E",
    "status": "Resolved",
    "rowid": "888297",
    "final_x": "3698951.12298",
    "final_y": "554598.944536",
    "longitude": "-90.01212601824999",
    "latitude": "30.0184129260649",
    "geocoded_column": {
      "latitude": "30.0184129260649",
      "longitude": "-90.01212601824999"
    }
  },
  {
    "service_request": "2022-888296",
    "request_type": "Roads/Drainage",
    "request_reason": "Catch Basin - Broken/Damage",
    "date_created": "2022-06-02T14:21:08.000",
    "date_modified": "2022-06-02T14:21:47.000",
    "case_close_date": "2022-06-02T09:21:47.000",
    "request_status": "Closed",
    "responsible_agency": "Department of Public Works",
    "final_address": "4754 Haydel St",
    "address_councildis": "E",
    "status": "Resolved",
    "rowid": "888296",
    "final_x": "3698945.72727",
    "final_y": "554553.0182",
    "longitude": "-90.0121447397655",
    "latitude": "30.018286817149566",
    "geocoded_column": {
      "latitude": "30.018286817149566",
      "longitude": "-90.0121447397655"
    }
  },
  {
    "service_request": "2022-888295",
    "request_type": "Parks & Parkways",
    "request_reason": "Request Tree Service (Right of Way/Public Property)",
    "date_created": "2022-06-02T14:20:16.000",
    "date_modified": "2022-06-02T14:20:17.000",
    "request_status": "Pending",
    "responsible_agency": "Department of Parks & Parkway",
    "final_address": "MILTON ST & PARIS AVE",
    "address_councildis": "D",
    "status": "Pending",
    "rowid": "888295",
    "final_x": "3679585.7",
    "final_y": "546241.58",
    "longitude": "-90.07360393271308",
    "latitude": "29.996032925501734",
    "geocoded_column": {
      "latitude": "29.996032925501734",
      "longitude": "-90.07360393271308"
    }
  },
  {
    "service_request": "2022-888294",
    "request_type": "Traffic Signals/Signs/Striping/Streetlights",
    "request_reason": "Street Light Outage/Malfunction",
    "date_created": "2022-06-02T14:19:25.000",
    "date_modified": "2022-06-02T14:19:26.000",
    "request_status": "Pending",
    "responsible_agency": "Department of Public Works",
    "final_address": "1016 Crete St",
    "address_councildis": "A",
    "status": "Pending",
    "contractor": "Royal Engineering",
    "rowid": "888294",
    "final_x": "3677559.72181",
    "final_y": "538465.779209",
    "longitude": "-90.08027246155306",
    "latitude": "29.97471326520945",
    "geocoded_column": {
      "latitude": "29.97471326520945",
      "longitude": "-90.08027246155306"
    }
  },
  {
    "service_request": "2022-888293",
    "request_type": "Abandoned Vehicles",
    "request_reason": "Abandoned/Junk Vehicles",
    "date_created": "2022-06-02T14:19:20.000",
    "date_modified": "2022-06-02T14:19:21.000",
    "request_status": "Pending",
    "responsible_agency": "Department of Public Works",
    "final_address": "4862 Lynhuber Dr",
    "address_councildis": "D",
    "status": "Pending",
    "rowid": "888293",
    "final_x": "3697906.908",
    "final_y": "555051.643289",
    "longitude": "-90.01540888239253",
    "latitude": "30.019690740994534",
    "geocoded_column": {
      "latitude": "30.019690740994534",
      "longitude": "-90.01540888239253"
    }
  },
  {
    "service_request": "2022-888292",
    "request_type": "Traffic Signals/Signs/Striping/Streetlights",
    "request_reason": "Additional signage",
    "date_created": "2022-06-02T14:17:13.000",
    "date_modified": "2022-06-02T14:17:13.000",
    "request_status": "Pending",
    "responsible_agency": "Department of Public Works",
    "final_address": "1100 BLK Harmony St",
    "address_councildis": "B",
    "status": "Pending",
    "rowid": "888292",
    "final_x": "3675714.15936",
    "final_y": "520164.715364",
    "longitude": "-90.08673003285419",
    "latitude": "29.9244467839181",
    "geocoded_column": {
      "latitude": "29.9244467839181",
      "longitude": "-90.08673003285419"
    }
  },
  {
    "service_request": "2022-888291",
    "request_type": "Traffic Signals/Signs/Striping/Streetlights",
    "request_reason": "Additional signage",
    "date_created": "2022-06-02T14:16:33.000",
    "date_modified": "2022-06-02T14:16:33.000",
    "request_status": "Pending",
    "responsible_agency": "Department of Public Works",
    "final_address": "1100 BLK Ninth St",
    "address_councildis": "B",
    "status": "Pending",
    "rowid": "888291",
    "final_x": "3675758.6222",
    "final_y": "520194.506315",
    "longitude": "-90.08658865552702",
    "latitude": "29.924527369245766",
    "geocoded_column": {
      "latitude": "29.924527369245766",
      "longitude": "-90.08658865552702"
    }
  },
  {
    "service_request": "2022-888288",
    "request_type": "Safety & Permits",
    "request_reason": "Licenses & Permits",
    "date_created": "2022-06-02T14:07:01.000",
    "date_modified": "2022-06-02T14:07:01.000",
    "request_status": "Pending",
    "responsible_agency": "Safety and Permits",
    "final_address": "8115 Jeannette St",
    "address_councildis": "A",
    "status": "Pending",
    "rowid": "888288",
    "final_x": "3662610.06419",
    "final_y": "529251.454273",
    "longitude": "-90.12779359768355",
    "latitude": "29.949817939029696",
    "geocoded_column": {
      "latitude": "29.949817939029696",
      "longitude": "-90.12779359768355"
    }
  },
  {
    "service_request": "2022-888287",
    "request_type": "Abandoned Vehicles",
    "request_reason": "Abandoned/Junk Vehicles",
    "date_created": "2022-06-02T14:03:56.000",
    "date_modified": "2022-06-02T14:05:08.000",
    "request_status": "Pending",
    "responsible_agency": "Department of Public Works",
    "final_address": "3300 BLK Cleveland Ave",
    "address_councildis": "B",
    "status": "Pending",
    "rowid": "888287",
    "final_x": "3673180.01056",
    "final_y": "536224.082523",
    "longitude": "-90.09418126524753",
    "latitude": "29.96868032713654",
    "geocoded_column": {
      "latitude": "29.96868032713654",
      "longitude": "-90.09418126524753"
    }
  },
  {
    "service_request": "2022-888286",
    "request_type": "Traffic Signals/Signs/Striping/Streetlights",
    "request_reason": "Street Light Outage/Malfunction",
    "date_created": "2022-06-02T14:01:01.000",
    "date_modified": "2022-06-02T14:01:02.000",
    "request_status": "Pending",
    "responsible_agency": "Department of Public Works",
    "final_address": "12441 Morrison Rd",
    "address_councildis": "E",
    "status": "Pending",
    "contractor": "Royal Engineering",
    "rowid": "888286",
    "final_x": "3715033.6757",
    "final_y": "567960.433189",
    "longitude": "-89.96080595577186",
    "latitude": "30.05463195240162",
    "geocoded_column": {
      "latitude": "30.05463195240162",
      "longitude": "-89.96080595577186"
    }
  },
  {
    "service_request": "2022-888285",
    "request_type": "Traffic Signals/Signs/Striping/Streetlights",
    "request_reason": "Striping/Road Surface Markings",
    "date_created": "2022-06-02T13:58:00.000",
    "date_modified": "2022-06-02T13:58:00.000",
    "request_status": "Pending",
    "responsible_agency": "Department of Public Works",
    "final_address": "2 Peoples Ave",
    "address_councildis": "D",
    "status": "Pending",
    "rowid": "888285",
    "final_x": "3688552.06051",
    "final_y": "544506.337359",
    "longitude": "-90.0453415854771",
    "latitude": "29.99098753819171",
    "geocoded_column": {
      "latitude": "29.99098753819171",
      "longitude": "-90.0453415854771"
    }
  },
  {
    "service_request": "2022-888284",
    "request_type": "Roads/Drainage",
    "request_reason": "Pothole",
    "date_created": "2022-06-02T13:56:19.000",
    "date_modified": "2022-06-02T13:56:20.000",
    "request_status": "Pending",
    "responsible_agency": "Department of Public Works",
    "final_address": "LOYOLA AVE & CALLIOPE ST",
    "address_councildis": "B",
    "status": "Pending",
    "rowid": "888284",
    "final_x": "3678483.23",
    "final_y": "527674.85",
    "longitude": "-90.07772924389585",
    "latitude": "29.94501405841703",
    "geocoded_column": {
      "latitude": "29.94501405841703",
      "longitude": "-90.07772924389585"
    }
  },
  {
    "service_request": "2022-888283",
    "request_type": "Traffic Signals/Signs/Striping/Streetlights",
    "request_reason": "Street Light Outage/Malfunction",
    "date_created": "2022-06-02T13:47:06.000",
    "date_modified": "2022-06-02T13:48:10.000",
    "request_status": "Pending",
    "responsible_agency": "Department of Public Works",
    "final_address": "11696 Pressburg Street",
    "address_councildis": "E",
    "status": "Pending",
    "contractor": "Royal Engineering",
    "rowid": "888283",
    "final_x": "3719173.73388",
    "final_y": "557813.200347",
    "longitude": "-89.94810804553607",
    "latitude": "30.02659419417693",
    "geocoded_column": {
      "latitude": "30.02659419417693",
      "longitude": "-89.94810804553607"
    }
  },
  {
    "service_request": "2022-888282",
    "request_type": "Roads/Drainage",
    "request_reason": "Street Subsidence (Sinking)",
    "date_created": "2022-06-02T13:46:49.000",
    "date_modified": "2022-06-02T13:46:49.000",
    "request_status": "Pending",
    "responsible_agency": "Department of Public Works",
    "final_address": "3025 Serantine St, New Orleans, Louisiana, 70119",
    "address_councildis": "D",
    "status": "Pending",
    "rowid": "888282",
    "final_x": "3679165.83573",
    "final_y": "543021.065421",
    "longitude": "-90.07504196921981",
    "latitude": "29.987190328086964",
    "geocoded_column": {
      "latitude": "29.987190328086964",
      "longitude": "-90.07504196921981"
    }
  },
  {
    "service_request": "2022-888281",
    "request_type": "Roads/Drainage",
    "request_reason": "Catch Basin - Clogged",
    "date_created": "2022-06-02T13:45:35.000",
    "date_modified": "2022-06-02T13:45:35.000",
    "request_status": "Pending",
    "responsible_agency": "Department of Public Works",
    "final_address": "4824 Banks St",
    "address_councildis": "A",
    "status": "Pending",
    "rowid": "888281",
    "final_x": "3667891.54189",
    "final_y": "539181.623434",
    "longitude": "-90.11078295393767",
    "latitude": "29.976968771827917",
    "geocoded_column": {
      "latitude": "29.976968771827917",
      "longitude": "-90.11078295393767"
    }
  },
  {
    "service_request": "2022-888280",
    "request_type": "Roads/Drainage",
    "request_reason": "Street Subsidence (Sinking)",
    "date_created": "2022-06-02T13:44:45.000",
    "date_modified": "2022-06-02T14:04:35.000",
    "request_status": "Pending",
    "responsible_agency": "Department of Public Works",
    "final_address": "300 Spencer Ave",
    "address_councildis": "A",
    "status": "Reviewed",
    "rowid": "888280",
    "final_x": "3665387.49645",
    "final_y": "553590.084567",
    "longitude": "-90.1182089799191",
    "latitude": "30.01666032980384",
    "geocoded_column": {
      "latitude": "30.01666032980384",
      "longitude": "-90.1182089799191"
    }
  },
  {
    "service_request": "2022-888279",
    "request_type": "Traffic Signals/Signs/Striping/Streetlights",
    "request_reason": "Additional signage",
    "date_created": "2022-06-02T13:42:00.000",
    "date_modified": "2022-06-02T13:42:00.000",
    "request_status": "Pending",
    "responsible_agency": "Department of Public Works",
    "final_address": "539 Octavia St",
    "address_councildis": "A",
    "status": "Pending",
    "rowid": "888279",
    "final_x": "3666335.79316",
    "final_y": "518186.145014",
    "longitude": "-90.11640077121723",
    "latitude": "29.91928355769515",
    "geocoded_column": {
      "latitude": "29.91928355769515",
      "longitude": "-90.11640077121723"
    }
  },
  {
    "service_request": "2022-888278",
    "request_type": "Trash/Recycling",
    "request_reason": "Request a Large Item Pick Up",
    "date_created": "2022-06-02T13:40:10.000",
    "date_modified": "2022-06-02T13:40:11.000",
    "request_status": "Pending",
    "responsible_agency": "Department of Sanitation",
    "final_address": "2115 Valence St",
    "address_councildis": "B",
    "status": "Assigned to Contractor",
    "contractor": "Richards Disposal",
    "rowid": "888278",
    "final_x": "3669645.5595",
    "final_y": "522676.366906",
    "longitude": "-90.10580164371216",
    "latitude": "29.93153317001814",
    "geocoded_column": {
      "latitude": "29.93153317001814",
      "longitude": "-90.10580164371216"
    }
  },
  {
    "service_request": "2022-888277",
    "request_type": "Trash/Recycling",
    "request_reason": "Order Recycling Cart",
    "date_created": "2022-06-02T13:39:04.000",
    "date_modified": "2022-06-02T13:39:04.000",
    "request_status": "Pending",
    "responsible_agency": "Department of Sanitation",
    "final_address": "4801 Ken Ct",
    "address_councildis": "C",
    "status": "Pending",
    "rowid": "888277",
    "final_x": "3701776.42698",
    "final_y": "518461.28799",
    "longitude": "-90.0045233001056",
    "latitude": "29.918957572644487",
    "geocoded_column": {
      "latitude": "29.918957572644487",
      "longitude": "-90.0045233001056"
    }
  },
  {
    "service_request": "2022-888276",
    "request_type": "Safety & Permits",
    "request_reason": "Licenses & Permits",
    "date_created": "2022-06-02T13:38:43.000",
    "date_modified": "2022-06-02T13:38:43.000",
    "request_status": "Pending",
    "responsible_agency": "Safety and Permits",
    "final_address": "1027 Lyons St",
    "address_councildis": "B",
    "status": "Pending",
    "rowid": "888276",
    "final_x": "3669266.73025",
    "final_y": "519209.667831",
    "longitude": "-90.10711468312647",
    "latitude": "29.922012004960877",
    "geocoded_column": {
      "latitude": "29.922012004960877",
      "longitude": "-90.10711468312647"
    }
  },
  {
    "service_request": "2022-888275",
    "request_type": "Trash/Recycling",
    "request_reason": "Missed Trash Pick-Up",
    "date_created": "2022-06-02T13:34:59.000",
    "date_modified": "2022-06-02T13:35:00.000",
    "request_status": "Pending",
    "responsible_agency": "Department of Sanitation",
    "final_address": "2107 Rousseau St",
    "address_councildis": "B",
    "status": "Assigned to Contractor",
    "contractor": "Richards Disposal",
    "rowid": "888275",
    "final_x": "3680448.45832",
    "final_y": "520508.942904",
    "longitude": "-90.07177351331663",
    "latitude": "29.925250822849257",
    "geocoded_column": {
      "latitude": "29.925250822849257",
      "longitude": "-90.07177351331663"
    }
  },
  {
    "service_request": "2022-888274",
    "request_type": "Property Maintenance",
    "request_reason": "Property Maintenance",
    "date_created": "2022-06-02T13:32:33.000",
    "date_modified": "2022-06-02T13:32:33.000",
    "request_status": "Pending",
    "responsible_agency": "Department of Code Enforcement",
    "final_address": "5332 Franklin Ave",
    "address_councildis": "D",
    "status": "Pending",
    "rowid": "888274",
    "final_x": "3686594.38262",
    "final_y": "552509.259478",
    "longitude": "-90.05124255995877",
    "latitude": "30.013053037734434",
    "geocoded_column": {
      "latitude": "30.013053037734434",
      "longitude": "-90.05124255995877"
    }
  },
  {
    "service_request": "2022-888273",
    "request_type": "Trash/Recycling",
    "request_reason": "Missed Trash Pick-Up",
    "date_created": "2022-06-02T13:31:01.000",
    "date_modified": "2022-06-02T13:31:02.000",
    "request_status": "Pending",
    "responsible_agency": "Department of Sanitation",
    "final_address": "4906 Frenchmen St",
    "address_councildis": "D",
    "status": "Assigned to Contractor",
    "contractor": "Metro Disposal",
    "rowid": "888273",
    "final_x": "3683375.03983",
    "final_y": "550825.664405",
    "longitude": "-90.06147298143007",
    "latitude": "30.00852241589223",
    "geocoded_column": {
      "latitude": "30.00852241589223",
      "longitude": "-90.06147298143007"
    }
  },
  {
    "service_request": "2022-888272",
    "request_type": "Trash/Recycling",
    "request_reason": "Request a Large Item Pick Up",
    "date_created": "2022-06-02T13:29:39.000",
    "date_modified": "2022-06-02T13:29:40.000",
    "request_status": "Pending",
    "responsible_agency": "Department of Sanitation",
    "final_address": "2120 Lowerline St",
    "address_councildis": "A",
    "status": "Assigned to Contractor",
    "contractor": "Richards Disposal",
    "rowid": "888272",
    "final_x": "3665516.22266",
    "final_y": "529670.711553",
    "longitude": "-90.11860344667294",
    "latitude": "29.950886367636727",
    "geocoded_column": {
      "latitude": "29.950886367636727",
      "longitude": "-90.11860344667294"
    }
  },
  {
    "service_request": "2022-888271",
    "request_type": "Trash/Recycling",
    "request_reason": "Request a Large Item Pick Up",
    "date_created": "2022-06-02T13:29:35.000",
    "date_modified": "2022-06-02T13:29:36.000",
    "request_status": "Pending",
    "responsible_agency": "Department of Sanitation",
    "final_address": "2743 Gallinghouse St",
    "address_councildis": "C",
    "status": "Assigned to Contractor",
    "contractor": "Richards Disposal",
    "rowid": "888271",
    "final_x": "3700015.36996",
    "final_y": "520720.056825",
    "longitude": "-90.00999967119817",
    "latitude": "29.925224451185628",
    "geocoded_column": {
      "latitude": "29.925224451185628",
      "longitude": "-90.00999967119817"
    }
  },
  {
    "service_request": "2022-888270",
    "request_type": "Trash/Recycling",
    "request_reason": "Repair Trash Cart",
    "date_created": "2022-06-02T13:27:58.000",
    "date_modified": "2022-06-02T13:32:20.000",
    "request_status": "Pending",
    "responsible_agency": "Department of Sanitation",
    "final_address": "New Orleans,LA",
    "status": "Assigned to Contractor",
    "rowid": "888270",
    "longitude": "0.0",
    "latitude": "0.0",
    "geocoded_column": {
      "latitude": "0.0",
      "longitude": "0.0"
    }
  },
  {
    "service_request": "2022-888269",
    "request_type": "Traffic Signals/Signs/Striping/Streetlights",
    "request_reason": "Street Light Outage/Malfunction",
    "date_created": "2022-06-02T13:27:28.000",
    "date_modified": "2022-06-02T13:27:29.000",
    "request_status": "Pending",
    "responsible_agency": "Department of Public Works",
    "final_address": "4200 Encampment St",
    "address_councildis": "D",
    "status": "Pending",
    "contractor": "Royal Engineering",
    "rowid": "888269",
    "final_x": "3676469.30293",
    "final_y": "547570.071954",
    "longitude": "-90.08340262108379",
    "latitude": "29.99977964967119",
    "geocoded_column": {
      "latitude": "29.99977964967119",
      "longitude": "-90.08340262108379"
    }
  },
  {
    "service_request": "2022-888268",
    "request_type": "Trash/Recycling",
    "request_reason": "Missed Trash Pick-Up",
    "date_created": "2022-06-02T13:26:34.000",
    "date_modified": "2022-06-02T13:26:35.000",
    "request_status": "Pending",
    "responsible_agency": "Department of Sanitation",
    "final_address": "700 BLK Clouet St",
    "address_councildis": "C",
    "status": "Assigned to Contractor",
    "contractor": "Metro Disposal",
    "rowid": "888268",
    "final_x": "3688671.03273",
    "final_y": "534680.210939",
    "longitude": "-90.04531467830236",
    "latitude": "29.96396548923943",
    "geocoded_column": {
      "latitude": "29.96396548923943",
      "longitude": "-90.04531467830236"
    }
  },
  {
    "service_request": "2022-888267",
    "request_type": "Trash/Recycling",
    "request_reason": "Missed Trash Pick-Up",
    "date_created": "2022-06-02T13:26:08.000",
    "date_modified": "2022-06-02T13:26:09.000",
    "request_status": "Pending",
    "responsible_agency": "Department of Sanitation",
    "final_address": "919 Toledano St",
    "address_councildis": "B",
    "status": "Assigned to Contractor",
    "contractor": "Richards Disposal",
    "rowid": "888267",
    "final_x": "3675650.7595",
    "final_y": "519274.000439",
    "longitude": "-90.08696074843645",
    "latitude": "29.921999501387756",
    "geocoded_column": {
      "latitude": "29.921999501387756",
      "longitude": "-90.08696074843645"
    }
  },
  {
    "service_request": "2022-888266",
    "request_type": "Trash/Recycling",
    "request_reason": "Order Recycling Cart",
    "date_created": "2022-06-02T13:25:09.000",
    "date_modified": "2022-06-02T13:25:10.000",
    "request_status": "Pending",
    "responsible_agency": "Department of Sanitation",
    "final_address": "2310 Prentiss Ave",
    "address_councildis": "D",
    "status": "Pending",
    "contractor": "Metro Disposal",
    "rowid": "888266",
    "final_x": "3684477.65346",
    "final_y": "553804.777495",
    "longitude": "-90.05788471361342",
    "latitude": "30.016680191632204",
    "geocoded_column": {
      "latitude": "30.016680191632204",
      "longitude": "-90.05788471361342"
    }
  },
  {
    "service_request": "2022-888265",
    "request_type": "Tax and Revenue",
    "request_reason": "Sales Tax Question",
    "date_created": "2022-06-02T13:19:26.000",
    "date_modified": "2022-06-02T13:21:14.000",
    "request_status": "Pending",
    "responsible_agency": "Bureau of Revenue",
    "final_address": "New Orleans,LA",
    "rowid": "888265",
    "longitude": "0.0",
    "latitude": "0.0",
    "geocoded_column": {
      "latitude": "0.0",
      "longitude": "0.0"
    }
  },
  {
    "service_request": "2022-888264",
    "request_type": "Trash/Recycling",
    "request_reason": "Repair Trash Cart",
    "date_created": "2022-06-02T13:16:26.000",
    "date_modified": "2022-06-02T13:16:27.000",
    "request_status": "Pending",
    "responsible_agency": "Department of Sanitation",
    "final_address": "915 Opelousas Ave",
    "address_councildis": "C",
    "status": "Assigned to Contractor",
    "contractor": "Richards Disposal",
    "rowid": "888264",
    "final_x": "3688319.43286",
    "final_y": "529020.824768",
    "longitude": "-90.04662568449427",
    "latitude": "29.94841499310355",
    "geocoded_column": {
      "latitude": "29.94841499310355",
      "longitude": "-90.04662568449427"
    }
  },
  {
    "service_request": "2022-888263",
    "request_type": "Trash/Recycling",
    "request_reason": "Missed Trash Pick-Up",
    "date_created": "2022-06-02T13:15:55.000",
    "date_modified": "2022-06-02T13:15:56.000",
    "request_status": "Pending",
    "responsible_agency": "Department of Sanitation",
    "final_address": "15 Trianon Plz",
    "address_councildis": "B",
    "status": "Assigned to Contractor",
    "contractor": "Richards Disposal",
    "rowid": "888263",
    "final_x": "3667399.51021",
    "final_y": "531125.916162",
    "longitude": "-90.11260800558598",
    "latitude": "29.954832673368568",
    "geocoded_column": {
      "latitude": "29.954832673368568",
      "longitude": "-90.11260800558598"
    }
  },
  {
    "service_request": "2022-888262",
    "request_type": "Property Maintenance",
    "request_reason": "Property Maintenance",
    "date_created": "2022-06-02T13:12:57.000",
    "date_modified": "2022-06-02T13:12:57.000",
    "request_status": "Pending",
    "responsible_agency": "Department of Code Enforcement",
    "final_address": "5037 Columbia St",
    "address_councildis": "D",
    "status": "Pending",
    "rowid": "888262",
    "final_x": "3690755.02633",
    "final_y": "558655.69334",
    "longitude": "-90.03787766017604",
    "latitude": "30.02982476975597",
    "geocoded_column": {
      "latitude": "30.02982476975597",
      "longitude": "-90.03787766017604"
    }
  },
  {
    "service_request": "2022-888261",
    "request_type": "Tax and Revenue",
    "request_reason": "Sales Tax Question",
    "date_created": "2022-06-02T13:12:43.000",
    "date_modified": "2022-06-02T13:12:44.000",
    "request_status": "Pending",
    "responsible_agency": "Bureau of Revenue",
    "status": "Pending",
    "rowid": "888261",
    "longitude": "0.0",
    "latitude": "0.0",
    "geocoded_column": {
      "latitude": "0.0",
      "longitude": "0.0"
    }
  },
  {
    "service_request": "2022-888260",
    "request_type": "Trash/Recycling",
    "request_reason": "Request a Large Item Pick Up",
    "date_created": "2022-06-02T13:10:16.000",
    "date_modified": "2022-06-02T13:10:17.000",
    "request_status": "Pending",
    "responsible_agency": "Department of Sanitation",
    "final_address": "3984 Annunciation St",
    "address_councildis": "B",
    "status": "Assigned to Contractor",
    "contractor": "Richards Disposal",
    "rowid": "888260",
    "final_x": "3672658.40392",
    "final_y": "517868.034678",
    "longitude": "-90.0964542845713",
    "latitude": "29.91822270363695",
    "geocoded_column": {
      "latitude": "29.91822270363695",
      "longitude": "-90.0964542845713"
    }
  },
  {
    "service_request": "2022-888259",
    "request_type": "Trash/Recycling",
    "request_reason": "MIssed Recycling Pick-Up",
    "date_created": "2022-06-02T13:10:05.000",
    "date_modified": "2022-06-02T13:10:05.000",
    "request_status": "Pending",
    "responsible_agency": "Department of Sanitation",
    "final_address": "8934 Palm St",
    "address_councildis": "A",
    "status": "Assigned to Contractor",
    "contractor": "Richards Disposal",
    "rowid": "888259",
    "final_x": "3665401.30247",
    "final_y": "536757.887752",
    "longitude": "-90.11872910124833",
    "latitude": "29.970377127892554",
    "geocoded_column": {
      "latitude": "29.970377127892554",
      "longitude": "-90.11872910124833"
    }
  },
  {
    "service_request": "2022-888258",
    "request_type": "Trash/Recycling",
    "request_reason": "Request a Large Item Pick Up",
    "date_created": "2022-06-02T13:05:00.000",
    "date_modified": "2022-06-02T13:05:00.000",
    "request_status": "Pending",
    "responsible_agency": "Department of Sanitation",
    "final_address": "6157 Louisville St",
    "address_councildis": "A",
    "status": "Assigned to Contractor",
    "contractor": "Metro Disposal",
    "rowid": "888258",
    "final_x": "3667936.25927",
    "final_y": "548425.84053",
    "longitude": "-90.11033009824266",
    "latitude": "30.002385899699107",
    "geocoded_column": {
      "latitude": "30.002385899699107",
      "longitude": "-90.11033009824266"
    }
  },
  {
    "service_request": "2022-888257",
    "request_type": "Roads/Drainage",
    "request_reason": "Catch Basin - Broken/Damage",
    "date_created": "2022-06-02T13:04:46.000",
    "date_modified": "2022-06-02T13:04:46.000",
    "request_status": "Pending",
    "responsible_agency": "Department of Public Works",
    "final_address": "9 Allard Blvd",
    "address_councildis": "A",
    "status": "Pending",
    "rowid": "888257",
    "final_x": "3672850.14625",
    "final_y": "541364.835148",
    "longitude": "-90.09504755146446",
    "latitude": "29.982825454350575",
    "geocoded_column": {
      "latitude": "29.982825454350575",
      "longitude": "-90.09504755146446"
    }
  },
  {
    "service_request": "2022-888256",
    "request_type": "Trash/Recycling",
    "request_reason": "Missed Trash Pick-Up",
    "date_created": "2022-06-02T12:53:50.000",
    "date_modified": "2022-06-02T12:53:51.000",
    "request_status": "Pending",
    "responsible_agency": "Department of Sanitation",
    "final_address": "3012 State Street Dr, New Orleans, Louisiana, 70125",
    "status": "Assigned to Contractor",
    "rowid": "888256",
    "longitude": "0.0",
    "latitude": "0.0",
    "geocoded_column": {
      "latitude": "0.0",
      "longitude": "0.0"
    }
  },
  {
    "service_request": "2022-888255",
    "request_type": "Trash/Recycling",
    "request_reason": "Missed Trash Pick-Up",
    "date_created": "2022-06-02T12:52:32.000",
    "date_modified": "2022-06-02T12:52:33.000",
    "request_status": "Pending",
    "responsible_agency": "Department of Sanitation",
    "final_address": "3927 State Street Dr, New Orleans, Louisiana, 70125",
    "address_councildis": "B",
    "status": "Assigned to Contractor",
    "contractor": "Richards Disposal",
    "rowid": "888255",
    "final_x": "3668209.44609",
    "final_y": "530178.200385",
    "longitude": "-90.11008247529558",
    "latitude": "29.95220301440177",
    "geocoded_column": {
      "latitude": "29.95220301440177",
      "longitude": "-90.11008247529558"
    }
  },
  {
    "service_request": "2022-888254",
    "request_type": "Property Maintenance",
    "request_reason": "Property Maintenance",
    "date_created": "2022-06-02T12:52:10.000",
    "date_modified": "2022-06-02T12:52:10.000",
    "request_status": "Pending",
    "responsible_agency": "Department of Code Enforcement",
    "final_address": "7919 Means Ave",
    "address_councildis": "E",
    "status": "Pending",
    "rowid": "888254",
    "final_x": "3707621.78769",
    "final_y": "565639.86813",
    "longitude": "-89.98431944650785",
    "latitude": "30.048493365502853",
    "geocoded_column": {
      "latitude": "30.048493365502853",
      "longitude": "-89.98431944650785"
    }
  },
  {
    "service_request": "2022-888253",
    "request_type": "Trash/Recycling",
    "request_reason": "Repair Trash Cart",
    "date_created": "2022-06-02T12:51:29.000",
    "date_modified": "2022-06-02T12:51:30.000",
    "request_status": "Pending",
    "responsible_agency": "Department of Sanitation",
    "final_address": "4625 Chantilly Dr",
    "address_councildis": "E",
    "status": "Assigned to Contractor",
    "contractor": "Metro Disposal",
    "rowid": "888253",
    "final_x": "3701024.50628",
    "final_y": "553541.242007",
    "longitude": "-90.00561365871512",
    "latitude": "30.01543874843826",
    "geocoded_column": {
      "latitude": "30.01543874843826",
      "longitude": "-90.00561365871512"
    }
  },
  {
    "service_request": "2022-888252",
    "request_type": "Property Maintenance",
    "request_reason": "Property Maintenance",
    "date_created": "2022-06-02T12:50:11.000",
    "date_modified": "2022-06-02T12:50:11.000",
    "request_status": "Pending",
    "responsible_agency": "Department of Code Enforcement",
    "final_address": "4609 Shalimar Dr",
    "address_councildis": "D",
    "status": "Pending",
    "rowid": "888252",
    "final_x": "3697310.17731",
    "final_y": "553513.208151",
    "longitude": "-90.01735017263164",
    "latitude": "30.015479484466784",
    "geocoded_column": {
      "latitude": "30.015479484466784",
      "longitude": "-90.01735017263164"
    }
  },
  {
    "service_request": "2022-888251",
    "request_type": "Trash/Recycling",
    "request_reason": "Request a Large Item Pick Up",
    "date_created": "2022-06-02T12:48:22.000",
    "date_modified": "2022-06-02T12:48:23.000",
    "request_status": "Pending",
    "responsible_agency": "Department of Sanitation",
    "final_address": "4730 Miles Dr",
    "address_councildis": "D",
    "status": "Assigned to Contractor",
    "contractor": "Metro Disposal",
    "rowid": "888251",
    "final_x": "3679686.38255",
    "final_y": "549170.058195",
    "longitude": "-90.07318414735263",
    "latitude": "30.004082155559047",
    "geocoded_column": {
      "latitude": "30.004082155559047",
      "longitude": "-90.07318414735263"
    }
  },
  {
    "service_request": "2022-888250",
    "request_type": "Trash/Recycling",
    "request_reason": "Missed Trash Pick-Up",
    "date_created": "2022-06-02T12:46:42.000",
    "date_modified": "2022-06-02T12:46:42.000",
    "request_status": "Pending",
    "responsible_agency": "Department of Sanitation",
    "final_address": "8534 Apricot St",
    "address_councildis": "A",
    "status": "Assigned to Contractor",
    "contractor": "Richards Disposal",
    "rowid": "888250",
    "final_x": "3664541.88282",
    "final_y": "533743.219781",
    "longitude": "-90.12154394193134",
    "latitude": "29.96211280517692",
    "geocoded_column": {
      "latitude": "29.96211280517692",
      "longitude": "-90.12154394193134"
    }
  },
  {
    "service_request": "2022-888249",
    "request_type": "Trash/Recycling",
    "request_reason": "Illegal Dumping",
    "date_created": "2022-06-02T12:43:13.000",
    "date_modified": "2022-06-02T12:43:13.000",
    "request_status": "Pending",
    "responsible_agency": "Department of Sanitation",
    "final_address": "8643 Dinkins St",
    "address_councildis": "E",
    "status": "Pending",
    "rowid": "888249",
    "final_x": "3703999.99646",
    "final_y": "563105.42576",
    "longitude": "-89.99585983736036",
    "latitude": "30.04164139893737",
    "geocoded_column": {
      "latitude": "30.04164139893737",
      "longitude": "-89.99585983736036"
    }
  },