[
  {
    "service_request": "2024-1078624",
    "request_type": "Roads/Drainage",
    "request_reason": "Pothole",
    "date_created": "2024-03-25T23:37:41.000",
    "date_modified": "2024-03-25T23:37:41.000",
    "request_status": "Pending",
    "responsible_agency": "Department of Public Works",
    "final_address": "1200 BLK Amelia St",
    "address_councildis": "B",
    "status": "Pending",
    "rowid": "1078624",
    "final_x": "3673521.46558",
    "final_y": "519660.816109",
    "longitude": "-90.09366883741032",
    "latitude": "29.923126634409968",
    "geocoded_column": {
      "latitude": "29.923126634409968",
      "longitude": "-90.09366883741032"
    }
  },
  {
    "service_request": "2024-1078623",
    "request_type": "Roads/Drainage",
    "request_reason": "Catch Basin - Clogged",
    "date_created": "2024-03-25T23:27:26.000",
    "date_modified": "2024-03-25T23:27:26.000",
    "request_status": "Pending",
    "responsible_agency": "Department of Public Works",
    "final_address": "4200 BLK Dryades St",
    "address_councildis": "B",
    "status": "Pending",
    "rowid": "1078623",
    "final_x": "3671314.33483",
    "final_y": "522002.718249",
    "longitude": "-90.10055638445617",
    "latitude": "29.929631589964167",
    "geocoded_column": {
      "latitude": "29.929631589964167",
      "longitude": "-90.10055638445617"
    }
  },
  {
    "service_request": "2024-1078622",
    "request_type": "Traffic Signals/Signs/Striping/Streetlights",
    "request_reason": "Street Light Outage/Malfunction",
    "date_created": "2024-03-25T22:13:45.000",
    "date_modified": "2024-03-25T22:13:46.000",
    "request_status": "Pending",
    "responsible_agency": "Department of Public Works",
    "final_address": "1812 Dante St",
    "address_councildis": "A",
    "status": "Assigned to Contractor",
    "contractor": "Legacy Professional Services",
    "rowid": "1078622",
    "final_x": "3662901.83693",
    "final_y": "530546.15597",
    "longitude": "-90.12682928837347",
    "latitude": "29.953369507291114",
    "geocoded_column": {
      "latitude": "29.953369507291114",
      "longitude": "-90.12682928837347"
    }
  },
  {
    "service_request": "2024-1078620",
    "request_type": "Trash/Recycling",
    "request_reason": "Order Recycling Cart",
    "date_created": "2024-03-25T22:05:27.000",
    "date_modified": "2024-03-25T22:05:27.000",
    "request_status": "Pending",
    "responsible_agency": "Department of Sanitation",
    "final_address": "981 Walker St",
    "address_councildis": "A",
    "status": "Pending",
    "rowid": "1078620",
    "final_x": "3671247.00679",
    "final_y": "553849.761751",
    "longitude": "-90.0996865315543",
    "latitude": "30.017202190666794",
    "geocoded_column": {
      "latitude": "30.017202190666794",
      "longitude": "-90.0996865315543"
    }
  },
  {
    "service_request": "2024-1078619",
    "request_type": "Trash/Recycling",
    "request_reason": "MIssed Recycling Pick-Up",
    "date_created": "2024-03-25T22:02:00.000",
    "date_modified": "2024-03-25T22:02:00.000",
    "request_status": "Pending",
    "responsible_agency": "Department of Sanitation",
    "final_address": "3831 Lennox Blvd",
    "address_councildis": "C",
    "status": "Assigned to Contractor",
    "contractor": "Richards Disposal",
    "rowid": "1078619",
    "final_x": "3700465.48061",
    "final_y": "517125.426165",
    "longitude": "-90.00870999961347",
    "latitude": "29.915326146081327",
    "geocoded_column": {
      "latitude": "29.915326146081327",
      "longitude": "-90.00870999961347"
    }
  },
  {
    "service_request": "2024-1078618",
    "request_type": "Trash/Recycling",
    "request_reason": "Request a Large Item Pick Up",
    "date_created": "2024-03-25T22:00:10.000",
    "date_modified": "2024-03-25T22:00:11.000",
    "request_status": "Pending",
    "responsible_agency": "Department of Sanitation",
    "final_address": "4775 Arthur Dr",
    "address_councildis": "E",
    "status": "Assigned to Contractor",
    "contractor": "Waste Pro",
    "rowid": "1078618",
    "final_x": "3707734.57777",
    "final_y": "555762.211161",
    "longitude": "-89.9843305106468",
    "latitude": "30.021330057879755",
    "geocoded_column": {
      "latitude": "30.021330057879755",
      "longitude": "-89.9843305106468"
    }
  },
  {
    "service_request": "2024-1078617",
    "request_type": "Roads/Drainage",
    "request_reason": "Pothole",
    "date_created": "2024-03-25T21:52:31.000",
    "date_modified": "2024-03-25T21:52:31.000",
    "request_status": "Pending",
    "responsible_agency": "Department of Public Works",
    "final_address": "1300 BLK Mirabeau Ave",
    "address_councildis": "D",
    "status": "Pending",
    "rowid": "1078617",
    "final_x": "3677662.65448",
    "final_y": "550171.471623",
    "longitude": "-90.07954285056512",
    "latitude": "30.00689672710285",
    "geocoded_column": {
      "latitude": "30.00689672710285",
      "longitude": "-90.07954285056512"
    }
  },
  {
    "service_request": "2024-1078616",
    "request_type": "Trash/Recycling",
    "request_reason": "Replace Trash Cart",
    "date_created": "2024-03-25T21:50:58.000",
    "date_modified": "2024-03-25T21:50:59.000",
    "request_status": "Pending",
    "responsible_agency": "Department of Sanitation",
    "final_address": "433 Bellaire Dr",
    "address_councildis": "A",
    "status": "Assigned to Contractor",
    "contractor": "IV Waste",
    "rowid": "1078616",
    "final_x": "3664037.28628",
    "final_y": "542580.873485",
    "longitude": "-90.12284256249772",
    "latitude": "29.98642808106644",
    "geocoded_column": {
      "latitude": "29.98642808106644",
      "longitude": "-90.12284256249772"
    }
  },
  {
    "service_request": "2024-1078615",
    "request_type": "Trash/Recycling",
    "request_reason": "Replace Recycling Cart",
    "date_created": "2024-03-25T21:47:29.000",
    "date_modified": "2024-03-25T21:47:29.000",
    "request_status": "Pending",
    "responsible_agency": "Department of Sanitation",
    "final_address": "1478 Granada Dr",
    "address_councildis": "D",
    "status": "Pending",
    "rowid": "1078615",
    "final_x": "3678371.05672",
    "final_y": "550524.23938",
    "longitude": "-90.07729260136318",
    "latitude": "30.007845379697333",
    "geocoded_column": {
      "latitude": "30.007845379697333",
      "longitude": "-90.07729260136318"
    }
  },
  {
    "service_request": "2024-1078614",
    "request_type": "Trash/Recycling",
    "request_reason": "Request a Large Item Pick Up",
    "date_created": "2024-03-25T21:45:29.000",
    "date_modified": "2024-03-25T21:45:29.000",
    "request_status": "Pending",
    "responsible_agency": "Department of Sanitation",
    "final_address": "401 Elmira Ave",
    "address_councildis": "C",
    "status": "Assigned to Contractor",
    "contractor": "Richards Disposal",
    "rowid": "1078614",
    "final_x": "3688188.60598",
    "final_y": "530288.369409",
    "longitude": "-90.04699382929253",
    "latitude": "29.95190434538229",
    "geocoded_column": {
      "latitude": "29.95190434538229",
      "longitude": "-90.04699382929253"
    }
  },
  {
    "service_request": "2024-1078612",
    "request_type": "Trash/Recycling",
    "request_reason": "Order Recycling Cart",
    "date_created": "2024-03-25T20:54:10.000",
    "date_modified": "2024-03-25T20:54:10.000",
    "request_status": "Pending",
    "responsible_agency": "Department of Sanitation",
    "final_address": "5131 Carlisle Ct",
    "address_councildis": "C",
    "status": "Pending",
    "rowid": "1078612",
    "final_x": "3703133.09297",
    "final_y": "516438.140789",
    "longitude": "-90.00031532916334",
    "latitude": "29.913351281965195",
    "geocoded_column": {
      "latitude": "29.913351281965195",
      "longitude": "-90.00031532916334"
    }
  },
  {
    "service_request": "2024-1078611",
    "request_type": "Traffic Signals/Signs/Striping/Streetlights",
    "request_reason": "Street Light Outage/Malfunction",
    "date_created": "2024-03-25T20:40:44.000",
    "date_modified": "2024-03-25T20:40:45.000",
    "request_status": "Pending",
    "responsible_agency": "Department of Public Works",
    "final_address": "1622 Louisa St",
    "address_councildis": "D",
    "status": "Assigned to Contractor",
    "contractor": "Legacy Professional Services",
    "rowid": "1078611",
    "final_x": "3690042.48937",
    "final_y": "537928.856905",
    "longitude": "-90.04086804224875",
    "latitude": "29.972855663533842",
    "geocoded_column": {
      "latitude": "29.972855663533842",
      "longitude": "-90.04086804224875"
    }
  },
  {
    "service_request": "2024-1078610",
    "request_type": "Trash/Recycling",
    "request_reason": "Request a Large Item Pick Up",
    "date_created": "2024-03-25T20:36:05.000",
    "date_modified": "2024-03-25T20:36:05.000",
    "request_status": "Pending",
    "responsible_agency": "Department of Sanitation",
    "final_address": "45 Neron Pl",
    "address_councildis": "A",
    "status": "Assigned to Contractor",
    "contractor": "Richards Disposal",
    "rowid": "1078610",
    "final_x": "3665506.46138",
    "final_y": "530438.817346",
    "longitude": "-90.11860855704514",
    "latitude": "29.952998693768492",
    "geocoded_column": {
      "latitude": "29.952998693768492",
      "longitude": "-90.11860855704514"
    }
  },
  {
    "service_request": "2024-1078609",
    "request_type": "Traffic Signals/Signs/Striping/Streetlights",
    "request_reason": "Street Light Outage/Malfunction",
    "date_created": "2024-03-25T20:18:27.000",
    "date_modified": "2024-03-25T20:18:27.000",
    "request_status": "Pending",
    "responsible_agency": "Department of Public Works",
    "final_address": "1458 N Rocheblave St",
    "address_councildis": "D",
    "status": "Assigned to Contractor",
    "contractor": "Legacy Professional Services",
    "rowid": "1078609",
    "final_x": "3679431.46799",
    "final_y": "538722.554889",
    "longitude": "-90.07435211281206",
    "latitude": "29.975362894499785",
    "geocoded_column": {
      "latitude": "29.975362894499785",
      "longitude": "-90.07435211281206"
    }
  },
  {
    "service_request": "2024-1078608",
    "request_type": "Parks & Parkways",
    "request_reason": "Request Tree Service (Right of Way/Public Property)",
    "date_created": "2024-03-25T20:12:39.000",
    "date_modified": "2024-03-25T20:12:39.000",
    "request_status": "Pending",
    "responsible_agency": "Department of Parks & Parkway",
    "final_address": "3625 Dauphine St",
    "address_councildis": "C",
    "status": "Pending",
    "rowid": "1078608",
    "final_x": "3690651.48656",
    "final_y": "534407.718405",
    "longitude": "-90.03907032911582",
    "latitude": "29.96315486886352",
    "geocoded_column": {
      "latitude": "29.96315486886352",
      "longitude": "-90.03907032911582"
    }
  },
  {
    "service_request": "2024-1078606",
    "request_type": "Trash/Recycling",
    "request_reason": "Replace Trash Cart",
    "date_created": "2024-03-25T20:06:11.000",
    "date_modified": "2024-03-25T20:06:11.000",
    "request_status": "Pending",
    "responsible_agency": "Department of Sanitation",
    "final_address": "1939 Bordeaux St",
    "address_councildis": "B",
    "status": "Assigned to Contractor",
    "contractor": "Richards Disposal",
    "rowid": "1078606",
    "final_x": "3669345.04295",
    "final_y": "522119.535418",
    "longitude": "-90.1067691586854",
    "latitude": "29.930010910452438",
    "geocoded_column": {
      "latitude": "29.930010910452438",
      "longitude": "-90.1067691586854"
    }
  },
  {
    "service_request": "2024-1078605",
    "request_type": "Trash/Recycling",
    "request_reason": "Request a Large Item Pick Up",
    "date_created": "2024-03-25T20:01:48.000",
    "date_modified": "2024-03-25T20:01:48.000",
    "request_status": "Pending",
    "responsible_agency": "Department of Sanitation",
    "final_address": "311 S Dupre St",
    "address_councildis": "B",
    "status": "Assigned to Contractor",
    "contractor": "Richards Disposal",
    "rowid": "1078605",
    "final_x": "3673984.27867",
    "final_y": "534931.063942",
    "longitude": "-90.09168558517617",
    "latitude": "29.96510102208203",
    "geocoded_column": {
      "latitude": "29.96510102208203",
      "longitude": "-90.09168558517617"
    }
  },
  {
    "service_request": "2024-1078604",
    "request_type": "Trash/Recycling",
    "request_reason": "Replace Recycling Cart",
    "date_created": "2024-03-25T20:00:31.000",
    "date_modified": "2024-03-25T20:00:31.000",
    "request_status": "Pending",
    "responsible_agency": "Department of Sanitation",
    "final_address": "2732 Danneel St",
    "address_councildis": "B",
    "status": "Pending",
    "rowid": "1078604",
    "final_x": "3675222.71118",
    "final_y": "523756.691195",
    "longitude": "-90.08815815234507",
    "latitude": "29.934338245480106",
    "geocoded_column": {
      "latitude": "29.934338245480106",
      "longitude": "-90.08815815234507"
    }
  },
  {
    "service_request": "2024-1078603",
    "request_type": "Trash/Recycling",
    "request_reason": "Replace Trash Cart",
    "date_created": "2024-03-25T19:59:36.000",
    "date_modified": "2024-03-25T19:59:37.000",
    "request_status": "Pending",
    "responsible_agency": "Department of Sanitation",
    "final_address": "311 S Dupre St",
    "address_councildis": "B",
    "status": "Assigned to Contractor",
    "contractor": "Richards Disposal",
    "rowid": "1078603",
    "final_x": "3673984.27867",
    "final_y": "534931.063942",
    "longitude": "-90.09168558517617",
    "latitude": "29.96510102208203",
    "geocoded_column": {
      "latitude": "29.96510102208203",
      "longitude": "-90.09168558517617"
    }
  },
  {
    "service_request": "2024-1078602",
    "request_type": "Trash/Recycling",
    "request_reason": "Replace Trash Cart",
    "date_created": "2024-03-25T19:58:33.000",
    "date_modified": "2024-03-25T19:58:34.000",
    "request_status": "Pending",
    "responsible_agency": "Department of Sanitation",
    "final_address": "2732 Danneel St",
    "address_councildis": "B",
    "status": "Assigned to Contractor",
    "contractor": "Richards Disposal",
    "rowid": "1078602",
    "final_x": "3675222.71118",
    "final_y": "523756.691195",
    "longitude": "-90.08815815234507",
    "latitude": "29.934338245480106",
    "geocoded_column": {
      "latitude": "29.934338245480106",
      "longitude": "-90.08815815234507"
    }
  },
  {
    "service_request": "2024-1078601",
    "request_type": "Traffic Signals/Signs/Striping/Streetlights",
    "request_reason": "Street Light Outage/Malfunction",
    "date_created": "2024-03-25T19:49:34.000",
    "date_modified": "2024-03-25T19:49:35.000",
    "request_status": "Pending",
    "responsible_agency": "Department of Public Works",
    "final_address": "14900 Paris Rd",
    "address_councildis": "E",
    "status": "Assigned to Contractor",
    "contractor": "Legacy Professional Services",
    "rowid": "1078601",
    "final_x": "3721458.89849",
    "final_y": "568514.420389",
    "longitude": "-89.94047623005744",
    "latitude": "30.05594200108865",
    "geocoded_column": {
      "latitude": "30.05594200108865",
      "longitude": "-89.94047623005744"
    }
  },
  {
    "service_request": "2024-1078600",
    "request_type": "Abandoned Vehicles",
    "request_reason": "Abandoned/Junk Vehicles",
    "date_created": "2024-03-25T19:31:21.000",
    "date_modified": "2024-03-25T19:31:21.000",
    "request_status": "Pending",
    "responsible_agency": "Department of Public Works",
    "final_address": "14900 Paris Rd",
    "address_councildis": "E",
    "status": "Pending",
    "rowid": "1078600",
    "final_x": "3721458.89849",
    "final_y": "568514.420389",
    "longitude": "-89.94047623005744",
    "latitude": "30.05594200108865",
    "geocoded_column": {
      "latitude": "30.05594200108865",
      "longitude": "-89.94047623005744"
    }
  },
  {
    "service_request": "2024-1078599",
    "request_type": "Trash/Recycling",
    "request_reason": "Request a Large Item Pick Up",
    "date_created": "2024-03-25T18:53:59.000",
    "date_modified": "2024-03-25T18:54:00.000",
    "request_status": "Pending",
    "responsible_agency": "Department of Sanitation",
    "final_address": "862 Olga St, New Orleans, Louisiana, 70119",
    "address_councildis": "A",
    "status": "Assigned to Contractor",
    "contractor": "Richards Disposal",
    "rowid": "1078599",
    "final_x": "3673382.23713",
    "final_y": "540244.124171",
    "longitude": "-90.09340524119628",
    "latitude": "29.979728061245904",
    "geocoded_column": {
      "latitude": "29.979728061245904",
      "longitude": "-90.09340524119628"
    }
  },
  {
    "service_request": "2024-1078598",
    "request_type": "Trash/Recycling",
    "request_reason": "Replace Trash Cart",
    "date_created": "2024-03-25T18:51:39.000",
    "date_modified": "2024-03-25T18:51:40.000",
    "request_status": "Pending",
    "responsible_agency": "Department of Sanitation",
    "final_address": "5501 Loyola Ave",
    "address_councildis": "A",
    "status": "Assigned to Contractor",
    "contractor": "Richards Disposal",
    "rowid": "1078598",
    "final_x": "3667289.62343",
    "final_y": "523107.538107",
    "longitude": "-90.11322458818319",
    "latitude": "29.93278794218939",
    "geocoded_column": {
      "latitude": "29.93278794218939",
      "longitude": "-90.11322458818319"
    }
  },
  {
    "service_request": "2024-1078597",
    "request_type": "Roads/Drainage",
    "request_reason": "Street Flooding / Drainage",
    "date_created": "2024-03-25T18:50:10.000",
    "date_modified": "2024-03-25T18:50:10.000",
    "request_status": "Pending",
    "responsible_agency": "Department of Public Works",
    "final_address": "1330 Elysian Fields Ave Apt 1B",
    "address_councildis": "C",
    "status": "Pending",
    "rowid": "1078597",
    "final_x": "3684818.72578",
    "final_y": "537302.258184",
    "longitude": "-90.05738768445104",
    "latitude": "29.971293716706935",
    "geocoded_column": {
      "latitude": "29.971293716706935",
      "longitude": "-90.05738768445104"
    }
  },
  {
    "service_request": "2024-1078596",
    "request_type": "Trash/Recycling",
    "request_reason": "Request a Large Item Pick Up",
    "date_created": "2024-03-25T18:46:54.000",
    "date_modified": "2024-03-25T18:46:55.000",
    "request_status": "Pending",
    "responsible_agency": "Department of Sanitation",
    "final_address": "5501 Loyola Ave",
    "address_councildis": "A",
    "status": "Assigned to Contractor",
    "contractor": "Richards Disposal",
    "rowid": "1078596",
    "final_x": "3667289.62343",
    "final_y": "523107.538107",
    "longitude": "-90.11322458818319",
    "latitude": "29.93278794218939",
    "geocoded_column": {
      "latitude": "29.93278794218939",
      "longitude": "-90.11322458818319"
    }
  },
  {
    "service_request": "2024-1078595",
    "request_type": "Trash/Recycling",
    "request_reason": "Order Recycling Cart",
    "date_created": "2024-03-25T18:42:24.000",
    "date_modified": "2024-03-25T18:42:24.000",
    "request_status": "Pending",
    "responsible_agency": "Department of Sanitation",
    "final_address": "980 Harding Dr",
    "address_councildis": "A",
    "status": "Pending",
    "rowid": "1078595",
    "final_x": "3674522.66766",
    "final_y": "540248.306443",
    "longitude": "-90.08980314919162",
    "latitude": "29.97970557900028",
    "geocoded_column": {
      "latitude": "29.97970557900028",
      "longitude": "-90.08980314919162"
    }
  },
  {
    "service_request": "2024-1078594",
    "request_type": "Trash/Recycling",
    "request_reason": "Request a Large Item Pick Up",
    "date_created": "2024-03-25T18:42:16.000",
    "date_modified": "2024-03-25T18:42:16.000",
    "request_status": "Pending",
    "responsible_agency": "Department of Sanitation",
    "final_address": "13955 Explorers Ave, New Orleans, Louisiana, 70129",
    "address_councildis": "E",
    "status": "Assigned to Contractor",
    "contractor": "Waste Pro",
    "rowid": "1078594",
    "final_x": "3726395.40781",
    "final_y": "570480.789863",
    "longitude": "-89.9247966401097",
    "latitude": "30.061182765805718",
    "geocoded_column": {
      "latitude": "30.061182765805718",
      "longitude": "-89.9247966401097"
    }
  },
  {
    "service_request": "2024-1078593",
    "request_type": "Trash/Recycling",
    "request_reason": "Order Trash Cart",
    "date_created": "2024-03-25T18:41:23.000",
    "date_modified": "2024-03-25T18:41:23.000",
    "request_status": "Pending",
    "responsible_agency": "Department of Sanitation",
    "final_address": "980 Harding Dr",
    "address_councildis": "A",
    "status": "Assigned to Contractor",
    "contractor": "Richards Disposal",
    "rowid": "1078593",
    "final_x": "3674522.66766",
    "final_y": "540248.306443",
    "longitude": "-90.08980314919162",
    "latitude": "29.97970557900028",
    "geocoded_column": {
      "latitude": "29.97970557900028",
      "longitude": "-90.08980314919162"
    }
  },
  {
    "service_request": "2024-1078592",
    "request_type": "Traffic Signals/Signs/Striping/Streetlights",
    "request_reason": "Street Name Sign Damaged or Missing",
    "date_created": "2024-03-25T18:28:18.000",
    "date_modified": "2024-03-25T18:28:18.000",
    "request_status": "Pending",
    "responsible_agency": "Department of Public Works",
    "final_address": "700 River Oaks Dr",
    "address_councildis": "C",
    "status": "Pending",
    "rowid": "1078592",
    "final_x": "3701524.74602",
    "final_y": "520109.764024",
    "longitude": "-90.00525741230996",
    "latitude": "29.92349833836411",
    "geocoded_column": {
      "latitude": "29.92349833836411",
      "longitude": "-90.00525741230996"
    }
  },
  {
    "service_request": "2024-1078591",
    "request_type": "Roads/Drainage",
    "request_reason": "Damaged Sidewalk",
    "date_created": "2024-03-25T18:08:39.000",
    "date_modified": "2024-03-25T18:08:39.000",
    "request_status": "Pending",
    "responsible_agency": "Department of Public Works",
    "final_address": "800 BLK Saint Peter St",
    "address_councildis": "C",
    "status": "Pending",
    "rowid": "1078591",
    "final_x": "3682107.24861",
    "final_y": "532766.708532",
    "longitude": "-90.06610931398716",
    "latitude": "29.958905255588828",
    "geocoded_column": {
      "latitude": "29.958905255588828",
      "longitude": "-90.06610931398716"
    }
  },
  {
    "service_request": "2024-1078590",
    "request_type": "Abandoned Vehicles",
    "request_reason": "Abandoned/Junk Vehicles",
    "date_created": "2024-03-25T18:00:03.000",
    "date_modified": "2024-03-25T18:00:03.000",
    "request_status": "Pending",
    "responsible_agency": "Department of Public Works",
    "final_address": "316 N Dorgenois St",
    "address_councildis": "B",
    "status": "Pending",
    "rowid": "1078590",
    "final_x": "3676401.71477",
    "final_y": "535518.610694",
    "longitude": "-90.08403122151593",
    "latitude": "29.966644325978795",
    "geocoded_column": {
      "latitude": "29.966644325978795",
      "longitude": "-90.08403122151593"
    }
  },
  {
    "service_request": "2024-1078589",
    "request_type": "Traffic Signals/Signs/Striping/Streetlights",
    "request_reason": "Additional signage",
    "date_created": "2024-03-25T17:59:53.000",
    "date_modified": "2024-03-25T17:59:53.000",
    "request_status": "Pending",
    "responsible_agency": "Department of Public Works",
    "final_address": "700 BLK Dauphine St",
    "address_councildis": "C",
    "status": "Pending",
    "rowid": "1078589",
    "final_x": "3682022.69333",
    "final_y": "532951.179292",
    "longitude": "-90.06636987713318",
    "latitude": "29.959415058294717",
    "geocoded_column": {
      "latitude": "29.959415058294717",
      "longitude": "-90.06636987713318"
    }
  },
  {
    "service_request": "2024-1078588",
    "request_type": "Trash/Recycling",
    "request_reason": "Order Trash Cart",
    "date_created": "2024-03-25T17:54:04.000",
    "date_modified": "2024-03-25T17:54:04.000",
    "request_status": "Pending",
    "responsible_agency": "Department of Sanitation",
    "final_address": "8321 Zimple St",
    "address_councildis": "A",
    "status": "Assigned to Contractor",
    "contractor": "Richards Disposal",
    "rowid": "1078588",
    "final_x": "3661079.28966",
    "final_y": "528757.691712",
    "longitude": "-90.13264332001316",
    "latitude": "29.948504445463435",
    "geocoded_column": {
      "latitude": "29.948504445463435",
      "longitude": "-90.13264332001316"
    }
  },
  {
    "service_request": "2024-1078587",
    "request_type": "Mosquito, Termite & Rodent Control",
    "request_reason": "Non-Rodent Complaint (Mice, Possums, Snakes)",
    "date_created": "2024-03-25T17:49:08.000",
    "date_modified": "2024-03-25T17:49:08.000",
    "request_status": "Pending",
    "responsible_agency": "Mosquito, Termite & Rodent Control Board",
    "final_address": "3420 Jefferson Ave",
    "address_councildis": "A",
    "status": "Pending",
    "rowid": "1078587",
    "final_x": "3668704.81089",
    "final_y": "527797.469695",
    "longitude": "-90.10859868665702",
    "latitude": "29.945642230854013",
    "geocoded_column": {
      "latitude": "29.945642230854013",
      "longitude": "-90.10859868665702"
    }
  },
  {
    "service_request": "2024-1078586",
    "request_type": "Trash/Recycling",
    "request_reason": "Replace Trash Cart",
    "date_created": "2024-03-25T17:40:32.000",
    "date_modified": "2024-03-25T17:40:32.000",
    "request_status": "Pending",
    "responsible_agency": "Department of Sanitation",
    "final_address": "1518 Clouet St",
    "address_councildis": "D",
    "status": "Assigned to Contractor",
    "contractor": "IV Waste",
    "rowid": "1078586",
    "final_x": "3689383.54838",
    "final_y": "537655.648136",
    "longitude": "-90.04295881294847",
    "latitude": "29.972124856335284",
    "geocoded_column": {
      "latitude": "29.972124856335284",
      "longitude": "-90.04295881294847"
    }
  },
  {
    "service_request": "2024-1078585",
    "request_type": "Property Maintenance",
    "request_reason": "Property Maintenance",
    "date_created": "2024-03-25T17:40:10.000",
    "date_modified": "2024-03-25T17:40:10.000",
    "request_status": "Pending",
    "responsible_agency": "Department of Code Enforcement",
    "final_address": "723 Andry St",
    "address_councildis": "E",
    "status": "Pending",
    "rowid": "1078585",
    "final_x": "3696845.25533",
    "final_y": "532652.930372",
    "longitude": "-90.01957477779663",
    "latitude": "29.958136002128864",
    "geocoded_column": {
      "latitude": "29.958136002128864",
      "longitude": "-90.01957477779663"
    }
  },
  {
    "service_request": "2024-1078584",
    "request_type": "Trash/Recycling",
    "request_reason": "Order Recycling Cart",
    "date_created": "2024-03-25T17:36:19.000",
    "date_modified": "2024-03-25T17:36:19.000",
    "request_status": "Pending",
    "responsible_agency": "Department of Sanitation",
    "final_address": "2754 St Ann St",
    "address_councildis": "A",
    "status": "Pending",
    "rowid": "1078584",
    "final_x": "3676512.84603",
    "final_y": "537480.659336",
    "longitude": "-90.08361269083125",
    "latitude": "29.97203595990948",
    "geocoded_column": {
      "latitude": "29.97203595990948",
      "longitude": "-90.08361269083125"
    }
  },
  {
    "service_request": "2024-1078583",
    "request_type": "Trash/Recycling",
    "request_reason": "Return Trash Cart",
    "date_created": "2024-03-25T17:35:32.000",
    "date_modified": "2024-03-25T17:35:33.000",
    "request_status": "Pending",
    "responsible_agency": "Department of Sanitation",
    "final_address": "2754 St Ann St",
    "address_councildis": "A",
    "status": "Assigned to Contractor",
    "contractor": "Richards Disposal",
    "rowid": "1078583",
    "final_x": "3676512.84603",
    "final_y": "537480.659336",
    "longitude": "-90.08361269083125",
    "latitude": "29.97203595990948",
    "geocoded_column": {
      "latitude": "29.97203595990948",
      "longitude": "-90.08361269083125"
    }
  },
  {
    "service_request": "2024-1078582",
    "request_type": "Trash/Recycling",
    "request_reason": "Replace Trash Cart",
    "date_created": "2024-03-25T17:34:05.000",
    "date_modified": "2024-03-25T17:34:06.000",
    "request_status": "Pending",
    "responsible_agency": "Department of Sanitation",
    "final_address": "3979 S Front St",
    "address_councildis": "B",
    "status": "Assigned to Contractor",
    "contractor": "Richards Disposal",
    "rowid": "1078582",
    "final_x": "3672813.1922",
    "final_y": "517402.884917",
    "longitude": "-90.09598155533104",
    "latitude": "29.916939094451664",
    "geocoded_column": {
      "latitude": "29.916939094451664",
      "longitude": "-90.09598155533104"
    }
  },
  {
    "service_request": "2024-1078581",
    "request_type": "Trash/Recycling",
    "request_reason": "Order Recycling Cart",
    "date_created": "2024-03-25T17:33:07.000",
    "date_modified": "2024-03-25T17:33:07.000",
    "request_status": "Pending",
    "responsible_agency": "Department of Sanitation",
    "final_address": "3981 S Front St",
    "address_councildis": "B",
    "status": "Pending",
    "rowid": "1078581",
    "final_x": "3672802.2875",
    "final_y": "517401.094261",
    "longitude": "-90.09601603624762",
    "latitude": "29.916934494503046",
    "geocoded_column": {
      "latitude": "29.916934494503046",
      "longitude": "-90.09601603624762"
    }
  },
  {
    "service_request": "2024-1078580",
    "request_type": "Trash/Recycling",
    "request_reason": "Order Trash Cart",
    "date_created": "2024-03-25T17:32:21.000",
    "date_modified": "2024-03-25T17:32:23.000",
    "request_status": "Pending",
    "responsible_agency": "Department of Sanitation",
    "final_address": "3981 S Front St",
    "address_councildis": "B",
    "status": "Assigned to Contractor",
    "contractor": "Richards Disposal",
    "rowid": "1078580",
    "final_x": "3672802.2875",
    "final_y": "517401.094261",
    "longitude": "-90.09601603624762",
    "latitude": "29.916934494503046",
    "geocoded_column": {
      "latitude": "29.916934494503046",
      "longitude": "-90.09601603624762"
    }
  },
  {
    "service_request": "2024-1078579",
    "request_type": "Trash/Recycling",
    "request_reason": "Order Recycling Cart",
    "date_created": "2024-03-25T17:29:38.000",
    "date_modified": "2024-03-25T17:29:38.000",
    "request_status": "Pending",
    "responsible_agency": "Department of Sanitation",
    "final_address": "2224 Conti St",
    "address_councildis": "B",
    "status": "Pending",
    "rowid": "1078579",
    "final_x": "3677459.49403",
    "final_y": "534919.793606",
    "longitude": "-90.08071143346186",
    "latitude": "29.964966028480188",
    "geocoded_column": {
      "latitude": "29.964966028480188",
      "longitude": "-90.08071143346186"
    }
  },
  {
    "service_request": "2024-1078578",
    "request_type": "Trash/Recycling",
    "request_reason": "Order Recycling Cart",
    "date_created": "2024-03-25T17:24:54.000",
    "date_modified": "2024-03-25T17:24:54.000",
    "request_status": "Pending",
    "responsible_agency": "Department of Sanitation",
    "final_address": "2224 Conti St",
    "address_councildis": "B",
    "status": "Pending",
    "rowid": "1078578",
    "final_x": "3677459.49403",
    "final_y": "534919.793606",
    "longitude": "-90.08071143346186",
    "latitude": "29.964966028480188",
    "geocoded_column": {
      "latitude": "29.964966028480188",
      "longitude": "-90.08071143346186"
    }
  },
  {
    "service_request": "2024-1078577",
    "request_type": "Trash/Recycling",
    "request_reason": "Request a Large Item Pick Up",
    "date_created": "2024-03-25T17:19:58.000",
    "date_modified": "2024-03-25T17:19:59.000",
    "request_status": "Pending",
    "responsible_agency": "Department of Sanitation",
    "final_address": "515 Magellan St",
    "address_councildis": "C",
    "status": "Assigned to Contractor",
    "contractor": "Richards Disposal",
    "rowid": "1078577",
    "final_x": "3687372.2534",
    "final_y": "524852.049916",
    "longitude": "-90.04976376325952",
    "latitude": "29.936981488406833",
    "geocoded_column": {
      "latitude": "29.936981488406833",
      "longitude": "-90.04976376325952"
    }
  },
  {
    "service_request": "2024-1078576",
    "request_type": "Trash/Recycling",
    "request_reason": "Replace Trash Cart",
    "date_created": "2024-03-25T17:17:40.000",
    "date_modified": "2024-03-25T17:17:40.000",
    "request_status": "Pending",
    "responsible_agency": "Department of Sanitation",
    "final_address": "4625 Laurel St",
    "address_councildis": "B",
    "status": "Assigned to Contractor",
    "contractor": "Richards Disposal",
    "rowid": "1078576",
    "final_x": "3670153.26983",
    "final_y": "518002.761526",
    "longitude": "-90.1043571028392",
    "latitude": "29.918667278193784",
    "geocoded_column": {
      "latitude": "29.918667278193784",
      "longitude": "-90.1043571028392"
    }
  },
  {
    "service_request": "2024-1078575",
    "request_type": "Trash/Recycling",
    "request_reason": "Request a Large Item Pick Up",
    "date_created": "2024-03-25T17:06:07.000",
    "date_modified": "2024-03-25T17:06:07.000",
    "request_status": "Pending",
    "responsible_agency": "Department of Sanitation",
    "final_address": "4822 Nottingham Dr",
    "address_councildis": "E",
    "status": "Assigned to Contractor",
    "contractor": "Waste Pro",
    "rowid": "1078575",
    "final_x": "3716281.04607",
    "final_y": "557266.235803",
    "longitude": "-89.95726927273842",
    "latitude": "30.025186097226108",
    "geocoded_column": {
      "latitude": "30.025186097226108",
      "longitude": "-89.95726927273842"
    }
  },
  {
    "service_request": "2024-1078573",
    "request_type": "Trash/Recycling",
    "request_reason": "Repair Trash Cart",
    "date_created": "2024-03-25T16:57:16.000",
    "date_modified": "2024-03-25T16:57:17.000",
    "request_status": "Pending",
    "responsible_agency": "Department of Sanitation",
    "final_address": "2004 France St",
    "address_councildis": "D",
    "status": "Assigned to Contractor",
    "contractor": "IV Waste",
    "rowid": "1078573",
    "final_x": "3693207.6648",
    "final_y": "538617.405513",
    "longitude": "-90.03084714379416",
    "latitude": "29.97465037926749",
    "geocoded_column": {
      "latitude": "29.97465037926749",
      "longitude": "-90.03084714379416"
    }
  },
  {
    "service_request": "2024-1078571",
    "request_type": "Abandoned Vehicles",
    "request_reason": "Abandoned/Junk Vehicles",
    "date_created": "2024-03-25T16:50:18.000",
    "date_modified": "2024-03-25T16:50:19.000",
    "request_status": "Pending",
    "responsible_agency": "Department of Public Works",
    "final_address": "2400 BLK Delery St",
    "address_councildis": "E",
    "status": "Pending",
    "rowid": "1078571",
    "final_x": "3702379.28943",
    "final_y": "537748.865891",
    "longitude": "-90.00191297800741",
    "latitude": "29.97197236013178",
    "geocoded_column": {
      "latitude": "29.97197236013178",
      "longitude": "-90.00191297800741"
    }
  },
  {
    "service_request": "2024-1078570",
    "request_type": "Roads/Drainage",
    "request_reason": "Debris in Roadway",
    "date_created": "2024-03-25T16:49:30.000",
    "date_modified": "2024-03-25T16:49:31.000",
    "request_status": "Pending",
    "responsible_agency": "Department of Public Works",
    "final_address": "2400 BLK Delery St",
    "address_councildis": "E",
    "status": "Pending",
    "rowid": "1078570",
    "final_x": "3702379.28943",
    "final_y": "537748.865891",
    "longitude": "-90.00191297800741",
    "latitude": "29.97197236013178",
    "geocoded_column": {
      "latitude": "29.97197236013178",
      "longitude": "-90.00191297800741"
    }
  },
  {
    "service_request": "2024-1078569",
    "request_type": "Roads/Drainage",
    "request_reason": "Damaged Sidewalk",
    "date_created": "2024-03-25T16:48:16.000",
    "date_modified": "2024-03-25T16:48:16.000",
    "request_status": "Pending",
    "responsible_agency": "Department of Public Works",
    "final_address": "801 Carondelet St",
    "address_councildis": "B",
    "status": "Pending",
    "rowid": "1078569",
    "final_x": "3679948.12296",
    "final_y": "528079.049279",
    "longitude": "-90.07309009028124",
    "latitude": "29.946081251945472",
    "geocoded_column": {
      "latitude": "29.946081251945472",
      "longitude": "-90.07309009028124"
    }
  },
  {
    "service_request": "2024-1078568",
    "request_type": "Trash/Recycling",
    "request_reason": "Replace Trash Cart",
    "date_created": "2024-03-25T16:46:53.000",
    "date_modified": "2024-03-25T16:46:54.000",
    "request_status": "Pending",
    "responsible_agency": "Department of Sanitation",
    "final_address": "7818 Briarwood Dr",
    "address_councildis": "E",
    "status": "Assigned to Contractor",
    "contractor": "Waste Pro",
    "rowid": "1078568",
    "final_x": "3716778.98962",
    "final_y": "571789.899368",
    "longitude": "-89.95514388399341",
    "latitude": "30.065103798122706",
    "geocoded_column": {
      "latitude": "30.065103798122706",
      "longitude": "-89.95514388399341"
    }
  },
  {
    "service_request": "2024-1078567",
    "request_type": "Trash/Recycling",
    "request_reason": "Request a Large Item Pick Up",
    "date_created": "2024-03-25T16:45:48.000",
    "date_modified": "2024-03-25T16:45:49.000",
    "request_status": "Pending",
    "responsible_agency": "Department of Sanitation",
    "final_address": "4104 Dale St",
    "address_councildis": "E",
    "status": "Assigned to Contractor",
    "contractor": "Waste Pro",
    "rowid": "1078567",
    "final_x": "3699715.35824",
    "final_y": "551763.344533",
    "longitude": "-90.00981481862972",
    "latitude": "30.010591848220372",
    "geocoded_column": {
      "latitude": "30.010591848220372",
      "longitude": "-90.00981481862972"
    }
  },
  {
    "service_request": "2024-1078566",
    "request_type": "Trash/Recycling",
    "request_reason": "Request a Large Item Pick Up",
    "date_created": "2024-03-25T16:44:47.000",
    "date_modified": "2024-03-25T16:44:48.000",
    "request_status": "Pending",
    "responsible_agency": "Department of Sanitation",
    "final_address": "7010 Coventry St",
    "address_councildis": "E",
    "status": "Assigned to Contractor",
    "contractor": "Waste Pro",
    "rowid": "1078566",
    "final_x": "3699147.11831",
    "final_y": "559671.636189",
    "longitude": "-90.01132182844941",
    "latitude": "30.03235466967431",
    "geocoded_column": {
      "latitude": "30.03235466967431",
      "longitude": "-90.01132182844941"
    }
  },
  {
    "service_request": "2024-1078565",
    "request_type": "Property Maintenance",
    "request_reason": "Property Maintenance",
    "date_created": "2024-03-25T16:40:46.000",
    "date_modified": "2024-03-25T16:40:46.000",
    "request_status": "Pending",
    "responsible_agency": "Department of Code Enforcement",
    "final_address": "618 Valence St",
    "address_councildis": "B",
    "status": "Pending",
    "rowid": "1078565",
    "final_x": "3669977.49281",
    "final_y": "517823.957174",
    "longitude": "-90.10491799079445",
    "latitude": "29.918180805530916",
    "geocoded_column": {
      "latitude": "29.918180805530916",
      "longitude": "-90.10491799079445"
    }
  },
  {
    "service_request": "2024-1078564",
    "request_type": "Trash/Recycling",
    "request_reason": "Dead Animal Pick Up",
    "date_created": "2024-03-25T16:37:22.000",
    "date_modified": "2024-03-25T16:37:23.000",
    "request_status": "Pending",
    "responsible_agency": "Department of Sanitation",
    "final_address": "812 Delery St",
    "address_councildis": "E",
    "status": "Assigned to Contractor",
    "contractor": "Waste Pro",
    "rowid": "1078564",
    "final_x": "3700018.99972",
    "final_y": "531987.091651",
    "longitude": "-90.0095773253678",
    "latitude": "29.95620474507909",
    "geocoded_column": {
      "latitude": "29.95620474507909",
      "longitude": "-90.0095773253678"
    }
  },
  {
    "service_request": "2024-1078562",
    "request_type": "Trash/Recycling",
    "request_reason": "Request a Large Item Pick Up",
    "date_created": "2024-03-25T16:35:42.000",
    "date_modified": "2024-03-25T16:35:42.000",
    "request_status": "Pending",
    "responsible_agency": "Department of Sanitation",
    "final_address": "2314 Annette St",
    "address_councildis": "D",
    "status": "Assigned to Contractor",
    "contractor": "IV Waste",
    "rowid": "1078562",
    "final_x": "3682744.40975",
    "final_y": "540707.310219",
    "longitude": "-90.06381951452394",
    "latitude": "29.980719773987953",
    "geocoded_column": {
      "latitude": "29.980719773987953",
      "longitude": "-90.06381951452394"
    }
  },
  {
    "service_request": "2024-1078561",
    "request_type": "Roads/Drainage",
    "request_reason": "Pothole",
    "date_created": "2024-03-25T16:34:08.000",
    "date_modified": "2024-03-25T16:34:08.000",
    "request_status": "Pending",
    "responsible_agency": "Department of Public Works",
    "final_address": "4216 Chestnut St",
    "address_councildis": "B",
    "status": "Pending",
    "rowid": "1078561",
    "final_x": "3671574.31393",
    "final_y": "519539.203703",
    "longitude": "-90.09981939416457",
    "latitude": "29.922850019854593",
    "geocoded_column": {
      "latitude": "29.922850019854593",
      "longitude": "-90.09981939416457"
    }
  },
  {
    "service_request": "2024-1078560",
    "request_type": "Roads/Drainage",
    "request_reason": "Street Flooding / Drainage",
    "date_created": "2024-03-25T16:32:15.000",
    "date_modified": "2024-03-25T16:32:15.000",
    "request_status": "Pending",
    "responsible_agency": "Department of Public Works",
    "final_address": "443 Audubon St",
    "address_councildis": "A",
    "status": "Pending",
    "rowid": "1078560",
    "final_x": "3662394.62656",
    "final_y": "523226.991675",
    "longitude": "-90.12867382168234",
    "latitude": "29.933258814712353",
    "geocoded_column": {
      "latitude": "29.933258814712353",
      "longitude": "-90.12867382168234"
    }
  },
  {
    "service_request": "2024-1078559",
    "request_type": "Trash/Recycling",
    "request_reason": "Order Trash Cart",
    "date_created": "2024-03-25T16:29:23.000",
    "date_modified": "2024-03-25T16:29:24.000",
    "request_status": "Pending",
    "responsible_agency": "Department of Sanitation",
    "final_address": "1939 Bordeaux St",
    "address_councildis": "B",
    "status": "Assigned to Contractor",
    "contractor": "Richards Disposal",
    "rowid": "1078559",
    "final_x": "3669345.04295",
    "final_y": "522119.535418",
    "longitude": "-90.1067691586854",
    "latitude": "29.930010910452438",
    "geocoded_column": {
      "latitude": "29.930010910452438",
      "longitude": "-90.1067691586854"
    }
  },
  {
    "service_request": "2024-1078558",
    "request_type": "Trash/Recycling",
    "request_reason": "Repair Trash Cart",
    "date_created": "2024-03-25T16:24:00.000",
    "date_modified": "2024-03-25T16:24:01.000",
    "request_status": "Pending",
    "responsible_agency": "Department of Sanitation",
    "final_address": "3519 Lancaster St",
    "address_councildis": "C",
    "status": "Assigned to Contractor",
    "contractor": "Richards Disposal",
    "rowid": "1078558",
    "final_x": "3709806.08408",
    "final_y": "517724.33407",
    "longitude": "-89.97920554760717",
    "latitude": "29.916672720337868",
    "geocoded_column": {
      "latitude": "29.916672720337868",
      "longitude": "-89.97920554760717"
    }
  },
  {
    "service_request": "2024-1078557",
    "request_type": "Trash/Recycling",
    "request_reason": "Replace Recycling Cart",
    "date_created": "2024-03-25T16:23:55.000",
    "date_modified": "2024-03-25T16:23:55.000",
    "request_status": "Pending",
    "responsible_agency": "Department of Sanitation",
    "final_address": "4025 Vendome Pl",
    "address_councildis": "B",
    "status": "Pending",
    "rowid": "1078557",
    "final_x": "3668828.6139",
    "final_y": "530050.280577",
    "longitude": "-90.10813174362715",
    "latitude": "29.951833087048655",
    "geocoded_column": {
      "latitude": "29.951833087048655",
      "longitude": "-90.10813174362715"
    }
  },
  {
    "service_request": "2024-1078556",
    "request_type": "Trash/Recycling",
    "request_reason": "Replace Trash Cart",
    "date_created": "2024-03-25T16:22:20.000",
    "date_modified": "2024-03-25T16:22:21.000",
    "request_status": "Pending",
    "responsible_agency": "Department of Sanitation",
    "final_address": "4025 Vendome Pl",
    "address_councildis": "B",
    "status": "Assigned to Contractor",
    "contractor": "Richards Disposal",
    "rowid": "1078556",
    "final_x": "3668828.6139",
    "final_y": "530050.280577",
    "longitude": "-90.10813174362715",
    "latitude": "29.951833087048655",
    "geocoded_column": {
      "latitude": "29.951833087048655",
      "longitude": "-90.10813174362715"
    }
  },
  {
    "service_request": "2024-1078555",
    "request_type": "Trash/Recycling",
    "request_reason": "Request a Large Item Pick Up",
    "date_created": "2024-03-25T16:22:13.000",
    "date_modified": "2024-03-25T16:22:14.000",
    "request_status": "Pending",
    "responsible_agency": "Department of Sanitation",
    "final_address": "4619 Good Dr",
    "address_councildis": "E",
    "status": "Assigned to Contractor",
    "contractor": "Waste Pro",
    "rowid": "1078555",
    "final_x": "3714922.49074",
    "final_y": "556145.55977",
    "longitude": "-89.96160444302741",
    "latitude": "30.022149472938764",
    "geocoded_column": {
      "latitude": "30.022149472938764",
      "longitude": "-89.96160444302741"
    }
  },
  {
    "service_request": "2024-1078554",
    "request_type": "Trash/Recycling",
    "request_reason": "Request a Large Item Pick Up",
    "date_created": "2024-03-25T16:21:13.000",
    "date_modified": "2024-03-25T16:21:13.000",
    "request_status": "Pending",
    "responsible_agency": "Department of Sanitation",
    "final_address": "4624 Annunciation St",
    "address_councildis": "B",
    "status": "Assigned to Contractor",
    "contractor": "Richards Disposal",
    "rowid": "1078554",
    "final_x": "3670197.64558",
    "final_y": "517620.651574",
    "longitude": "-90.10422996916266",
    "latitude": "29.917615287790653",
    "geocoded_column": {
      "latitude": "29.917615287790653",
      "longitude": "-90.10422996916266"
    }
  },
  {
    "service_request": "2024-1078553",
    "request_type": "Trash/Recycling",
    "request_reason": "Return Trash Cart",
    "date_created": "2024-03-25T16:20:03.000",
    "date_modified": "2024-03-25T16:20:04.000",
    "request_status": "Pending",
    "responsible_agency": "Department of Sanitation",
    "final_address": "3521 Chartres St",
    "address_councildis": "C",
    "status": "Assigned to Contractor",
    "contractor": "IV Waste",
    "rowid": "1078553",
    "final_x": "3690226.41366",
    "final_y": "533768.511045",
    "longitude": "-90.04043543074351",
    "latitude": "29.961410466933042",
    "geocoded_column": {
      "latitude": "29.961410466933042",
      "longitude": "-90.04043543074351"
    }
  },
  {
    "service_request": "2024-1078552",
    "request_type": "Property Maintenance",
    "request_reason": "Property Maintenance",
    "date_created": "2024-03-25T16:20:02.000",
    "date_modified": "2024-03-25T16:20:03.000",
    "request_status": "Pending",
    "responsible_agency": "Department of Code Enforcement",
    "final_address": "4901 Lafon Dr",
    "address_councildis": "E",
    "status": "Pending",
    "rowid": "1078552",
    "final_x": "3701159.0225",
    "final_y": "555024.419417",
    "longitude": "-90.00513433318856",
    "latitude": "30.01951263426028",
    "geocoded_column": {
      "latitude": "30.01951263426028",
      "longitude": "-90.00513433318856"
    }
  },
  {
    "service_request": "2024-1078551",
    "request_type": "Trash/Recycling",
    "request_reason": "Return Trash Cart",
    "date_created": "2024-03-25T16:19:04.000",
    "date_modified": "2024-03-25T16:19:05.000",
    "request_status": "Pending",
    "responsible_agency": "Department of Sanitation",
    "final_address": "3517 Chartres St",
    "address_councildis": "C",
    "status": "Assigned to Contractor",
    "contractor": "IV Waste",
    "rowid": "1078551",
    "final_x": "3690194.75056",
    "final_y": "533774.886021",
    "longitude": "-90.04053518987128",
    "latitude": "29.961428978219214",
    "geocoded_column": {
      "latitude": "29.961428978219214",
      "longitude": "-90.04053518987128"
    }
  },
  {
    "service_request": "2024-1078550",
    "request_type": "Trash/Recycling",
    "request_reason": "Return Trash Cart",
    "date_created": "2024-03-25T16:18:32.000",
    "date_modified": "2024-03-25T16:18:32.000",
    "request_status": "Pending",
    "responsible_agency": "Department of Sanitation",
    "final_address": "3513 Chartres St",
    "address_councildis": "C",
    "status": "Assigned to Contractor",
    "contractor": "IV Waste",
    "rowid": "1078550",
    "final_x": "3690165.487",
    "final_y": "533782.625349",
    "longitude": "-90.04062732312038",
    "latitude": "29.961451166486295",
    "geocoded_column": {
      "latitude": "29.961451166486295",
      "longitude": "-90.04062732312038"
    }
  },
  {
    "service_request": "2024-1078549",
    "request_type": "Trash/Recycling",
    "request_reason": "Request a Large Item Pick Up",
    "date_created": "2024-03-25T16:16:47.000",
    "date_modified": "2024-03-25T18:41:40.000",
    "case_close_date": "2024-03-25T13:41:40.000",
    "request_status": "Closed",
    "responsible_agency": "Department of Sanitation",
    "final_address": "7900 Vanderkloot Ave",
    "address_councildis": "E",
    "status": "Assigned to Contractor",
    "contractor": "Waste Pro",
    "contractor_action": "Completed",
    "rowid": "1078549",
    "final_x": "3705408.94718",
    "final_y": "563870.539809",
    "longitude": "-89.99137875220627",
    "latitude": "30.04369986418594",
    "geocoded_column": {
      "latitude": "30.04369986418594",
      "longitude": "-89.99137875220627"
    }
  },
  {
    "service_request": "2024-1078548",
    "request_type": "Trash/Recycling",
    "request_reason": "MIssed Recycling Pick-Up",
    "date_created": "2024-03-25T16:16:31.000",
    "date_modified": "2024-03-25T16:16:31.000",
    "request_status": "Pending",
    "responsible_agency": "Department of Sanitation",
    "final_address": "7680 Vincent Rd",
    "address_councildis": "E",
    "status": "Assigned to Contractor",
    "contractor": "Waste Pro",
    "rowid": "1078548",
    "final_x": "3718262.38277",
    "final_y": "571717.571304",
    "longitude": "-89.95045752989452",
    "latitude": "30.0648557845783",
    "geocoded_column": {
      "latitude": "30.0648557845783",
      "longitude": "-89.95045752989452"
    }
  },
  {
    "service_request": "2024-1078547",
    "request_type": "Trash/Recycling",
    "request_reason": "Return Recycling Cart",
    "date_created": "2024-03-25T16:15:37.000",
    "date_modified": "2024-03-25T16:15:38.000",
    "request_status": "Pending",
    "responsible_agency": "Department of Sanitation",
    "final_address": "2563 Prancer St",
    "address_councildis": "C",
    "status": "Pending",
    "contractor": "Richards Disposal",
    "rowid": "1078547",
    "final_x": "3699547.21885",
    "final_y": "521487.262073",
    "longitude": "-90.01144952724401",
    "latitude": "29.927348860238357",
    "geocoded_column": {
      "latitude": "29.927348860238357",
      "longitude": "-90.01144952724401"
    }
  },
  {
    "service_request": "2024-1078546",
    "request_type": "Traffic Signals/Signs/Striping/Streetlights",
    "request_reason": "Traffic Sign Missing/Damaged",
    "date_created": "2024-03-25T16:15:07.000",
    "date_modified": "2024-03-25T16:15:07.000",
    "request_status": "Pending",
    "responsible_agency": "Department of Public Works",
    "final_address": "501 Hagan St",
    "address_councildis": "A",
    "status": "Pending",
    "rowid": "1078546",
    "final_x": "3674211.71464",
    "final_y": "537920.994377",
    "longitude": "-90.09086497130755",
    "latitude": "29.973315540500188",
    "geocoded_column": {
      "latitude": "29.973315540500188",
      "longitude": "-90.09086497130755"
    }
  },
  {
    "service_request": "2024-1078545",
    "request_type": "Trash/Recycling",
    "request_reason": "Repair Trash Cart",
    "date_created": "2024-03-25T16:15:06.000",
    "date_modified": "2024-03-25T16:15:06.000",
    "request_status": "Pending",
    "responsible_agency": "Department of Sanitation",
    "final_address": "2563 Prancer St",
    "address_councildis": "C",
    "status": "Assigned to Contractor",
    "contractor": "Richards Disposal",
    "rowid": "1078545",
    "final_x": "3699547.21885",
    "final_y": "521487.262073",
    "longitude": "-90.01144952724401",
    "latitude": "29.927348860238357",
    "geocoded_column": {
      "latitude": "29.927348860238357",
      "longitude": "-90.01144952724401"
    }
  },
  {
    "service_request": "2024-1078544",
    "request_type": "Trash/Recycling",
    "request_reason": "Request a Large Item Pick Up",
    "date_created": "2024-03-25T16:14:53.000",
    "date_modified": "2024-03-25T16:14:54.000",
    "request_status": "Pending",
    "responsible_agency": "Department of Sanitation",
    "final_address": "4945 Perelli Dr",
    "address_councildis": "E",
    "status": "Assigned to Contractor",
    "contractor": "Waste Pro",
    "rowid": "1078544",
    "final_x": "3711659.77541",
    "final_y": "557426.634139",
    "longitude": "-89.97186560731012",
    "latitude": "30.02577891789293",
    "geocoded_column": {
      "latitude": "30.02577891789293",
      "longitude": "-89.97186560731012"
    }
  },
  {
    "service_request": "2024-1078543",
    "request_type": "Trash/Recycling",
    "request_reason": "MIssed Recycling Pick-Up",
    "date_created": "2024-03-25T16:14:17.000",
    "date_modified": "2024-03-25T16:14:18.000",
    "request_status": "Pending",
    "responsible_agency": "Department of Sanitation",
    "final_address": "5353 Berkley Dr",
    "address_councildis": "C",
    "status": "Assigned to Contractor",
    "contractor": "Richards Disposal",
    "rowid": "1078543",
    "final_x": "3703732.32567",
    "final_y": "518105.796598",
    "longitude": "-89.99836265705274",
    "latitude": "29.91791758037602",
    "geocoded_column": {
      "latitude": "29.91791758037602",
      "longitude": "-89.99836265705274"
    }
  },
  {
    "service_request": "2024-1078542",
    "request_type": "Trash/Recycling",
    "request_reason": "Repair Trash Cart",
    "date_created": "2024-03-25T16:12:49.000",
    "date_modified": "2024-03-25T16:12:50.000",
    "request_status": "Pending",
    "responsible_agency": "Department of Sanitation",
    "final_address": "8940 Dinkins St",
    "address_councildis": "E",
    "status": "Assigned to Contractor",
    "contractor": "Waste Pro",
    "rowid": "1078542",
    "final_x": "3704974.34142",
    "final_y": "563510.856352",
    "longitude": "-89.99276558298887",
    "latitude": "30.04272486530057",
    "geocoded_column": {
      "latitude": "30.04272486530057",
      "longitude": "-89.99276558298887"
    }
  },
  {
    "service_request": "2024-1078541",
    "request_type": "Roads/Drainage",
    "request_reason": "Pothole",
    "date_created": "2024-03-25T16:11:55.000",
    "date_modified": "2024-03-25T16:11:55.000",
    "request_status": "Pending",
    "responsible_agency": "Department of Public Works",
    "final_address": "1301 Constantinople St",
    "address_councildis": "B",
    "status": "Pending",
    "rowid": "1078541",
    "final_x": "3672430.66305",
    "final_y": "520250.7726",
    "longitude": "-90.09709199725775",
    "latitude": "29.924781230435865",
    "geocoded_column": {
      "latitude": "29.924781230435865",
      "longitude": "-90.09709199725775"
    }
  },
  {
    "service_request": "2024-1078540",
    "request_type": "Trash/Recycling",
    "request_reason": "Order Recycling Cart",
    "date_created": "2024-03-25T16:09:11.000",
    "date_modified": "2024-03-25T16:09:11.000",
    "request_status": "Pending",
    "responsible_agency": "Department of Sanitation",
    "final_address": "8932 Hickory St",
    "address_councildis": "A",
    "status": "Pending",
    "rowid": "1078540",
    "final_x": "3661094.76006",
    "final_y": "531950.981315",
    "longitude": "-90.13248880755904",
    "latitude": "29.957284519629106",
    "geocoded_column": {
      "latitude": "29.957284519629106",
      "longitude": "-90.13248880755904"
    }
  },
  {
    "service_request": "2024-1078538",
    "request_type": "Trash/Recycling",
    "request_reason": "Repair Trash Cart",
    "date_created": "2024-03-25T16:03:18.000",
    "date_modified": "2024-03-25T16:03:18.000",
    "request_status": "Pending",
    "responsible_agency": "Department of Sanitation",
    "final_address": "533 Delaronde St",
    "address_councildis": "C",
    "status": "Assigned to Contractor",
    "contractor": "Richards Disposal",
    "rowid": "1078538",
    "final_x": "3687106.69826",
    "final_y": "531140.557698",
    "longitude": "-90.05037984517898",
    "latitude": "29.95428092312144",
    "geocoded_column": {
      "latitude": "29.95428092312144",
      "longitude": "-90.05037984517898"
    }
  },
  {
    "service_request": "2024-1078537",
    "request_type": "Trash/Recycling",
    "request_reason": "Repair Trash Cart",
    "date_created": "2024-03-25T16:02:28.000",
    "date_modified": "2024-03-25T16:02:29.000",
    "request_status": "Pending",
    "responsible_agency": "Department of Sanitation",
    "final_address": "4801 Nottingham Dr",
    "address_councildis": "E",
    "status": "Assigned to Contractor",
    "contractor": "Waste Pro",
    "rowid": "1078537",
    "final_x": "3716450.60613",
    "final_y": "557126.927962",
    "longitude": "-89.95673878366814",
    "latitude": "30.024797456050667",
    "geocoded_column": {
      "latitude": "30.024797456050667",
      "longitude": "-89.95673878366814"
    }
  },
  {
    "service_request": "2024-1078536",
    "request_type": "Trash/Recycling",
    "request_reason": "Request a Large Item Pick Up",
    "date_created": "2024-03-25T16:00:32.000",
    "date_modified": "2024-03-25T16:00:32.000",
    "request_status": "Pending",
    "responsible_agency": "Department of Sanitation",
    "final_address": "5451 Patio Way",
    "address_councildis": "E",
    "status": "Assigned to Contractor",
    "contractor": "Waste Pro",
    "rowid": "1078536",
    "final_x": "3725545.41196",
    "final_y": "564105.002081",
    "longitude": "-89.92773065183195",
    "latitude": "30.043680724178113",
    "geocoded_column": {
      "latitude": "30.043680724178113",
      "longitude": "-89.92773065183195"
    }
  },
  {
    "service_request": "2024-1078534",
    "request_type": "Abandoned Vehicles",
    "request_reason": "Abandoned/Junk Vehicles",
    "date_created": "2024-03-25T15:57:37.000",
    "date_modified": "2024-03-25T15:57:37.000",
    "request_status": "Pending",
    "responsible_agency": "Department of Public Works",
    "final_address": "8200 Earhart Blvd, New Orleans, Louisiana, 70118",
    "address_councildis": "A",
    "status": "Pending",
    "rowid": "1078534",
    "final_x": "3666044.51181",
    "final_y": "533697.840965",
    "longitude": "-90.1168003688615",
    "latitude": "29.961944247541307",
    "geocoded_column": {
      "latitude": "29.961944247541307",
      "longitude": "-90.1168003688615"
    }
  },
  {
    "service_request": "2024-1078533",
    "request_type": "Trash/Recycling",
    "request_reason": "Replace Trash Cart",
    "date_created": "2024-03-25T15:54:34.000",
    "date_modified": "2024-03-25T15:54:35.000",
    "request_status": "Pending",
    "responsible_agency": "Department of Sanitation",
    "final_address": "1817 N Tonti St B",
    "address_councildis": "D",
    "status": "Assigned to Contractor",
    "contractor": "IV Waste",
    "rowid": "1078533",
    "final_x": "3681402.02037",
    "final_y": "540521.945675",
    "longitude": "-90.06806583045852",
    "latitude": "29.98025091280314",
    "geocoded_column": {
      "latitude": "29.98025091280314",
      "longitude": "-90.06806583045852"
    }
  },
  {
    "service_request": "2024-1078532",
    "request_type": "Trash/Recycling",
    "request_reason": "Request a Large Item Pick Up",
    "date_created": "2024-03-25T15:54:26.000",
    "date_modified": "2024-03-25T15:54:26.000",
    "request_status": "Pending",
    "responsible_agency": "Department of Sanitation",
    "final_address": "7918 Spruce St",
    "address_councildis": "A",
    "status": "Assigned to Contractor",
    "contractor": "Richards Disposal",
    "rowid": "1078532",
    "final_x": "3664285.813",
    "final_y": "529999.387073",
    "longitude": "-90.1224775083034",
    "latitude": "29.951825927884688",
    "geocoded_column": {
      "latitude": "29.951825927884688",
      "longitude": "-90.1224775083034"
    }
  },
  {
    "service_request": "2024-1078531",
    "request_type": "Property Maintenance",
    "request_reason": "Property Maintenance",
    "date_created": "2024-03-25T15:46:23.000",
    "date_modified": "2024-03-25T15:46:23.000",
    "request_status": "Pending",
    "responsible_agency": "Department of Code Enforcement",
    "final_address": "2400 Magazine St",
    "address_councildis": "B",
    "status": "Pending",
    "rowid": "1078531",
    "final_x": "3678071.20245",
    "final_y": "521434.307385",
    "longitude": "-90.07924578920101",
    "latitude": "29.927867028146228",
    "geocoded_column": {
      "latitude": "29.927867028146228",
      "longitude": "-90.07924578920101"
    }
  },
  {
    "service_request": "2024-1078530",
    "request_type": "Property Maintenance",
    "request_reason": "Property Maintenance",
    "date_created": "2024-03-25T15:45:27.000",
    "date_modified": "2024-03-25T15:45:27.000",
    "request_status": "Pending",
    "responsible_agency": "Department of Code Enforcement",
    "final_address": "2542 Elder St",
    "address_councildis": "D",
    "status": "Pending",
    "rowid": "1078530",
    "final_x": "3686968.01167",
    "final_y": "545722.828496",
    "longitude": "-90.0503021821616",
    "latitude": "29.99438131676578",
    "geocoded_column": {
      "latitude": "29.99438131676578",
      "longitude": "-90.0503021821616"
    }
  },
  {
    "service_request": "2024-1078529",
    "request_type": "Abandoned Vehicles",
    "request_reason": "Abandoned/Junk Vehicles",
    "date_created": "2024-03-25T15:45:24.000",
    "date_modified": "2024-03-25T15:45:24.000",
    "request_status": "Pending",
    "responsible_agency": "Department of Public Works",
    "final_address": "2124 DAbadie St",
    "address_councildis": "D",
    "status": "Pending",
    "rowid": "1078529",
    "final_x": "3681011.55419",
    "final_y": "539566.018634",
    "longitude": "-90.06933239297534",
    "latitude": "29.977634295710686",
    "geocoded_column": {
      "latitude": "29.977634295710686",
      "longitude": "-90.06933239297534"
    }
  },
  {
    "service_request": "2024-1078528",
    "request_type": "Trash/Recycling",
    "request_reason": "Request a Large Item Pick Up",
    "date_created": "2024-03-25T15:41:09.000",
    "date_modified": "2024-03-25T15:41:09.000",
    "request_status": "Pending",
    "responsible_agency": "Department of Sanitation",
    "final_address": "1816 Wilton Dr",
    "address_councildis": "D",
    "status": "Assigned to Contractor",
    "contractor": "IV Waste",
    "rowid": "1078528",
    "final_x": "3681308.97928",
    "final_y": "550818.718741",
    "longitude": "-90.06800056315733",
    "latitude": "30.008566213147578",
    "geocoded_column": {
      "latitude": "30.008566213147578",
      "longitude": "-90.06800056315733"
    }
  },
  {
    "service_request": "2024-1078527",
    "request_type": "Roads/Drainage",
    "request_reason": "Pothole",
    "date_created": "2024-03-25T15:36:55.000",
    "date_modified": "2024-03-25T15:36:55.000",
    "request_status": "Pending",
    "responsible_agency": "Department of Public Works",
    "final_address": "1312 Milan St",
    "address_councildis": "B",
    "status": "Pending",
    "rowid": "1078527",
    "final_x": "3671625.82823",
    "final_y": "520286.919608",
    "longitude": "-90.09963137110304",
    "latitude": "29.92490447494246",
    "geocoded_column": {
      "latitude": "29.92490447494246",
      "longitude": "-90.09963137110304"
    }
  },
  {
    "service_request": "2024-1078526",
    "request_type": "Trash/Recycling",
    "request_reason": "Return Trash Cart",
    "date_created": "2024-03-25T15:36:13.000",
    "date_modified": "2024-03-25T15:36:14.000",
    "request_status": "Pending",
    "responsible_agency": "Department of Sanitation",
    "final_address": "901 Elmira Ave",
    "address_councildis": "C",
    "status": "Assigned to Contractor",
    "contractor": "Richards Disposal",
    "rowid": "1078526",
    "final_x": "3688097.99241",
    "final_y": "528291.881216",
    "longitude": "-90.04735069289032",
    "latitude": "29.946417482888286",
    "geocoded_column": {
      "latitude": "29.946417482888286",
      "longitude": "-90.04735069289032"
    }
  },
  {
    "service_request": "2024-1078525",
    "request_type": "Property Maintenance",
    "request_reason": "Property Maintenance",
    "date_created": "2024-03-25T15:36:03.000",
    "date_modified": "2024-03-25T15:36:03.000",
    "request_status": "Pending",
    "responsible_agency": "Department of Code Enforcement",
    "final_address": "2546 Elder St",
    "address_councildis": "D",
    "status": "Pending",
    "rowid": "1078525",
    "final_x": "3687000.30985",
    "final_y": "545725.637264",
    "longitude": "-90.05020005727188",
    "latitude": "29.994388045414",
    "geocoded_column": {
      "latitude": "29.994388045414",
      "longitude": "-90.05020005727188"
    }
  },
  {
    "service_request": "2024-1078524",
    "request_type": "Trash/Recycling",
    "request_reason": "Request a Large Item Pick Up",
    "date_created": "2024-03-25T15:35:43.000",
    "date_modified": "2024-03-25T15:35:44.000",
    "request_status": "Pending",
    "responsible_agency": "Department of Sanitation",
    "final_address": "820 N Robertson St",
    "address_councildis": "C",
    "status": "Assigned to Contractor",
    "contractor": "Richards Disposal",
    "rowid": "1078524",
    "final_x": "3680457.03471",
    "final_y": "534730.252742",
    "longitude": "-90.0712519774718",
    "latitude": "29.964354412307728",
    "geocoded_column": {
      "latitude": "29.964354412307728",
      "longitude": "-90.0712519774718"
    }
  },
  {
    "service_request": "2024-1078523",
    "request_type": "Trash/Recycling",
    "request_reason": "Repair Trash Cart",
    "date_created": "2024-03-25T15:30:33.000",
    "date_modified": "2024-03-25T15:30:33.000",
    "request_status": "Pending",
    "responsible_agency": "Department of Sanitation",
    "final_address": "633 LeeS Ln",
    "address_councildis": "C",
    "status": "Assigned to Contractor",
    "contractor": "Richards Disposal",
    "rowid": "1078523",
    "final_x": "3697392.89815",
    "final_y": "525277.320125",
    "longitude": "-90.01811281165709",
    "latitude": "29.93783837754157",
    "geocoded_column": {
      "latitude": "29.93783837754157",
      "longitude": "-90.01811281165709"
    }
  },
  {
    "service_request": "2024-1078522",
    "request_type": "Abandoned Vehicles",
    "request_reason": "Abandoned/Junk Vehicles",
    "date_created": "2024-03-25T15:30:23.000",
    "date_modified": "2024-03-25T15:30:24.000",
    "request_status": "Pending",
    "responsible_agency": "Department of Public Works",
    "final_address": "7902 Dorsett Dr",
    "address_councildis": "E",
    "status": "Pending",
    "rowid": "1078522",
    "final_x": "3712266.0316",
    "final_y": "568143.982757",
    "longitude": "-89.96954687301232",
    "latitude": "30.055227502857853",
    "geocoded_column": {
      "latitude": "30.055227502857853",
      "longitude": "-89.96954687301232"
    }
  },
  {
    "service_request": "2024-1078521",
    "request_type": "Trash/Recycling",
    "request_reason": "Request a Large Item Pick Up",
    "date_created": "2024-03-25T15:29:05.000",
    "date_modified": "2024-03-25T15:29:06.000",
    "request_status": "Pending",
    "responsible_agency": "Department of Sanitation",
    "final_address": "419 Bouny St",
    "address_councildis": "C",
    "status": "Assigned to Contractor",
    "contractor": "Richards Disposal",
    "rowid": "1078521",
    "final_x": "3685970.4157",
    "final_y": "529879.797377",
    "longitude": "-90.05401221252158",
    "latitude": "29.950849196778595",
    "geocoded_column": {
      "latitude": "29.950849196778595",
      "longitude": "-90.05401221252158"
    }
  },
  {
    "service_request": "2024-1078520",
    "request_type": "Trash/Recycling",
    "request_reason": "Request a Large Item Pick Up",
    "date_created": "2024-03-25T15:27:23.000",
    "date_modified": "2024-03-25T15:27:24.000",
    "request_status": "Pending",
    "responsible_agency": "Department of Sanitation",
    "final_address": "632 Tupelo St",
    "address_councildis": "E",
    "status": "Assigned to Contractor",
    "contractor": "Waste Pro",
    "rowid": "1078520",
    "final_x": "3698849.24816",
    "final_y": "531819.655299",
    "longitude": "-90.01327707423815",
    "latitude": "29.955781460867378",
    "geocoded_column": {
      "latitude": "29.955781460867378",
      "longitude": "-90.01327707423815"
    }
  },
  {
    "service_request": "2024-1078519",
    "request_type": "Trash/Recycling",
    "request_reason": "Replace Recycling Cart",
    "date_created": "2024-03-25T15:26:12.000",
    "date_modified": "2024-03-25T15:26:12.000",
    "request_status": "Pending",
    "responsible_agency": "Department of Sanitation",
    "final_address": "3601 Rue Mignon",
    "address_councildis": "C",
    "status": "Pending",
    "rowid": "1078519",
    "final_x": "3703264.0417",
    "final_y": "517408.430453",
    "longitude": "-89.99986637787691",
    "latitude": "29.91601505640425",
    "geocoded_column": {
      "latitude": "29.91601505640425",
      "longitude": "-89.99986637787691"
    }
  },
  {
    "service_request": "2024-1078518",
    "request_type": "Trash/Recycling",
    "request_reason": "Request a Large Item Pick Up",
    "date_created": "2024-03-25T15:26:10.000",
    "date_modified": "2024-03-25T15:26:10.000",
    "request_status": "Pending",
    "responsible_agency": "Department of Sanitation",
    "final_address": "7432 Primrose Dr",
    "address_councildis": "E",
    "status": "Assigned to Contractor",
    "contractor": "Waste Pro",
    "rowid": "1078518",
    "final_x": "3701861.1274",
    "final_y": "560751.535198",
    "longitude": "-90.00270579143219",
    "latitude": "30.03523759387902",
    "geocoded_column": {
      "latitude": "30.03523759387902",
      "longitude": "-90.00270579143219"
    }
  },
  {
    "service_request": "2024-1078517",
    "request_type": "Traffic Signals/Signs/Striping/Streetlights",
    "request_reason": "Request for Traffic Calming due to Speeding",
    "date_created": "2024-03-25T15:25:28.000",
    "date_modified": "2024-03-25T15:25:28.000",
    "request_status": "Pending",
    "responsible_agency": "Department of Public Works",
    "final_address": "CLEMATIS AVE & ELDER ST",
    "address_councildis": "D",
    "status": "Pending",
    "rowid": "1078517",
    "final_x": "3686581.7",
    "final_y": "545718.68",
    "longitude": "-90.05152263464868",
    "latitude": "29.99438179822363",
    "geocoded_column": {
      "latitude": "29.99438179822363",
      "longitude": "-90.05152263464868"
    }
  },
  {
    "service_request": "2024-1078516",
    "request_type": "Trash/Recycling",
    "request_reason": "Replace Trash Cart",
    "date_created": "2024-03-25T15:25:19.000",
    "date_modified": "2024-03-25T15:25:20.000",
    "request_status": "Pending",
    "responsible_agency": "Department of Sanitation",
    "final_address": "3601 Rue Mignon",
    "address_councildis": "C",
    "status": "Assigned to Contractor",
    "contractor": "Richards Disposal",
    "rowid": "1078516",
    "final_x": "3703264.0417",
    "final_y": "517408.430453",
    "longitude": "-89.99986637787691",
    "latitude": "29.91601505640425",
    "geocoded_column": {
      "latitude": "29.91601505640425",
      "longitude": "-89.99986637787691"
    }
  },
  {
    "service_request": "2024-1078515",
    "request_type": "Roads/Drainage",
    "request_reason": "Catch Basin - Clogged",
    "date_created": "2024-03-25T15:23:19.000",
    "date_modified": "2024-03-25T15:23:19.000",
    "request_status": "Pending",
    "responsible_agency": "Department of Public Works",
    "final_address": "2451 Law St",
    "address_councildis": "D",
    "status": "Pending",
    "rowid": "1078515",
    "final_x": "3685730.17545",
    "final_y": "541981.861836",
    "longitude": "-90.05434424311846",
    "latitude": "29.98413304365652",
    "geocoded_column": {
      "latitude": "29.98413304365652",
      "longitude": "-90.05434424311846"
    }
  },
  {
    "service_request": "2024-1078514",
    "request_type": "Trash/Recycling",
    "request_reason": "Request a Large Item Pick Up",
    "date_created": "2024-03-25T15:23:09.000",
    "date_modified": "2024-03-25T15:23:10.000",
    "request_status": "Pending",
    "responsible_agency": "Department of Sanitation",
    "final_address": "7070 Queensway Dr",
    "address_councildis": "E",
    "status": "Assigned to Contractor",
    "contractor": "Waste Pro",
    "rowid": "1078514",
    "final_x": "3719056.67621",
    "final_y": "569556.520102",
    "longitude": "-89.94802930670895",
    "latitude": "30.0588874143819",
    "geocoded_column": {
      "latitude": "30.0588874143819",
      "longitude": "-89.94802930670895"
    }
  },
  {
    "service_request": "2024-1078512",
    "request_type": "Trash/Recycling",
    "request_reason": "Change Size of Trash Cart",
    "date_created": "2024-03-25T15:17:10.000",
    "date_modified": "2024-03-25T15:17:11.000",
    "request_status": "Pending",
    "responsible_agency": "Department of Sanitation",
    "final_address": "2921 Bell St",
    "address_councildis": "A",
    "status": "Assigned to Contractor",
    "contractor": "Richards Disposal",
    "rowid": "1078512",
    "final_x": "3676813.13557",
    "final_y": "539291.775754",
    "longitude": "-90.08260189276184",
    "latitude": "29.9770069006167",
    "geocoded_column": {
      "latitude": "29.9770069006167",
      "longitude": "-90.08260189276184"
    }
  },
  {
    "service_request": "2024-1078511",
    "request_type": "Trash/Recycling",
    "request_reason": "Start Trash Service",
    "date_created": "2024-03-25T15:11:17.000",
    "date_modified": "2024-03-25T15:11:18.000",
    "request_status": "Pending",
    "responsible_agency": "Department of Sanitation",
    "final_address": "937 Dumaine St",
    "address_councildis": "C",
    "status": "Assigned to Contractor",
    "contractor": "Empire Services",
    "rowid": "1078511",
    "final_x": "3682220.21237",
    "final_y": "533687.028549",
    "longitude": "-90.06572045342313",
    "latitude": "29.96143238571324",
    "geocoded_column": {
      "latitude": "29.96143238571324",
      "longitude": "-90.06572045342313"
    }
  },
  {
    "service_request": "2024-1078510",
    "request_type": "Trash/Recycling",
    "request_reason": "Repair Trash Cart",
    "date_created": "2024-03-25T15:08:47.000",
    "date_modified": "2024-03-25T15:08:47.000",
    "request_status": "Pending",
    "responsible_agency": "Department of Sanitation",
    "final_address": "2713 Hamilton St",
    "address_councildis": "A",
    "status": "Assigned to Contractor",
    "contractor": "Richards Disposal",
    "rowid": "1078510",
    "final_x": "3663089.57479",
    "final_y": "534805.094278",
    "longitude": "-90.12609480447685",
    "latitude": "29.965074764695462",
    "geocoded_column": {
      "latitude": "29.965074764695462",
      "longitude": "-90.12609480447685"
    }
  },
  {
    "service_request": "2024-1078509",
    "request_type": "Trash/Recycling",
    "request_reason": "Request a Large Item Pick Up",
    "date_created": "2024-03-25T14:59:23.000",
    "date_modified": "2024-03-25T14:59:23.000",
    "request_status": "Pending",
    "responsible_agency": "Department of Sanitation",
    "final_address": "5650 Clements Dr",
    "address_councildis": "E",
    "status": "Assigned to Contractor",
    "contractor": "Waste Pro",
    "rowid": "1078509",
    "final_x": "3702469.66884",
    "final_y": "556458.751578",
    "longitude": "-90.00094045906576",
    "latitude": "30.023414658185505",
    "geocoded_column": {
      "latitude": "30.023414658185505",
      "longitude": "-90.00094045906576"
    }
  },
  {
    "service_request": "2024-1078508",
    "request_type": "Trash/Recycling",
    "request_reason": "Request a Large Item Pick Up",
    "date_created": "2024-03-25T14:58:57.000",
    "date_modified": "2024-03-25T14:58:57.000",
    "request_status": "Pending",
    "responsible_agency": "Department of Sanitation",
    "final_address": "4734 Iberville St",
    "address_councildis": "A",
    "status": "Assigned to Contractor",
    "contractor": "Richards Disposal",
    "rowid": "1078508",
    "final_x": "3669119.85927",
    "final_y": "540297.932299",
    "longitude": "-90.10686578607678",
    "latitude": "29.980002151224955",
    "geocoded_column": {
      "latitude": "29.980002151224955",
      "longitude": "-90.10686578607678"
    }
  },
  {
    "service_request": "2024-1078507",
    "request_type": "Trash/Recycling",
    "request_reason": "Repair Recycling Cart",
    "date_created": "2024-03-25T14:58:50.000",
    "date_modified": "2024-03-25T15:00:55.000",
    "case_close_date": "2023-07-18T19:00:00.000",
    "request_status": "Pending",
    "responsible_agency": "Department of Sanitation",
    "final_address": "7549 Stonewood St",
    "address_councildis": "E",
    "status": "Pending",
    "rowid": "1078507",
    "final_x": "3719882.24089",
    "final_y": "572296.568681",
    "longitude": "-89.9453148853402",
    "latitude": "30.066393931168577",
    "geocoded_column": {
      "latitude": "30.066393931168577",
      "longitude": "-89.9453148853402"
    }
  },
  {
    "service_request": "2024-1078506",
    "request_type": "Roads/Drainage",
    "request_reason": "Pothole",
    "date_created": "2024-03-25T14:58:18.000",
    "date_modified": "2024-03-25T14:58:18.000",
    "request_status": "Pending",
    "responsible_agency": "Department of Public Works",
    "final_address": "1301 Constantinople St",
    "address_councildis": "B",
    "status": "Pending",
    "rowid": "1078506",
    "final_x": "3672430.66305",
    "final_y": "520250.7726",
    "longitude": "-90.09709199725775",
    "latitude": "29.924781230435865",
    "geocoded_column": {
      "latitude": "29.924781230435865",
      "longitude": "-90.09709199725775"
    }
  },
  {
    "service_request": "2024-1078505",
    "request_type": "Trash/Recycling",
    "request_reason": "Repair Trash Cart",
    "date_created": "2024-03-25T14:58:01.000",
    "date_modified": "2024-03-25T14:58:01.000",
    "request_status": "Pending",
    "responsible_agency": "Department of Sanitation",
    "final_address": "835 Reynes St Apt 1A",
    "address_councildis": "E",
    "status": "Assigned to Contractor",
    "contractor": "Waste Pro",
    "rowid": "1078505",
    "final_x": "3695759.49885",
    "final_y": "533308.77082",
    "longitude": "-90.02297959599362",
    "latitude": "29.95997351708677",
    "geocoded_column": {
      "latitude": "29.95997351708677",
      "longitude": "-90.02297959599362"
    }
  },
  {
    "service_request": "2024-1078504",
    "request_type": "Trash/Recycling",
    "request_reason": "Order Recycling Cart",
    "date_created": "2024-03-25T14:57:46.000",
    "date_modified": "2024-03-25T14:57:47.000",
    "request_status": "Pending",
    "responsible_agency": "Department of Sanitation",
    "final_address": "835 Reynes St Apt 1A",
    "address_councildis": "E",
    "status": "Pending",
    "rowid": "1078504",
    "final_x": "3695759.49885",
    "final_y": "533308.77082",
    "longitude": "-90.02297959599362",
    "latitude": "29.95997351708677",
    "geocoded_column": {
      "latitude": "29.95997351708677",
      "longitude": "-90.02297959599362"
    }
  },
  {
    "service_request": "2024-1078503",
    "request_type": "Trash/Recycling",
    "request_reason": "Illegal Dumping",
    "date_created": "2024-03-25T14:55:52.000",
    "date_modified": "2024-03-25T15:04:50.000",
    "request_status": "Pending",
    "responsible_agency": "Department of Code Enforcement",
    "final_address": "1800 BLK Gordon St",
    "address_councildis": "E",
    "status": "Pending",
    "rowid": "1078503",
    "final_x": "3700233.33998",
    "final_y": "536109.380325",
    "longitude": "-90.00875004274405",
    "latitude": "29.967532754382106",
    "geocoded_column": {
      "latitude": "29.967532754382106",
      "longitude": "-90.00875004274405"
    }
  },
  {
    "service_request": "2024-1078502",
    "request_type": "Trash/Recycling",
    "request_reason": "MIssed Recycling Pick-Up",
    "date_created": "2024-03-25T14:55:35.000",
    "date_modified": "2024-03-25T14:55:36.000",
    "request_status": "Pending",
    "responsible_agency": "Department of Sanitation",
    "final_address": "4419 Knight Dr",
    "address_councildis": "E",
    "status": "Assigned to Contractor",
    "contractor": "Waste Pro",
    "rowid": "1078502",
    "final_x": "3708377.53784",
    "final_y": "553852.125207",
    "longitude": "-89.98237011006736",
    "latitude": "30.016057233859833",
    "geocoded_column": {
      "latitude": "30.016057233859833",
      "longitude": "-89.98237011006736"
    }
  },
  {
    "service_request": "2024-1078501",
    "request_type": "Trash/Recycling",
    "request_reason": "Missed Trash Pick-Up",
    "date_created": "2024-03-25T14:49:10.000",
    "date_modified": "2024-03-25T14:49:11.000",
    "request_status": "Pending",
    "responsible_agency": "Department of Sanitation",
    "final_address": "2500 BLK Octavia St",
    "address_councildis": "A",
    "status": "Assigned to Contractor",
    "contractor": "Richards Disposal",
    "rowid": "1078501",
    "final_x": "3667770.89736",
    "final_y": "524893.968701",
    "longitude": "-90.11164510959317",
    "latitude": "29.93768595433094",
    "geocoded_column": {
      "latitude": "29.93768595433094",
      "longitude": "-90.11164510959317"
    }
  },
  {
    "service_request": "2024-1078500",
    "request_type": "Trash/Recycling",
    "request_reason": "Request a Large Item Pick Up",
    "date_created": "2024-03-25T14:46:23.000",
    "date_modified": "2024-03-25T14:46:24.000",
    "request_status": "Pending",
    "responsible_agency": "Department of Sanitation",
    "final_address": "4818 Strasbourg Pl",
    "address_councildis": "E",
    "status": "Assigned to Contractor",
    "contractor": "Waste Pro",
    "rowid": "1078500",
    "final_x": "3725794.04012",
    "final_y": "561078.313566",
    "longitude": "-89.92706228801497",
    "latitude": "30.035350193642994",
    "geocoded_column": {
      "latitude": "30.035350193642994",
      "longitude": "-89.92706228801497"
    }
  },
  {
    "service_request": "2024-1078499",
    "request_type": "Trash/Recycling",
    "request_reason": "Request a Large Item Pick Up",
    "date_created": "2024-03-25T14:46:02.000",
    "date_modified": "2024-03-25T14:46:03.000",
    "request_status": "Pending",
    "responsible_agency": "Department of Sanitation",
    "final_address": "4875 Strasbourg Pl",
    "address_councildis": "E",
    "status": "Assigned to Contractor",
    "contractor": "Waste Pro",
    "rowid": "1078499",
    "final_x": "3725836.92102",
    "final_y": "561562.901279",
    "longitude": "-89.92690798283827",
    "latitude": "30.036681163149055",
    "geocoded_column": {
      "latitude": "30.036681163149055",
      "longitude": "-89.92690798283827"
    }
  },
  {
    "service_request": "2024-1078498",
    "request_type": "Trash/Recycling",
    "request_reason": "Request a Large Item Pick Up",
    "date_created": "2024-03-25T14:44:52.000",
    "date_modified": "2024-03-25T14:44:53.000",
    "request_status": "Pending",
    "responsible_agency": "Department of Sanitation",
    "final_address": "8241 Hickory St",
    "address_councildis": "A",
    "status": "Assigned to Contractor",
    "contractor": "Richards Disposal",
    "rowid": "1078498",
    "final_x": "3662910.93216",
    "final_y": "530421.08653",
    "longitude": "-90.12680472771325",
    "latitude": "29.95302534339764",
    "geocoded_column": {
      "latitude": "29.95302534339764",
      "longitude": "-90.12680472771325"
    }
  },
  {
    "service_request": "2024-1078497",
    "request_type": "Property Maintenance",
    "request_reason": "Property Maintenance",
    "date_created": "2024-03-25T14:43:08.000",
    "date_modified": "2024-03-25T14:43:08.000",
    "request_status": "Pending",
    "responsible_agency": "Department of Code Enforcement",
    "final_address": "3641 Lancaster St",
    "address_councildis": "C",
    "status": "Pending",
    "rowid": "1078497",
    "final_x": "3709760.26725",
    "final_y": "517252.859445",
    "longitude": "-89.97936774767528",
    "latitude": "29.91537781843388",
    "geocoded_column": {
      "latitude": "29.91537781843388",
      "longitude": "-89.97936774767528"
    }
  },
  {
    "service_request": "2024-1078496",
    "request_type": "Trash/Recycling",
    "request_reason": "Request a Large Item Pick Up",
    "date_created": "2024-03-25T14:42:18.000",
    "date_modified": "2024-03-25T14:42:19.000",
    "request_status": "Pending",
    "responsible_agency": "Department of Sanitation",
    "final_address": "1710 Cambronne St",
    "address_councildis": "A",
    "status": "Assigned to Contractor",
    "contractor": "Richards Disposal",
    "rowid": "1078496",
    "final_x": "3662389.12141",
    "final_y": "530506.482498",
    "longitude": "-90.12844955020033",
    "latitude": "29.953275252440363",
    "geocoded_column": {
      "latitude": "29.953275252440363",
      "longitude": "-90.12844955020033"
    }
  },
  {
    "service_request": "2024-1078495",
    "request_type": "Trash/Recycling",
    "request_reason": "Request a Large Item Pick Up",
    "date_created": "2024-03-25T14:41:24.000",
    "date_modified": "2024-03-25T14:41:25.000",
    "request_status": "Pending",
    "responsible_agency": "Department of Sanitation",
    "final_address": "1509 Steeple Chase Ln",
    "address_councildis": "C",
    "status": "Assigned to Contractor",
    "contractor": "Richards Disposal",
    "rowid": "1078495",
    "final_x": "3699947.3866",
    "final_y": "525623.028541",
    "longitude": "-90.01003553127241",
    "latitude": "29.93870808524828",
    "geocoded_column": {
      "latitude": "29.93870808524828",
      "longitude": "-90.01003553127241"
    }
  },
  {
    "service_request": "2024-1078494",
    "request_type": "Roads/Drainage",
    "request_reason": "Catch Basin - Clogged",
    "date_created": "2024-03-25T14:40:27.000",
    "date_modified": "2024-03-25T14:40:27.000",
    "request_status": "Pending",
    "responsible_agency": "Department of Public Works",
    "final_address": "521 Third St",
    "address_councildis": "B",
    "status": "Pending",
    "rowid": "1078494",
    "final_x": "3678745.00674",
    "final_y": "519487.520439",
    "longitude": "-90.07718611810891",
    "latitude": "29.92249370293357",
    "geocoded_column": {
      "latitude": "29.92249370293357",
      "longitude": "-90.07718611810891"
    }
  },
  {
    "service_request": "2024-1078493",
    "request_type": "Trash/Recycling",
    "request_reason": "Request a Large Item Pick Up",
    "date_created": "2024-03-25T14:37:33.000",
    "date_modified": "2024-03-25T14:37:33.000",
    "request_status": "Pending",
    "responsible_agency": "Department of Sanitation",
    "final_address": "827 Tupelo St",
    "address_councildis": "E",
    "status": "Assigned to Contractor",
    "contractor": "Waste Pro",
    "rowid": "1078493",
    "final_x": "3699205.93053",
    "final_y": "532389.597571",
    "longitude": "-90.01213005250573",
    "latitude": "29.95733729647651",
    "geocoded_column": {
      "latitude": "29.95733729647651",
      "longitude": "-90.01213005250573"
    }
  },
  {
    "service_request": "2024-1078492",
    "request_type": "Property Maintenance",
    "request_reason": "Property Maintenance",
    "date_created": "2024-03-25T14:36:31.000",
    "date_modified": "2024-03-25T14:36:32.000",
    "request_status": "Pending",
    "responsible_agency": "Department of Code Enforcement",
    "final_address": "4609 Laine Ave",
    "address_councildis": "E",
    "status": "Pending",
    "rowid": "1078492",
    "final_x": "3705840.65111",
    "final_y": "554523.119192",
    "longitude": "-89.99036063449206",
    "latitude": "30.017984207023407",
    "geocoded_column": {
      "latitude": "30.017984207023407",
      "longitude": "-89.99036063449206"
    }
  },
  {
    "service_request": "2024-1078491",
    "request_type": "Trash/Recycling",
    "request_reason": "Request a Large Item Pick Up",
    "date_created": "2024-03-25T14:33:37.000",
    "date_modified": "2024-03-25T18:42:41.000",
    "case_close_date": "2024-03-25T13:42:41.000",
    "request_status": "Closed",
    "responsible_agency": "Department of Sanitation",
    "final_address": "7442 Benson St",
    "address_councildis": "E",
    "status": "Assigned to Contractor",
    "contractor": "Waste Pro",
    "contractor_action": "Completed",
    "rowid": "1078491",
    "final_x": "3704596.22353",
    "final_y": "562035.626207",
    "longitude": "-89.99401507368175",
    "latitude": "30.038680722934696",
    "geocoded_column": {
      "latitude": "30.038680722934696",
      "longitude": "-89.99401507368175"
    }
  },
  {
    "service_request": "2024-1078490",
    "request_type": "Trash/Recycling",
    "request_reason": "Request a Large Item Pick Up",
    "date_created": "2024-03-25T14:32:24.000",
    "date_modified": "2024-03-25T14:32:25.000",
    "request_status": "Pending",
    "responsible_agency": "Department of Sanitation",
    "final_address": "904 Sumner St",
    "address_councildis": "C",
    "status": "Assigned to Contractor",
    "contractor": "Richards Disposal",
    "rowid": "1078490",
    "final_x": "3691187.6063",
    "final_y": "528127.690111",
    "longitude": "-90.03760159029277",
    "latitude": "29.94587030787431",
    "geocoded_column": {
      "latitude": "29.94587030787431",
      "longitude": "-90.03760159029277"
    }
  },
  {
    "service_request": "2024-1078489",
    "request_type": "Trash/Recycling",
    "request_reason": "Request a Large Item Pick Up",
    "date_created": "2024-03-25T14:32:23.000",
    "date_modified": "2024-03-25T14:40:47.000",
    "case_close_date": "2024-03-25T09:40:47.000",
    "request_status": "Closed",
    "responsible_agency": "Department of Sanitation",
    "final_address": "904 Sumner St",
    "address_councildis": "C",
    "status": "Duplicate Request",
    "contractor": "Richards Disposal",
    "contractor_action": "Duplicate",
    "rowid": "1078489",
    "final_x": "3691187.6063",
    "final_y": "528127.690111",
    "longitude": "-90.03760159029277",
    "latitude": "29.94587030787431",
    "geocoded_column": {
      "latitude": "29.94587030787431",
      "longitude": "-90.03760159029277"
    }
  },
  {
    "service_request": "2024-1078487",
    "request_type": "Traffic Signals/Signs/Striping/Streetlights",
    "request_reason": "Additional signage",
    "date_created": "2024-03-25T14:26:30.000",
    "date_modified": "2024-03-25T14:26:30.000",
    "request_status": "Pending",
    "responsible_agency": "Department of Public Works",
    "final_address": "CURRAN BLVD & JONLEE DR",
    "address_councildis": "E",
    "status": "Pending",
    "rowid": "1078487",
    "final_x": "3716888.6",
    "final_y": "570794.88",
    "longitude": "-89.95483523751743",
    "latitude": "30.062364283821246",
    "geocoded_column": {
      "latitude": "30.062364283821246",
      "longitude": "-89.95483523751743"
    }
  },
  {
    "service_request": "2024-1078486",
    "request_type": "Trash/Recycling",
    "request_reason": "Return Trash Cart",
    "date_created": "2024-03-25T14:21:34.000",
    "date_modified": "2024-03-25T14:21:35.000",
    "request_status": "Pending",
    "responsible_agency": "Department of Sanitation",
    "final_address": "301 S Norman C Francis Prkwy",
    "address_councildis": "B",
    "status": "Assigned to Contractor",
    "contractor": "Richards Disposal",
    "rowid": "1078486",
    "final_x": "3672584.49774",
    "final_y": "536160.659015",
    "longitude": "-90.09606409526579",
    "latitude": "29.96852362845213",
    "geocoded_column": {
      "latitude": "29.96852362845213",
      "longitude": "-90.09606409526579"
    }
  },
  {
    "service_request": "2024-1078485",
    "request_type": "Trash/Recycling",
    "request_reason": "Missed Trash Pick-Up",
    "date_created": "2024-03-25T14:18:39.000",
    "date_modified": "2024-03-25T14:18:40.000",
    "request_status": "Pending",
    "responsible_agency": "Department of Sanitation",
    "final_address": "4842 Toulon St",
    "address_councildis": "E",
    "status": "Assigned to Contractor",
    "contractor": "Waste Pro",
    "rowid": "1078485",
    "final_x": "3723710.39718",
    "final_y": "560384.914398",
    "longitude": "-89.93367362370029",
    "latitude": "30.03351377881548",
    "geocoded_column": {
      "latitude": "30.03351377881548",
      "longitude": "-89.93367362370029"
    }
  },
  {
    "service_request": "2024-1078484",
    "request_type": "Trash/Recycling",
    "request_reason": "Request a Large Item Pick Up",
    "date_created": "2024-03-25T14:18:04.000",
    "date_modified": "2024-03-25T14:18:05.000",
    "request_status": "Pending",
    "responsible_agency": "Department of Sanitation",
    "final_address": "5623 Painters St",
    "address_councildis": "D",
    "status": "Assigned to Contractor",
    "contractor": "IV Waste",
    "rowid": "1078484",
    "final_x": "3686216.78742",
    "final_y": "553797.027479",
    "longitude": "-90.05239007138893",
    "latitude": "30.01660553842899",
    "geocoded_column": {
      "latitude": "30.01660553842899",
      "longitude": "-90.05239007138893"
    }
  },
  {
    "service_request": "2024-1078483",
    "request_type": "Trash/Recycling",
    "request_reason": "Missed Trash Pick-Up",
    "date_created": "2024-03-25T14:17:08.000",
    "date_modified": "2024-03-25T15:03:12.000",
    "case_close_date": "2024-03-25T10:03:12.000",
    "request_status": "Closed",
    "responsible_agency": "Department of Sanitation",
    "final_address": "1727 France St",
    "address_councildis": "D",
    "status": "Invalid Request",
    "contractor": "IV Waste",
    "contractor_action": "Invalid Request",
    "rowid": "1078483",
    "final_x": "3693049.97213",
    "final_y": "537614.182344",
    "longitude": "-90.03138117486668",
    "latitude": "29.971896800358785",
    "geocoded_column": {
      "latitude": "29.971896800358785",
      "longitude": "-90.03138117486668"
    }
  },
  {
    "service_request": "2024-1078482",
    "request_type": "Roads/Drainage",
    "request_reason": "Pothole",
    "date_created": "2024-03-25T14:10:20.000",
    "date_modified": "2024-03-25T14:10:21.000",
    "request_status": "Pending",
    "responsible_agency": "Department of Public Works",
    "final_address": "3820 Laurel St",
    "address_councildis": "B",
    "status": "Pending",
    "rowid": "1078482",
    "final_x": "3673381.44904",
    "final_y": "518250.385014",
    "longitude": "-90.09415896507245",
    "latitude": "29.919252564333974",
    "geocoded_column": {
      "latitude": "29.919252564333974",
      "longitude": "-90.09415896507245"
    }
  },
  {
    "service_request": "2024-1078481",
    "request_type": "Trash/Recycling",
    "request_reason": "Request a Large Item Pick Up",
    "date_created": "2024-03-25T14:05:56.000",
    "date_modified": "2024-03-25T14:05:57.000",
    "request_status": "Pending",
    "responsible_agency": "Department of Sanitation",
    "final_address": "727 Peniston St",
    "address_councildis": "B",
    "status": "Assigned to Contractor",
    "contractor": "Richards Disposal",
    "rowid": "1078481",
    "final_x": "3673560.20219",
    "final_y": "518555.027959",
    "longitude": "-90.09358432681967",
    "latitude": "29.920084918449486",
    "geocoded_column": {
      "latitude": "29.920084918449486",
      "longitude": "-90.09358432681967"
    }
  },
  {
    "service_request": "2024-1078480",
    "request_type": "Traffic Signals/Signs/Striping/Streetlights",
    "request_reason": "Street Light Outage/Malfunction",
    "date_created": "2024-03-25T14:04:33.000",
    "date_modified": "2024-03-25T14:04:34.000",
    "request_status": "Pending",
    "responsible_agency": "Department of Public Works",
    "final_address": "2428 St Anthony St",
    "address_councildis": "D",
    "status": "Assigned to Contractor",
    "contractor": "Legacy Professional Services",
    "rowid": "1078480",
    "final_x": "3683073.63541",
    "final_y": "541206.227596",
    "longitude": "-90.06276220351076",
    "latitude": "29.982081588117424",
    "geocoded_column": {
      "latitude": "29.982081588117424",
      "longitude": "-90.06276220351076"
    }
  },
  {
    "service_request": "2024-1078479",
    "request_type": "Trash/Recycling",
    "request_reason": "Order Recycling Cart",
    "date_created": "2024-03-25T14:01:12.000",
    "date_modified": "2024-03-25T14:01:12.000",
    "request_status": "Pending",
    "responsible_agency": "Department of Sanitation",
    "final_address": "2119 Audubon St",
    "address_councildis": "A",
    "status": "Pending",
    "rowid": "1078479",
    "final_x": "3666336.58586",
    "final_y": "529112.639872",
    "longitude": "-90.1160318648644",
    "latitude": "29.94932791271644",
    "geocoded_column": {
      "latitude": "29.94932791271644",
      "longitude": "-90.1160318648644"
    }
  },
  {
    "service_request": "2024-1078478",
    "request_type": "Trash/Recycling",
    "request_reason": "Request a Large Item Pick Up",
    "date_created": "2024-03-25T14:00:33.000",
    "date_modified": "2024-03-25T14:00:34.000",
    "request_status": "Pending",
    "responsible_agency": "Department of Sanitation",
    "final_address": "7670 Pineridge St",
    "address_councildis": "E",
    "status": "Assigned to Contractor",
    "contractor": "Waste Pro",
    "rowid": "1078478",
    "final_x": "3718766.8597",
    "final_y": "572158.340648",
    "longitude": "-89.94884601093327",
    "latitude": "30.066050965350613",
    "geocoded_column": {
      "latitude": "30.066050965350613",
      "longitude": "-89.94884601093327"
    }
  },