[
  {
    "service_request": "2025-1172126",
    "request_type": "Street and Traffic Signs",
    "request_reason": "Street Name Sign Damaged or Missing",
    "date_created": "2025-02-27T23:25:40.000",
    "date_modified": "2025-02-27T23:25:42.000",
    "request_status": "Pending",
    "responsible_agency": "Department of Public Works",
    "final_address": "GENERAL TAYLOR & S SARATOGA ST",
    "address_councildis": "B",
    "status": "Pending",
    "rowid": "1172126",
    "final_x": "3672220.1",
    "final_y": "522800.68",
    "longitude": "-90.0976698743677",
    "latitude": "29.93179890141308",
    "geocoded_column": {
      "latitude": "29.93179890141308",
      "longitude": "-90.0976698743677"
    }
  },
  {
    "service_request": "2025-1172125",
    "request_type": "Street and Traffic Signs",
    "request_reason": "Street Name Sign Damaged or Missing",
    "date_created": "2025-02-27T23:24:30.000",
    "date_modified": "2025-02-27T23:24:32.000",
    "request_status": "Pending",
    "responsible_agency": "Department of Public Works",
    "final_address": "GENERAL TAYLOR & LOYOLA AVE",
    "address_councildis": "B",
    "status": "Pending",
    "rowid": "1172125",
    "final_x": "3672138.1",
    "final_y": "523149.78",
    "longitude": "-90.0979168576644",
    "latitude": "29.93276124499525",
    "geocoded_column": {
      "latitude": "29.93276124499525",
      "longitude": "-90.0979168576644"
    }
  },
  {
    "service_request": "2025-1172124",
    "request_type": "Street and Traffic Signs",
    "request_reason": "Street Name Sign Damaged or Missing",
    "date_created": "2025-02-27T23:22:08.000",
    "date_modified": "2025-02-27T23:22:10.000",
    "request_status": "Pending",
    "responsible_agency": "Department of Public Works",
    "final_address": "GENERAL TAYLOR & DANNEEL ST",
    "address_councildis": "B",
    "status": "Pending",
    "rowid": "1172124",
    "final_x": "3672303.8",
    "final_y": "522448.78",
    "longitude": "-90.09741762450162",
    "latitude": "29.93082880772947",
    "geocoded_column": {
      "latitude": "29.93082880772947",
      "longitude": "-90.09741762450162"
    }
  },
  {
    "service_request": "2025-1172123",
    "request_type": "Trash/Recycling",
    "request_reason": "Replace Trash Cart",
    "date_created": "2025-02-27T23:09:48.000",
    "date_modified": "2025-02-27T23:09:50.000",
    "request_status": "Pending",
    "responsible_agency": "Department of Sanitation",
    "final_address": "606 Independence St Apt A",
    "address_councildis": "C",
    "status": "Assigned to Contractor",
    "contractor": "IV Waste",
    "rowid": "1172123",
    "final_x": "3690473.29136",
    "final_y": "533747.878469",
    "longitude": "-90.03965657195911",
    "latitude": "29.961346072737477",
    "geocoded_column": {
      "latitude": "29.961346072737477",
      "longitude": "-90.03965657195911"
    }
  },
  {
    "service_request": "2025-1172122",
    "request_type": "Abandoned Vehicles",
    "request_reason": "Abandoned/Junk Vehicles",
    "date_created": "2025-02-27T22:55:01.000",
    "date_modified": "2025-02-27T22:55:03.000",
    "request_status": "Pending",
    "responsible_agency": "Department of Public Works",
    "final_address": "4023 Tchoupitoulas St",
    "address_councildis": "B",
    "status": "Pending",
    "rowid": "1172122",
    "final_x": "3672456.92334",
    "final_y": "517628.933814",
    "longitude": "-90.09709839396619",
    "latitude": "29.917571230941423",
    "geocoded_column": {
      "latitude": "29.917571230941423",
      "longitude": "-90.09709839396619"
    }
  },
  {
    "service_request": "2025-1172121",
    "request_type": "Abandoned Vehicles",
    "request_reason": "Abandoned/Junk Vehicles",
    "date_created": "2025-02-27T22:51:29.000",
    "date_modified": "2025-02-27T22:51:31.000",
    "request_status": "Pending",
    "responsible_agency": "Department of Public Works",
    "final_address": "4023 Tchoupitoulas St",
    "address_councildis": "B",
    "status": "Pending",
    "rowid": "1172121",
    "final_x": "3672456.92334",
    "final_y": "517628.933814",
    "longitude": "-90.09709839396619",
    "latitude": "29.917571230941423",
    "geocoded_column": {
      "latitude": "29.917571230941423",
      "longitude": "-90.09709839396619"
    }
  },
  {
    "service_request": "2025-1172120",
    "request_type": "Abandoned Vehicles",
    "request_reason": "Abandoned/Junk Vehicles",
    "date_created": "2025-02-27T22:51:06.000",
    "date_modified": "2025-02-27T22:51:08.000",
    "request_status": "Pending",
    "responsible_agency": "Department of Public Works",
    "final_address": "4023 Tchoupitoulas St",
    "address_councildis": "B",
    "status": "Pending",
    "rowid": "1172120",
    "final_x": "3672456.92334",
    "final_y": "517628.933814",
    "longitude": "-90.09709839396619",
    "latitude": "29.917571230941423",
    "geocoded_column": {
      "latitude": "29.917571230941423",
      "longitude": "-90.09709839396619"
    }
  },
  {
    "service_request": "2025-1172119",
    "request_type": "Abandoned Vehicles",
    "request_reason": "Abandoned/Junk Vehicles",
    "date_created": "2025-02-27T22:51:01.000",
    "date_modified": "2025-02-27T22:51:03.000",
    "request_status": "Pending",
    "responsible_agency": "Department of Public Works",
    "final_address": "4023 Tchoupitoulas St",
    "address_councildis": "B",
    "status": "Pending",
    "rowid": "1172119",
    "final_x": "3672456.92334",
    "final_y": "517628.933814",
    "longitude": "-90.09709839396619",
    "latitude": "29.917571230941423",
    "geocoded_column": {
      "latitude": "29.917571230941423",
      "longitude": "-90.09709839396619"
    }
  },
  {
    "service_request": "2025-1172118",
    "request_type": "Abandoned Vehicles",
    "request_reason": "Abandoned/Junk Vehicles",
    "date_created": "2025-02-27T22:46:52.000",
    "date_modified": "2025-02-27T22:46:53.000",
    "request_status": "Pending",
    "responsible_agency": "Department of Public Works",
    "final_address": "4023 Tchoupitoulas St",
    "address_councildis": "B",
    "status": "Pending",
    "rowid": "1172118",
    "final_x": "3672456.92334",
    "final_y": "517628.933814",
    "longitude": "-90.09709839396619",
    "latitude": "29.917571230941423",
    "geocoded_column": {
      "latitude": "29.917571230941423",
      "longitude": "-90.09709839396619"
    }
  },
  {
    "service_request": "2025-1172117",
    "request_type": "Abandoned Vehicles",
    "request_reason": "Abandoned/Junk Vehicles",
    "date_created": "2025-02-27T22:46:36.000",
    "date_modified": "2025-02-27T22:46:38.000",
    "request_status": "Pending",
    "responsible_agency": "Department of Public Works",
    "final_address": "4023 Tchoupitoulas St",
    "address_councildis": "B",
    "status": "Pending",
    "rowid": "1172117",
    "final_x": "3672456.92334",
    "final_y": "517628.933814",
    "longitude": "-90.09709839396619",
    "latitude": "29.917571230941423",
    "geocoded_column": {
      "latitude": "29.917571230941423",
      "longitude": "-90.09709839396619"
    }
  },
  {
    "service_request": "2025-1172116",
    "request_type": "Street and Traffic Signs",
    "request_reason": "Additional Signage Request",
    "date_created": "2025-02-27T22:41:42.000",
    "date_modified": "2025-02-27T22:41:44.000",
    "request_status": "Pending",
    "responsible_agency": "Department of Public Works",
    "final_address": "2529 Jena St",
    "address_councildis": "B",
    "status": "Pending",
    "rowid": "1172116",
    "final_x": "3670147.79847",
    "final_y": "524254.761084",
    "longitude": "-90.1041626785356",
    "latitude": "29.935858442401077",
    "geocoded_column": {
      "latitude": "29.935858442401077",
      "longitude": "-90.1041626785356"
    }
  },
  {
    "service_request": "2025-1172115",
    "request_type": "Property Maintenance",
    "request_reason": "Property Maintenance",
    "date_created": "2025-02-27T22:37:11.000",
    "date_modified": "2025-02-27T22:37:13.000",
    "request_status": "Pending",
    "responsible_agency": "Department of Code Enforcement",
    "final_address": "3218 Baronne St",
    "address_councildis": "B",
    "status": "Pending",
    "rowid": "1172115",
    "final_x": "3674388.3666",
    "final_y": "522386.822458",
    "longitude": "-90.0908390517666",
    "latitude": "29.930596455322572",
    "geocoded_column": {
      "latitude": "29.930596455322572",
      "longitude": "-90.0908390517666"
    }
  },
  {
    "service_request": "2025-1172114",
    "request_type": "Abandoned Vehicles",
    "request_reason": "Abandoned/Junk Vehicles",
    "date_created": "2025-02-27T22:27:09.000",
    "date_modified": "2025-02-27T22:27:11.000",
    "request_status": "Pending",
    "responsible_agency": "Department of Public Works",
    "final_address": "811 Jewel St",
    "address_councildis": "D",
    "status": "Pending",
    "rowid": "1172114",
    "final_x": "3670495.59553",
    "final_y": "556050.141209",
    "longitude": "-90.10198598074199",
    "latitude": "30.02327467255748",
    "geocoded_column": {
      "latitude": "30.02327467255748",
      "longitude": "-90.10198598074199"
    }
  },
  {
    "service_request": "2025-1172113",
    "request_type": "Trash/Recycling",
    "request_reason": "Missed Trash Pick-Up",
    "date_created": "2025-02-27T22:06:08.000",
    "date_modified": "2025-02-27T22:06:10.000",
    "request_status": "Pending",
    "responsible_agency": "Department of Sanitation",
    "final_address": "7621 Weaver Ave",
    "address_councildis": "E",
    "status": "Assigned to Contractor",
    "contractor": "Waste Pro",
    "rowid": "1172113",
    "final_x": "3707442.22641",
    "final_y": "564421.350497",
    "longitude": "-89.98493228053069",
    "latitude": "30.04514874093768",
    "geocoded_column": {
      "latitude": "30.04514874093768",
      "longitude": "-89.98493228053069"
    }
  },
  {
    "service_request": "2025-1172112",
    "request_type": "General Services",
    "request_reason": "General Service Request",
    "date_created": "2025-02-27T21:08:41.000",
    "date_modified": "2025-02-27T21:08:42.000",
    "request_status": "Pending",
    "responsible_agency": "Orleans Parish Communication District",
    "final_address": "7557 Avalon Way",
    "address_councildis": "E",
    "status": "Pending",
    "rowid": "1172112",
    "final_x": "3709214.0995",
    "final_y": "564330.452385",
    "longitude": "-89.97933576004013",
    "latitude": "30.04484135616043",
    "geocoded_column": {
      "latitude": "30.04484135616043",
      "longitude": "-89.97933576004013"
    }
  },
  {
    "service_request": "2025-1172111",
    "request_type": "Trash/Recycling",
    "request_reason": "Order Recycling Cart",
    "date_created": "2025-02-27T20:24:06.000",
    "date_modified": "2025-02-27T20:24:08.000",
    "request_status": "Pending",
    "responsible_agency": "Department of Sanitation",
    "final_address": "2741 Chelsea Dr",
    "address_councildis": "C",
    "status": "Pending",
    "rowid": "1172111",
    "final_x": "3704153.42391",
    "final_y": "520928.162169",
    "longitude": "-89.99692958910187",
    "latitude": "29.92566461211569",
    "geocoded_column": {
      "latitude": "29.92566461211569",
      "longitude": "-89.99692958910187"
    }
  },
  {
    "service_request": "2025-1172110",
    "request_type": "Trash/Recycling",
    "request_reason": "Order Recycling Cart",
    "date_created": "2025-02-27T20:21:44.000",
    "date_modified": "2025-02-27T20:21:46.000",
    "request_status": "Pending",
    "responsible_agency": "Department of Sanitation",
    "final_address": "2741 Chelsea Dr",
    "address_councildis": "C",
    "status": "Pending",
    "rowid": "1172110",
    "final_x": "3704153.42391",
    "final_y": "520928.162169",
    "longitude": "-89.99692958910187",
    "latitude": "29.92566461211569",
    "geocoded_column": {
      "latitude": "29.92566461211569",
      "longitude": "-89.99692958910187"
    }
  },
  {
    "service_request": "2025-1172109",
    "request_type": "Trash/Recycling",
    "request_reason": "Return Recycling Cart",
    "date_created": "2025-02-27T19:38:11.000",
    "date_modified": "2025-02-27T19:38:13.000",
    "request_status": "Pending",
    "responsible_agency": "Department of Sanitation",
    "final_address": "20 Castle Pines Dr",
    "address_councildis": "C",
    "status": "Pending",
    "rowid": "1172109",
    "final_x": "3719411.67916",
    "final_y": "511415.107056",
    "longitude": "-89.94912728996862",
    "latitude": "29.89900895790808",
    "geocoded_column": {
      "latitude": "29.89900895790808",
      "longitude": "-89.94912728996862"
    }
  },
  {
    "service_request": "2025-1172108",
    "request_type": "Roads and Streets",
    "request_reason": "Street Subsidence (Sinking)",
    "date_created": "2025-02-27T19:18:17.000",
    "date_modified": "2025-02-27T19:18:19.000",
    "request_status": "Pending",
    "responsible_agency": "Department of Public Works",
    "final_address": "4711 Iberville St",
    "address_councildis": "A",
    "status": "Pending",
    "rowid": "1172108",
    "final_x": "3669343.42791",
    "final_y": "540327.335563",
    "longitude": "-90.10615866673808",
    "latitude": "29.980076418419284",
    "geocoded_column": {
      "latitude": "29.980076418419284",
      "longitude": "-90.10615866673808"
    }
  },
  {
    "service_request": "2025-1172107",
    "request_type": "Trash/Recycling",
    "request_reason": "Request a Large Item Pick Up",
    "date_created": "2025-02-27T18:38:14.000",
    "date_modified": "2025-02-27T18:38:16.000",
    "request_status": "Pending",
    "responsible_agency": "Department of Sanitation",
    "final_address": "841 Washington Ave",
    "address_councildis": "B",
    "status": "Assigned to Contractor",
    "contractor": "IV Waste",
    "rowid": "1172107",
    "final_x": "3677516.89499",
    "final_y": "520201.584312",
    "longitude": "-90.08103813853621",
    "latitude": "29.92449411008254",
    "geocoded_column": {
      "latitude": "29.92449411008254",
      "longitude": "-90.08103813853621"
    }
  },
  {
    "service_request": "2025-1172106",
    "request_type": "Drainage",
    "request_reason": "Drainage Manhole Cover Missing or Damaged",
    "date_created": "2025-02-27T18:33:17.000",
    "date_modified": "2025-02-27T18:33:19.000",
    "request_status": "Pending",
    "responsible_agency": "Sewerage & Water Board ",
    "final_address": "1309 Prytania St",
    "address_councildis": "B",
    "status": "Pending",
    "rowid": "1172106",
    "final_x": "3679891.60687",
    "final_y": "525712.913917",
    "longitude": "-90.0733506797432",
    "latitude": "29.939576876550195",
    "geocoded_column": {
      "latitude": "29.939576876550195",
      "longitude": "-90.0733506797432"
    }
  },
  {
    "service_request": "2025-1172105",
    "request_type": "Trash/Recycling",
    "request_reason": "Replace Trash Cart",
    "date_created": "2025-02-27T18:16:52.000",
    "date_modified": "2025-02-27T18:16:54.000",
    "request_status": "Pending",
    "responsible_agency": "Department of Sanitation",
    "final_address": "6517 Brunswick Ct",
    "address_councildis": "C",
    "status": "Assigned to Contractor",
    "contractor": "Richards Disposal",
    "rowid": "1172105",
    "final_x": "3708062.04024",
    "final_y": "516888.563509",
    "longitude": "-89.98474146688498",
    "latitude": "29.914431199057827",
    "geocoded_column": {
      "latitude": "29.914431199057827",
      "longitude": "-89.98474146688498"
    }
  },
  {
    "service_request": "2025-1172104",
    "request_type": "Trash/Recycling",
    "request_reason": "Replace Trash Cart",
    "date_created": "2025-02-27T18:10:44.000",
    "date_modified": "2025-02-27T18:10:47.000",
    "request_status": "Pending",
    "responsible_agency": "Department of Sanitation",
    "final_address": "6517 Brunswick Ct",
    "address_councildis": "C",
    "status": "Assigned to Contractor",
    "contractor": "Richards Disposal",
    "rowid": "1172104",
    "final_x": "3708062.04024",
    "final_y": "516888.563509",
    "longitude": "-89.98474146688498",
    "latitude": "29.914431199057827",
    "geocoded_column": {
      "latitude": "29.914431199057827",
      "longitude": "-89.98474146688498"
    }
  },
  {
    "service_request": "2025-1172103",
    "request_type": "Trash/Recycling",
    "request_reason": "Request a Large Item Pick Up",
    "date_created": "2025-02-27T18:07:47.000",
    "date_modified": "2025-02-27T18:07:48.000",
    "request_status": "Pending",
    "responsible_agency": "Department of Sanitation",
    "final_address": "4610 Haydel St",
    "address_councildis": "E",
    "status": "Assigned to Contractor",
    "contractor": "Waste Pro",
    "rowid": "1172103",
    "final_x": "3699029.91876",
    "final_y": "553721.244247",
    "longitude": "-90.01190903570475",
    "latitude": "30.01599708479943",
    "geocoded_column": {
      "latitude": "30.01599708479943",
      "longitude": "-90.01190903570475"
    }
  },
  {
    "service_request": "2025-1172102",
    "request_type": "Trash/Recycling",
    "request_reason": "Return Recycling Cart",
    "date_created": "2025-02-27T17:48:11.000",
    "date_modified": "2025-02-27T17:48:13.000",
    "request_status": "Pending",
    "responsible_agency": "Department of Sanitation",
    "final_address": "3236 Coliseum St",
    "address_councildis": "B",
    "status": "Pending",
    "rowid": "1172102",
    "final_x": "3675020.67912",
    "final_y": "520737.369017",
    "longitude": "-90.0888994832778",
    "latitude": "29.926042123862423",
    "geocoded_column": {
      "latitude": "29.926042123862423",
      "longitude": "-90.0888994832778"
    }
  },
  {
    "service_request": "2025-1172101",
    "request_type": "Property Maintenance",
    "request_reason": "Property Maintenance",
    "date_created": "2025-02-27T17:46:56.000",
    "date_modified": "2025-02-27T17:46:57.000",
    "request_status": "Pending",
    "responsible_agency": "Department of Code Enforcement",
    "final_address": "500 Amethyst St",
    "address_councildis": "D",
    "status": "Pending",
    "rowid": "1172101",
    "final_x": "3668383.75713",
    "final_y": "556749.545562",
    "longitude": "-90.10863533904195",
    "latitude": "30.025260017164104",
    "geocoded_column": {
      "latitude": "30.025260017164104",
      "longitude": "-90.10863533904195"
    }
  },
  {
    "service_request": "2025-1172100",
    "request_type": "General Services",
    "request_reason": "General Service Request",
    "date_created": "2025-02-27T17:46:49.000",
    "date_modified": "2025-02-27T17:46:51.000",
    "request_status": "Pending",
    "responsible_agency": "Orleans Parish Communication District",
    "final_address": "1400 Numa St",
    "address_councildis": "C",
    "status": "Pending",
    "rowid": "1172100",
    "final_x": "3691812.0239",
    "final_y": "526206.57843",
    "longitude": "-90.03569879332527",
    "latitude": "29.940568479894292",
    "geocoded_column": {
      "latitude": "29.940568479894292",
      "longitude": "-90.03569879332527"
    }
  },
  {
    "service_request": "2025-1172099",
    "request_type": "Streetlights",
    "request_reason": "Streetlight Outage/Malfunction",
    "date_created": "2025-02-27T17:36:25.000",
    "date_modified": "2025-02-27T17:36:26.000",
    "request_status": "Pending",
    "responsible_agency": "Department of Public Works",
    "final_address": "4203 S Johnson St",
    "address_councildis": "B",
    "status": "Pending",
    "contractor": "Legacy Professional Services",
    "rowid": "1172099",
    "final_x": "3670903.94727",
    "final_y": "527335.294207",
    "longitude": "-90.10167095953149",
    "latitude": "29.944306583451",
    "geocoded_column": {
      "latitude": "29.944306583451",
      "longitude": "-90.10167095953149"
    }
  },
  {
    "service_request": "2025-1172098",
    "request_type": "Streetlights",
    "request_reason": "Streetlight Outage/Malfunction",
    "date_created": "2025-02-27T17:31:42.000",
    "date_modified": "2025-02-27T17:31:43.000",
    "request_status": "Pending",
    "responsible_agency": "Department of Public Works",
    "final_address": "4203 S Johnson St",
    "address_councildis": "B",
    "status": "Pending",
    "contractor": "Legacy Professional Services",
    "rowid": "1172098",
    "final_x": "3670903.94727",
    "final_y": "527335.294207",
    "longitude": "-90.10167095953149",
    "latitude": "29.944306583451",
    "geocoded_column": {
      "latitude": "29.944306583451",
      "longitude": "-90.10167095953149"
    }
  },
  {
    "service_request": "2025-1172097",
    "request_type": "Trash/Recycling",
    "request_reason": "Replace Trash Cart",
    "date_created": "2025-02-27T17:26:41.000",
    "date_modified": "2025-02-27T17:26:43.000",
    "request_status": "Pending",
    "responsible_agency": "Department of Sanitation",
    "final_address": "4203 S Johnson St",
    "address_councildis": "B",
    "status": "Assigned to Contractor",
    "contractor": "IV Waste",
    "rowid": "1172097",
    "final_x": "3670903.94727",
    "final_y": "527335.294207",
    "longitude": "-90.10167095953149",
    "latitude": "29.944306583451",
    "geocoded_column": {
      "latitude": "29.944306583451",
      "longitude": "-90.10167095953149"
    }
  },
  {
    "service_request": "2025-1172096",
    "request_type": "Safety & Permits",
    "request_reason": "Zoning Enforcement",
    "date_created": "2025-02-27T17:26:00.000",
    "date_modified": "2025-02-27T17:26:02.000",
    "request_status": "Pending",
    "responsible_agency": "Safety and Permits",
    "final_address": "1943 N Rampart St",
    "address_councildis": "C",
    "status": "Pending",
    "rowid": "1172096",
    "final_x": "3684229.0758",
    "final_y": "535901.470151",
    "longitude": "-90.05929906686211",
    "latitude": "29.967460076499936",
    "geocoded_column": {
      "latitude": "29.967460076499936",
      "longitude": "-90.05929906686211"
    }
  },
  {
    "service_request": "2025-1172095",
    "request_type": "Parks & Parkways",
    "request_reason": "Park Maintenance/Clean Up",
    "date_created": "2025-02-27T17:21:08.000",
    "date_modified": "2025-02-27T17:21:10.000",
    "request_status": "Pending",
    "responsible_agency": "Department of Parks & Parkway",
    "final_address": "313 Morgan St",
    "address_councildis": "C",
    "status": "Pending",
    "rowid": "1172095",
    "final_x": "3686168.88681",
    "final_y": "531131.425474",
    "longitude": "-90.05334139581349",
    "latitude": "29.954284651619155",
    "geocoded_column": {
      "latitude": "29.954284651619155",
      "longitude": "-90.05334139581349"
    }
  },
  {
    "service_request": "2025-1172094",
    "request_type": "Roads and Streets",
    "request_reason": "Pothole",
    "date_created": "2025-02-27T17:20:24.000",
    "date_modified": "2025-02-27T17:20:27.000",
    "request_status": "Pending",
    "responsible_agency": "Department of Public Works",
    "final_address": "603 Lang St",
    "address_councildis": "C",
    "status": "Pending",
    "rowid": "1172094",
    "final_x": "3702007.58628",
    "final_y": "520790.892089",
    "longitude": "-90.0037083269661",
    "latitude": "29.925355808598677",
    "geocoded_column": {
      "latitude": "29.925355808598677",
      "longitude": "-90.0037083269661"
    }
  },
  {
    "service_request": "2025-1172093",
    "request_type": "Drainage",
    "request_reason": "Street Flooding",
    "date_created": "2025-02-27T17:13:20.000",
    "date_modified": "2025-02-27T17:13:21.000",
    "request_status": "Pending",
    "responsible_agency": "Sewerage & Water Board ",
    "final_address": "400 BLK Jackson Ave",
    "address_councildis": "B",
    "status": "Pending",
    "rowid": "1172093",
    "final_x": "3680373.56769",
    "final_y": "520122.852587",
    "longitude": "-90.07202333505722",
    "latitude": "29.924191467631374",
    "geocoded_column": {
      "latitude": "29.924191467631374",
      "longitude": "-90.07202333505722"
    }
  },
  {
    "service_request": "2025-1172092",
    "request_type": "Roads and Streets",
    "request_reason": "Pothole",
    "date_created": "2025-02-27T17:12:32.000",
    "date_modified": "2025-02-27T17:12:34.000",
    "request_status": "Pending",
    "responsible_agency": "Department of Public Works",
    "final_address": "4634 Herschel St",
    "address_councildis": "C",
    "status": "Pending",
    "rowid": "1172092",
    "final_x": "3702287.47581",
    "final_y": "520840.905529",
    "longitude": "-90.00282297659624",
    "latitude": "29.925484394879543",
    "geocoded_column": {
      "latitude": "29.925484394879543",
      "longitude": "-90.00282297659624"
    }
  },
  {
    "service_request": "2025-1172091",
    "request_type": "Trash/Recycling",
    "request_reason": "Replace Trash Cart",
    "date_created": "2025-02-27T17:10:04.000",
    "date_modified": "2025-02-27T17:10:06.000",
    "request_status": "Pending",
    "responsible_agency": "Department of Sanitation",
    "final_address": "3315 Newton St",
    "address_councildis": "C",
    "status": "Assigned to Contractor",
    "contractor": "Richards Disposal",
    "rowid": "1172091",
    "final_x": "3696541.68349",
    "final_y": "527722.243071",
    "longitude": "-90.02071172806157",
    "latitude": "29.944587906377034",
    "geocoded_column": {
      "latitude": "29.944587906377034",
      "longitude": "-90.02071172806157"
    }
  },
  {
    "service_request": "2025-1172090",
    "request_type": "Roads and Streets",
    "request_reason": "Curb Damage",
    "date_created": "2025-02-27T17:07:21.000",
    "date_modified": "2025-02-27T17:07:24.000",
    "request_status": "Pending",
    "responsible_agency": "Department of Public Works",
    "final_address": "1437 St Andrew St",
    "address_councildis": "B",
    "status": "Pending",
    "rowid": "1172090",
    "final_x": "3678674.63016",
    "final_y": "523626.303099",
    "longitude": "-90.0772650561403",
    "latitude": "29.933876124838466",
    "geocoded_column": {
      "latitude": "29.933876124838466",
      "longitude": "-90.0772650561403"
    }
  },
  {
    "service_request": "2025-1172089",
    "request_type": "Trash/Recycling",
    "request_reason": "Request a Large Item Pick Up",
    "date_created": "2025-02-27T17:04:20.000",
    "date_modified": "2025-02-27T17:04:22.000",
    "request_status": "Pending",
    "responsible_agency": "Department of Sanitation",
    "final_address": "4524 Rosemont Pl",
    "address_councildis": "E",
    "status": "Assigned to Contractor",
    "contractor": "Waste Pro",
    "rowid": "1172089",
    "final_x": "3702746.81994",
    "final_y": "553713.533783",
    "longitude": "-90.00016565014923",
    "latitude": "30.015857498261596",
    "geocoded_column": {
      "latitude": "30.015857498261596",
      "longitude": "-90.00016565014923"
    }
  },
  {
    "service_request": "2025-1172088",
    "request_type": "Roads and Streets",
    "request_reason": "Sidewalk Damaged or Missing",
    "date_created": "2025-02-27T16:59:54.000",
    "date_modified": "2025-02-27T17:00:44.000",
    "request_status": "Pending",
    "responsible_agency": "Department of Public Works",
    "final_address": "7731 Sandpiper Dr",
    "address_councildis": "E",
    "status": "Pending",
    "rowid": "1172088",
    "final_x": "3715693.22124",
    "final_y": "570100.430503",
    "longitude": "-89.95864015187043",
    "latitude": "30.060494323178062",
    "geocoded_column": {
      "latitude": "30.060494323178062",
      "longitude": "-89.95864015187043"
    }
  },
  {
    "service_request": "2025-1172087",
    "request_type": "Trash/Recycling",
    "request_reason": "Request a Large Item Pick Up",
    "date_created": "2025-02-27T16:57:10.000",
    "date_modified": "2025-02-27T16:57:12.000",
    "request_status": "Pending",
    "responsible_agency": "Department of Sanitation",
    "final_address": "7507 Kingsport Blvd",
    "address_councildis": "E",
    "status": "Assigned to Contractor",
    "contractor": "Waste Pro",
    "rowid": "1172087",
    "final_x": "3720635.67154",
    "final_y": "572614.548713",
    "longitude": "-89.94292101015238",
    "latitude": "30.067243125897118",
    "geocoded_column": {
      "latitude": "30.067243125897118",
      "longitude": "-89.94292101015238"
    }
  },
  {
    "service_request": "2025-1172086",
    "request_type": "Safety & Permits",
    "request_reason": "Zoning Enforcement",
    "date_created": "2025-02-27T16:55:57.000",
    "date_modified": "2025-02-27T16:56:00.000",
    "request_status": "Pending",
    "responsible_agency": "Safety and Permits",
    "final_address": "2134 N Rocheblave St",
    "address_councildis": "D",
    "status": "Pending",
    "rowid": "1172086",
    "final_x": "3683890.99842",
    "final_y": "541003.230283",
    "longitude": "-90.06018770535572",
    "latitude": "29.981498470420537",
    "geocoded_column": {
      "latitude": "29.981498470420537",
      "longitude": "-90.06018770535572"
    }
  },
  {
    "service_request": "2025-1172085",
    "request_type": "Street and Traffic Signs",
    "request_reason": "Stop Sign Missing or Damaged",
    "date_created": "2025-02-27T16:47:17.000",
    "date_modified": "2025-02-27T16:47:19.000",
    "request_status": "Pending",
    "responsible_agency": "Department of Public Works",
    "final_address": "939 Orleans Ave",
    "address_councildis": "C",
    "status": "Pending",
    "rowid": "1172085",
    "final_x": "3681842.29442",
    "final_y": "533241.953156",
    "longitude": "-90.06692938578607",
    "latitude": "29.960220070724784",
    "geocoded_column": {
      "latitude": "29.960220070724784",
      "longitude": "-90.06692938578607"
    }
  },
  {
    "service_request": "2025-1172084",
    "request_type": "Alley Ways",
    "request_reason": "Alley Way Regrading",
    "date_created": "2025-02-27T16:40:16.000",
    "date_modified": "2025-02-27T16:40:17.000",
    "request_status": "Pending",
    "responsible_agency": "Department of Public Works",
    "final_address": "5953 Argonne Blvd",
    "address_councildis": "A",
    "status": "Pending",
    "rowid": "1172084",
    "final_x": "3670182.63143",
    "final_y": "546870.676625",
    "longitude": "-90.10328625032653",
    "latitude": "29.998043621610762",
    "geocoded_column": {
      "latitude": "29.998043621610762",
      "longitude": "-90.10328625032653"
    }
  },
  {
    "service_request": "2025-1172083",
    "request_type": "Trash/Recycling",
    "request_reason": "Request a Large Item Pick Up",
    "date_created": "2025-02-27T16:36:56.000",
    "date_modified": "2025-02-27T16:36:57.000",
    "request_status": "Pending",
    "responsible_agency": "Department of Sanitation",
    "final_address": "4571 Veronese Rd",
    "address_councildis": "E",
    "status": "Assigned to Contractor",
    "contractor": "Waste Pro",
    "rowid": "1172083",
    "final_x": "3763056.96157",
    "final_y": "574111.805418",
    "longitude": "-89.80876045321",
    "latitude": "30.069876258440456",
    "geocoded_column": {
      "latitude": "30.069876258440456",
      "longitude": "-89.80876045321"
    }
  },
  {
    "service_request": "2025-1172082",
    "request_type": "Trash/Recycling",
    "request_reason": "MIssed Recycling Pick-Up",
    "date_created": "2025-02-27T16:30:49.000",
    "date_modified": "2025-02-27T16:30:51.000",
    "request_status": "Pending",
    "responsible_agency": "Department of Sanitation",
    "final_address": "5116 N Miro St",
    "address_councildis": "E",
    "status": "Assigned to Contractor",
    "contractor": "Waste Pro",
    "rowid": "1172082",
    "final_x": "3697523.46915",
    "final_y": "538190.484489",
    "longitude": "-90.01723233548113",
    "latitude": "29.97334090167188",
    "geocoded_column": {
      "latitude": "29.97334090167188",
      "longitude": "-90.01723233548113"
    }
  },
  {
    "service_request": "2025-1172081",
    "request_type": "Trash/Recycling",
    "request_reason": "Illegal Dumping",
    "date_created": "2025-02-27T16:22:41.000",
    "date_modified": "2025-02-27T16:22:42.000",
    "request_status": "Pending",
    "responsible_agency": "Department of Sanitation",
    "final_address": "3021 Toledano St",
    "address_councildis": "B",
    "status": "Pending",
    "rowid": "1172081",
    "final_x": "3672495.98439",
    "final_y": "526987.020606",
    "longitude": "-90.09665630075693",
    "latitude": "29.94330179448931",
    "geocoded_column": {
      "latitude": "29.94330179448931",
      "longitude": "-90.09665630075693"
    }
  },
  {
    "service_request": "2025-1172080",
    "request_type": "Trash/Recycling",
    "request_reason": "Request a Large Item Pick Up",
    "date_created": "2025-02-27T16:19:40.000",
    "date_modified": "2025-02-27T16:19:41.000",
    "request_status": "Pending",
    "responsible_agency": "Department of Sanitation",
    "final_address": "1822 Burdette St",
    "address_councildis": "A",
    "status": "Assigned to Contractor",
    "contractor": "IV Waste",
    "rowid": "1172080",
    "final_x": "3664308.35514",
    "final_y": "529345.598145",
    "longitude": "-90.12242814642858",
    "latitude": "29.950027564655844",
    "geocoded_column": {
      "latitude": "29.950027564655844",
      "longitude": "-90.12242814642858"
    }
  },
  {
    "service_request": "2025-1172079",
    "request_type": "Traffic Signals",
    "request_reason": "Traffic Signal Malfunctioning or Damaged",
    "date_created": "2025-02-27T16:10:36.000",
    "date_modified": "2025-02-27T16:10:38.000",
    "request_status": "Pending",
    "responsible_agency": "Department of Public Works",
    "final_address": "JULIA ST & CAMP ST",
    "address_councildis": "B",
    "status": "Pending",
    "rowid": "1172079",
    "final_x": "3680791.6",
    "final_y": "527933.18",
    "longitude": "-90.07043202214226",
    "latitude": "29.945654624905025",
    "geocoded_column": {
      "latitude": "29.945654624905025",
      "longitude": "-90.07043202214226"
    }
  },
  {
    "service_request": "2025-1172078",
    "request_type": "Roads and Streets",
    "request_reason": "Street Subsidence (Sinking)",
    "date_created": "2025-02-27T16:10:24.000",
    "date_modified": "2025-02-27T16:10:26.000",
    "request_status": "Pending",
    "responsible_agency": "Department of Public Works",
    "final_address": "928 N Robertson St",
    "address_councildis": "C",
    "status": "Pending",
    "rowid": "1172078",
    "final_x": "3680689.15528",
    "final_y": "535129.375814",
    "longitude": "-90.07050506873385",
    "latitude": "29.965444832191313",
    "geocoded_column": {
      "latitude": "29.965444832191313",
      "longitude": "-90.07050506873385"
    }
  },
  {
    "service_request": "2025-1172077",
    "request_type": "Roads and Streets",
    "request_reason": "Pothole",
    "date_created": "2025-02-27T16:10:23.000",
    "date_modified": "2025-02-27T16:10:26.000",
    "request_status": "Pending",
    "responsible_agency": "Department of Public Works",
    "final_address": "12310 Carmel Pl",
    "address_councildis": "E",
    "status": "Pending",
    "rowid": "1172077",
    "final_x": "3715823.54373",
    "final_y": "566469.189859",
    "longitude": "-89.95836594580753",
    "latitude": "30.050505606448535",
    "geocoded_column": {
      "latitude": "30.050505606448535",
      "longitude": "-89.95836594580753"
    }
  },
  {
    "service_request": "2025-1172076",
    "request_type": "Trash/Recycling",
    "request_reason": "Request a Large Item Pick Up",
    "date_created": "2025-02-27T16:05:07.000",
    "date_modified": "2025-02-27T16:05:09.000",
    "request_status": "Pending",
    "responsible_agency": "Department of Sanitation",
    "final_address": "7310 Fieldston Rd",
    "address_councildis": "E",
    "status": "Assigned to Contractor",
    "contractor": "Waste Pro",
    "rowid": "1172076",
    "final_x": "3700728.13431",
    "final_y": "559689.504861",
    "longitude": "-90.0063250809042",
    "latitude": "30.032353551062187",
    "geocoded_column": {
      "latitude": "30.032353551062187",
      "longitude": "-90.0063250809042"
    }
  },
  {
    "service_request": "2025-1172075",
    "request_type": "Safety & Permits",
    "request_reason": "Zoning Enforcement",
    "date_created": "2025-02-27T16:03:04.000",
    "date_modified": "2025-02-27T16:03:06.000",
    "request_status": "Pending",
    "responsible_agency": "Safety and Permits",
    "final_address": "4916 Danneel St",
    "address_councildis": "B",
    "status": "Pending",
    "rowid": "1172075",
    "final_x": "3668961.63738",
    "final_y": "522091.094714",
    "longitude": "-90.10798047015584",
    "latitude": "29.929943987141083",
    "geocoded_column": {
      "latitude": "29.929943987141083",
      "longitude": "-90.10798047015584"
    }
  },
  {
    "service_request": "2025-1172074",
    "request_type": "Trash/Recycling",
    "request_reason": "Request a Large Item Pick Up",
    "date_created": "2025-02-27T16:01:48.000",
    "date_modified": "2025-02-27T16:01:50.000",
    "request_status": "Pending",
    "responsible_agency": "Department of Sanitation",
    "final_address": "4701 Rosemont Pl",
    "address_councildis": "E",
    "status": "Assigned to Contractor",
    "contractor": "Waste Pro",
    "rowid": "1172074",
    "final_x": "3702797.06826",
    "final_y": "554631.412888",
    "longitude": "-89.99997314234768",
    "latitude": "30.018379706991347",
    "geocoded_column": {
      "latitude": "30.018379706991347",
      "longitude": "-89.99997314234768"
    }
  },
  {
    "service_request": "2025-1172073",
    "request_type": "Trash/Recycling",
    "request_reason": "Request a Large Item Pick Up",
    "date_created": "2025-02-27T16:01:07.000",
    "date_modified": "2025-02-27T16:01:08.000",
    "request_status": "Pending",
    "responsible_agency": "Department of Sanitation",
    "final_address": "2424 Tulane Ave",
    "address_councildis": "B",
    "status": "Assigned to Contractor",
    "contractor": "IV Waste",
    "rowid": "1172073",
    "final_x": "3675255.82997",
    "final_y": "533201.61498",
    "longitude": "-90.0877294629103",
    "latitude": "29.96030767169834",
    "geocoded_column": {
      "latitude": "29.96030767169834",
      "longitude": "-90.0877294629103"
    }
  },
  {
    "service_request": "2025-1172072",
    "request_type": "Property Maintenance",
    "request_reason": "Property Maintenance",
    "date_created": "2025-02-27T15:54:28.000",
    "date_modified": "2025-02-27T15:54:29.000",
    "request_status": "Pending",
    "responsible_agency": "Department of Code Enforcement",
    "final_address": "2104 Franklin Ave",
    "address_councildis": "D",
    "status": "Pending",
    "rowid": "1172072",
    "final_x": "3687546.391",
    "final_y": "540290.758603",
    "longitude": "-90.04866754253212",
    "latitude": "29.97942724168705",
    "geocoded_column": {
      "latitude": "29.97942724168705",
      "longitude": "-90.04866754253212"
    }
  },
  {
    "service_request": "2025-1172071",
    "request_type": "Trash/Recycling",
    "request_reason": "Repair Recycling Cart",
    "date_created": "2025-02-27T15:52:08.000",
    "date_modified": "2025-02-27T15:52:10.000",
    "request_status": "Pending",
    "responsible_agency": "Department of Sanitation",
    "final_address": "321 Neil Ave",
    "address_councildis": "C",
    "status": "Pending",
    "rowid": "1172071",
    "final_x": "3707548.0739",
    "final_y": "518672.789815",
    "longitude": "-89.98629750106043",
    "latitude": "29.91935382458265",
    "geocoded_column": {
      "latitude": "29.91935382458265",
      "longitude": "-89.98629750106043"
    }
  },
  {
    "service_request": "2025-1172070",
    "request_type": "Property Maintenance",
    "request_reason": "Property Maintenance",
    "date_created": "2025-02-27T15:51:18.000",
    "date_modified": "2025-02-27T15:51:20.000",
    "request_status": "Pending",
    "responsible_agency": "Department of Code Enforcement",
    "final_address": "2104 Franklin Ave",
    "address_councildis": "D",
    "status": "Pending",
    "rowid": "1172070",
    "final_x": "3687546.391",
    "final_y": "540290.758603",
    "longitude": "-90.04866754253212",
    "latitude": "29.97942724168705",
    "geocoded_column": {
      "latitude": "29.97942724168705",
      "longitude": "-90.04866754253212"
    }
  },
  {
    "service_request": "2025-1172069",
    "request_type": "Trash/Recycling",
    "request_reason": "Replace Trash Cart",
    "date_created": "2025-02-27T15:50:43.000",
    "date_modified": "2025-02-27T15:50:45.000",
    "request_status": "Pending",
    "responsible_agency": "Department of Sanitation",
    "final_address": "613 Huntlee Dr",
    "address_councildis": "C",
    "status": "Assigned to Contractor",
    "contractor": "Richards Disposal",
    "rowid": "1172069",
    "final_x": "3701755.88445",
    "final_y": "520641.482552",
    "longitude": "-90.00450833473175",
    "latitude": "29.924953012585902",
    "geocoded_column": {
      "latitude": "29.924953012585902",
      "longitude": "-90.00450833473175"
    }
  },
  {
    "service_request": "2025-1172068",
    "request_type": "Abandoned Vehicles",
    "request_reason": "Abandoned/Junk Vehicles",
    "date_created": "2025-02-27T15:50:23.000",
    "date_modified": "2025-02-27T15:50:25.000",
    "request_status": "Pending",
    "responsible_agency": "Department of Public Works",
    "final_address": "1129 Constantinople St",
    "address_councildis": "B",
    "status": "Pending",
    "rowid": "1172068",
    "final_x": "3672480.21876",
    "final_y": "519836.457464",
    "longitude": "-90.09694967801863",
    "latitude": "29.923640526193257",
    "geocoded_column": {
      "latitude": "29.923640526193257",
      "longitude": "-90.09694967801863"
    }
  },
  {
    "service_request": "2025-1172067",
    "request_type": "Safety & Permits",
    "request_reason": "Property Maintenance",
    "date_created": "2025-02-27T15:48:37.000",
    "date_modified": "2025-02-27T15:48:38.000",
    "request_status": "Pending",
    "responsible_agency": "Department of Code Enforcement",
    "final_address": "13245 St Helena Pl",
    "address_councildis": "E",
    "status": "Pending",
    "rowid": "1172067",
    "final_x": "3727033.43232",
    "final_y": "564208.263457",
    "longitude": "-89.92302391922969",
    "latitude": "30.04391437581324",
    "geocoded_column": {
      "latitude": "30.04391437581324",
      "longitude": "-89.92302391922969"
    }
  },
  {
    "service_request": "2025-1172066",
    "request_type": "Trash/Recycling",
    "request_reason": "Request a Large Item Pick Up",
    "date_created": "2025-02-27T15:47:52.000",
    "date_modified": "2025-02-27T15:47:53.000",
    "request_status": "Pending",
    "responsible_agency": "Department of Sanitation",
    "final_address": "8852 Gervais St",
    "address_councildis": "E",
    "status": "Assigned to Contractor",
    "contractor": "Waste Pro",
    "rowid": "1172066",
    "final_x": "3704857.05969",
    "final_y": "563157.565792",
    "longitude": "-89.99314929658064",
    "latitude": "30.041757228348104",
    "geocoded_column": {
      "latitude": "30.041757228348104",
      "longitude": "-89.99314929658064"
    }
  },
  {
    "service_request": "2025-1172065",
    "request_type": "Trash/Recycling",
    "request_reason": "Request a Large Item Pick Up",
    "date_created": "2025-02-27T15:46:21.000",
    "date_modified": "2025-02-27T15:46:23.000",
    "request_status": "Pending",
    "responsible_agency": "Department of Sanitation",
    "final_address": "4761 Flake Ave",
    "address_councildis": "E",
    "status": "Assigned to Contractor",
    "contractor": "Waste Pro",
    "rowid": "1172065",
    "final_x": "3706178.98129",
    "final_y": "555616.755033",
    "longitude": "-89.98925111636584",
    "latitude": "30.020980375104553",
    "geocoded_column": {
      "latitude": "30.020980375104553",
      "longitude": "-89.98925111636584"
    }
  },
  {
    "service_request": "2025-1172064",
    "request_type": "Trash/Recycling",
    "request_reason": "Replace Trash Cart",
    "date_created": "2025-02-27T15:44:22.000",
    "date_modified": "2025-02-27T15:44:24.000",
    "request_status": "Pending",
    "responsible_agency": "Department of Sanitation",
    "final_address": "3141 Mansfield Ave",
    "address_councildis": "C",
    "status": "Assigned to Contractor",
    "contractor": "Richards Disposal",
    "rowid": "1172064",
    "final_x": "3709056.63672",
    "final_y": "518654.244471",
    "longitude": "-89.98153646260958",
    "latitude": "29.919253981261125",
    "geocoded_column": {
      "latitude": "29.919253981261125",
      "longitude": "-89.98153646260958"
    }
  },
  {
    "service_request": "2025-1172063",
    "request_type": "Roads and Streets",
    "request_reason": "Pothole",
    "date_created": "2025-02-27T15:41:22.000",
    "date_modified": "2025-02-27T15:41:24.000",
    "request_status": "Pending",
    "responsible_agency": "Department of Public Works",
    "final_address": "0 BLK Acadiana Pl",
    "address_councildis": "E",
    "status": "Pending",
    "rowid": "1172063",
    "final_x": "3725131.4083",
    "final_y": "564393.680055",
    "longitude": "-89.92902788187175",
    "latitude": "30.04448842646984",
    "geocoded_column": {
      "latitude": "30.04448842646984",
      "longitude": "-89.92902788187175"
    }
  },
  {
    "service_request": "2025-1172062",
    "request_type": "Drainage",
    "request_reason": "Street Flooding",
    "date_created": "2025-02-27T15:40:42.000",
    "date_modified": "2025-02-27T15:40:44.000",
    "request_status": "Pending",
    "responsible_agency": "Sewerage & Water Board ",
    "final_address": "2739 Conti St",
    "address_councildis": "B",
    "status": "Pending",
    "rowid": "1172062",
    "final_x": "3675788.75355",
    "final_y": "536285.227207",
    "longitude": "-90.08594059522767",
    "latitude": "29.968770623386494",
    "geocoded_column": {
      "latitude": "29.968770623386494",
      "longitude": "-90.08594059522767"
    }
  },
  {
    "service_request": "2025-1172061",
    "request_type": "Trash/Recycling",
    "request_reason": "Request a Large Item Pick Up",
    "date_created": "2025-02-27T15:37:44.000",
    "date_modified": "2025-02-27T15:37:46.000",
    "request_status": "Pending",
    "responsible_agency": "Department of Sanitation",
    "final_address": "202 S Lopez St",
    "address_councildis": "B",
    "status": "Assigned to Contractor",
    "contractor": "IV Waste",
    "rowid": "1172061",
    "final_x": "3673603.82209",
    "final_y": "535826.513287",
    "longitude": "-90.09285643441021",
    "latitude": "29.967574536721994",
    "geocoded_column": {
      "latitude": "29.967574536721994",
      "longitude": "-90.09285643441021"
    }
  },
  {
    "service_request": "2025-1172060",
    "request_type": "Trash/Recycling",
    "request_reason": "Request a Large Item Pick Up",
    "date_created": "2025-02-27T15:34:06.000",
    "date_modified": "2025-02-27T17:42:45.000",
    "request_status": "Pending",
    "responsible_agency": "Department of Sanitation",
    "final_address": "7554 Lehigh St",
    "address_councildis": "E",
    "contractor": "Waste Pro",
    "rowid": "1172060",
    "final_x": "3710719.57131",
    "final_y": "565312.973858",
    "longitude": "-89.97454098647248",
    "latitude": "30.047493894040308",
    "geocoded_column": {
      "latitude": "30.047493894040308",
      "longitude": "-89.97454098647248"
    }
  },
  {
    "service_request": "2025-1172059",
    "request_type": "Trash/Recycling",
    "request_reason": "Request a Large Item Pick Up",
    "date_created": "2025-02-27T15:31:26.000",
    "date_modified": "2025-02-27T15:31:28.000",
    "request_status": "Pending",
    "responsible_agency": "Department of Sanitation",
    "final_address": "4924 Paris Ave",
    "address_councildis": "D",
    "status": "Assigned to Contractor",
    "contractor": "IV Waste",
    "rowid": "1172059",
    "final_x": "3679134.68175",
    "final_y": "550546.134804",
    "longitude": "-90.07487932318185",
    "latitude": "30.00788254584537",
    "geocoded_column": {
      "latitude": "30.00788254584537",
      "longitude": "-90.07487932318185"
    }
  },
  {
    "service_request": "2025-1172058",
    "request_type": "Trash/Recycling",
    "request_reason": "Order Trash Cart",
    "date_created": "2025-02-27T15:28:58.000",
    "date_modified": "2025-02-27T15:29:00.000",
    "request_status": "Pending",
    "responsible_agency": "Department of Sanitation",
    "final_address": "1527 N Galvez St",
    "address_councildis": "D",
    "status": "Assigned to Contractor",
    "contractor": "IV Waste",
    "rowid": "1172058",
    "final_x": "3680397.41787",
    "final_y": "538502.380617",
    "longitude": "-90.07130904346245",
    "latitude": "29.974728273170168",
    "geocoded_column": {
      "latitude": "29.974728273170168",
      "longitude": "-90.07130904346245"
    }
  },
  {
    "service_request": "2025-1172057",
    "request_type": "Streetlights",
    "request_reason": "Streetlight Outage/Malfunction",
    "date_created": "2025-02-27T15:20:45.000",
    "date_modified": "2025-02-27T15:20:46.000",
    "request_status": "Pending",
    "responsible_agency": "Department of Public Works",
    "final_address": "6012 Warrington Dr",
    "address_councildis": "D",
    "status": "Pending",
    "contractor": "Legacy Professional Services",
    "rowid": "1172057",
    "final_x": "3680636.62261",
    "final_y": "554702.492184",
    "longitude": "-90.06998946857497",
    "latitude": "30.01926558163097",
    "geocoded_column": {
      "latitude": "30.01926558163097",
      "longitude": "-90.06998946857497"
    }
  },
  {
    "service_request": "2025-1172056",
    "request_type": "Trash/Recycling",
    "request_reason": "Replace Recycling Cart",
    "date_created": "2025-02-27T15:20:19.000",
    "date_modified": "2025-02-27T15:20:21.000",
    "request_status": "Pending",
    "responsible_agency": "Department of Sanitation",
    "final_address": "4000 S Inwood Ave",
    "address_councildis": "C",
    "status": "Pending",
    "rowid": "1172056",
    "final_x": "3705430.82257",
    "final_y": "513324.444978",
    "longitude": "-89.993177992218",
    "latitude": "29.904715985142428",
    "geocoded_column": {
      "latitude": "29.904715985142428",
      "longitude": "-89.993177992218"
    }
  },
  {
    "service_request": "2025-1172055",
    "request_type": "Abandoned Vehicles",
    "request_reason": "Abandoned/Junk Vehicles",
    "date_created": "2025-02-27T15:19:24.000",
    "date_modified": "2025-02-27T15:19:26.000",
    "request_status": "Pending",
    "responsible_agency": "Department of Public Works",
    "final_address": "3016 Peoples Ave",
    "address_councildis": "D",
    "status": "Pending",
    "rowid": "1172055",
    "final_x": "3688628.14287",
    "final_y": "544176.559758",
    "longitude": "-90.04511297126939",
    "latitude": "29.990078416449702",
    "geocoded_column": {
      "latitude": "29.990078416449702",
      "longitude": "-90.04511297126939"
    }
  },
  {
    "service_request": "2025-1172054",
    "request_type": "Trash/Recycling",
    "request_reason": "Replace Trash Cart",
    "date_created": "2025-02-27T15:16:36.000",
    "date_modified": "2025-02-27T15:16:38.000",
    "request_status": "Pending",
    "responsible_agency": "Department of Sanitation",
    "final_address": "1945 Pace Blvd",
    "address_councildis": "C",
    "status": "Assigned to Contractor",
    "contractor": "Richards Disposal",
    "rowid": "1172054",
    "final_x": "3694391.19043",
    "final_y": "523232.387899",
    "longitude": "-90.02766296806499",
    "latitude": "29.93230991044649",
    "geocoded_column": {
      "latitude": "29.93230991044649",
      "longitude": "-90.02766296806499"
    }
  },
  {
    "service_request": "2025-1172053",
    "request_type": "Trash/Recycling",
    "request_reason": "Replace Trash Cart",
    "date_created": "2025-02-27T15:14:54.000",
    "date_modified": "2025-02-27T15:15:20.000",
    "request_status": "Pending",
    "responsible_agency": "Department of Sanitation",
    "final_address": "1228 N Robertson St",
    "address_councildis": "C",
    "status": "Assigned to Contractor",
    "contractor": "IV Waste",
    "rowid": "1172053",
    "final_x": "3681436.48252",
    "final_y": "536107.504391",
    "longitude": "-90.06811093766902",
    "latitude": "29.968111681776303",
    "geocoded_column": {
      "latitude": "29.968111681776303",
      "longitude": "-90.06811093766902"
    }
  },
  {
    "service_request": "2025-1172052",
    "request_type": "Trash/Recycling",
    "request_reason": "Request a Large Item Pick Up",
    "date_created": "2025-02-27T15:10:28.000",
    "date_modified": "2025-02-27T15:10:30.000",
    "request_status": "Pending",
    "responsible_agency": "Department of Sanitation",
    "final_address": "5573 Milne St",
    "address_councildis": "A",
    "status": "Assigned to Contractor",
    "contractor": "IV Waste",
    "rowid": "1172052",
    "final_x": "3666822.63821",
    "final_y": "544470.589199",
    "longitude": "-90.1139811463444",
    "latitude": "29.991542953416857",
    "geocoded_column": {
      "latitude": "29.991542953416857",
      "longitude": "-90.1139811463444"
    }
  },
  {
    "service_request": "2025-1172051",
    "request_type": "Traffic Signals",
    "request_reason": "Traffic Signal Malfunctioning or Damaged",
    "date_created": "2025-02-27T15:01:09.000",
    "date_modified": "2025-02-27T15:01:23.000",
    "request_status": "Pending",
    "responsible_agency": "Department of Public Works",
    "final_address": "5729 Franklin Ave",
    "address_councildis": "D",
    "status": "Pending",
    "rowid": "1172051",
    "final_x": "3686582.95586",
    "final_y": "554306.216728",
    "longitude": "-90.05121513585532",
    "latitude": "30.01799436064056",
    "geocoded_column": {
      "latitude": "30.01799436064056",
      "longitude": "-90.05121513585532"
    }
  },
  {
    "service_request": "2025-1172050",
    "request_type": "Trash/Recycling",
    "request_reason": "Request a Large Item Pick Up",
    "date_created": "2025-02-27T14:56:30.000",
    "date_modified": "2025-02-27T14:56:31.000",
    "request_status": "Pending",
    "responsible_agency": "Department of Sanitation",
    "final_address": "4631 Bancroft Dr",
    "address_councildis": "D",
    "status": "Assigned to Contractor",
    "contractor": "IV Waste",
    "rowid": "1172050",
    "final_x": "3676240.78613",
    "final_y": "549351.198739",
    "longitude": "-90.08406317035319",
    "latitude": "30.004683970853247",
    "geocoded_column": {
      "latitude": "30.004683970853247",
      "longitude": "-90.08406317035319"
    }
  },
  {
    "service_request": "2025-1172049",
    "request_type": "Trash/Recycling",
    "request_reason": "Request a Large Item Pick Up",
    "date_created": "2025-02-27T14:53:16.000",
    "date_modified": "2025-02-27T14:53:17.000",
    "request_status": "Pending",
    "responsible_agency": "Department of Sanitation",
    "final_address": "4460 Trieste St",
    "address_councildis": "E",
    "status": "Assigned to Contractor",
    "contractor": "Waste Pro",
    "rowid": "1172049",
    "final_x": "3760243.82729",
    "final_y": "574447.425515",
    "longitude": "-89.81763923597806",
    "latitude": "30.07090167458869",
    "geocoded_column": {
      "latitude": "30.07090167458869",
      "longitude": "-89.81763923597806"
    }
  },
  {
    "service_request": "2025-1172048",
    "request_type": "Trash/Recycling",
    "request_reason": "Request a Large Item Pick Up",
    "date_created": "2025-02-27T14:51:33.000",
    "date_modified": "2025-02-27T15:33:08.000",
    "request_status": "Pending",
    "responsible_agency": "Department of Sanitation",
    "final_address": "1933 Alvar St",
    "address_councildis": "D",
    "status": "Assigned to Contractor",
    "contractor": "IV Waste",
    "rowid": "1172048",
    "final_x": "3692354.62493",
    "final_y": "538651.245961",
    "longitude": "-90.03354003037157",
    "latitude": "29.974770063082804",
    "geocoded_column": {
      "latitude": "29.974770063082804",
      "longitude": "-90.03354003037157"
    }
  },
  {
    "service_request": "2025-1172047",
    "request_type": "Trash/Recycling",
    "request_reason": "Request a Large Item Pick Up",
    "date_created": "2025-02-27T14:51:27.000",
    "date_modified": "2025-02-27T14:51:29.000",
    "request_status": "Pending",
    "responsible_agency": "Department of Sanitation",
    "final_address": "1907 Feliciana St",
    "address_councildis": "D",
    "status": "Assigned to Contractor",
    "contractor": "IV Waste",
    "rowid": "1172047",
    "final_x": "3689543.87279",
    "final_y": "539126.67553",
    "longitude": "-90.04240014328924",
    "latitude": "29.976164696735875",
    "geocoded_column": {
      "latitude": "29.976164696735875",
      "longitude": "-90.04240014328924"
    }
  },
  {
    "service_request": "2025-1172046",
    "request_type": "Streetlights",
    "request_reason": "New Streetlight Request",
    "date_created": "2025-02-27T14:48:14.000",
    "date_modified": "2025-02-27T14:49:12.000",
    "request_status": "Pending",
    "responsible_agency": "Department of Public Works",
    "final_address": "3431 Parkview Pl",
    "address_councildis": "A",
    "status": "Pending",
    "contractor": "Legacy Professional Services",
    "rowid": "1172046",
    "final_x": "3675656.68264",
    "final_y": "543421.941006",
    "longitude": "-90.08611236063754",
    "latitude": "29.988398088898556",
    "geocoded_column": {
      "latitude": "29.988398088898556",
      "longitude": "-90.08611236063754"
    }
  },
  {
    "service_request": "2025-1172045",
    "request_type": "Trash/Recycling",
    "request_reason": "Request a Large Item Pick Up",
    "date_created": "2025-02-27T14:47:46.000",
    "date_modified": "2025-02-27T14:47:48.000",
    "request_status": "Pending",
    "responsible_agency": "Department of Sanitation",
    "final_address": "7824 Hampson St",
    "address_councildis": "A",
    "status": "Assigned to Contractor",
    "contractor": "IV Waste",
    "rowid": "1172045",
    "final_x": "3661456.28166",
    "final_y": "526420.122942",
    "longitude": "-90.131530403832",
    "latitude": "29.942066009081486",
    "geocoded_column": {
      "latitude": "29.942066009081486",
      "longitude": "-90.131530403832"
    }
  },
  {
    "service_request": "2025-1172044",
    "request_type": "Trash/Recycling",
    "request_reason": "Replace Trash Cart",
    "date_created": "2025-02-27T14:47:42.000",
    "date_modified": "2025-02-27T14:48:24.000",
    "request_status": "Pending",
    "responsible_agency": "Department of Sanitation",
    "final_address": "3153 N Galvez St",
    "address_councildis": "D",
    "status": "Assigned to Contractor",
    "contractor": "IV Waste",
    "rowid": "1172044",
    "final_x": "3690356.23491",
    "final_y": "539695.225162",
    "longitude": "-90.03981420292412",
    "latitude": "29.977702815810165",
    "geocoded_column": {
      "latitude": "29.977702815810165",
      "longitude": "-90.03981420292412"
    }
  },
  {
    "service_request": "2025-1172043",
    "request_type": "Drainage",
    "request_reason": "Catch Basin Clogged",
    "date_created": "2025-02-27T14:43:24.000",
    "date_modified": "2025-02-27T14:43:25.000",
    "request_status": "Pending",
    "responsible_agency": "Sewerage & Water Board ",
    "final_address": "9317 Apricot St",
    "address_councildis": "A",
    "status": "Pending",
    "rowid": "1172043",
    "final_x": "3662612.33779",
    "final_y": "535606.695366",
    "longitude": "-90.12757526127872",
    "latitude": "29.96729272185434",
    "geocoded_column": {
      "latitude": "29.96729272185434",
      "longitude": "-90.12757526127872"
    }
  },
  {
    "service_request": "2025-1172042",
    "request_type": "Utility Poles",
    "request_reason": "Wires Sagging/Hanging Low",
    "date_created": "2025-02-27T14:43:15.000",
    "date_modified": "2025-02-27T14:43:17.000",
    "request_status": "Pending",
    "responsible_agency": "Utility Company Collective",
    "final_address": "727 S Cortez St",
    "address_councildis": "B",
    "status": "Pending",
    "rowid": "1172042",
    "final_x": "3670204.91777",
    "final_y": "535444.42663",
    "longitude": "-90.1036032282281",
    "latitude": "29.966624665557852",
    "geocoded_column": {
      "latitude": "29.966624665557852",
      "longitude": "-90.1036032282281"
    }
  },
  {
    "service_request": "2025-1172041",
    "request_type": "Traffic Signals",
    "request_reason": "Traffic Signal Malfunctioning or Damaged",
    "date_created": "2025-02-27T14:43:09.000",
    "date_modified": "2025-02-27T14:43:10.000",
    "request_status": "Pending",
    "responsible_agency": "Department of Public Works",
    "final_address": "WEST END BLVD & POLK AVE",
    "address_councildis": "A",
    "status": "Pending",
    "rowid": "1172041",
    "final_x": "3666466.7",
    "final_y": "547597.08",
    "longitude": "-90.1150004742319",
    "latitude": "30.000150141254412",
    "geocoded_column": {
      "latitude": "30.000150141254412",
      "longitude": "-90.1150004742319"
    }
  },
  {
    "service_request": "2025-1172040",
    "request_type": "Property Maintenance",
    "request_reason": "Property Maintenance",
    "date_created": "2025-02-27T14:39:46.000",
    "date_modified": "2025-02-27T14:39:48.000",
    "request_status": "Pending",
    "responsible_agency": "Department of Code Enforcement",
    "final_address": "5418 N Robertson St",
    "address_councildis": "E",
    "status": "Pending",
    "rowid": "1172040",
    "final_x": "3697719.00771",
    "final_y": "535372.80327",
    "longitude": "-90.01671703894642",
    "latitude": "29.965587111096163",
    "geocoded_column": {
      "latitude": "29.965587111096163",
      "longitude": "-90.01671703894642"
    }
  },
  {
    "service_request": "2025-1172039",
    "request_type": "Traffic Signals",
    "request_reason": "Traffic Signal Malfunctioning or Damaged",
    "date_created": "2025-02-27T14:36:28.000",
    "date_modified": "2025-02-27T14:36:29.000",
    "request_status": "Pending",
    "responsible_agency": "Department of Public Works",
    "final_address": "POLK AVE & WEST END BLVD",
    "address_councildis": "A",
    "status": "Pending",
    "rowid": "1172039",
    "final_x": "3666453.2",
    "final_y": "547537.78",
    "longitude": "-90.11504511338072",
    "latitude": "29.999987481371257",
    "geocoded_column": {
      "latitude": "29.999987481371257",
      "longitude": "-90.11504511338072"
    }
  },
  {
    "service_request": "2025-1172038",
    "request_type": "Trash/Recycling",
    "request_reason": "Request a Large Item Pick Up",
    "date_created": "2025-02-27T14:35:56.000",
    "date_modified": "2025-02-27T14:35:57.000",
    "request_status": "Pending",
    "responsible_agency": "Department of Sanitation",
    "final_address": "4027 Vincennes Pl",
    "address_councildis": "B",
    "status": "Assigned to Contractor",
    "contractor": "IV Waste",
    "rowid": "1172038",
    "final_x": "3668501.14951",
    "final_y": "530186.348353",
    "longitude": "-90.10916113352104",
    "latitude": "29.952216852679793",
    "geocoded_column": {
      "latitude": "29.952216852679793",
      "longitude": "-90.10916113352104"
    }
  },
  {
    "service_request": "2025-1172037",
    "request_type": "Street and Traffic Signs",
    "request_reason": "Traffic or Parking Sign Damaged or Missing",
    "date_created": "2025-02-27T14:34:59.000",
    "date_modified": "2025-02-27T14:35:00.000",
    "request_status": "Pending",
    "responsible_agency": "Department of Public Works",
    "final_address": "1304 Chartres St",
    "address_councildis": "C",
    "status": "Pending",
    "rowid": "1172037",
    "final_x": "3684207.67106",
    "final_y": "534001.491525",
    "longitude": "-90.05943337077473",
    "latitude": "29.962236445113724",
    "geocoded_column": {
      "latitude": "29.962236445113724",
      "longitude": "-90.05943337077473"
    }
  },
  {
    "service_request": "2025-1172036",
    "request_type": "General Services",
    "request_reason": "General Service Request",
    "date_created": "2025-02-27T14:34:35.000",
    "date_modified": "2025-02-27T14:37:44.000",
    "case_close_date": "2025-02-27T08:37:43.000",
    "request_status": "Closed",
    "responsible_agency": "Orleans Parish Communication District",
    "final_address": "822 Valmont St",
    "address_councildis": "B",
    "status": "Question Answered.",
    "rowid": "1172036",
    "final_x": "3667409.36071",
    "final_y": "518456.696886",
    "longitude": "-90.1130029540767",
    "latitude": "29.919996095484482",
    "geocoded_column": {
      "latitude": "29.919996095484482",
      "longitude": "-90.1130029540767"
    }
  },
  {
    "service_request": "2025-1172035",
    "request_type": "Drainage",
    "request_reason": "Catch Basin Clogged",
    "date_created": "2025-02-27T14:33:07.000",
    "date_modified": "2025-02-27T14:35:17.000",
    "request_status": "Pending",
    "responsible_agency": "Sewerage & Water Board ",
    "final_address": "4739 St Charles Ave",
    "address_councildis": "B",
    "status": "Pending",
    "rowid": "1172035",
    "final_x": "3669452.4233",
    "final_y": "520782.704441",
    "longitude": "-90.10647536124927",
    "latitude": "29.926331890657146",
    "geocoded_column": {
      "latitude": "29.926331890657146",
      "longitude": "-90.10647536124927"
    }
  },
  {
    "service_request": "2025-1172034",
    "request_type": "Trash/Recycling",
    "request_reason": "Request a Large Item Pick Up",
    "date_created": "2025-02-27T14:31:54.000",
    "date_modified": "2025-02-27T14:32:18.000",
    "request_status": "Pending",
    "responsible_agency": "Department of Sanitation",
    "final_address": "6000 Shetland Dr",
    "address_councildis": "C",
    "status": "Assigned to Contractor",
    "contractor": "Richards Disposal",
    "rowid": "1172034",
    "final_x": "3705465.67441",
    "final_y": "520810.698873",
    "longitude": "-89.9927915847884",
    "latitude": "29.92529948042793",
    "geocoded_column": {
      "latitude": "29.92529948042793",
      "longitude": "-89.9927915847884"
    }
  },
  {
    "service_request": "2025-1172033",
    "request_type": "Trash/Recycling",
    "request_reason": "Missed Trash Pick-Up",
    "date_created": "2025-02-27T14:29:44.000",
    "date_modified": "2025-02-27T14:39:58.000",
    "case_close_date": "2025-02-27T08:39:56.000",
    "request_status": "Closed",
    "responsible_agency": "Department of Sanitation",
    "final_address": "1823 Washington Ave",
    "address_councildis": "B",
    "status": "Invalid Request",
    "contractor": "IV Waste",
    "contractor_action": "Invalid",
    "rowid": "1172033",
    "final_x": "3675390.69966",
    "final_y": "523415.245499",
    "longitude": "-90.08763953574447",
    "latitude": "29.933394360458514",
    "geocoded_column": {
      "latitude": "29.933394360458514",
      "longitude": "-90.08763953574447"
    }
  },
  {
    "service_request": "2025-1172032",
    "request_type": "Abandoned Vehicles",
    "request_reason": "Abandoned/Junk Vehicles",
    "date_created": "2025-02-27T14:27:35.000",
    "date_modified": "2025-02-27T14:30:56.000",
    "request_status": "Pending",
    "responsible_agency": "Department of Public Works",
    "final_address": "MARKET ST & S PETERS ST",
    "address_councildis": "B",
    "status": "Inspected",
    "rowid": "1172032",
    "final_x": "3682547.1",
    "final_y": "522130.38",
    "longitude": "-90.06509212197237",
    "latitude": "29.92964554019237",
    "geocoded_column": {
      "latitude": "29.92964554019237",
      "longitude": "-90.06509212197237"
    }
  },
  {
    "service_request": "2025-1172031",
    "request_type": "Street and Traffic Signs",
    "request_reason": "Traffic or Parking Sign Damaged or Missing",
    "date_created": "2025-02-27T14:26:32.000",
    "date_modified": "2025-02-27T14:26:33.000",
    "request_status": "Pending",
    "responsible_agency": "Department of Public Works",
    "final_address": "1304 Chartres St",
    "address_councildis": "C",
    "status": "Pending",
    "rowid": "1172031",
    "final_x": "3684207.67106",
    "final_y": "534001.491525",
    "longitude": "-90.05943337077473",
    "latitude": "29.962236445113724",
    "geocoded_column": {
      "latitude": "29.962236445113724",
      "longitude": "-90.05943337077473"
    }
  },
  {
    "service_request": "2025-1172030",
    "request_type": "Abandoned Vehicles",
    "request_reason": "Abandoned/Junk Vehicles",
    "date_created": "2025-02-27T14:16:15.000",
    "date_modified": "2025-02-27T14:16:18.000",
    "request_status": "Pending",
    "responsible_agency": "Department of Public Works",
    "final_address": "6214 Pasteur Blvd",
    "address_councildis": "D",
    "status": "Pending",
    "rowid": "1172030",
    "final_x": "3682695.63349",
    "final_y": "555909.311833",
    "longitude": "-90.06344144378222",
    "latitude": "30.022521311037597",
    "geocoded_column": {
      "latitude": "30.022521311037597",
      "longitude": "-90.06344144378222"
    }
  },
  {
    "service_request": "2025-1172029",
    "request_type": "Trash/Recycling",
    "request_reason": "Request a Large Item Pick Up",
    "date_created": "2025-02-27T14:15:19.000",
    "date_modified": "2025-02-27T14:15:20.000",
    "request_status": "Pending",
    "responsible_agency": "Department of Sanitation",
    "final_address": "510 Governor Nicholls St Apt 3B",
    "address_councildis": "C",
    "status": "Assigned to Contractor",
    "contractor": "IV Waste",
    "rowid": "1172029",
    "final_x": "3684170.59362",
    "final_y": "533454.571332",
    "longitude": "-90.05956965478894",
    "latitude": "29.960733735914623",
    "geocoded_column": {
      "latitude": "29.960733735914623",
      "longitude": "-90.05956965478894"
    }
  },
  {
    "service_request": "2025-1172028",
    "request_type": "Roads and Streets",
    "request_reason": "Push-up/Pavement Expansion",
    "date_created": "2025-02-27T14:14:41.000",
    "date_modified": "2025-02-27T14:14:43.000",
    "request_status": "Pending",
    "responsible_agency": "Department of Public Works",
    "final_address": "5523 S Miro St",
    "address_councildis": "A",
    "status": "Pending",
    "rowid": "1172028",
    "final_x": "3668221.75853",
    "final_y": "527770.864639",
    "longitude": "-90.11012474320096",
    "latitude": "29.945583263609482",
    "geocoded_column": {
      "latitude": "29.945583263609482",
      "longitude": "-90.11012474320096"
    }
  },
  {
    "service_request": "2025-1172027",
    "request_type": "Abandoned Vehicles",
    "request_reason": "Abandoned/Junk Vehicles",
    "date_created": "2025-02-27T14:07:53.000",
    "date_modified": "2025-02-27T14:07:55.000",
    "request_status": "Pending",
    "responsible_agency": "Department of Public Works",
    "final_address": "6214 Pasteur Blvd",
    "address_councildis": "D",
    "status": "Pending",
    "rowid": "1172027",
    "final_x": "3682695.63349",
    "final_y": "555909.311833",
    "longitude": "-90.06344144378222",
    "latitude": "30.022521311037597",
    "geocoded_column": {
      "latitude": "30.022521311037597",
      "longitude": "-90.06344144378222"
    }
  },
  {
    "service_request": "2025-1172026",
    "request_type": "Abandoned Vehicles",
    "request_reason": "Abandoned/Junk Vehicles",
    "date_created": "2025-02-27T14:07:39.000",
    "date_modified": "2025-02-27T14:07:41.000",
    "request_status": "Pending",
    "responsible_agency": "Department of Public Works",
    "final_address": "6214 Pasteur Blvd",
    "address_councildis": "D",
    "status": "Pending",
    "rowid": "1172026",
    "final_x": "3682695.63349",
    "final_y": "555909.311833",
    "longitude": "-90.06344144378222",
    "latitude": "30.022521311037597",
    "geocoded_column": {
      "latitude": "30.022521311037597",
      "longitude": "-90.06344144378222"
    }
  },
  {
    "service_request": "2025-1172025",
    "request_type": "Abandoned Vehicles",
    "request_reason": "Abandoned/Junk Vehicles",
    "date_created": "2025-02-27T14:07:09.000",
    "date_modified": "2025-02-27T14:07:11.000",
    "request_status": "Pending",
    "responsible_agency": "Department of Public Works",
    "final_address": "13 Brownlee Ct",
    "address_councildis": "E",
    "status": "Pending",
    "rowid": "1172025",
    "final_x": "3712718.42616",
    "final_y": "567036.2161",
    "longitude": "-89.96815867648911",
    "latitude": "30.05216678363728",
    "geocoded_column": {
      "latitude": "30.05216678363728",
      "longitude": "-89.96815867648911"
    }
  },
  {
    "service_request": "2025-1172024",
    "request_type": "Trash/Recycling",
    "request_reason": "Missed Trash Pick-Up",
    "date_created": "2025-02-27T14:06:56.000",
    "date_modified": "2025-02-27T16:17:45.000",
    "case_close_date": "2025-02-27T10:17:44.000",
    "request_status": "Closed",
    "responsible_agency": "Department of Sanitation",
    "final_address": "177 Broadway St",
    "address_councildis": "A",
    "status": "Invalid Request",
    "contractor": "IV Waste",
    "contractor_action": "Invalid",
    "rowid": "1172024",
    "final_x": "3661112.32762",
    "final_y": "521831.723258",
    "longitude": "-90.13276813114",
    "latitude": "29.929459270656164",
    "geocoded_column": {
      "latitude": "29.929459270656164",
      "longitude": "-90.13276813114"
    }
  },
  {
    "service_request": "2025-1172023",
    "request_type": "Trash/Recycling",
    "request_reason": "Request a Large Item Pick Up",
    "date_created": "2025-02-27T14:06:35.000",
    "date_modified": "2025-02-27T14:09:43.000",
    "request_status": "Pending",
    "responsible_agency": "Department of Sanitation",
    "final_address": "0 BLK Canal St",
    "address_councildis": "C",
    "rowid": "1172023",
    "final_x": "3683101.85784",
    "final_y": "529482.228553",
    "longitude": "-90.06308356901691",
    "latitude": "29.949843769360704",
    "geocoded_column": {
      "latitude": "29.949843769360704",
      "longitude": "-90.06308356901691"
    }
  },
  {
    "service_request": "2025-1172022",
    "request_type": "Abandoned Vehicles",
    "request_reason": "Abandoned/Junk Vehicles",
    "date_created": "2025-02-27T14:05:09.000",
    "date_modified": "2025-02-27T14:05:11.000",
    "request_status": "Pending",
    "responsible_agency": "Department of Public Works",
    "final_address": "13 Brownlee Ct",
    "address_councildis": "E",
    "status": "Pending",
    "rowid": "1172022",
    "final_x": "3712718.42616",
    "final_y": "567036.2161",
    "longitude": "-89.96815867648911",
    "latitude": "30.05216678363728",
    "geocoded_column": {
      "latitude": "30.05216678363728",
      "longitude": "-89.96815867648911"
    }
  },
  {
    "service_request": "2025-1172021",
    "request_type": "Road Striping",
    "request_reason": "Lane Striping or other Pavement Markings",
    "date_created": "2025-02-27T14:04:36.000",
    "date_modified": "2025-02-27T14:04:38.000",
    "request_status": "Pending",
    "responsible_agency": "Department of Public Works",
    "final_address": "LOUISA ST & CHEF MENTEUR HWY & LOUISA DR",
    "address_councildis": "D",
    "status": "Pending",
    "rowid": "1172021",
    "final_x": "3691328.1",
    "final_y": "549777.98",
    "longitude": "-90.03638428836813",
    "latitude": "30.00539654090171",
    "geocoded_column": {
      "latitude": "30.00539654090171",
      "longitude": "-90.03638428836813"
    }
  },
  {
    "service_request": "2025-1172020",
    "request_type": "Trash/Recycling",
    "request_reason": "Request a Large Item Pick Up",
    "date_created": "2025-02-27T14:02:55.000",
    "date_modified": "2025-02-27T14:03:01.000",
    "request_status": "Pending",
    "responsible_agency": "Department of Sanitation",
    "final_address": "2324 Agriculture St",
    "address_councildis": "D",
    "status": "Assigned to Contractor",
    "contractor": "IV Waste",
    "rowid": "1172020",
    "final_x": "3685423.59785",
    "final_y": "543347.278798",
    "longitude": "-90.05526447668468",
    "latitude": "29.987896862105053",
    "geocoded_column": {
      "latitude": "29.987896862105053",
      "longitude": "-90.05526447668468"
    }
  },
  {
    "service_request": "2025-1172019",
    "request_type": "Trash/Recycling",
    "request_reason": "Request a Large Item Pick Up",
    "date_created": "2025-02-27T14:02:50.000",
    "date_modified": "2025-02-27T14:02:53.000",
    "request_status": "Pending",
    "responsible_agency": "Department of Sanitation",
    "final_address": "7713 Reindeer St",
    "address_councildis": "E",
    "status": "Assigned to Contractor",
    "contractor": "Waste Pro",
    "rowid": "1172019",
    "final_x": "3716876.13509",
    "final_y": "571021.841895",
    "longitude": "-89.95486600812913",
    "latitude": "30.0629887469447",
    "geocoded_column": {
      "latitude": "30.0629887469447",
      "longitude": "-89.95486600812913"
    }
  },
  {
    "service_request": "2025-1172018",
    "request_type": "Streetlights",
    "request_reason": "Streetlight Outage/Malfunction",
    "date_created": "2025-02-27T14:01:26.000",
    "date_modified": "2025-02-27T14:01:28.000",
    "request_status": "Pending",
    "responsible_agency": "Department of Public Works",
    "final_address": "BRUXELLES ST & AGRICULTURE ST",
    "address_councildis": "D",
    "status": "Pending",
    "contractor": "Legacy Professional Services",
    "rowid": "1172018",
    "final_x": "3680292.7",
    "final_y": "542967.18",
    "longitude": "-90.07148448273634",
    "latitude": "29.987008088321414",
    "geocoded_column": {
      "latitude": "29.987008088321414",
      "longitude": "-90.07148448273634"
    }
  },
  {
    "service_request": "2025-1172017",
    "request_type": "Drainage",
    "request_reason": "Catch Basin Clogged",
    "date_created": "2025-02-27T14:01:09.000",
    "date_modified": "2025-02-27T14:01:11.000",
    "request_status": "Pending",
    "responsible_agency": "Sewerage & Water Board ",
    "final_address": "5800 BLK Saint Bernard Ave",
    "address_councildis": "D",
    "status": "Pending",
    "rowid": "1172017",
    "final_x": "3676832.37497",
    "final_y": "553935.626824",
    "longitude": "-90.08203606271354",
    "latitude": "30.0172717598272",
    "geocoded_column": {
      "latitude": "30.0172717598272",
      "longitude": "-90.08203606271354"
    }
  },
  {
    "service_request": "2025-1172016",
    "request_type": "Trash/Recycling",
    "request_reason": "Order Recycling Cart",
    "date_created": "2025-02-27T13:56:28.000",
    "date_modified": "2025-02-27T13:56:31.000",
    "request_status": "Pending",
    "responsible_agency": "Department of Sanitation",
    "final_address": "2924 New Orleans St",
    "address_councildis": "D",
    "status": "Pending",
    "rowid": "1172016",
    "final_x": "3681785.9085",
    "final_y": "543316.466318",
    "longitude": "-90.06675578716542",
    "latitude": "29.987923203404154",
    "geocoded_column": {
      "latitude": "29.987923203404154",
      "longitude": "-90.06675578716542"
    }
  },
  {
    "service_request": "2025-1172015",
    "request_type": "Drainage",
    "request_reason": "Catch Basin Clogged",
    "date_created": "2025-02-27T13:55:11.000",
    "date_modified": "2025-02-27T13:55:12.000",
    "request_status": "Pending",
    "responsible_agency": "Sewerage & Water Board ",
    "final_address": "5800 BLK Saint Bernard Ave",
    "address_councildis": "D",
    "status": "Pending",
    "rowid": "1172015",
    "final_x": "3676832.37497",
    "final_y": "553935.626824",
    "longitude": "-90.08203606271354",
    "latitude": "30.0172717598272",
    "geocoded_column": {
      "latitude": "30.0172717598272",
      "longitude": "-90.08203606271354"
    }
  },
  {
    "service_request": "2025-1172014",
    "request_type": "Trash/Recycling",
    "request_reason": "Request a Large Item Pick Up",
    "date_created": "2025-02-27T13:51:32.000",
    "date_modified": "2025-02-27T13:51:35.000",
    "request_status": "Pending",
    "responsible_agency": "Department of Sanitation",
    "final_address": "7510 Alabama St",
    "address_councildis": "D",
    "status": "Assigned to Contractor",
    "contractor": "Waste Pro",
    "rowid": "1172014",
    "final_x": "3694968.70525",
    "final_y": "558149.793371",
    "longitude": "-90.0245807861657",
    "latitude": "30.028302075714166",
    "geocoded_column": {
      "latitude": "30.028302075714166",
      "longitude": "-90.0245807861657"
    }
  },
  {
    "service_request": "2025-1172013",
    "request_type": "Drainage",
    "request_reason": "Street Flooding",
    "date_created": "2025-02-27T13:51:31.000",
    "date_modified": "2025-02-27T13:51:32.000",
    "request_status": "Pending",
    "responsible_agency": "Sewerage & Water Board ",
    "final_address": "416 St Joseph St",
    "address_councildis": "B",
    "status": "Pending",
    "rowid": "1172013",
    "final_x": "3681537.09186",
    "final_y": "527041.785406",
    "longitude": "-90.06810933762614",
    "latitude": "29.943180974560157",
    "geocoded_column": {
      "latitude": "29.943180974560157",
      "longitude": "-90.06810933762614"
    }
  },
  {
    "service_request": "2025-1172012",
    "request_type": "Streetlights",
    "request_reason": "Streetlight Outage/Malfunction",
    "date_created": "2025-02-27T13:50:33.000",
    "date_modified": "2025-02-27T13:50:34.000",
    "request_status": "Pending",
    "responsible_agency": "Department of Public Works",
    "final_address": "4113 N Rampart St",
    "address_councildis": "C",
    "status": "Pending",
    "contractor": "Legacy Professional Services",
    "rowid": "1172012",
    "final_x": "3692124.42973",
    "final_y": "534792.866118",
    "longitude": "-90.03440517904586",
    "latitude": "29.964168060571616",
    "geocoded_column": {
      "latitude": "29.964168060571616",
      "longitude": "-90.03440517904586"
    }
  },
  {
    "service_request": "2025-1172011",
    "request_type": "Trash/Recycling",
    "request_reason": "Repair Recycling Cart",
    "date_created": "2025-02-27T13:50:30.000",
    "date_modified": "2025-02-27T13:53:17.000",
    "request_status": "Pending",
    "responsible_agency": "Department of Sanitation",
    "final_address": "2319 Leon C Simon Dr",
    "address_councildis": "D",
    "status": "Pending",
    "contractor": "Sanitation Dept. ",
    "rowid": "1172011",
    "final_x": "3684306.5558",
    "final_y": "557096.97065",
    "longitude": "-90.05830956242299",
    "latitude": "30.025737745407405",
    "geocoded_column": {
      "latitude": "30.025737745407405",
      "longitude": "-90.05830956242299"
    }
  },
  {
    "service_request": "2025-1172010",
    "request_type": "Trash/Recycling",
    "request_reason": "Dead Animal Pick Up",
    "date_created": "2025-02-27T13:48:42.000",
    "date_modified": "2025-02-27T13:48:44.000",
    "request_status": "Pending",
    "responsible_agency": "Department of Sanitation",
    "final_address": "2319 Leon C Simon Dr",
    "address_councildis": "D",
    "status": "Assigned to Contractor",
    "contractor": "IV Waste",
    "rowid": "1172010",
    "final_x": "3684306.5558",
    "final_y": "557096.97065",
    "longitude": "-90.05830956242299",
    "latitude": "30.025737745407405",
    "geocoded_column": {
      "latitude": "30.025737745407405",
      "longitude": "-90.05830956242299"
    }
  },
  {
    "service_request": "2025-1172009",
    "request_type": "Roads and Streets",
    "request_reason": "Pothole",
    "date_created": "2025-02-27T13:47:53.000",
    "date_modified": "2025-02-27T13:47:55.000",
    "request_status": "Pending",
    "responsible_agency": "Department of Public Works",
    "final_address": "3500 N Claiborne Ave",
    "address_councildis": "D",
    "status": "Pending",
    "rowid": "1172009",
    "final_x": "3690956.2968",
    "final_y": "537455.496392",
    "longitude": "-90.03799897585121",
    "latitude": "29.97152571606978",
    "geocoded_column": {
      "latitude": "29.97152571606978",
      "longitude": "-90.03799897585121"
    }
  },
  {
    "service_request": "2025-1172008",
    "request_type": "Trash/Recycling",
    "request_reason": "Request a Large Item Pick Up",
    "date_created": "2025-02-27T13:46:03.000",
    "date_modified": "2025-02-27T13:46:05.000",
    "request_status": "Pending",
    "responsible_agency": "Department of Sanitation",
    "final_address": "6000 Brighton Pl",
    "address_councildis": "C",
    "status": "Assigned to Contractor",
    "contractor": "Richards Disposal",
    "rowid": "1172008",
    "final_x": "3706101.24727",
    "final_y": "520148.176056",
    "longitude": "-89.99080980202216",
    "latitude": "29.923457312767276",
    "geocoded_column": {
      "latitude": "29.923457312767276",
      "longitude": "-89.99080980202216"
    }
  },
  {
    "service_request": "2025-1172007",
    "request_type": "Trash/Recycling",
    "request_reason": "Return Trash Cart",
    "date_created": "2025-02-27T13:39:43.000",
    "date_modified": "2025-02-27T13:39:45.000",
    "request_status": "Pending",
    "responsible_agency": "Department of Sanitation",
    "final_address": "2311 Tricou St",
    "address_councildis": "E",
    "status": "Assigned to Contractor",
    "contractor": "Waste Pro",
    "rowid": "1172007",
    "final_x": "3701964.90506",
    "final_y": "537454.758344",
    "longitude": "-90.00323244344227",
    "latitude": "29.971176904115605",
    "geocoded_column": {
      "latitude": "29.971176904115605",
      "longitude": "-90.00323244344227"
    }
  },
  {
    "service_request": "2025-1172006",
    "request_type": "Abandoned Vehicles",
    "request_reason": "Abandoned/Junk Vehicles",
    "date_created": "2025-02-27T13:39:25.000",
    "date_modified": "2025-02-27T13:39:27.000",
    "request_status": "Pending",
    "responsible_agency": "Department of Public Works",
    "final_address": "2024 General Pershing St",
    "address_councildis": "B",
    "status": "Pending",
    "rowid": "1172006",
    "final_x": "3671045.55406",
    "final_y": "522559.493498",
    "longitude": "-90.10138598226939",
    "latitude": "29.931170491712713",
    "geocoded_column": {
      "latitude": "29.931170491712713",
      "longitude": "-90.10138598226939"
    }
  },
  {
    "service_request": "2025-1172005",
    "request_type": "Parks & Parkways",
    "request_reason": "Request Tree Service (Right of Way/Public Property)",
    "date_created": "2025-02-27T13:38:45.000",
    "date_modified": "2025-02-27T13:38:46.000",
    "request_status": "Pending",
    "responsible_agency": "Department of Parks & Parkway",
    "final_address": "1512 N Broad St",
    "address_councildis": "D",
    "status": "Pending",
    "rowid": "1172005",
    "final_x": "3678787.94594",
    "final_y": "539587.648522",
    "longitude": "-90.07635455655888",
    "latitude": "29.977761029581252",
    "geocoded_column": {
      "latitude": "29.977761029581252",
      "longitude": "-90.07635455655888"
    }
  },
  {
    "service_request": "2025-1172004",
    "request_type": "Trash/Recycling",
    "request_reason": "Request a Large Item Pick Up",
    "date_created": "2025-02-27T13:38:16.000",
    "date_modified": "2025-02-27T13:38:18.000",
    "request_status": "Pending",
    "responsible_agency": "Department of Sanitation",
    "final_address": "7711 Newcastle St",
    "address_councildis": "E",
    "status": "Assigned to Contractor",
    "contractor": "Waste Pro",
    "rowid": "1172004",
    "final_x": "3697192.68983",
    "final_y": "559699.335453",
    "longitude": "-90.01749692687376",
    "latitude": "30.032492688991294",
    "geocoded_column": {
      "latitude": "30.032492688991294",
      "longitude": "-90.01749692687376"
    }
  },
  {
    "service_request": "2025-1172003",
    "request_type": "Trash/Recycling",
    "request_reason": "Illegal Dumping",
    "date_created": "2025-02-27T13:37:09.000",
    "date_modified": "2025-02-27T13:37:10.000",
    "request_status": "Pending",
    "responsible_agency": "Department of Sanitation",
    "final_address": "14522 Tilbury Rd",
    "address_councildis": "E",
    "status": "Pending",
    "rowid": "1172003",
    "final_x": "3720770.32108",
    "final_y": "573010.879529",
    "longitude": "-89.94248015674886",
    "latitude": "30.068328375149544",
    "geocoded_column": {
      "latitude": "30.068328375149544",
      "longitude": "-89.94248015674886"
    }
  },
  {
    "service_request": "2025-1172002",
    "request_type": "Trash/Recycling",
    "request_reason": "Request a Large Item Pick Up",
    "date_created": "2025-02-27T13:36:50.000",
    "date_modified": "2025-02-27T13:37:51.000",
    "request_status": "Pending",
    "responsible_agency": "Department of Sanitation",
    "final_address": "4427 Annunciation St",
    "address_councildis": "B",
    "status": "Assigned to Contractor",
    "contractor": "IV Waste",
    "rowid": "1172002",
    "final_x": "3670863.74561",
    "final_y": "517759.567926",
    "longitude": "-90.10212274644597",
    "latitude": "29.91797760047123",
    "geocoded_column": {
      "latitude": "29.91797760047123",
      "longitude": "-90.10212274644597"
    }
  },
  {
    "service_request": "2025-1172001",
    "request_type": "Trash/Recycling",
    "request_reason": "Request a Large Item Pick Up",
    "date_created": "2025-02-27T13:29:08.000",
    "date_modified": "2025-02-27T13:29:11.000",
    "request_status": "Pending",
    "responsible_agency": "Department of Sanitation",
    "final_address": "2322 State St",
    "address_councildis": "A",
    "status": "Assigned to Contractor",
    "contractor": "IV Waste",
    "rowid": "1172001",
    "final_x": "3666574.43226",
    "final_y": "525254.130877",
    "longitude": "-90.11541036971003",
    "latitude": "29.938711307299418",
    "geocoded_column": {
      "latitude": "29.938711307299418",
      "longitude": "-90.11541036971003"
    }
  },
  {
    "service_request": "2025-1172000",
    "request_type": "Trash/Recycling",
    "request_reason": "Illegal Dumping",
    "date_created": "2025-02-27T13:28:24.000",
    "date_modified": "2025-02-27T13:28:26.000",
    "request_status": "Pending",
    "responsible_agency": "Department of Sanitation",
    "final_address": "1915 Alabo St",
    "address_councildis": "E",
    "status": "Pending",
    "rowid": "1172000",
    "final_x": "3699782.42813",
    "final_y": "536641.413383",
    "longitude": "-90.0101546206278",
    "latitude": "29.969009978800404",
    "geocoded_column": {
      "latitude": "29.969009978800404",
      "longitude": "-90.0101546206278"
    }
  },
  {
    "service_request": "2025-1171998",
    "request_type": "Trash/Recycling",
    "request_reason": "Repair Recycling Cart",
    "date_created": "2025-02-27T13:26:17.000",
    "date_modified": "2025-02-27T13:26:19.000",
    "request_status": "Pending",
    "responsible_agency": "Department of Sanitation",
    "final_address": "2600 Jefferson Ave",
    "address_councildis": "A",
    "status": "Pending",
    "rowid": "1171998",
    "final_x": "3668040.69351",
    "final_y": "525022.496957",
    "longitude": "-90.11078901030767",
    "latitude": "29.93803145339935",
    "geocoded_column": {
      "latitude": "29.93803145339935",
      "longitude": "-90.11078901030767"
    }
  },
  {
    "service_request": "2025-1171997",
    "request_type": "Trash/Recycling",
    "request_reason": "Repair Recycling Cart",
    "date_created": "2025-02-27T13:25:51.000",
    "date_modified": "2025-02-27T13:25:53.000",
    "request_status": "Pending",
    "responsible_agency": "Department of Sanitation",
    "final_address": "4414 Annunciation St",
    "address_councildis": "B",
    "status": "Pending",
    "rowid": "1171997",
    "final_x": "3670974.6539",
    "final_y": "517699.865078",
    "longitude": "-90.10177469422224",
    "latitude": "29.917810159242205",
    "geocoded_column": {
      "latitude": "29.917810159242205",
      "longitude": "-90.10177469422224"
    }
  },
  {
    "service_request": "2025-1171996",
    "request_type": "Trash/Recycling",
    "request_reason": "Request a Large Item Pick Up",
    "date_created": "2025-02-27T13:23:31.000",
    "date_modified": "2025-02-27T13:23:32.000",
    "request_status": "Pending",
    "responsible_agency": "Department of Sanitation",
    "final_address": "7601 Brevard Ave",
    "address_councildis": "E",
    "status": "Assigned to Contractor",
    "contractor": "Waste Pro",
    "rowid": "1171996",
    "final_x": "3706473.24107",
    "final_y": "563323.544224",
    "longitude": "-89.9880354477474",
    "latitude": "30.04216152809725",
    "geocoded_column": {
      "latitude": "30.04216152809725",
      "longitude": "-89.9880354477474"
    }
  },
  {
    "service_request": "2025-1171995",
    "request_type": "Trash/Recycling",
    "request_reason": "Repair Recycling Cart",
    "date_created": "2025-02-27T13:23:30.000",
    "date_modified": "2025-02-27T13:23:31.000",
    "request_status": "Pending",
    "responsible_agency": "Department of Sanitation",
    "final_address": "2664 Verbena St",
    "address_councildis": "D",
    "status": "Pending",
    "rowid": "1171995",
    "final_x": "3687529.31638",
    "final_y": "547753.446418",
    "longitude": "-90.04845716983974",
    "latitude": "29.999947489552845",
    "geocoded_column": {
      "latitude": "29.999947489552845",
      "longitude": "-90.04845716983974"
    }
  },
  {
    "service_request": "2025-1171994",
    "request_type": "Safety & Permits",
    "request_reason": "Construction permit",
    "date_created": "2025-02-27T13:19:45.000",
    "date_modified": "2025-02-27T13:33:47.000",
    "request_status": "Pending",
    "responsible_agency": "Safety and Permits",
    "final_address": "959 Wilson Dr",
    "address_councildis": "A",
    "rowid": "1171994",
    "final_x": "3674106.48264",
    "final_y": "540343.766475",
    "longitude": "-90.09111436390491",
    "latitude": "29.979980474116537",
    "geocoded_column": {
      "latitude": "29.979980474116537",
      "longitude": "-90.09111436390491"
    }
  },
  {
    "service_request": "2025-1171993",
    "request_type": "Trash/Recycling",
    "request_reason": "Order Trash Cart",
    "date_created": "2025-02-27T13:17:03.000",
    "date_modified": "2025-02-27T13:17:05.000",
    "request_status": "Pending",
    "responsible_agency": "Department of Sanitation",
    "final_address": "1901 Forstall St",
    "address_councildis": "E",
    "status": "Assigned to Contractor",
    "contractor": "Waste Pro",
    "rowid": "1171993",
    "final_x": "3697131.24183",
    "final_y": "537208.194696",
    "longitude": "-90.01850666058115",
    "latitude": "29.97065233882575",
    "geocoded_column": {
      "latitude": "29.97065233882575",
      "longitude": "-90.01850666058115"
    }
  },
  {
    "service_request": "2025-1171992",
    "request_type": "Street and Traffic Signs",
    "request_reason": "Additional Signage Request",
    "date_created": "2025-02-27T13:15:29.000",
    "date_modified": "2025-02-27T13:15:31.000",
    "request_status": "Pending",
    "responsible_agency": "Department of Public Works",
    "final_address": "5549 Vermillion Blvd",
    "address_councildis": "D",
    "status": "Pending",
    "rowid": "1171992",
    "final_x": "3683331.62588",
    "final_y": "553415.306839",
    "longitude": "-90.06151933000086",
    "latitude": "30.015644315790293",
    "geocoded_column": {
      "latitude": "30.015644315790293",
      "longitude": "-90.06151933000086"
    }
  },
  {
    "service_request": "2025-1171991",
    "request_type": "Utility Poles",
    "request_reason": "Utility Pole Down",
    "date_created": "2025-02-27T13:15:25.000",
    "date_modified": "2025-02-27T13:15:27.000",
    "request_status": "Pending",
    "responsible_agency": "Utility Company Collective",
    "final_address": "5017 Clara St",
    "address_councildis": "B",
    "status": "Pending",
    "rowid": "1171991",
    "final_x": "3668670.19412",
    "final_y": "525005.516925",
    "longitude": "-90.10880218849728",
    "latitude": "29.9379662808653",
    "geocoded_column": {
      "latitude": "29.9379662808653",
      "longitude": "-90.10880218849728"
    }
  },
  {
    "service_request": "2025-1171990",
    "request_type": "Trash/Recycling",
    "request_reason": "Request a Large Item Pick Up",
    "date_created": "2025-02-27T13:13:42.000",
    "date_modified": "2025-02-27T13:13:50.000",
    "request_status": "Pending",
    "responsible_agency": "Department of Sanitation",
    "final_address": "7626 Stonewood St",
    "address_councildis": "E",
    "status": "Assigned to Contractor",
    "contractor": "Waste Pro",
    "rowid": "1171990",
    "final_x": "3719473.17042",
    "final_y": "572328.055209",
    "longitude": "-89.94660679842528",
    "latitude": "30.066494124632406",
    "geocoded_column": {
      "latitude": "30.066494124632406",
      "longitude": "-89.94660679842528"
    }
  },
  {
    "service_request": "2025-1171989",
    "request_type": "Streetlights",
    "request_reason": "Streetlight Outage/Malfunction",
    "date_created": "2025-02-27T13:10:52.000",
    "date_modified": "2025-02-27T13:10:53.000",
    "request_status": "Pending",
    "responsible_agency": "Department of Public Works",
    "final_address": "4886 Montegut Dr",
    "address_councildis": "D",
    "status": "Pending",
    "contractor": "Legacy Professional Services",
    "rowid": "1171989",
    "final_x": "3689754.439",
    "final_y": "551244.087445",
    "longitude": "-90.04130358613588",
    "latitude": "30.009476680540544",
    "geocoded_column": {
      "latitude": "30.009476680540544",
      "longitude": "-90.04130358613588"
    }
  },
  {
    "service_request": "2025-1171988",
    "request_type": "Trash/Recycling",
    "request_reason": "Order Recycling Cart",
    "date_created": "2025-02-27T13:08:55.000",
    "date_modified": "2025-02-27T13:08:57.000",
    "request_status": "Pending",
    "responsible_agency": "Department of Sanitation",
    "final_address": "2508 St Thomas St",
    "address_councildis": "B",
    "status": "Pending",
    "rowid": "1171988",
    "final_x": "3678765.12904",
    "final_y": "519722.78604",
    "longitude": "-90.07711445836249",
    "latitude": "29.923140000361535",
    "geocoded_column": {
      "latitude": "29.923140000361535",
      "longitude": "-90.07711445836249"
    }
  },
  {
    "service_request": "2025-1171987",
    "request_type": "Property Maintenance",
    "request_reason": "Property Maintenance",
    "date_created": "2025-02-27T13:08:27.000",
    "date_modified": "2025-02-27T13:08:30.000",
    "request_status": "Pending",
    "responsible_agency": "Department of Code Enforcement",
    "final_address": "2667 Mendez St",
    "address_councildis": "D",
    "status": "Pending",
    "rowid": "1171987",
    "final_x": "3687117.94441",
    "final_y": "553739.425815",
    "longitude": "-90.04954484454643",
    "latitude": "30.016419424206013",
    "geocoded_column": {
      "latitude": "30.016419424206013",
      "longitude": "-90.04954484454643"
    }
  },
  {
    "service_request": "2025-1171986",
    "request_type": "Trash/Recycling",
    "request_reason": "MIssed Recycling Pick-Up",
    "date_created": "2025-02-27T13:02:37.000",
    "date_modified": "2025-02-27T13:02:38.000",
    "request_status": "Pending",
    "responsible_agency": "Department of Sanitation",
    "final_address": "4962 Pentland Dr",
    "address_councildis": "E",
    "status": "Assigned to Contractor",
    "contractor": "Waste Pro",
    "rowid": "1171986",
    "final_x": "3718573.75679",
    "final_y": "558369.97334",
    "longitude": "-89.94998264399364",
    "latitude": "30.028145026438814",
    "geocoded_column": {
      "latitude": "30.028145026438814",
      "longitude": "-89.94998264399364"
    }
  },