[
  {
    "service_request": "2025-1167978",
    "request_type": "Streetlights",
    "request_reason": "Streetlight Outage/Malfunction",
    "date_created": "2025-02-10T22:44:41.000",
    "date_modified": "2025-02-10T22:44:42.000",
    "request_status": "Pending",
    "responsible_agency": "Department of Public Works",
    "final_address": "4711 Owens Blvd",
    "address_councildis": "D",
    "status": "Pending",
    "contractor": "Legacy Professional Services",
    "rowid": "1167978",
    "final_x": "3676605.72149",
    "final_y": "549555.444947",
    "longitude": "-90.08290322522261",
    "latitude": "30.005234630188234",
    "geocoded_column": {
      "latitude": "30.005234630188234",
      "longitude": "-90.08290322522261"
    }
  },
  {
    "service_request": "2025-1167977",
    "request_type": "Streetlights",
    "request_reason": "Streetlight Outage/Malfunction",
    "date_created": "2025-02-10T22:35:50.000",
    "date_modified": "2025-02-10T22:35:51.000",
    "request_status": "Pending",
    "responsible_agency": "Department of Public Works",
    "final_address": "4711 Owens Blvd",
    "address_councildis": "D",
    "status": "Pending",
    "contractor": "Legacy Professional Services",
    "rowid": "1167977",
    "final_x": "3676605.72149",
    "final_y": "549555.444947",
    "longitude": "-90.08290322522261",
    "latitude": "30.005234630188234",
    "geocoded_column": {
      "latitude": "30.005234630188234",
      "longitude": "-90.08290322522261"
    }
  },
  {
    "service_request": "2025-1167976",
    "request_type": "Drainage",
    "request_reason": "Catch Basin Damaged",
    "date_created": "2025-02-10T21:57:05.000",
    "date_modified": "2025-02-10T21:57:07.000",
    "request_status": "Pending",
    "responsible_agency": "Sewerage & Water Board ",
    "final_address": "0 BLK Ani St",
    "address_councildis": "D",
    "status": "Pending",
    "rowid": "1167976",
    "final_x": "3672561.96849",
    "final_y": "554474.005997",
    "longitude": "-90.0955104718156",
    "latitude": "30.01887964634331",
    "geocoded_column": {
      "latitude": "30.01887964634331",
      "longitude": "-90.0955104718156"
    }
  },
  {
    "service_request": "2025-1167975",
    "request_type": "Abandoned Vehicles",
    "request_reason": "Abandoned/Junk Vehicles",
    "date_created": "2025-02-10T21:46:00.000",
    "date_modified": "2025-02-10T21:46:02.000",
    "request_status": "Pending",
    "responsible_agency": "Department of Public Works",
    "final_address": "4824 Constance St",
    "address_councildis": "B",
    "status": "Pending",
    "rowid": "1167975",
    "final_x": "3669412.66938",
    "final_y": "518209.222134",
    "longitude": "-90.10668782005432",
    "latitude": "29.919256800556497",
    "geocoded_column": {
      "latitude": "29.919256800556497",
      "longitude": "-90.10668782005432"
    }
  },
  {
    "service_request": "2025-1167974",
    "request_type": "Trash/Recycling",
    "request_reason": "Order Recycling Cart",
    "date_created": "2025-02-10T21:42:33.000",
    "date_modified": "2025-02-10T21:42:36.000",
    "request_status": "Pending",
    "responsible_agency": "Department of Sanitation",
    "final_address": "4900 Gilbert St",
    "address_councildis": "E",
    "status": "Pending",
    "rowid": "1167974",
    "final_x": "3729392.77734",
    "final_y": "562508.973855",
    "longitude": "-89.9156339178009",
    "latitude": "30.039161982147174",
    "geocoded_column": {
      "latitude": "30.039161982147174",
      "longitude": "-89.9156339178009"
    }
  },
  {
    "service_request": "2025-1167973",
    "request_type": "Trash/Recycling",
    "request_reason": "Repair Recycling Cart",
    "date_created": "2025-02-10T21:32:04.000",
    "date_modified": "2025-02-10T21:32:06.000",
    "request_status": "Pending",
    "responsible_agency": "Department of Sanitation",
    "final_address": "7329 Sardonyx St",
    "address_councildis": "D",
    "status": "Pending",
    "rowid": "1167973",
    "final_x": "3669693.8587",
    "final_y": "555749.059929",
    "longitude": "-90.10452950709768",
    "latitude": "30.022470472102288",
    "geocoded_column": {
      "latitude": "30.022470472102288",
      "longitude": "-90.10452950709768"
    }
  },
  {
    "service_request": "2025-1167972",
    "request_type": "Abandoned Vehicles",
    "request_reason": "Abandoned/Junk Vehicles",
    "date_created": "2025-02-10T21:28:42.000",
    "date_modified": "2025-02-10T21:28:44.000",
    "request_status": "Pending",
    "responsible_agency": "Department of Public Works",
    "final_address": "6749 Memphis St",
    "address_councildis": "A",
    "status": "Pending",
    "rowid": "1167972",
    "final_x": "3669742.38874",
    "final_y": "552347.19791",
    "longitude": "-90.10449144048584",
    "latitude": "30.01311512771771",
    "geocoded_column": {
      "latitude": "30.01311512771771",
      "longitude": "-90.10449144048584"
    }
  },
  {
    "service_request": "2025-1167971",
    "request_type": "Trash/Recycling",
    "request_reason": "Replace Trash Cart",
    "date_created": "2025-02-10T21:26:13.000",
    "date_modified": "2025-02-10T21:26:16.000",
    "request_status": "Pending",
    "responsible_agency": "Department of Sanitation",
    "final_address": "7329 Sardonyx St",
    "address_councildis": "D",
    "status": "Assigned to Contractor",
    "contractor": "IV Waste",
    "rowid": "1167971",
    "final_x": "3669693.8587",
    "final_y": "555749.059929",
    "longitude": "-90.10452950709768",
    "latitude": "30.022470472102288",
    "geocoded_column": {
      "latitude": "30.022470472102288",
      "longitude": "-90.10452950709768"
    }
  },
  {
    "service_request": "2025-1167970",
    "request_type": "Trash/Recycling",
    "request_reason": "Request a Large Item Pick Up",
    "date_created": "2025-02-10T21:20:03.000",
    "date_modified": "2025-02-10T21:20:05.000",
    "request_status": "Pending",
    "responsible_agency": "Department of Sanitation",
    "final_address": "506 Conti St",
    "address_councildis": "C",
    "status": "Assigned to Contractor",
    "contractor": "IV Waste",
    "rowid": "1167970",
    "final_x": "3682416.38364",
    "final_y": "531149.717762",
    "longitude": "-90.06518965497644",
    "latitude": "29.954449676993395",
    "geocoded_column": {
      "latitude": "29.954449676993395",
      "longitude": "-90.06518965497644"
    }
  },
  {
    "service_request": "2025-1167969",
    "request_type": "Trash/Recycling",
    "request_reason": "Replace Trash Cart",
    "date_created": "2025-02-10T21:08:37.000",
    "date_modified": "2025-02-10T21:08:40.000",
    "request_status": "Pending",
    "responsible_agency": "Department of Sanitation",
    "final_address": "617 N St Patrick St",
    "address_councildis": "A",
    "status": "Assigned to Contractor",
    "contractor": "IV Waste",
    "rowid": "1167969",
    "final_x": "3670235.52916",
    "final_y": "541431.360972",
    "longitude": "-90.10330359888322",
    "latitude": "29.983085811812998",
    "geocoded_column": {
      "latitude": "29.983085811812998",
      "longitude": "-90.10330359888322"
    }
  },
  {
    "service_request": "2025-1167968",
    "request_type": "Trash/Recycling",
    "request_reason": "Request a Large Item Pick Up",
    "date_created": "2025-02-10T20:07:34.000",
    "date_modified": "2025-02-10T20:07:36.000",
    "request_status": "Pending",
    "responsible_agency": "Department of Sanitation",
    "final_address": "526 S Hennessey St",
    "address_councildis": "A",
    "status": "Assigned to Contractor",
    "contractor": "IV Waste",
    "rowid": "1167968",
    "final_x": "3669218.21742",
    "final_y": "537479.91508",
    "longitude": "-90.10665041357578",
    "latitude": "29.97225065849027",
    "geocoded_column": {
      "latitude": "29.97225065849027",
      "longitude": "-90.10665041357578"
    }
  },
  {
    "service_request": "2025-1167967",
    "request_type": "Trash/Recycling",
    "request_reason": "Request a Large Item Pick Up",
    "date_created": "2025-02-10T19:51:14.000",
    "date_modified": "2025-02-10T19:51:16.000",
    "request_status": "Pending",
    "responsible_agency": "Department of Sanitation",
    "final_address": "1520 De Battista Pl",
    "address_councildis": "C",
    "status": "Assigned to Contractor",
    "contractor": "Richards Disposal",
    "rowid": "1167967",
    "final_x": "3699820.51677",
    "final_y": "525587.369149",
    "longitude": "-90.01043737033135",
    "latitude": "29.93861406249426",
    "geocoded_column": {
      "latitude": "29.93861406249426",
      "longitude": "-90.01043737033135"
    }
  },
  {
    "service_request": "2025-1167966",
    "request_type": "Trash/Recycling",
    "request_reason": "Request a Large Item Pick Up",
    "date_created": "2025-02-10T19:48:48.000",
    "date_modified": "2025-02-10T19:48:51.000",
    "request_status": "Pending",
    "responsible_agency": "Department of Sanitation",
    "final_address": "1520 De Battista Pl",
    "address_councildis": "C",
    "status": "Assigned to Contractor",
    "contractor": "Richards Disposal",
    "rowid": "1167966",
    "final_x": "3699820.51677",
    "final_y": "525587.369149",
    "longitude": "-90.01043737033135",
    "latitude": "29.93861406249426",
    "geocoded_column": {
      "latitude": "29.93861406249426",
      "longitude": "-90.01043737033135"
    }
  },
  {
    "service_request": "2025-1167965",
    "request_type": "Trash/Recycling",
    "request_reason": "Request a Large Item Pick Up",
    "date_created": "2025-02-10T19:14:00.000",
    "date_modified": "2025-02-10T19:14:02.000",
    "request_status": "Pending",
    "responsible_agency": "Department of Sanitation",
    "final_address": "8237 Panola St",
    "address_councildis": "A",
    "status": "Assigned to Contractor",
    "contractor": "IV Waste",
    "rowid": "1167965",
    "final_x": "3663611.26746",
    "final_y": "531202.977154",
    "longitude": "-90.12456732100645",
    "latitude": "29.955154993957006",
    "geocoded_column": {
      "latitude": "29.955154993957006",
      "longitude": "-90.12456732100645"
    }
  },
  {
    "service_request": "2025-1167964",
    "request_type": "Trash/Recycling",
    "request_reason": "Request a Large Item Pick Up",
    "date_created": "2025-02-10T19:11:38.000",
    "date_modified": "2025-02-10T19:11:41.000",
    "request_status": "Pending",
    "responsible_agency": "Department of Sanitation",
    "final_address": "8237 Panola St",
    "address_councildis": "A",
    "status": "Assigned to Contractor",
    "contractor": "IV Waste",
    "rowid": "1167964",
    "final_x": "3663611.26746",
    "final_y": "531202.977154",
    "longitude": "-90.12456732100645",
    "latitude": "29.955154993957006",
    "geocoded_column": {
      "latitude": "29.955154993957006",
      "longitude": "-90.12456732100645"
    }
  },
  {
    "service_request": "2025-1167963",
    "request_type": "Streetlights",
    "request_reason": "Streetlight Outage/Malfunction",
    "date_created": "2025-02-10T19:01:34.000",
    "date_modified": "2025-02-10T19:01:35.000",
    "request_status": "Pending",
    "responsible_agency": "Department of Public Works",
    "final_address": "2620 Valentine Ct",
    "address_councildis": "C",
    "status": "Pending",
    "contractor": "Legacy Professional Services",
    "rowid": "1167963",
    "final_x": "3699138.11652",
    "final_y": "521293.245945",
    "longitude": "-90.0127480114776",
    "latitude": "29.92682835342129",
    "geocoded_column": {
      "latitude": "29.92682835342129",
      "longitude": "-90.0127480114776"
    }
  },
  {
    "service_request": "2025-1167962",
    "request_type": "Trash/Recycling",
    "request_reason": "Missed Trash Pick-Up",
    "date_created": "2025-02-10T18:50:16.000",
    "date_modified": "2025-02-10T18:50:26.000",
    "request_status": "Pending",
    "responsible_agency": "Department of Sanitation",
    "final_address": "1911 Governor Nicholls St",
    "address_councildis": "D",
    "status": "Assigned to Contractor",
    "contractor": "IV Waste",
    "rowid": "1167962",
    "final_x": "3680252.19957",
    "final_y": "536597.265223",
    "longitude": "-90.07183392035122",
    "latitude": "29.969494259273375",
    "geocoded_column": {
      "latitude": "29.969494259273375",
      "longitude": "-90.07183392035122"
    }
  },
  {
    "service_request": "2025-1167961",
    "request_type": "Trash/Recycling",
    "request_reason": "Repair Recycling Cart",
    "date_created": "2025-02-10T18:43:29.000",
    "date_modified": "2025-02-10T18:43:31.000",
    "request_status": "Pending",
    "responsible_agency": "Department of Sanitation",
    "final_address": "2231 General Pershing St",
    "address_councildis": "B",
    "status": "Pending",
    "rowid": "1167961",
    "final_x": "3671053.77588",
    "final_y": "523276.021947",
    "longitude": "-90.10133570627568",
    "latitude": "29.93314047134517",
    "geocoded_column": {
      "latitude": "29.93314047134517",
      "longitude": "-90.10133570627568"
    }
  },
  {
    "service_request": "2025-1167960",
    "request_type": "Alley Ways",
    "request_reason": "Alley Way Regrading",
    "date_created": "2025-02-10T18:43:05.000",
    "date_modified": "2025-02-10T18:43:07.000",
    "request_status": "Pending",
    "responsible_agency": "Department of Public Works",
    "final_address": "6369 Argonne Blvd",
    "address_councildis": "A",
    "status": "Pending",
    "rowid": "1167960",
    "final_x": "3670471.89191",
    "final_y": "549721.086036",
    "longitude": "-90.10227573712734",
    "latitude": "30.005872712267987",
    "geocoded_column": {
      "latitude": "30.005872712267987",
      "longitude": "-90.10227573712734"
    }
  },
  {
    "service_request": "2025-1167959",
    "request_type": "Trash/Recycling",
    "request_reason": "Order Second Trash Cart",
    "date_created": "2025-02-10T18:42:18.000",
    "date_modified": "2025-02-10T18:42:21.000",
    "request_status": "Pending",
    "responsible_agency": "Department of Sanitation",
    "final_address": "358 W Kenilworth St",
    "address_councildis": "A",
    "status": "Assigned to Contractor",
    "contractor": "IV Waste",
    "rowid": "1167959",
    "final_x": "3664563.04871",
    "final_y": "546313.38664",
    "longitude": "-90.12105714047705",
    "latitude": "29.996675942017358",
    "geocoded_column": {
      "latitude": "29.996675942017358",
      "longitude": "-90.12105714047705"
    }
  },
  {
    "service_request": "2025-1167958",
    "request_type": "Trash/Recycling",
    "request_reason": "Replace Recycling Cart",
    "date_created": "2025-02-10T18:33:07.000",
    "date_modified": "2025-02-10T18:33:10.000",
    "request_status": "Pending",
    "responsible_agency": "Department of Sanitation",
    "final_address": "3521 Hyman Ct",
    "address_councildis": "C",
    "status": "Pending",
    "rowid": "1167958",
    "final_x": "3700864.94135",
    "final_y": "518044.295734",
    "longitude": "-90.00741560157614",
    "latitude": "29.917840020019778",
    "geocoded_column": {
      "latitude": "29.917840020019778",
      "longitude": "-90.00741560157614"
    }
  },
  {
    "service_request": "2025-1167957",
    "request_type": "Abandoned Vehicles",
    "request_reason": "Abandoned/Junk Vehicles",
    "date_created": "2025-02-10T18:23:58.000",
    "date_modified": "2025-02-10T18:24:01.000",
    "request_status": "Pending",
    "responsible_agency": "Department of Public Works",
    "final_address": "3238 Dumaine St",
    "address_councildis": "A",
    "status": "Pending",
    "rowid": "1167957",
    "final_x": "3675141.66318",
    "final_y": "539014.735818",
    "longitude": "-90.08789045544998",
    "latitude": "29.976295196611037",
    "geocoded_column": {
      "latitude": "29.976295196611037",
      "longitude": "-90.08789045544998"
    }
  },
  {
    "service_request": "2025-1167956",
    "request_type": "Abandoned Vehicles",
    "request_reason": "Abandoned/Junk Vehicles",
    "date_created": "2025-02-10T18:19:25.000",
    "date_modified": "2025-02-10T18:19:27.000",
    "request_status": "Pending",
    "responsible_agency": "Department of Public Works",
    "final_address": "3238 Dumaine St",
    "address_councildis": "A",
    "status": "Pending",
    "rowid": "1167956",
    "final_x": "3675141.66318",
    "final_y": "539014.735818",
    "longitude": "-90.08789045544998",
    "latitude": "29.976295196611037",
    "geocoded_column": {
      "latitude": "29.976295196611037",
      "longitude": "-90.08789045544998"
    }
  },
  {
    "service_request": "2025-1167955",
    "request_type": "Trash/Recycling",
    "request_reason": "Request a Large Item Pick Up",
    "date_created": "2025-02-10T18:13:22.000",
    "date_modified": "2025-02-10T18:13:24.000",
    "request_status": "Pending",
    "responsible_agency": "Department of Sanitation",
    "final_address": "7739 Cohn St",
    "address_councildis": "A",
    "status": "Assigned to Contractor",
    "contractor": "IV Waste",
    "rowid": "1167955",
    "final_x": "3664514.04007",
    "final_y": "529434.569473",
    "longitude": "-90.12177572987618",
    "latitude": "29.950266228653692",
    "geocoded_column": {
      "latitude": "29.950266228653692",
      "longitude": "-90.12177572987618"
    }
  },
  {
    "service_request": "2025-1167954",
    "request_type": "Abandoned Vehicles",
    "request_reason": "Abandoned/Junk Vehicles",
    "date_created": "2025-02-10T18:08:40.000",
    "date_modified": "2025-02-10T18:08:42.000",
    "request_status": "Pending",
    "responsible_agency": "Department of Public Works",
    "final_address": "2355 N Derbigny St",
    "address_councildis": "D",
    "status": "Pending",
    "rowid": "1167954",
    "final_x": "3686078.3005",
    "final_y": "538646.309065",
    "longitude": "-90.05336236393813",
    "latitude": "29.97495075985015",
    "geocoded_column": {
      "latitude": "29.97495075985015",
      "longitude": "-90.05336236393813"
    }
  },
  {
    "service_request": "2025-1167953",
    "request_type": "Mosquito, Termite & Rodent Control",
    "request_reason": "Mosquito Complaint",
    "date_created": "2025-02-10T18:08:30.000",
    "date_modified": "2025-02-10T18:08:33.000",
    "request_status": "Pending",
    "responsible_agency": "Mosquito, Termite & Rodent Control Board",
    "final_address": "3511 Hyman Ct",
    "address_councildis": "C",
    "status": "Pending",
    "rowid": "1167953",
    "final_x": "3700882.02666",
    "final_y": "518111.835382",
    "longitude": "-90.00735920604109",
    "latitude": "29.918025187329835",
    "geocoded_column": {
      "latitude": "29.918025187329835",
      "longitude": "-90.00735920604109"
    }
  },
  {
    "service_request": "2025-1167952",
    "request_type": "Property Maintenance",
    "request_reason": "Property Maintenance",
    "date_created": "2025-02-10T18:00:14.000",
    "date_modified": "2025-02-10T18:00:17.000",
    "request_status": "Pending",
    "responsible_agency": "Department of Code Enforcement",
    "final_address": "7313 Chef Menteur Hwy",
    "address_councildis": "E",
    "status": "Pending",
    "rowid": "1167952",
    "final_x": "3702132.30871",
    "final_y": "552491.597206",
    "longitude": "-90.00215206828244",
    "latitude": "30.012517282782703",
    "geocoded_column": {
      "latitude": "30.012517282782703",
      "longitude": "-90.00215206828244"
    }
  },
  {
    "service_request": "2025-1167951",
    "request_type": "Abandoned Vehicles",
    "request_reason": "Abandoned/Junk Vehicles",
    "date_created": "2025-02-10T17:59:03.000",
    "date_modified": "2025-02-10T17:59:05.000",
    "request_status": "Pending",
    "responsible_agency": "Department of Public Works",
    "final_address": "5534 Woodlawn Pl",
    "address_councildis": "A",
    "status": "Pending",
    "rowid": "1167951",
    "final_x": "3667378.54292",
    "final_y": "544195.698958",
    "longitude": "-90.1122344124722",
    "latitude": "29.990770821375495",
    "geocoded_column": {
      "latitude": "29.990770821375495",
      "longitude": "-90.1122344124722"
    }
  },
  {
    "service_request": "2025-1167950",
    "request_type": "Abandoned Vehicles",
    "request_reason": "Abandoned/Junk Vehicles",
    "date_created": "2025-02-10T17:58:47.000",
    "date_modified": "2025-02-10T17:58:49.000",
    "request_status": "Pending",
    "responsible_agency": "Department of Public Works",
    "final_address": "5534 Woodlawn Pl",
    "address_councildis": "A",
    "status": "Pending",
    "rowid": "1167950",
    "final_x": "3667378.54292",
    "final_y": "544195.698958",
    "longitude": "-90.1122344124722",
    "latitude": "29.990770821375495",
    "geocoded_column": {
      "latitude": "29.990770821375495",
      "longitude": "-90.1122344124722"
    }
  },
  {
    "service_request": "2025-1167949",
    "request_type": "Trash/Recycling",
    "request_reason": "Replace Trash Cart",
    "date_created": "2025-02-10T17:58:28.000",
    "date_modified": "2025-02-10T17:58:30.000",
    "request_status": "Pending",
    "responsible_agency": "Department of Sanitation",
    "final_address": "816 Solomon Pl",
    "address_councildis": "A",
    "status": "Assigned to Contractor",
    "contractor": "IV Waste",
    "rowid": "1167949",
    "final_x": "3672541.61339",
    "final_y": "540715.572171",
    "longitude": "-90.09604419962777",
    "latitude": "29.98104936769916",
    "geocoded_column": {
      "latitude": "29.98104936769916",
      "longitude": "-90.09604419962777"
    }
  },
  {
    "service_request": "2025-1167948",
    "request_type": "Trash/Recycling",
    "request_reason": "Request a Large Item Pick Up",
    "date_created": "2025-02-10T17:57:31.000",
    "date_modified": "2025-02-10T17:57:33.000",
    "request_status": "Pending",
    "responsible_agency": "Department of Sanitation",
    "final_address": "2836 Palmer Ave",
    "address_councildis": "A",
    "status": "Assigned to Contractor",
    "contractor": "IV Waste",
    "rowid": "1167948",
    "final_x": "3666904.73057",
    "final_y": "527084.271679",
    "longitude": "-90.11430610806839",
    "latitude": "29.943733948139837",
    "geocoded_column": {
      "latitude": "29.943733948139837",
      "longitude": "-90.11430610806839"
    }
  },
  {
    "service_request": "2025-1167947",
    "request_type": "Abandoned Vehicles",
    "request_reason": "Abandoned/Junk Vehicles",
    "date_created": "2025-02-10T17:52:58.000",
    "date_modified": "2025-02-10T17:53:00.000",
    "request_status": "Pending",
    "responsible_agency": "Department of Public Works",
    "final_address": "5532 Woodlawn Pl",
    "address_councildis": "A",
    "status": "Pending",
    "rowid": "1167947",
    "final_x": "3667376.87629",
    "final_y": "544174.58779",
    "longitude": "-90.11224038761532",
    "latitude": "29.99071282170912",
    "geocoded_column": {
      "latitude": "29.99071282170912",
      "longitude": "-90.11224038761532"
    }
  },
  {
    "service_request": "2025-1167946",
    "request_type": "Trash/Recycling",
    "request_reason": "Request a Large Item Pick Up",
    "date_created": "2025-02-10T17:36:18.000",
    "date_modified": "2025-02-10T17:36:20.000",
    "request_status": "Pending",
    "responsible_agency": "Department of Sanitation",
    "final_address": "4730 Pontchartrain Blvd",
    "address_councildis": "A",
    "status": "Assigned to Contractor",
    "contractor": "IV Waste",
    "rowid": "1167946",
    "final_x": "3667497.33172",
    "final_y": "538483.786121",
    "longitude": "-90.11205149100157",
    "latitude": "29.975061512618705",
    "geocoded_column": {
      "latitude": "29.975061512618705",
      "longitude": "-90.11205149100157"
    }
  },
  {
    "service_request": "2025-1167945",
    "request_type": "Trash/Recycling",
    "request_reason": "Replace Trash Cart",
    "date_created": "2025-02-10T17:34:03.000",
    "date_modified": "2025-02-10T17:34:06.000",
    "request_status": "Pending",
    "responsible_agency": "Department of Sanitation",
    "final_address": "3205 St Philip St",
    "address_councildis": "A",
    "status": "Assigned to Contractor",
    "contractor": "IV Waste",
    "rowid": "1167945",
    "final_x": "3675642.76693",
    "final_y": "539262.44353",
    "longitude": "-90.0862993044398",
    "latitude": "29.976961322126005",
    "geocoded_column": {
      "latitude": "29.976961322126005",
      "longitude": "-90.0862993044398"
    }
  },
  {
    "service_request": "2025-1167944",
    "request_type": "Property Maintenance",
    "request_reason": "Property Maintenance",
    "date_created": "2025-02-10T17:26:29.000",
    "date_modified": "2025-02-10T17:26:31.000",
    "request_status": "Pending",
    "responsible_agency": "Department of Code Enforcement",
    "final_address": "7204 Willow St",
    "address_councildis": "A",
    "status": "Pending",
    "rowid": "1167944",
    "final_x": "3664446.02016",
    "final_y": "527111.795263",
    "longitude": "-90.1220680306627",
    "latitude": "29.94388132474126",
    "geocoded_column": {
      "latitude": "29.94388132474126",
      "longitude": "-90.1220680306627"
    }
  },
  {
    "service_request": "2025-1167943",
    "request_type": "Trash/Recycling",
    "request_reason": "Damaged Caused By Contractor",
    "date_created": "2025-02-10T17:23:31.000",
    "date_modified": "2025-02-10T17:23:34.000",
    "request_status": "Pending",
    "responsible_agency": "Department of Sanitation",
    "final_address": "2801 General Collins Ave",
    "address_councildis": "C",
    "status": "Assigned to Contractor",
    "contractor": "Richards Disposal",
    "rowid": "1167943",
    "final_x": "3698307.50179",
    "final_y": "520998.978553",
    "longitude": "-90.01538070949438",
    "latitude": "29.926045514993806",
    "geocoded_column": {
      "latitude": "29.926045514993806",
      "longitude": "-90.01538070949438"
    }
  },
  {
    "service_request": "2025-1167942",
    "request_type": "Trash/Recycling",
    "request_reason": "Repair Trash Cart",
    "date_created": "2025-02-10T17:12:12.000",
    "date_modified": "2025-02-10T17:12:15.000",
    "request_status": "Pending",
    "responsible_agency": "Department of Sanitation",
    "final_address": "3320 Cleveland Ave",
    "address_councildis": "B",
    "status": "Assigned to Contractor",
    "contractor": "IV Waste",
    "rowid": "1167942",
    "final_x": "3673141.16571",
    "final_y": "536207.063943",
    "longitude": "-90.09430452089344",
    "latitude": "29.96863468680627",
    "geocoded_column": {
      "latitude": "29.96863468680627",
      "longitude": "-90.09430452089344"
    }
  },
  {
    "service_request": "2025-1167941",
    "request_type": "Roads and Streets",
    "request_reason": "Pothole",
    "date_created": "2025-02-10T17:03:07.000",
    "date_modified": "2025-02-10T17:03:08.000",
    "request_status": "Pending",
    "responsible_agency": "Department of Public Works",
    "final_address": "1039 Arabella St",
    "address_councildis": "A",
    "status": "Pending",
    "rowid": "1167941",
    "final_x": "3666081.33703",
    "final_y": "519889.699768",
    "longitude": "-90.1171468898111",
    "latitude": "29.92397522683005",
    "geocoded_column": {
      "latitude": "29.92397522683005",
      "longitude": "-90.1171468898111"
    }
  },
  {
    "service_request": "2025-1167940",
    "request_type": "Trash/Recycling",
    "request_reason": "Repair Trash Cart",
    "date_created": "2025-02-10T16:58:58.000",
    "date_modified": "2025-02-10T16:59:00.000",
    "request_status": "Pending",
    "responsible_agency": "Department of Sanitation",
    "final_address": "228 S Pierce St",
    "address_councildis": "A",
    "status": "Assigned to Contractor",
    "contractor": "IV Waste",
    "rowid": "1167940",
    "final_x": "3671104.24929",
    "final_y": "537485.371464",
    "longitude": "-90.1006938042112",
    "latitude": "29.9722100086375",
    "geocoded_column": {
      "latitude": "29.9722100086375",
      "longitude": "-90.1006938042112"
    }
  },
  {
    "service_request": "2025-1167939",
    "request_type": "Drainage",
    "request_reason": "Street Flooding",
    "date_created": "2025-02-10T16:49:49.000",
    "date_modified": "2025-02-10T16:49:52.000",
    "request_status": "Pending",
    "responsible_agency": "Sewerage & Water Board ",
    "final_address": "5534 Willow St Apt A",
    "address_councildis": "A",
    "status": "Pending",
    "rowid": "1167939",
    "final_x": "3667590.57492",
    "final_y": "525393.193277",
    "longitude": "-90.11219760669947",
    "latitude": "29.93906394681158",
    "geocoded_column": {
      "latitude": "29.93906394681158",
      "longitude": "-90.11219760669947"
    }
  },
  {
    "service_request": "2025-1167938",
    "request_type": "Trash/Recycling",
    "request_reason": "Request a Large Item Pick Up",
    "date_created": "2025-02-10T16:46:26.000",
    "date_modified": "2025-02-10T16:46:28.000",
    "request_status": "Pending",
    "responsible_agency": "Department of Sanitation",
    "final_address": "7600 Read Blvd",
    "address_councildis": "E",
    "status": "Assigned to Contractor",
    "contractor": "Waste Pro",
    "rowid": "1167938",
    "final_x": "3708453.71224",
    "final_y": "564443.736225",
    "longitude": "-89.98173469545425",
    "latitude": "30.045177525372484",
    "geocoded_column": {
      "latitude": "30.045177525372484",
      "longitude": "-89.98173469545425"
    }
  },
  {
    "service_request": "2025-1167937",
    "request_type": "Trash/Recycling",
    "request_reason": "Request a Large Item Pick Up",
    "date_created": "2025-02-10T16:46:17.000",
    "date_modified": "2025-02-10T16:46:19.000",
    "request_status": "Pending",
    "responsible_agency": "Department of Sanitation",
    "final_address": "8009 Vanderkloot Ave",
    "address_councildis": "E",
    "status": "Assigned to Contractor",
    "contractor": "Waste Pro",
    "rowid": "1167937",
    "final_x": "3705390.98705",
    "final_y": "564316.570273",
    "longitude": "-89.99141900491878",
    "latitude": "30.044926849203407",
    "geocoded_column": {
      "latitude": "30.044926849203407",
      "longitude": "-89.99141900491878"
    }
  },
  {
    "service_request": "2025-1167936",
    "request_type": "Trash/Recycling",
    "request_reason": "Request a Large Item Pick Up",
    "date_created": "2025-02-10T16:45:49.000",
    "date_modified": "2025-02-10T16:45:51.000",
    "request_status": "Pending",
    "responsible_agency": "Department of Sanitation",
    "final_address": "1401 Pauline St",
    "address_councildis": "D",
    "status": "Assigned to Contractor",
    "contractor": "IV Waste",
    "rowid": "1167936",
    "final_x": "3691539.92131",
    "final_y": "536590.566791",
    "longitude": "-90.03618673343199",
    "latitude": "29.96912931106256",
    "geocoded_column": {
      "latitude": "29.96912931106256",
      "longitude": "-90.03618673343199"
    }
  },
  {
    "service_request": "2025-1167935",
    "request_type": "Roads and Streets",
    "request_reason": "Pothole",
    "date_created": "2025-02-10T16:45:06.000",
    "date_modified": "2025-02-10T16:45:08.000",
    "request_status": "Pending",
    "responsible_agency": "Department of Public Works",
    "final_address": "800 BLK Upperline St",
    "address_councildis": "B",
    "status": "Pending",
    "rowid": "1167935",
    "final_x": "3668987.01763",
    "final_y": "518391.732033",
    "longitude": "-90.10802523075382",
    "latitude": "29.91977116775778",
    "geocoded_column": {
      "latitude": "29.91977116775778",
      "longitude": "-90.10802523075382"
    }
  },
  {
    "service_request": "2025-1167934",
    "request_type": "Trash/Recycling",
    "request_reason": "Return Recycling Cart",
    "date_created": "2025-02-10T16:44:37.000",
    "date_modified": "2025-02-10T16:44:39.000",
    "request_status": "Pending",
    "responsible_agency": "Department of Sanitation",
    "final_address": "235 S Olympia St",
    "address_councildis": "A",
    "status": "Pending",
    "rowid": "1167934",
    "final_x": "3668951.42094",
    "final_y": "539077.293258",
    "longitude": "-90.10743903232225",
    "latitude": "29.97665076237886",
    "geocoded_column": {
      "latitude": "29.97665076237886",
      "longitude": "-90.10743903232225"
    }
  },
  {
    "service_request": "2025-1167933",
    "request_type": "Road Striping",
    "request_reason": "Bike Lane",
    "date_created": "2025-02-10T16:41:29.000",
    "date_modified": "2025-02-10T16:41:35.000",
    "request_status": "Pending",
    "responsible_agency": "Department of Public Works",
    "final_address": "600 Independence St",
    "address_councildis": "C",
    "status": "Pending",
    "rowid": "1167933",
    "final_x": "3690395.41776",
    "final_y": "533721.921157",
    "longitude": "-90.03990340758237",
    "latitude": "29.96127711647712",
    "geocoded_column": {
      "latitude": "29.96127711647712",
      "longitude": "-90.03990340758237"
    }
  },
  {
    "service_request": "2025-1167932",
    "request_type": "Trash/Recycling",
    "request_reason": "Request a Large Item Pick Up",
    "date_created": "2025-02-10T16:34:15.000",
    "date_modified": "2025-02-10T16:34:17.000",
    "request_status": "Pending",
    "responsible_agency": "Department of Sanitation",
    "final_address": "10940 Harrow Rd",
    "address_councildis": "E",
    "status": "Assigned to Contractor",
    "contractor": "Waste Pro",
    "rowid": "1167932",
    "final_x": "3711778.88235",
    "final_y": "563817.623201",
    "longitude": "-89.97124919197346",
    "latitude": "30.043347700071017",
    "geocoded_column": {
      "latitude": "30.043347700071017",
      "longitude": "-89.97124919197346"
    }
  },
  {
    "service_request": "2025-1167931",
    "request_type": "Trash/Recycling",
    "request_reason": "Request a Large Item Pick Up",
    "date_created": "2025-02-10T16:28:45.000",
    "date_modified": "2025-02-10T16:28:47.000",
    "request_status": "Pending",
    "responsible_agency": "Department of Sanitation",
    "final_address": "7531 Pebble Dr",
    "address_councildis": "E",
    "status": "Assigned to Contractor",
    "contractor": "Waste Pro",
    "rowid": "1167931",
    "final_x": "3715540.61656",
    "final_y": "568535.393061",
    "longitude": "-89.95918185160555",
    "latitude": "30.056196149312207",
    "geocoded_column": {
      "latitude": "30.056196149312207",
      "longitude": "-89.95918185160555"
    }
  },
  {
    "service_request": "2025-1167930",
    "request_type": "Trash/Recycling",
    "request_reason": "Request a Large Item Pick Up",
    "date_created": "2025-02-10T16:28:11.000",
    "date_modified": "2025-02-10T16:28:12.000",
    "request_status": "Pending",
    "responsible_agency": "Department of Sanitation",
    "final_address": "2627 DAbadie St",
    "address_councildis": "D",
    "status": "Assigned to Contractor",
    "contractor": "IV Waste",
    "rowid": "1167930",
    "final_x": "3679349.92155",
    "final_y": "540942.153803",
    "longitude": "-90.07453264672121",
    "latitude": "29.98146848627592",
    "geocoded_column": {
      "latitude": "29.98146848627592",
      "longitude": "-90.07453264672121"
    }
  },
  {
    "service_request": "2025-1167929",
    "request_type": "Roads and Streets",
    "request_reason": "Sidewalk Damaged or Missing",
    "date_created": "2025-02-10T16:27:45.000",
    "date_modified": "2025-02-10T16:27:47.000",
    "request_status": "Pending",
    "responsible_agency": "Department of Public Works",
    "final_address": "4601 Mandeville St",
    "address_councildis": "D",
    "status": "Pending",
    "rowid": "1167929",
    "final_x": "3684852.14978",
    "final_y": "549541.966867",
    "longitude": "-90.05685150848736",
    "latitude": "30.004947548387968",
    "geocoded_column": {
      "latitude": "30.004947548387968",
      "longitude": "-90.05685150848736"
    }
  },
  {
    "service_request": "2025-1167928",
    "request_type": "Trash/Recycling",
    "request_reason": "Request a Large Item Pick Up",
    "date_created": "2025-02-10T16:27:21.000",
    "date_modified": "2025-02-10T16:27:23.000",
    "request_status": "Pending",
    "responsible_agency": "Department of Sanitation",
    "final_address": "7241 Restgate Rd",
    "address_councildis": "E",
    "status": "Assigned to Contractor",
    "contractor": "Waste Pro",
    "rowid": "1167928",
    "final_x": "3710623.40933",
    "final_y": "563563.36112",
    "longitude": "-89.97491046486283",
    "latitude": "30.04268629765786",
    "geocoded_column": {
      "latitude": "30.04268629765786",
      "longitude": "-89.97491046486283"
    }
  },
  {
    "service_request": "2025-1167927",
    "request_type": "Trash/Recycling",
    "request_reason": "Repair Trash Cart",
    "date_created": "2025-02-10T16:26:17.000",
    "date_modified": "2025-02-10T16:26:19.000",
    "request_status": "Pending",
    "responsible_agency": "Department of Sanitation",
    "final_address": "4511 Camelot Dr",
    "address_councildis": "E",
    "status": "Assigned to Contractor",
    "contractor": "Waste Pro",
    "rowid": "1167927",
    "final_x": "3708592.00184",
    "final_y": "554160.890136",
    "longitude": "-89.98168099718687",
    "latitude": "30.01689926341844",
    "geocoded_column": {
      "latitude": "30.01689926341844",
      "longitude": "-89.98168099718687"
    }
  },
  {
    "service_request": "2025-1167926",
    "request_type": "Trash/Recycling",
    "request_reason": "Request a Large Item Pick Up",
    "date_created": "2025-02-10T16:20:42.000",
    "date_modified": "2025-02-10T16:20:45.000",
    "request_status": "Pending",
    "responsible_agency": "Department of Sanitation",
    "final_address": "3818 Jena St",
    "address_councildis": "B",
    "status": "Assigned to Contractor",
    "contractor": "IV Waste",
    "rowid": "1167926",
    "final_x": "3669630.29454",
    "final_y": "528598.760896",
    "longitude": "-90.10564951624902",
    "latitude": "29.94781828813069",
    "geocoded_column": {
      "latitude": "29.94781828813069",
      "longitude": "-90.10564951624902"
    }
  },
  {
    "service_request": "2025-1167925",
    "request_type": "Abandoned Vehicles",
    "request_reason": "Abandoned/Junk Vehicles",
    "date_created": "2025-02-10T16:17:37.000",
    "date_modified": "2025-02-10T16:17:39.000",
    "request_status": "Pending",
    "responsible_agency": "Department of Public Works",
    "final_address": "3200 BLK Fortin St",
    "address_councildis": "A",
    "status": "Pending",
    "rowid": "1167925",
    "final_x": "3676008.58003",
    "final_y": "540960.882761",
    "longitude": "-90.08508551246068",
    "latitude": "29.981620493981957",
    "geocoded_column": {
      "latitude": "29.981620493981957",
      "longitude": "-90.08508551246068"
    }
  },
  {
    "service_request": "2025-1167924",
    "request_type": "Trash/Recycling",
    "request_reason": "Request a Large Item Pick Up",
    "date_created": "2025-02-10T16:11:55.000",
    "date_modified": "2025-02-10T16:11:58.000",
    "request_status": "Pending",
    "responsible_agency": "Department of Sanitation",
    "final_address": "3510 Hyman Ct",
    "address_councildis": "C",
    "status": "Assigned to Contractor",
    "contractor": "Richards Disposal",
    "rowid": "1167924",
    "final_x": "3700975.61655",
    "final_y": "518107.731062",
    "longitude": "-90.00706394573703",
    "latitude": "29.91801092355077",
    "geocoded_column": {
      "latitude": "29.91801092355077",
      "longitude": "-90.00706394573703"
    }
  },
  {
    "service_request": "2025-1167923",
    "request_type": "Parks & Parkways",
    "request_reason": "Request Tree Service (Right of Way/Public Property)",
    "date_created": "2025-02-10T16:11:36.000",
    "date_modified": "2025-02-10T16:11:38.000",
    "request_status": "Pending",
    "responsible_agency": "Department of Parks & Parkway",
    "final_address": "ELYSIAN FIELDS AVE & VIENNA ST",
    "address_councildis": "D",
    "status": "Pending",
    "rowid": "1167923",
    "final_x": "3683575.3",
    "final_y": "554962.58",
    "longitude": "-90.06069513534304",
    "latitude": "30.019891311165576",
    "geocoded_column": {
      "latitude": "30.019891311165576",
      "longitude": "-90.06069513534304"
    }
  },
  {
    "service_request": "2025-1167922",
    "request_type": "Trash/Recycling",
    "request_reason": "Request a Large Item Pick Up",
    "date_created": "2025-02-10T16:09:07.000",
    "date_modified": "2025-02-10T16:09:09.000",
    "request_status": "Pending",
    "responsible_agency": "Department of Sanitation",
    "final_address": "13830 PierreS Ct",
    "address_councildis": "E",
    "status": "Assigned to Contractor",
    "contractor": "Waste Pro",
    "rowid": "1167922",
    "final_x": "3725389.2263",
    "final_y": "570489.304039",
    "longitude": "-89.9279767901092",
    "latitude": "30.061240146528757",
    "geocoded_column": {
      "latitude": "30.061240146528757",
      "longitude": "-89.9279767901092"
    }
  },
  {
    "service_request": "2025-1167921",
    "request_type": "Trash/Recycling",
    "request_reason": "Illegal Dumping",
    "date_created": "2025-02-10T16:06:52.000",
    "date_modified": "2025-02-10T16:06:54.000",
    "request_status": "Pending",
    "responsible_agency": "Department of Sanitation",
    "final_address": "5907 Beechcraft St",
    "address_councildis": "D",
    "status": "Pending",
    "rowid": "1167921",
    "final_x": "3696353.26064",
    "final_y": "553186.703639",
    "longitude": "-90.02038539262581",
    "latitude": "30.01461190378941",
    "geocoded_column": {
      "latitude": "30.01461190378941",
      "longitude": "-90.02038539262581"
    }
  },
  {
    "service_request": "2025-1167920",
    "request_type": "Trash/Recycling",
    "request_reason": "Request a Large Item Pick Up",
    "date_created": "2025-02-10T16:05:55.000",
    "date_modified": "2025-02-10T16:05:57.000",
    "request_status": "Pending",
    "responsible_agency": "Department of Sanitation",
    "final_address": "5537 Franklin Ave",
    "address_councildis": "D",
    "status": "Assigned to Contractor",
    "contractor": "IV Waste",
    "rowid": "1167920",
    "final_x": "3686625.84726",
    "final_y": "553594.233047",
    "longitude": "-90.05110478931492",
    "latitude": "30.016035348244657",
    "geocoded_column": {
      "latitude": "30.016035348244657",
      "longitude": "-90.05110478931492"
    }
  },
  {
    "service_request": "2025-1167919",
    "request_type": "Trash/Recycling",
    "request_reason": "Repair Recycling Cart",
    "date_created": "2025-02-10T16:04:47.000",
    "date_modified": "2025-02-10T16:04:49.000",
    "request_status": "Pending",
    "responsible_agency": "Department of Sanitation",
    "final_address": "321 Neil Ave",
    "address_councildis": "C",
    "status": "Pending",
    "rowid": "1167919",
    "final_x": "3707548.0739",
    "final_y": "518672.789815",
    "longitude": "-89.98629750106043",
    "latitude": "29.91935382458265",
    "geocoded_column": {
      "latitude": "29.91935382458265",
      "longitude": "-89.98629750106043"
    }
  },
  {
    "service_request": "2025-1167918",
    "request_type": "Trash/Recycling",
    "request_reason": "Request a Large Item Pick Up",
    "date_created": "2025-02-10T16:03:40.000",
    "date_modified": "2025-02-10T16:03:42.000",
    "request_status": "Pending",
    "responsible_agency": "Department of Sanitation",
    "final_address": "8132 Belfast St",
    "address_councildis": "A",
    "status": "Assigned to Contractor",
    "contractor": "IV Waste",
    "rowid": "1167918",
    "final_x": "3665382.86381",
    "final_y": "532501.925316",
    "longitude": "-90.11892978353336",
    "latitude": "29.95867517036736",
    "geocoded_column": {
      "latitude": "29.95867517036736",
      "longitude": "-90.11892978353336"
    }
  },
  {
    "service_request": "2025-1167917",
    "request_type": "Trash/Recycling",
    "request_reason": "Repair Trash Cart",
    "date_created": "2025-02-10T16:01:10.000",
    "date_modified": "2025-02-10T16:01:13.000",
    "request_status": "Pending",
    "responsible_agency": "Department of Sanitation",
    "final_address": "2509 Acacia St",
    "address_councildis": "D",
    "status": "Assigned to Contractor",
    "contractor": "IV Waste",
    "rowid": "1167917",
    "final_x": "3686374.22146",
    "final_y": "546333.683344",
    "longitude": "-90.05215630939972",
    "latitude": "29.99607921684571",
    "geocoded_column": {
      "latitude": "29.99607921684571",
      "longitude": "-90.05215630939972"
    }
  },
  {
    "service_request": "2025-1167916",
    "request_type": "Trash/Recycling",
    "request_reason": "Repair Trash Cart",
    "date_created": "2025-02-10T15:59:15.000",
    "date_modified": "2025-02-10T15:59:17.000",
    "request_status": "Pending",
    "responsible_agency": "Department of Sanitation",
    "final_address": "3668 Pin Oak Ave",
    "address_councildis": "C",
    "status": "Assigned to Contractor",
    "contractor": "Richards Disposal",
    "rowid": "1167916",
    "final_x": "3704146.53297",
    "final_y": "514694.847475",
    "longitude": "-89.99718078865575",
    "latitude": "29.908525364860935",
    "geocoded_column": {
      "latitude": "29.908525364860935",
      "longitude": "-89.99718078865575"
    }
  },
  {
    "service_request": "2025-1167915",
    "request_type": "Trash/Recycling",
    "request_reason": "Request a Large Item Pick Up",
    "date_created": "2025-02-10T15:58:45.000",
    "date_modified": "2025-02-10T15:58:47.000",
    "request_status": "Pending",
    "responsible_agency": "Department of Sanitation",
    "final_address": "7062 Bunker Hill Rd",
    "address_councildis": "E",
    "status": "Assigned to Contractor",
    "contractor": "Waste Pro",
    "rowid": "1167915",
    "final_x": "3705792.61355",
    "final_y": "560585.70915",
    "longitude": "-89.99028789195111",
    "latitude": "30.034655517138816",
    "geocoded_column": {
      "latitude": "30.034655517138816",
      "longitude": "-89.99028789195111"
    }
  },
  {
    "service_request": "2025-1167914",
    "request_type": "Property Maintenance",
    "request_reason": "Property Maintenance",
    "date_created": "2025-02-10T15:54:51.000",
    "date_modified": "2025-02-10T15:54:53.000",
    "request_status": "Pending",
    "responsible_agency": "Department of Code Enforcement",
    "final_address": "7025 Edinburgh St",
    "address_councildis": "B",
    "status": "Pending",
    "rowid": "1167914",
    "final_x": "3669031.00564",
    "final_y": "533130.486852",
    "longitude": "-90.10738862735425",
    "latitude": "29.96029668873569",
    "geocoded_column": {
      "latitude": "29.96029668873569",
      "longitude": "-90.10738862735425"
    }
  },
  {
    "service_request": "2025-1167913",
    "request_type": "Trash/Recycling",
    "request_reason": "Request a Large Item Pick Up",
    "date_created": "2025-02-10T15:51:25.000",
    "date_modified": "2025-02-10T15:51:28.000",
    "request_status": "Pending",
    "responsible_agency": "Department of Sanitation",
    "final_address": "4675 Werner Dr",
    "address_councildis": "E",
    "status": "Assigned to Contractor",
    "contractor": "Waste Pro",
    "rowid": "1167913",
    "final_x": "3704842.48657",
    "final_y": "554932.973592",
    "longitude": "-89.99349928597245",
    "latitude": "30.019143278689437",
    "geocoded_column": {
      "latitude": "30.019143278689437",
      "longitude": "-89.99349928597245"
    }
  },
  {
    "service_request": "2025-1167912",
    "request_type": "Traffic Signals",
    "request_reason": "Traffic Signal Malfunctioning or Damaged",
    "date_created": "2025-02-10T15:47:51.000",
    "date_modified": "2025-02-10T15:47:53.000",
    "request_status": "Pending",
    "responsible_agency": "Department of Public Works",
    "final_address": "CHEF MENTEUR HWY & WILSON AVE",
    "address_councildis": "E",
    "status": "Pending",
    "rowid": "1167912",
    "final_x": "3703240.7",
    "final_y": "552478.68",
    "longitude": "-89.99865066841369",
    "latitude": "30.0124463124892",
    "geocoded_column": {
      "latitude": "30.0124463124892",
      "longitude": "-89.99865066841369"
    }
  },
  {
    "service_request": "2025-1167911",
    "request_type": "Traffic Signals",
    "request_reason": "Traffic Signal Malfunctioning or Damaged",
    "date_created": "2025-02-10T15:47:05.000",
    "date_modified": "2025-02-10T15:48:12.000",
    "request_status": "Pending",
    "responsible_agency": "Department of Public Works",
    "final_address": "DESIRE PKWY & CHEF MENTEUR HWY",
    "address_councildis": "D",
    "contractor": "Legacy Professional Services",
    "rowid": "1167911",
    "final_x": "3692048.1",
    "final_y": "550051.08",
    "longitude": "-90.03409987641885",
    "latitude": "30.006125037453803",
    "geocoded_column": {
      "latitude": "30.006125037453803",
      "longitude": "-90.03409987641885"
    }
  },
  {
    "service_request": "2025-1167910",
    "request_type": "Trash/Recycling",
    "request_reason": "Repair Trash Cart",
    "date_created": "2025-02-10T15:46:06.000",
    "date_modified": "2025-02-10T15:46:08.000",
    "request_status": "Pending",
    "responsible_agency": "Department of Sanitation",
    "final_address": "2829 Aubry St",
    "address_councildis": "D",
    "status": "Assigned to Contractor",
    "contractor": "IV Waste",
    "rowid": "1167910",
    "final_x": "3679019.44187",
    "final_y": "541675.063948",
    "longitude": "-90.07555104408533",
    "latitude": "29.983493713101034",
    "geocoded_column": {
      "latitude": "29.983493713101034",
      "longitude": "-90.07555104408533"
    }
  },
  {
    "service_request": "2025-1167909",
    "request_type": "Trash/Recycling",
    "request_reason": "Order Recycling Cart",
    "date_created": "2025-02-10T15:45:49.000",
    "date_modified": "2025-02-10T15:45:52.000",
    "request_status": "Pending",
    "responsible_agency": "Department of Sanitation",
    "final_address": "400 Abalon Ct",
    "address_councildis": "C",
    "status": "Pending",
    "rowid": "1167909",
    "final_x": "3689411.48732",
    "final_y": "530212.597953",
    "longitude": "-90.04313525532693",
    "latitude": "29.951658195222585",
    "geocoded_column": {
      "latitude": "29.951658195222585",
      "longitude": "-90.04313525532693"
    }
  },
  {
    "service_request": "2025-1167908",
    "request_type": "Trash/Recycling",
    "request_reason": "Illegal Dumping",
    "date_created": "2025-02-10T15:44:30.000",
    "date_modified": "2025-02-10T15:44:32.000",
    "request_status": "Pending",
    "responsible_agency": "Department of Sanitation",
    "final_address": "7645 Lacombe St",
    "address_councildis": "E",
    "status": "Pending",
    "rowid": "1167908",
    "final_x": "3709704.42168",
    "final_y": "565309.45501",
    "longitude": "-89.97774952199586",
    "latitude": "30.047517279769306",
    "geocoded_column": {
      "latitude": "30.047517279769306",
      "longitude": "-89.97774952199586"
    }
  },
  {
    "service_request": "2025-1167907",
    "request_type": "Drainage",
    "request_reason": "Drainage Manhole Cover Missing or Damaged",
    "date_created": "2025-02-10T15:43:55.000",
    "date_modified": "2025-02-10T15:43:58.000",
    "request_status": "Pending",
    "responsible_agency": "Sewerage & Water Board ",
    "final_address": "1520 Dufossat St",
    "address_councildis": "B",
    "status": "Pending",
    "rowid": "1167907",
    "final_x": "3668021.84634",
    "final_y": "520604.332856",
    "longitude": "-90.1109973100833",
    "latitude": "29.925883465381688",
    "geocoded_column": {
      "latitude": "29.925883465381688",
      "longitude": "-90.1109973100833"
    }
  },
  {
    "service_request": "2025-1167906",
    "request_type": "Trash/Recycling",
    "request_reason": "Request a Large Item Pick Up",
    "date_created": "2025-02-10T15:42:50.000",
    "date_modified": "2025-02-10T16:17:37.000",
    "request_status": "Pending",
    "responsible_agency": "Department of Sanitation",
    "final_address": "13023 Dwyer Blvd",
    "address_councildis": "E",
    "contractor": "Waste Pro",
    "rowid": "1167906",
    "final_x": "3723912.91359",
    "final_y": "561370.56323",
    "longitude": "-89.93299559318334",
    "latitude": "30.036217105940654",
    "geocoded_column": {
      "latitude": "30.036217105940654",
      "longitude": "-89.93299559318334"
    }
  },
  {
    "service_request": "2025-1167905",
    "request_type": "Drainage",
    "request_reason": "Drainage Manhole Cover Missing or Damaged",
    "date_created": "2025-02-10T15:41:02.000",
    "date_modified": "2025-02-10T15:41:02.000",
    "request_status": "Pending",
    "responsible_agency": "Sewerage & Water Board ",
    "final_address": "2040 St Charles Ave",
    "address_councildis": "B",
    "status": "Pending",
    "rowid": "1167905",
    "final_x": "3678049.93326",
    "final_y": "523942.318268",
    "longitude": "-90.07922627833999",
    "latitude": "29.934763877545684",
    "geocoded_column": {
      "latitude": "29.934763877545684",
      "longitude": "-90.07922627833999"
    }
  },
  {
    "service_request": "2025-1167904",
    "request_type": "Trash/Recycling",
    "request_reason": "Illegal Dumping",
    "date_created": "2025-02-10T15:37:03.000",
    "date_modified": "2025-02-10T15:37:06.000",
    "request_status": "Pending",
    "responsible_agency": "Department of Sanitation",
    "final_address": "EADS ST & TREASURE ST",
    "address_councildis": "D",
    "status": "Pending",
    "rowid": "1167904",
    "final_x": "3687654.0",
    "final_y": "544297.08",
    "longitude": "-90.04818575228198",
    "latitude": "29.990439881789293",
    "geocoded_column": {
      "latitude": "29.990439881789293",
      "longitude": "-90.04818575228198"
    }
  },
  {
    "service_request": "2025-1167903",
    "request_type": "Abandoned Vehicles",
    "request_reason": "Abandoned/Junk Vehicles",
    "date_created": "2025-02-10T15:33:54.000",
    "date_modified": "2025-02-10T15:33:59.000",
    "request_status": "Pending",
    "responsible_agency": "Department of Public Works",
    "final_address": "435 Lamarque St",
    "address_councildis": "C",
    "status": "Pending",
    "rowid": "1167903",
    "final_x": "3686972.99074",
    "final_y": "526746.319422",
    "longitude": "-90.05095732506561",
    "latitude": "29.942202381794637",
    "geocoded_column": {
      "latitude": "29.942202381794637",
      "longitude": "-90.05095732506561"
    }
  },
  {
    "service_request": "2025-1167902",
    "request_type": "Trash/Recycling",
    "request_reason": "Request a Large Item Pick Up",
    "date_created": "2025-02-10T15:33:21.000",
    "date_modified": "2025-02-10T15:33:23.000",
    "request_status": "Pending",
    "responsible_agency": "Department of Sanitation",
    "final_address": "4620 Laurel St",
    "address_councildis": "B",
    "status": "Assigned to Contractor",
    "contractor": "IV Waste",
    "rowid": "1167902",
    "final_x": "3670188.22484",
    "final_y": "517921.44575",
    "longitude": "-90.1042495211069",
    "latitude": "29.918442654587203",
    "geocoded_column": {
      "latitude": "29.918442654587203",
      "longitude": "-90.1042495211069"
    }
  },
  {
    "service_request": "2025-1167901",
    "request_type": "Abandoned Vehicles",
    "request_reason": "Abandoned/Junk Vehicles",
    "date_created": "2025-02-10T15:31:14.000",
    "date_modified": "2025-02-10T15:31:16.000",
    "request_status": "Pending",
    "responsible_agency": "Department of Public Works",
    "final_address": "708 France St",
    "address_councildis": "C",
    "status": "Pending",
    "rowid": "1167901",
    "final_x": "3692002.47926",
    "final_y": "533760.487941",
    "longitude": "-90.03482723190326",
    "latitude": "29.961333183387026",
    "geocoded_column": {
      "latitude": "29.961333183387026",
      "longitude": "-90.03482723190326"
    }
  },
  {
    "service_request": "2025-1167900",
    "request_type": "Trash/Recycling",
    "request_reason": "Request a Large Item Pick Up",
    "date_created": "2025-02-10T15:29:26.000",
    "date_modified": "2025-02-10T15:29:27.000",
    "request_status": "Pending",
    "responsible_agency": "Department of Sanitation",
    "final_address": "4404 Lonely Oak Dr",
    "address_councildis": "E",
    "status": "Assigned to Contractor",
    "contractor": "Waste Pro",
    "rowid": "1167900",
    "final_x": "3702414.94276",
    "final_y": "552768.44751",
    "longitude": "-90.00124893933258",
    "latitude": "30.013269484334348",
    "geocoded_column": {
      "latitude": "30.013269484334348",
      "longitude": "-90.00124893933258"
    }
  },
  {
    "service_request": "2025-1167899",
    "request_type": "Trash/Recycling",
    "request_reason": "Request a Large Item Pick Up",
    "date_created": "2025-02-10T15:26:55.000",
    "date_modified": "2025-02-10T15:26:57.000",
    "request_status": "Pending",
    "responsible_agency": "Department of Sanitation",
    "final_address": "2539 Fats Domino Ave",
    "address_councildis": "E",
    "status": "Assigned to Contractor",
    "contractor": "Waste Pro",
    "rowid": "1167899",
    "final_x": "3699572.99095",
    "final_y": "539315.465034",
    "longitude": "-90.01071855679875",
    "latitude": "29.976369303193767",
    "geocoded_column": {
      "latitude": "29.976369303193767",
      "longitude": "-90.01071855679875"
    }
  },
  {
    "service_request": "2025-1167898",
    "request_type": "Trash/Recycling",
    "request_reason": "Request a Large Item Pick Up",
    "date_created": "2025-02-10T15:23:05.000",
    "date_modified": "2025-02-10T15:23:07.000",
    "request_status": "Pending",
    "responsible_agency": "Department of Sanitation",
    "final_address": "7900 Brevard Ave",
    "address_councildis": "E",
    "status": "Assigned to Contractor",
    "contractor": "Waste Pro",
    "rowid": "1167898",
    "final_x": "3705929.21521",
    "final_y": "564154.540769",
    "longitude": "-89.98972396877781",
    "latitude": "30.044463989894915",
    "geocoded_column": {
      "latitude": "30.044463989894915",
      "longitude": "-89.98972396877781"
    }
  },
  {
    "service_request": "2025-1167897",
    "request_type": "Trash/Recycling",
    "request_reason": "Illegal Dumping",
    "date_created": "2025-02-10T15:22:18.000",
    "date_modified": "2025-02-10T15:22:21.000",
    "request_status": "Pending",
    "responsible_agency": "Department of Sanitation",
    "final_address": "BLAIR ST & GENERAL MEYER AVE",
    "address_councildis": "C",
    "status": "Pending",
    "rowid": "1167897",
    "final_x": "3709521.4",
    "final_y": "519533.28",
    "longitude": "-89.98003668408012",
    "latitude": "29.92165593630026",
    "geocoded_column": {
      "latitude": "29.92165593630026",
      "longitude": "-89.98003668408012"
    }
  },
  {
    "service_request": "2025-1167896",
    "request_type": "Trash/Recycling",
    "request_reason": "Missed Trash Pick-Up",
    "date_created": "2025-02-10T15:17:54.000",
    "date_modified": "2025-02-10T16:40:40.000",
    "case_close_date": "2025-02-10T10:40:39.000",
    "request_status": "Closed",
    "responsible_agency": "Department of Sanitation",
    "final_address": "134 N Clark St",
    "address_councildis": "B",
    "status": "Invalid Request",
    "contractor": "IV Waste",
    "contractor_action": "Invalid Request",
    "rowid": "1167896",
    "final_x": "3673117.10561",
    "final_y": "537267.725192",
    "longitude": "-90.09434428486674",
    "latitude": "29.97155186227848",
    "geocoded_column": {
      "latitude": "29.97155186227848",
      "longitude": "-90.09434428486674"
    }
  },
  {
    "service_request": "2025-1167895",
    "request_type": "Trash/Recycling",
    "request_reason": "Request a Large Item Pick Up",
    "date_created": "2025-02-10T15:14:47.000",
    "date_modified": "2025-02-10T15:14:49.000",
    "request_status": "Pending",
    "responsible_agency": "Department of Sanitation",
    "final_address": "2726 S Carrollton Ave",
    "address_councildis": "A",
    "status": "Assigned to Contractor",
    "contractor": "IV Waste",
    "rowid": "1167895",
    "final_x": "3665735.94087",
    "final_y": "532532.562372",
    "longitude": "-90.11781382706118",
    "latitude": "29.95874911816156",
    "geocoded_column": {
      "latitude": "29.95874911816156",
      "longitude": "-90.11781382706118"
    }
  },
  {
    "service_request": "2025-1167894",
    "request_type": "Abandoned Vehicles",
    "request_reason": "Abandoned/Junk Vehicles",
    "date_created": "2025-02-10T15:14:30.000",
    "date_modified": "2025-02-10T15:20:35.000",
    "request_status": "Pending",
    "responsible_agency": "Department of Public Works",
    "final_address": "100 BLK Stafford Pl",
    "address_councildis": "A",
    "status": "Inspected",
    "rowid": "1167894",
    "final_x": "3665982.9367",
    "final_y": "553909.61769",
    "longitude": "-90.1163169105074",
    "latitude": "30.01752155768137",
    "geocoded_column": {
      "latitude": "30.01752155768137",
      "longitude": "-90.1163169105074"
    }
  },
  {
    "service_request": "2025-1167893",
    "request_type": "Trash/Recycling",
    "request_reason": "Replace Recycling Cart",
    "date_created": "2025-02-10T15:08:16.000",
    "date_modified": "2025-02-10T15:08:18.000",
    "request_status": "Pending",
    "responsible_agency": "Department of Sanitation",
    "final_address": "5909 Louisville St",
    "address_councildis": "A",
    "status": "Pending",
    "rowid": "1167893",
    "final_x": "3667750.01857",
    "final_y": "546782.436497",
    "longitude": "-90.11097384203207",
    "latitude": "29.99787257124865",
    "geocoded_column": {
      "latitude": "29.99787257124865",
      "longitude": "-90.11097384203207"
    }
  },
  {
    "service_request": "2025-1167892",
    "request_type": "Trash/Recycling",
    "request_reason": "Request a Large Item Pick Up",
    "date_created": "2025-02-10T15:08:11.000",
    "date_modified": "2025-02-10T15:08:13.000",
    "request_status": "Pending",
    "responsible_agency": "Department of Sanitation",
    "final_address": "3120 Preston Pl",
    "address_councildis": "C",
    "status": "Assigned to Contractor",
    "contractor": "Richards Disposal",
    "rowid": "1167892",
    "final_x": "3708654.90814",
    "final_y": "518682.865655",
    "longitude": "-89.98280343978182",
    "latitude": "29.919345705083163",
    "geocoded_column": {
      "latitude": "29.919345705083163",
      "longitude": "-89.98280343978182"
    }
  },
  {
    "service_request": "2025-1167891",
    "request_type": "Roads and Streets",
    "request_reason": "Pothole",
    "date_created": "2025-02-10T15:05:18.000",
    "date_modified": "2025-02-10T15:05:20.000",
    "request_status": "Pending",
    "responsible_agency": "Department of Public Works",
    "final_address": "S CLAIBORNE AVE & WASHINGTON AVE",
    "address_councildis": "B",
    "status": "Pending",
    "rowid": "1167891",
    "final_x": "3673121.4",
    "final_y": "526764.58",
    "longitude": "-90.09468929296312",
    "latitude": "29.942671580693215",
    "geocoded_column": {
      "latitude": "29.942671580693215",
      "longitude": "-90.09468929296312"
    }
  },
  {
    "service_request": "2025-1167890",
    "request_type": "Trash/Recycling",
    "request_reason": "Illegal Dumping",
    "date_created": "2025-02-10T15:04:54.000",
    "date_modified": "2025-02-10T15:04:56.000",
    "request_status": "Pending",
    "responsible_agency": "Department of Sanitation",
    "final_address": "2600 N Tonti St",
    "address_councildis": "D",
    "status": "Pending",
    "rowid": "1167890",
    "final_x": "3687249.51458",
    "final_y": "540893.268171",
    "longitude": "-90.04958387394423",
    "latitude": "29.98109307863297",
    "geocoded_column": {
      "latitude": "29.98109307863297",
      "longitude": "-90.04958387394423"
    }
  },
  {
    "service_request": "2025-1167889",
    "request_type": "General Services",
    "request_reason": "General Service Request",
    "date_created": "2025-02-10T15:03:23.000",
    "date_modified": "2025-02-10T15:11:02.000",
    "case_close_date": "2025-02-10T09:11:01.000",
    "request_status": "Closed",
    "responsible_agency": "Orleans Parish Communication District",
    "final_address": "S CLAIBORNE AVE & WASHINGTON AVE",
    "address_councildis": "B",
    "status": "Referred to Risk Management",
    "rowid": "1167889",
    "final_x": "3673121.4",
    "final_y": "526764.58",
    "longitude": "-90.09468929296312",
    "latitude": "29.942671580693215",
    "geocoded_column": {
      "latitude": "29.942671580693215",
      "longitude": "-90.09468929296312"
    }
  },
  {
    "service_request": "2025-1167888",
    "request_type": "Trash/Recycling",
    "request_reason": "Request a Large Item Pick Up",
    "date_created": "2025-02-10T15:02:37.000",
    "date_modified": "2025-02-10T15:02:38.000",
    "request_status": "Pending",
    "responsible_agency": "Department of Sanitation",
    "final_address": "6029 Memphis St",
    "address_councildis": "A",
    "status": "Assigned to Contractor",
    "contractor": "IV Waste",
    "rowid": "1167888",
    "final_x": "3669300.14554",
    "final_y": "547434.948881",
    "longitude": "-90.10605492761229",
    "latitude": "29.99962119380741",
    "geocoded_column": {
      "latitude": "29.99962119380741",
      "longitude": "-90.10605492761229"
    }
  },
  {
    "service_request": "2025-1167887",
    "request_type": "Drainage",
    "request_reason": "Catch Basin Damaged",
    "date_created": "2025-02-10T15:02:03.000",
    "date_modified": "2025-02-10T15:02:04.000",
    "request_status": "Pending",
    "responsible_agency": "Sewerage & Water Board ",
    "final_address": "1743 Alvar St",
    "address_councildis": "D",
    "status": "Pending",
    "rowid": "1167887",
    "final_x": "3692184.22537",
    "final_y": "537951.611145",
    "longitude": "-90.03410324673975",
    "latitude": "29.97285162973719",
    "geocoded_column": {
      "latitude": "29.97285162973719",
      "longitude": "-90.03410324673975"
    }
  },
  {
    "service_request": "2025-1167886",
    "request_type": "Abandoned Vehicles",
    "request_reason": "Abandoned/Junk Vehicles",
    "date_created": "2025-02-10T15:01:51.000",
    "date_modified": "2025-02-10T15:01:54.000",
    "request_status": "Pending",
    "responsible_agency": "Department of Public Works",
    "final_address": "2600 BLK N Johnson St",
    "address_councildis": "D",
    "status": "Pending",
    "rowid": "1167886",
    "final_x": "3687800.66767",
    "final_y": "539863.78653",
    "longitude": "-90.04787956647367",
    "latitude": "29.97824537819131",
    "geocoded_column": {
      "latitude": "29.97824537819131",
      "longitude": "-90.04787956647367"
    }
  },
  {
    "service_request": "2025-1167885",
    "request_type": "Roads and Streets",
    "request_reason": "Pothole",
    "date_created": "2025-02-10T14:55:05.000",
    "date_modified": "2025-02-10T14:55:07.000",
    "request_status": "Pending",
    "responsible_agency": "Department of Public Works",
    "final_address": "217 N Hennessey St",
    "address_councildis": "A",
    "status": "Pending",
    "rowid": "1167885",
    "final_x": "3670623.14843",
    "final_y": "539452.736778",
    "longitude": "-90.10214644520585",
    "latitude": "29.977633820805426",
    "geocoded_column": {
      "latitude": "29.977633820805426",
      "longitude": "-90.10214644520585"
    }
  },
  {
    "service_request": "2025-1167884",
    "request_type": "Abandoned Vehicles",
    "request_reason": "Abandoned/Junk Vehicles",
    "date_created": "2025-02-10T14:53:06.000",
    "date_modified": "2025-02-10T14:53:08.000",
    "request_status": "Pending",
    "responsible_agency": "Department of Public Works",
    "final_address": "100 BLK Stafford Pl",
    "address_councildis": "A",
    "status": "Pending",
    "rowid": "1167884",
    "final_x": "3665982.9367",
    "final_y": "553909.61769",
    "longitude": "-90.1163169105074",
    "latitude": "30.01752155768137",
    "geocoded_column": {
      "latitude": "30.01752155768137",
      "longitude": "-90.1163169105074"
    }
  },
  {
    "service_request": "2025-1167883",
    "request_type": "Property Maintenance",
    "request_reason": "Property Maintenance",
    "date_created": "2025-02-10T14:52:52.000",
    "date_modified": "2025-02-10T14:52:53.000",
    "request_status": "Pending",
    "responsible_agency": "Department of Code Enforcement",
    "final_address": "3622 General De Gaulle Dr",
    "address_councildis": "C",
    "status": "Pending",
    "rowid": "1167883",
    "final_x": "3697320.45155",
    "final_y": "520253.142776",
    "longitude": "-90.0185235374354",
    "latitude": "29.92402590154818",
    "geocoded_column": {
      "latitude": "29.92402590154818",
      "longitude": "-90.0185235374354"
    }
  },
  {
    "service_request": "2025-1167882",
    "request_type": "Trash/Recycling",
    "request_reason": "Request a Large Item Pick Up",
    "date_created": "2025-02-10T14:50:44.000",
    "date_modified": "2025-02-10T14:51:45.000",
    "request_status": "Pending",
    "responsible_agency": "Department of Sanitation",
    "final_address": "11276 Waverly Dr",
    "address_councildis": "E",
    "status": "Assigned to Contractor",
    "contractor": "Waste Pro",
    "rowid": "1167882",
    "final_x": "3717614.17701",
    "final_y": "560210.778781",
    "longitude": "-89.95294474693365",
    "latitude": "30.033238320507976",
    "geocoded_column": {
      "latitude": "30.033238320507976",
      "longitude": "-89.95294474693365"
    }
  },
  {
    "service_request": "2025-1167881",
    "request_type": "Tax and Revenue",
    "request_reason": "Pay Property Tax",
    "date_created": "2025-02-10T14:47:20.000",
    "date_modified": "2025-02-10T14:47:22.000",
    "request_status": "Pending",
    "responsible_agency": "Bureau of Treasury",
    "final_address": "739 Fourth St",
    "address_councildis": "B",
    "status": "Pending",
    "rowid": "1167881",
    "final_x": "3678013.23714",
    "final_y": "520006.00524",
    "longitude": "-90.07947811066245",
    "latitude": "29.923941406041298",
    "geocoded_column": {
      "latitude": "29.923941406041298",
      "longitude": "-90.07947811066245"
    }
  },
  {
    "service_request": "2025-1167880",
    "request_type": "Trash/Recycling",
    "request_reason": "Request a Large Item Pick Up",
    "date_created": "2025-02-10T14:45:34.000",
    "date_modified": "2025-02-10T14:45:36.000",
    "request_status": "Pending",
    "responsible_agency": "Department of Sanitation",
    "final_address": "3939 Mimosa Dr",
    "address_councildis": "C",
    "status": "Assigned to Contractor",
    "contractor": "Richards Disposal",
    "rowid": "1167880",
    "final_x": "3704615.49034",
    "final_y": "512688.909873",
    "longitude": "-89.99577460169706",
    "latitude": "29.902994675550822",
    "geocoded_column": {
      "latitude": "29.902994675550822",
      "longitude": "-89.99577460169706"
    }
  },
  {
    "service_request": "2025-1167879",
    "request_type": "Trash/Recycling",
    "request_reason": "Replace Trash Cart",
    "date_created": "2025-02-10T14:44:56.000",
    "date_modified": "2025-02-10T14:44:58.000",
    "request_status": "Pending",
    "responsible_agency": "Department of Sanitation",
    "final_address": "1343 Mandolin St",
    "address_councildis": "D",
    "status": "Assigned to Contractor",
    "contractor": "IV Waste",
    "rowid": "1167879",
    "final_x": "3677608.50037",
    "final_y": "548098.629074",
    "longitude": "-90.07978558024176",
    "latitude": "30.001198776077473",
    "geocoded_column": {
      "latitude": "30.001198776077473",
      "longitude": "-90.07978558024176"
    }
  },
  {
    "service_request": "2025-1167878",
    "request_type": "Property Maintenance",
    "request_reason": "Property Maintenance",
    "date_created": "2025-02-10T14:44:38.000",
    "date_modified": "2025-02-10T14:44:40.000",
    "request_status": "Pending",
    "responsible_agency": "Department of Code Enforcement",
    "final_address": "10201 Dwyer Rd",
    "address_councildis": "E",
    "status": "Pending",
    "rowid": "1167878",
    "final_x": "3713031.80389",
    "final_y": "558088.713691",
    "longitude": "-89.96750529115059",
    "latitude": "30.027554478209805",
    "geocoded_column": {
      "latitude": "30.027554478209805",
      "longitude": "-89.96750529115059"
    }
  },
  {
    "service_request": "2025-1167877",
    "request_type": "Roads and Streets",
    "request_reason": "Pothole",
    "date_created": "2025-02-10T14:43:59.000",
    "date_modified": "2025-02-10T21:50:26.000",
    "case_close_date": "2025-02-10T15:50:24.000",
    "request_status": "Closed",
    "responsible_agency": "Department of Public Works",
    "final_address": "5022 Bienville Ave",
    "address_councildis": "A",
    "status": "Duplicate Request",
    "rowid": "1167877",
    "final_x": "3668525.61684",
    "final_y": "541220.048524",
    "longitude": "-90.10871152985209",
    "latitude": "29.98255513463126",
    "geocoded_column": {
      "latitude": "29.98255513463126",
      "longitude": "-90.10871152985209"
    }
  },
  {
    "service_request": "2025-1167876",
    "request_type": "Traffic Signals",
    "request_reason": "Traffic Signal Malfunctioning or Damaged",
    "date_created": "2025-02-10T14:42:55.000",
    "date_modified": "2025-02-10T14:42:58.000",
    "request_status": "Pending",
    "responsible_agency": "Department of Public Works",
    "final_address": "CANAL ST & ELK PL & BASIN ST",
    "address_councildis": "B",
    "status": "Pending",
    "rowid": "1167876",
    "final_x": "3679735.6",
    "final_y": "531724.58",
    "longitude": "-90.07363455869165",
    "latitude": "29.956111662169793",
    "geocoded_column": {
      "latitude": "29.956111662169793",
      "longitude": "-90.07363455869165"
    }
  },
  {
    "service_request": "2025-1167875",
    "request_type": "Property Maintenance",
    "request_reason": "Property Maintenance",
    "date_created": "2025-02-10T14:41:40.000",
    "date_modified": "2025-02-10T14:41:42.000",
    "request_status": "Pending",
    "responsible_agency": "Department of Code Enforcement",
    "final_address": "2828 Urquhart St",
    "address_councildis": "C",
    "status": "Pending",
    "rowid": "1167875",
    "final_x": "3688133.7279",
    "final_y": "536948.910856",
    "longitude": "-90.04693100084549",
    "latitude": "29.970220218108317",
    "geocoded_column": {
      "latitude": "29.970220218108317",
      "longitude": "-90.04693100084549"
    }
  },
  {
    "service_request": "2025-1167874",
    "request_type": "Trash/Recycling",
    "request_reason": "Request a Large Item Pick Up",
    "date_created": "2025-02-10T14:40:45.000",
    "date_modified": "2025-02-10T14:40:48.000",
    "request_status": "Pending",
    "responsible_agency": "Department of Sanitation",
    "final_address": "4758 Charlmark Dr",
    "address_councildis": "E",
    "status": "Assigned to Contractor",
    "contractor": "Waste Pro",
    "rowid": "1167874",
    "final_x": "3711336.68178",
    "final_y": "556142.57129",
    "longitude": "-89.97293470141582",
    "latitude": "30.022258801712216",
    "geocoded_column": {
      "latitude": "30.022258801712216",
      "longitude": "-89.97293470141582"
    }
  },
  {
    "service_request": "2025-1167873",
    "request_type": "Trash/Recycling",
    "request_reason": "Request a Large Item Pick Up",
    "date_created": "2025-02-10T14:40:06.000",
    "date_modified": "2025-02-10T14:40:07.000",
    "request_status": "Pending",
    "responsible_agency": "Department of Sanitation",
    "final_address": "10940 Roger Dr",
    "address_councildis": "E",
    "status": "Assigned to Contractor",
    "contractor": "Waste Pro",
    "rowid": "1167873",
    "final_x": "3712138.98622",
    "final_y": "563385.519136",
    "longitude": "-89.97012737042596",
    "latitude": "30.042147812759573",
    "geocoded_column": {
      "latitude": "30.042147812759573",
      "longitude": "-89.97012737042596"
    }
  },
  {
    "service_request": "2025-1167872",
    "request_type": "Roads and Streets",
    "request_reason": "Pothole",
    "date_created": "2025-02-10T14:39:01.000",
    "date_modified": "2025-02-10T14:39:03.000",
    "request_status": "Pending",
    "responsible_agency": "Department of Public Works",
    "final_address": "217 N Hennessey St",
    "address_councildis": "A",
    "status": "Pending",
    "rowid": "1167872",
    "final_x": "3670623.14843",
    "final_y": "539452.736778",
    "longitude": "-90.10214644520585",
    "latitude": "29.977633820805426",
    "geocoded_column": {
      "latitude": "29.977633820805426",
      "longitude": "-90.10214644520585"
    }
  },
  {
    "service_request": "2025-1167871",
    "request_type": "Parks & Parkways",
    "request_reason": "Request Tree Service (Right of Way/Public Property)",
    "date_created": "2025-02-10T14:37:27.000",
    "date_modified": "2025-02-10T14:43:25.000",
    "request_status": "Pending",
    "responsible_agency": "Department of Parks & Parkway",
    "final_address": "4945 St Roch Ave",
    "address_councildis": "D",
    "status": "Pending",
    "rowid": "1167871",
    "final_x": "3685321.96764",
    "final_y": "551184.275477",
    "longitude": "-90.0553093909843",
    "latitude": "30.00944890098638",
    "geocoded_column": {
      "latitude": "30.00944890098638",
      "longitude": "-90.0553093909843"
    }
  },
  {
    "service_request": "2025-1167870",
    "request_type": "Trash/Recycling",
    "request_reason": "Request a Large Item Pick Up",
    "date_created": "2025-02-10T14:36:34.000",
    "date_modified": "2025-02-10T14:36:36.000",
    "request_status": "Pending",
    "responsible_agency": "Department of Sanitation",
    "final_address": "11030 Roger Dr",
    "address_councildis": "E",
    "status": "Assigned to Contractor",
    "contractor": "Waste Pro",
    "rowid": "1167870",
    "final_x": "3712354.63301",
    "final_y": "563548.12368",
    "longitude": "-89.96943973403509",
    "latitude": "30.04258785378137",
    "geocoded_column": {
      "latitude": "30.04258785378137",
      "longitude": "-89.96943973403509"
    }
  },
  {
    "service_request": "2025-1167869",
    "request_type": "Roads and Streets",
    "request_reason": "Pothole",
    "date_created": "2025-02-10T14:33:28.000",
    "date_modified": "2025-02-10T14:33:31.000",
    "request_status": "Pending",
    "responsible_agency": "Department of Public Works",
    "final_address": "N BROAD ST & DUELS ST",
    "address_councildis": "D",
    "status": "Pending",
    "rowid": "1167869",
    "final_x": "3680752.7",
    "final_y": "542260.98",
    "longitude": "-90.07005610271152",
    "latitude": "29.98505234890725",
    "geocoded_column": {
      "latitude": "29.98505234890725",
      "longitude": "-90.07005610271152"
    }
  },
  {
    "service_request": "2025-1167868",
    "request_type": "Abandoned Vehicles",
    "request_reason": "Abandoned/Junk Vehicles",
    "date_created": "2025-02-10T14:31:13.000",
    "date_modified": "2025-02-10T14:31:45.000",
    "request_status": "Pending",
    "responsible_agency": "Department of Public Works",
    "final_address": "4426 Camelot Dr",
    "address_councildis": "E",
    "status": "Pending",
    "rowid": "1167868",
    "final_x": "3708468.2291",
    "final_y": "553921.613655",
    "longitude": "-89.98208097936157",
    "latitude": "30.016245359792883",
    "geocoded_column": {
      "latitude": "30.016245359792883",
      "longitude": "-89.98208097936157"
    }
  },
  {
    "service_request": "2025-1167867",
    "request_type": "Trash/Recycling",
    "request_reason": "Repair Trash Cart",
    "date_created": "2025-02-10T14:28:23.000",
    "date_modified": "2025-02-10T14:28:25.000",
    "request_status": "Pending",
    "responsible_agency": "Department of Sanitation",
    "final_address": "1009 Valence St",
    "address_councildis": "B",
    "status": "Assigned to Contractor",
    "contractor": "IV Waste",
    "rowid": "1167867",
    "final_x": "3669942.38087",
    "final_y": "519145.628343",
    "longitude": "-90.10498409846822",
    "latitude": "29.921816017954118",
    "geocoded_column": {
      "latitude": "29.921816017954118",
      "longitude": "-90.10498409846822"
    }
  },
  {
    "service_request": "2025-1167866",
    "request_type": "Trash/Recycling",
    "request_reason": "Request a Large Item Pick Up",
    "date_created": "2025-02-10T14:27:48.000",
    "date_modified": "2025-02-10T14:27:50.000",
    "request_status": "Pending",
    "responsible_agency": "Department of Sanitation",
    "final_address": "931 Deslonde St",
    "address_councildis": "E",
    "status": "Assigned to Contractor",
    "contractor": "Waste Pro",
    "rowid": "1167866",
    "final_x": "3695269.0015",
    "final_y": "533887.040837",
    "longitude": "-90.0245076139538",
    "latitude": "29.96157896985893",
    "geocoded_column": {
      "latitude": "29.96157896985893",
      "longitude": "-90.0245076139538"
    }
  },
  {
    "service_request": "2025-1167865",
    "request_type": "Trash/Recycling",
    "request_reason": "Replace Trash Cart",
    "date_created": "2025-02-10T14:22:37.000",
    "date_modified": "2025-02-10T14:22:39.000",
    "request_status": "Pending",
    "responsible_agency": "Department of Sanitation",
    "final_address": "2108 Pace Blvd",
    "address_councildis": "C",
    "status": "Assigned to Contractor",
    "contractor": "Richards Disposal",
    "rowid": "1167865",
    "final_x": "3694533.21187",
    "final_y": "522627.806906",
    "longitude": "-90.02723637716743",
    "latitude": "29.93064306840243",
    "geocoded_column": {
      "latitude": "29.93064306840243",
      "longitude": "-90.02723637716743"
    }
  },
  {
    "service_request": "2025-1167864",
    "request_type": "Trash/Recycling",
    "request_reason": "Replace Trash Cart",
    "date_created": "2025-02-10T14:19:53.000",
    "date_modified": "2025-02-10T14:19:55.000",
    "request_status": "Pending",
    "responsible_agency": "Department of Sanitation",
    "final_address": "2333 Kraft Pl",
    "address_councildis": "C",
    "status": "Assigned to Contractor",
    "contractor": "Richards Disposal",
    "rowid": "1167864",
    "final_x": "3692409.00848",
    "final_y": "522753.861818",
    "longitude": "-90.03393763670758",
    "latitude": "29.93105608326795",
    "geocoded_column": {
      "latitude": "29.93105608326795",
      "longitude": "-90.03393763670758"
    }
  },
  {
    "service_request": "2025-1167863",
    "request_type": "Abandoned Vehicles",
    "request_reason": "Abandoned/Junk Vehicles",
    "date_created": "2025-02-10T14:18:53.000",
    "date_modified": "2025-02-10T14:18:56.000",
    "request_status": "Pending",
    "responsible_agency": "Department of Public Works",
    "final_address": "1822 Allen St",
    "address_councildis": "D",
    "status": "Pending",
    "rowid": "1167863",
    "final_x": "3682528.38812",
    "final_y": "538864.596361",
    "longitude": "-90.06456624961471",
    "latitude": "29.975659532903084",
    "geocoded_column": {
      "latitude": "29.975659532903084",
      "longitude": "-90.06456624961471"
    }
  },
  {
    "service_request": "2025-1167862",
    "request_type": "Trash/Recycling",
    "request_reason": "Illegal Dumping",
    "date_created": "2025-02-10T14:15:41.000",
    "date_modified": "2025-02-10T14:15:41.000",
    "request_status": "Pending",
    "responsible_agency": "Department of Sanitation",
    "final_address": "DWYER RD & READ BLVD",
    "address_councildis": "E",
    "status": "Pending",
    "rowid": "1167862",
    "final_x": "3712559.5",
    "final_y": "557858.48",
    "longitude": "-89.96900638108654",
    "latitude": "30.026936898070552",
    "geocoded_column": {
      "latitude": "30.026936898070552",
      "longitude": "-89.96900638108654"
    }
  },
  {
    "service_request": "2025-1167861",
    "request_type": "Traffic Safety",
    "request_reason": "Request for Traffic Calming due to Speeding",
    "date_created": "2025-02-10T14:15:40.000",
    "date_modified": "2025-02-10T14:15:42.000",
    "request_status": "Pending",
    "responsible_agency": "Department of Public Works",
    "final_address": "5700 BLK Wingate Dr",
    "address_councildis": "D",
    "status": "Pending",
    "rowid": "1167861",
    "final_x": "3681284.62919",
    "final_y": "554125.840683",
    "longitude": "-90.06796211097107",
    "latitude": "30.017660339384406",
    "geocoded_column": {
      "latitude": "30.017660339384406",
      "longitude": "-90.06796211097107"
    }
  },
  {
    "service_request": "2025-1167860",
    "request_type": "EMS",
    "request_reason": "EMS General",
    "date_created": "2025-02-10T14:14:47.000",
    "date_modified": "2025-02-10T17:38:11.000",
    "case_close_date": "2025-02-10T11:38:10.000",
    "request_status": "Closed",
    "responsible_agency": "Emergency Medical Services",
    "final_address": "1040 St Charles Ave Apt 418",
    "address_councildis": "B",
    "status": "Question Answered.",
    "rowid": "1167860",
    "final_x": "3680222.75362",
    "final_y": "526738.35667",
    "longitude": "-90.07226957450123",
    "latitude": "29.942386486496464",
    "geocoded_column": {
      "latitude": "29.942386486496464",
      "longitude": "-90.07226957450123"
    }
  },
  {
    "service_request": "2025-1167859",
    "request_type": "Trash/Recycling",
    "request_reason": "Illegal Dumping",
    "date_created": "2025-02-10T14:14:28.000",
    "date_modified": "2025-02-10T14:14:31.000",
    "request_status": "Pending",
    "responsible_agency": "Department of Sanitation",
    "final_address": "WRIGHT RD & DWYER RD",
    "address_councildis": "E",
    "status": "Pending",
    "rowid": "1167859",
    "final_x": "3716325.8",
    "final_y": "558449.78",
    "longitude": "-89.95708294067948",
    "latitude": "30.028438893641248",
    "geocoded_column": {
      "latitude": "30.028438893641248",
      "longitude": "-89.95708294067948"
    }
  },
  {
    "service_request": "2025-1167858",
    "request_type": "Trash/Recycling",
    "request_reason": "Illegal Dumping",
    "date_created": "2025-02-10T14:12:43.000",
    "date_modified": "2025-02-10T14:12:45.000",
    "request_status": "Pending",
    "responsible_agency": "Department of Sanitation",
    "final_address": "7576 Forest Glen Rd",
    "address_councildis": "E",
    "status": "Pending",
    "rowid": "1167858",
    "final_x": "3709758.12664",
    "final_y": "564793.308514",
    "longitude": "-89.97759908743029",
    "latitude": "30.04609633736031",
    "geocoded_column": {
      "latitude": "30.04609633736031",
      "longitude": "-89.97759908743029"
    }
  },
  {
    "service_request": "2025-1167857",
    "request_type": "Roads and Streets",
    "request_reason": "Pothole",
    "date_created": "2025-02-10T14:08:30.000",
    "date_modified": "2025-02-10T14:08:32.000",
    "request_status": "Pending",
    "responsible_agency": "Department of Public Works",
    "final_address": "3000 BLK N Miro St",
    "address_councildis": "D",
    "status": "Pending",
    "rowid": "1167857",
    "final_x": "3689620.75294",
    "final_y": "540240.259202",
    "longitude": "-90.0421177016198",
    "latitude": "29.979224275047844",
    "geocoded_column": {
      "latitude": "29.979224275047844",
      "longitude": "-90.0421177016198"
    }
  },
  {
    "service_request": "2025-1167856",
    "request_type": "Trash/Recycling",
    "request_reason": "Request a Large Item Pick Up",
    "date_created": "2025-02-10T14:07:01.000",
    "date_modified": "2025-02-10T16:49:27.000",
    "request_status": "Pending",
    "responsible_agency": "Department of Sanitation",
    "final_address": "1526 Burbank Dr",
    "address_councildis": "D",
    "status": "Assigned to Contractor",
    "contractor": "IV Waste",
    "rowid": "1167856",
    "final_x": "3678578.14798",
    "final_y": "554296.032344",
    "longitude": "-90.07650763429733",
    "latitude": "30.01821020864104",
    "geocoded_column": {
      "latitude": "30.01821020864104",
      "longitude": "-90.07650763429733"
    }
  },
  {
    "service_request": "2025-1167855",
    "request_type": "Trash/Recycling",
    "request_reason": "Illegal Dumping",
    "date_created": "2025-02-10T14:02:47.000",
    "date_modified": "2025-02-10T14:04:09.000",
    "request_status": "Pending",
    "responsible_agency": "Department of Sanitation",
    "final_address": "4234 General Ogden St",
    "address_councildis": "A",
    "status": "Pending",
    "rowid": "1167855",
    "final_x": "538388.851977",
    "final_y": "538388.851977",
    "longitude": "-99.97923079217489",
    "latitude": "29.69582803770165",
    "geocoded_column": {
      "latitude": "29.69582803770165",
      "longitude": "-99.97923079217489"
    }
  },
  {
    "service_request": "2025-1167854",
    "request_type": "Abandoned Vehicles",
    "request_reason": "Abandoned/Junk Vehicles",
    "date_created": "2025-02-10T14:02:22.000",
    "date_modified": "2025-02-10T14:02:24.000",
    "request_status": "Pending",
    "responsible_agency": "Department of Public Works",
    "final_address": "322 Homer St",
    "address_councildis": "C",
    "status": "Pending",
    "rowid": "1167854",
    "final_x": "3686364.37858",
    "final_y": "528328.27776",
    "longitude": "-90.0528230269807",
    "latitude": "29.946570945827087",
    "geocoded_column": {
      "latitude": "29.946570945827087",
      "longitude": "-90.0528230269807"
    }
  },
  {
    "service_request": "2025-1167853",
    "request_type": "Trash/Recycling",
    "request_reason": "Illegal Dumping",
    "date_created": "2025-02-10T14:01:59.000",
    "date_modified": "2025-02-10T14:02:01.000",
    "request_status": "Pending",
    "responsible_agency": "Department of Sanitation",
    "final_address": "DWYER RD & LYNHUBER ST",
    "address_councildis": "D",
    "status": "Pending",
    "rowid": "1167853",
    "final_x": "3697950.7",
    "final_y": "555085.68",
    "longitude": "-90.01526927773251",
    "latitude": "30.019782944005186",
    "geocoded_column": {
      "latitude": "30.019782944005186",
      "longitude": "-90.01526927773251"
    }
  },
  {
    "service_request": "2025-1167852",
    "request_type": "Streetlights",
    "request_reason": "Streetlight Outage/Malfunction",
    "date_created": "2025-02-10T14:01:26.000",
    "date_modified": "2025-02-10T14:01:27.000",
    "request_status": "Pending",
    "responsible_agency": "Department of Public Works",
    "final_address": "325 City Park Ave",
    "address_councildis": "A",
    "status": "Pending",
    "contractor": "Legacy Professional Services",
    "rowid": "1167852",
    "final_x": "3668731.60039",
    "final_y": "541445.237964",
    "longitude": "-90.10805332381574",
    "latitude": "29.98316827431256",
    "geocoded_column": {
      "latitude": "29.98316827431256",
      "longitude": "-90.10805332381574"
    }
  },
  {
    "service_request": "2025-1167851",
    "request_type": "Trash/Recycling",
    "request_reason": "Request a Large Item Pick Up",
    "date_created": "2025-02-10T14:01:20.000",
    "date_modified": "2025-02-10T14:01:22.000",
    "request_status": "Pending",
    "responsible_agency": "Department of Sanitation",
    "final_address": "6426 Bellaire Dr",
    "address_councildis": "A",
    "status": "Assigned to Contractor",
    "contractor": "IV Waste",
    "rowid": "1167851",
    "final_x": "3664390.03239",
    "final_y": "550731.124693",
    "longitude": "-90.12145609484742",
    "latitude": "30.00882823350069",
    "geocoded_column": {
      "latitude": "30.00882823350069",
      "longitude": "-90.12145609484742"
    }
  },
  {
    "service_request": "2025-1167850",
    "request_type": "Abandoned Vehicles",
    "request_reason": "Abandoned/Junk Vehicles",
    "date_created": "2025-02-10T13:59:34.000",
    "date_modified": "2025-02-10T13:59:36.000",
    "request_status": "Pending",
    "responsible_agency": "Department of Public Works",
    "status": "Pending",
    "rowid": "1167850",
    "longitude": "0.0",
    "latitude": "0.0",
    "geocoded_column": {
      "latitude": "0.0",
      "longitude": "0.0"
    }
  },
  {
    "service_request": "2025-1167849",
    "request_type": "Trash/Recycling",
    "request_reason": "Request a Large Item Pick Up",
    "date_created": "2025-02-10T13:58:55.000",
    "date_modified": "2025-02-10T13:58:57.000",
    "request_status": "Pending",
    "responsible_agency": "Department of Sanitation",
    "final_address": "1711 S White St",
    "address_councildis": "B",
    "status": "Assigned to Contractor",
    "contractor": "IV Waste",
    "rowid": "1167849",
    "final_x": "3670932.52379",
    "final_y": "529875.199297",
    "longitude": "-90.10149452430413",
    "latitude": "29.951289646156415",
    "geocoded_column": {
      "latitude": "29.951289646156415",
      "longitude": "-90.10149452430413"
    }
  },
  {
    "service_request": "2025-1167848",
    "request_type": "Trash/Recycling",
    "request_reason": "Illegal Dumping",
    "date_created": "2025-02-10T13:57:13.000",
    "date_modified": "2025-02-10T13:57:14.000",
    "request_status": "Pending",
    "responsible_agency": "Department of Sanitation",
    "final_address": "7636 Shorewood Blvd",
    "address_councildis": "E",
    "status": "Pending",
    "rowid": "1167848",
    "final_x": "3719693.38713",
    "final_y": "572702.317545",
    "longitude": "-89.9458963425588",
    "latitude": "30.067515858773984",
    "geocoded_column": {
      "latitude": "30.067515858773984",
      "longitude": "-89.9458963425588"
    }
  },
  {
    "service_request": "2025-1167847",
    "request_type": "Trash/Recycling",
    "request_reason": "Request a Large Item Pick Up",
    "date_created": "2025-02-10T13:56:58.000",
    "date_modified": "2025-02-10T13:57:01.000",
    "request_status": "Pending",
    "responsible_agency": "Department of Sanitation",
    "final_address": "5327 Eastern St",
    "address_councildis": "D",
    "status": "Assigned to Contractor",
    "contractor": "IV Waste",
    "rowid": "1167847",
    "final_x": "3687908.11113",
    "final_y": "552539.991702",
    "longitude": "-90.04709080558497",
    "latitude": "30.013097056540513",
    "geocoded_column": {
      "latitude": "30.013097056540513",
      "longitude": "-90.04709080558497"
    }
  },
  {
    "service_request": "2025-1167846",
    "request_type": "Drainage",
    "request_reason": "Street Flooding",
    "date_created": "2025-02-10T13:56:56.000",
    "date_modified": "2025-02-10T13:56:57.000",
    "request_status": "Pending",
    "responsible_agency": "Sewerage & Water Board ",
    "final_address": "1926 Burdette St",
    "address_councildis": "A",
    "status": "Pending",
    "rowid": "1167846",
    "final_x": "3664566.11629",
    "final_y": "529625.166145",
    "longitude": "-90.1216049357288",
    "latitude": "29.950788793727185",
    "geocoded_column": {
      "latitude": "29.950788793727185",
      "longitude": "-90.1216049357288"
    }
  },
  {
    "service_request": "2025-1167845",
    "request_type": "Trash/Recycling",
    "request_reason": "Order Recycling Cart",
    "date_created": "2025-02-10T13:56:52.000",
    "date_modified": "2025-02-10T13:56:54.000",
    "request_status": "Pending",
    "responsible_agency": "Department of Sanitation",
    "final_address": "0 BLK Drifter Ln",
    "address_councildis": "A",
    "status": "Pending",
    "rowid": "1167845",
    "final_x": "3664839.14076",
    "final_y": "554773.411238",
    "longitude": "-90.11990196540161",
    "latitude": "30.01993004073804",
    "geocoded_column": {
      "latitude": "30.01993004073804",
      "longitude": "-90.11990196540161"
    }
  },
  {
    "service_request": "2025-1167844",
    "request_type": "Trash/Recycling",
    "request_reason": "Repair Trash Cart",
    "date_created": "2025-02-10T13:53:12.000",
    "date_modified": "2025-02-10T13:53:15.000",
    "request_status": "Pending",
    "responsible_agency": "Department of Sanitation",
    "final_address": "5527 Atlanta St",
    "address_councildis": "A",
    "status": "Assigned to Contractor",
    "contractor": "IV Waste",
    "rowid": "1167844",
    "final_x": "3666695.88359",
    "final_y": "520995.474617",
    "longitude": "-90.11516987001468",
    "latitude": "29.926997808687254",
    "geocoded_column": {
      "latitude": "29.926997808687254",
      "longitude": "-90.11516987001468"
    }
  },
  {
    "service_request": "2025-1167843",
    "request_type": "Trash/Recycling",
    "request_reason": "Illegal Dumping",
    "date_created": "2025-02-10T13:53:00.000",
    "date_modified": "2025-02-10T13:53:02.000",
    "request_status": "Pending",
    "responsible_agency": "Department of Sanitation",
    "final_address": "4808 St Claude Ave",
    "address_councildis": "E",
    "status": "Pending",
    "rowid": "1167843",
    "final_x": "3695140.33008",
    "final_y": "534421.409861",
    "longitude": "-90.0248946657472",
    "latitude": "29.963052336513883",
    "geocoded_column": {
      "latitude": "29.963052336513883",
      "longitude": "-90.0248946657472"
    }
  },
  {
    "service_request": "2025-1167842",
    "request_type": "Property Maintenance",
    "request_reason": "Property Maintenance",
    "date_created": "2025-02-10T13:52:03.000",
    "date_modified": "2025-02-10T13:52:05.000",
    "request_status": "Pending",
    "responsible_agency": "Department of Code Enforcement",
    "final_address": "5401 Magazine St",
    "address_councildis": "A",
    "status": "Pending",
    "rowid": "1167842",
    "final_x": "3666665.44986",
    "final_y": "518864.285111",
    "longitude": "-90.11533745434825",
    "latitude": "29.921138599076244",
    "geocoded_column": {
      "latitude": "29.921138599076244",
      "longitude": "-90.11533745434825"
    }
  },
  {
    "service_request": "2025-1167841",
    "request_type": "Trash/Recycling",
    "request_reason": "Missed Trash Pick-Up",
    "date_created": "2025-02-10T13:51:53.000",
    "date_modified": "2025-02-10T16:17:02.000",
    "case_close_date": "2025-02-10T10:17:02.000",
    "request_status": "Closed",
    "responsible_agency": "Department of Sanitation",
    "final_address": "4834 Brittany Ct",
    "address_councildis": "E",
    "status": "Assigned to Contractor",
    "contractor": "Waste Pro",
    "contractor_action": "Completed",
    "rowid": "1167841",
    "final_x": "3726822.65357",
    "final_y": "561569.660191",
    "longitude": "-89.9237926450722",
    "latitude": "30.036666442762993",
    "geocoded_column": {
      "latitude": "30.036666442762993",
      "longitude": "-89.9237926450722"
    }
  },
  {
    "service_request": "2025-1167840",
    "request_type": "Trash/Recycling",
    "request_reason": "Dead Animal Pick Up",
    "date_created": "2025-02-10T13:51:14.000",
    "date_modified": "2025-02-10T13:51:18.000",
    "request_status": "Pending",
    "responsible_agency": "Department of Sanitation",
    "final_address": "1428 Franklin Ave",
    "address_councildis": "C",
    "status": "Assigned to Contractor",
    "contractor": "IV Waste",
    "rowid": "1167840",
    "final_x": "3687355.40111",
    "final_y": "537831.579721",
    "longitude": "-90.04935779702333",
    "latitude": "29.97267125201052",
    "geocoded_column": {
      "latitude": "29.97267125201052",
      "longitude": "-90.04935779702333"
    }
  },