[
  {
    "service_request": "2024-1072897",
    "request_type": "Trash/Recycling",
    "request_reason": "Replace Trash Cart",
    "date_created": "2024-03-05T23:33:28.000",
    "date_modified": "2024-03-05T23:33:28.000",
    "request_status": "Pending",
    "responsible_agency": "Department of Sanitation",
    "final_address": "1016 Crete St",
    "address_councildis": "A",
    "status": "Assigned to Contractor",
    "contractor": "Richards Disposal",
    "rowid": "1072897",
    "final_x": "3677559.72181",
    "final_y": "538465.779209",
    "longitude": "-90.08027246155306",
    "latitude": "29.97471326520945",
    "geocoded_column": {
      "latitude": "29.97471326520945",
      "longitude": "-90.08027246155306"
    }
  },
  {
    "service_request": "2024-1072896",
    "request_type": "Parks & Parkways",
    "request_reason": "Request Tree Service (Right of Way/Public Property)",
    "date_created": "2024-03-05T22:52:30.000",
    "date_modified": "2024-03-05T22:52:30.000",
    "request_status": "Pending",
    "responsible_agency": "Department of Parks & Parkway",
    "final_address": "4045 Iroquois St",
    "address_councildis": "D",
    "status": "Pending",
    "rowid": "1072896",
    "final_x": "3689162.94787",
    "final_y": "548192.398994",
    "longitude": "-90.04328085495841",
    "latitude": "30.001103978875168",
    "geocoded_column": {
      "latitude": "30.001103978875168",
      "longitude": "-90.04328085495841"
    }
  },
  {
    "service_request": "2024-1072895",
    "request_type": "Abandoned Vehicles",
    "request_reason": "Abandoned/Junk Vehicles",
    "date_created": "2024-03-05T22:36:06.000",
    "date_modified": "2024-03-05T22:36:06.000",
    "request_status": "Pending",
    "responsible_agency": "Department of Public Works",
    "final_address": "100 BLK Allen Toussaint Blvd",
    "address_councildis": "A",
    "status": "Pending",
    "rowid": "1072895",
    "final_x": "3666913.32919",
    "final_y": "554855.305103",
    "longitude": "-90.11334541463418",
    "latitude": "30.020094659842524",
    "geocoded_column": {
      "latitude": "30.020094659842524",
      "longitude": "-90.11334541463418"
    }
  },
  {
    "service_request": "2024-1072894",
    "request_type": "Property Maintenance",
    "request_reason": "Property Maintenance",
    "date_created": "2024-03-05T22:19:17.000",
    "date_modified": "2024-03-05T22:19:17.000",
    "request_status": "Pending",
    "responsible_agency": "Department of Code Enforcement",
    "final_address": "4104 Chef Menteur Hwy",
    "address_councildis": "D",
    "status": "Pending",
    "rowid": "1072894",
    "final_x": "3689800.36048",
    "final_y": "548927.605843",
    "longitude": "-90.04124103150049",
    "latitude": "30.003105781646024",
    "geocoded_column": {
      "latitude": "30.003105781646024",
      "longitude": "-90.04124103150049"
    }
  },
  {
    "service_request": "2024-1072893",
    "request_type": "Roads/Drainage",
    "request_reason": "Street Flooding / Drainage",
    "date_created": "2024-03-05T22:12:56.000",
    "date_modified": "2024-03-05T22:12:56.000",
    "request_status": "Pending",
    "responsible_agency": "Department of Public Works",
    "final_address": "4300 Old Gentilly Rd",
    "address_councildis": "D",
    "status": "Pending",
    "rowid": "1072893",
    "final_x": "3690774.55344",
    "final_y": "548777.385939",
    "longitude": "-90.03816878772056",
    "latitude": "30.002662490125736",
    "geocoded_column": {
      "latitude": "30.002662490125736",
      "longitude": "-90.03816878772056"
    }
  },
  {
    "service_request": "2024-1072892",
    "request_type": "Health Related Request",
    "request_reason": "Noise Ordinance Complaint",
    "date_created": "2024-03-05T22:00:40.000",
    "date_modified": "2024-03-05T22:00:40.000",
    "request_status": "Pending",
    "responsible_agency": "Health Department",
    "final_address": "1500 N Claiborne Ave",
    "address_councildis": "C",
    "status": "Pending",
    "rowid": "1072892",
    "final_x": "3681846.67516",
    "final_y": "537148.826504",
    "longitude": "-90.0667791844965",
    "latitude": "29.970962498120493",
    "geocoded_column": {
      "latitude": "29.970962498120493",
      "longitude": "-90.0667791844965"
    }
  },
  {
    "service_request": "2024-1072891",
    "request_type": "Trash/Recycling",
    "request_reason": "Request a Large Item Pick Up",
    "date_created": "2024-03-05T21:46:45.000",
    "date_modified": "2024-03-05T21:46:45.000",
    "request_status": "Pending",
    "responsible_agency": "Department of Sanitation",
    "final_address": "5900 BLK Painters St",
    "address_councildis": "D",
    "status": "Assigned to Contractor",
    "contractor": "IV Waste",
    "rowid": "1072891",
    "final_x": "3686076.54677",
    "final_y": "554978.889502",
    "longitude": "-90.05279143969065",
    "latitude": "30.0198595333368",
    "geocoded_column": {
      "latitude": "30.0198595333368",
      "longitude": "-90.05279143969065"
    }
  },
  {
    "service_request": "2024-1072890",
    "request_type": "Trash/Recycling",
    "request_reason": "Request a Large Item Pick Up",
    "date_created": "2024-03-05T21:36:16.000",
    "date_modified": "2024-03-05T21:36:17.000",
    "request_status": "Pending",
    "responsible_agency": "Department of Sanitation",
    "final_address": "416 N Tonti St",
    "address_councildis": "B",
    "status": "Assigned to Contractor",
    "contractor": "Richards Disposal",
    "rowid": "1072890",
    "final_x": "3677292.54587",
    "final_y": "535329.773766",
    "longitude": "-90.08122449830654",
    "latitude": "29.966098351986652",
    "geocoded_column": {
      "latitude": "29.966098351986652",
      "longitude": "-90.08122449830654"
    }
  },
  {
    "service_request": "2024-1072889",
    "request_type": "Roads/Drainage",
    "request_reason": "Man hole cover issue",
    "date_created": "2024-03-05T21:20:39.000",
    "date_modified": "2024-03-05T21:20:39.000",
    "request_status": "Pending",
    "responsible_agency": "Department of Public Works",
    "final_address": "LEAKE AVE & BROADWAY ST",
    "address_councildis": "A",
    "status": "Pending",
    "rowid": "1072889",
    "final_x": "3660855.01",
    "final_y": "521586.33",
    "longitude": "-90.13358855105726",
    "latitude": "29.92879192668333",
    "geocoded_column": {
      "latitude": "29.92879192668333",
      "longitude": "-90.13358855105726"
    }
  },
  {
    "service_request": "2024-1072888",
    "request_type": "Trash/Recycling",
    "request_reason": "Repair Recycling Cart",
    "date_created": "2024-03-05T21:03:56.000",
    "date_modified": "2024-03-05T21:03:56.000",
    "request_status": "Pending",
    "responsible_agency": "Department of Sanitation",
    "final_address": "2625 Lepage St",
    "address_councildis": "A",
    "status": "Pending",
    "rowid": "1072888",
    "final_x": "3678276.92136",
    "final_y": "539608.641162",
    "longitude": "-90.07796782231942",
    "latitude": "29.977834156494783",
    "geocoded_column": {
      "latitude": "29.977834156494783",
      "longitude": "-90.07796782231942"
    }
  },
  {
    "service_request": "2024-1072887",
    "request_type": "Traffic Signals/Signs/Striping/Streetlights",
    "request_reason": "Street Light Outage/Malfunction",
    "date_created": "2024-03-05T20:57:20.000",
    "date_modified": "2024-03-05T20:57:20.000",
    "request_status": "Pending",
    "responsible_agency": "Department of Public Works",
    "final_address": "5339 Cameron Blvd",
    "address_councildis": "D",
    "status": "Assigned to Contractor",
    "contractor": "Legacy Professional Services",
    "rowid": "1072887",
    "final_x": "3682689.89896",
    "final_y": "552659.32655",
    "longitude": "-90.06357336112005",
    "latitude": "30.013585214790485",
    "geocoded_column": {
      "latitude": "30.013585214790485",
      "longitude": "-90.06357336112005"
    }
  },
  {
    "service_request": "2024-1072886",
    "request_type": "Trash/Recycling",
    "request_reason": "Request a Large Item Pick Up",
    "date_created": "2024-03-05T20:54:33.000",
    "date_modified": "2024-03-05T20:54:34.000",
    "request_status": "Pending",
    "responsible_agency": "Department of Sanitation",
    "final_address": "1016 Sixth St",
    "address_councildis": "B",
    "status": "Assigned to Contractor",
    "contractor": "Richards Disposal",
    "rowid": "1072886",
    "final_x": "3676688.11265",
    "final_y": "520328.363064",
    "longitude": "-90.08364995933096",
    "latitude": "29.92486759062238",
    "geocoded_column": {
      "latitude": "29.92486759062238",
      "longitude": "-90.08364995933096"
    }
  },
  {
    "service_request": "2024-1072885",
    "request_type": "Abandoned Vehicles",
    "request_reason": "Abandoned/Junk Vehicles",
    "date_created": "2024-03-05T20:47:45.000",
    "date_modified": "2024-03-05T20:47:45.000",
    "request_status": "Pending",
    "responsible_agency": "Department of Public Works",
    "final_address": "2305 Iberville St, New Orleans, Louisiana, 70119",
    "address_councildis": "B",
    "status": "Pending",
    "rowid": "1072885",
    "final_x": "3676926.53608",
    "final_y": "534494.138501",
    "longitude": "-90.08240915830604",
    "latitude": "29.963811630549824",
    "geocoded_column": {
      "latitude": "29.963811630549824",
      "longitude": "-90.08240915830604"
    }
  },
  {
    "service_request": "2024-1072884",
    "request_type": "Abandoned Vehicles",
    "request_reason": "Abandoned/Junk Vehicles",
    "date_created": "2024-03-05T20:43:52.000",
    "date_modified": "2024-03-05T20:43:52.000",
    "request_status": "Pending",
    "responsible_agency": "Department of Public Works",
    "final_address": "2305 Iberville St, New Orleans, Louisiana, 70119",
    "address_councildis": "B",
    "status": "Pending",
    "rowid": "1072884",
    "final_x": "3676926.53608",
    "final_y": "534494.138501",
    "longitude": "-90.08240915830604",
    "latitude": "29.963811630549824",
    "geocoded_column": {
      "latitude": "29.963811630549824",
      "longitude": "-90.08240915830604"
    }
  },
  {
    "service_request": "2024-1072883",
    "request_type": "Trash/Recycling",
    "request_reason": "Request a Large Item Pick Up",
    "date_created": "2024-03-05T20:43:23.000",
    "date_modified": "2024-03-05T20:43:23.000",
    "request_status": "Pending",
    "responsible_agency": "Department of Sanitation",
    "final_address": "11111 N Idlewood Ct",
    "address_councildis": "E",
    "status": "Assigned to Contractor",
    "contractor": "Waste Pro",
    "rowid": "1072883",
    "final_x": "3715866.84581",
    "final_y": "560159.076125",
    "longitude": "-89.95846838747077",
    "latitude": "30.03315392273838",
    "geocoded_column": {
      "latitude": "30.03315392273838",
      "longitude": "-89.95846838747077"
    }
  },
  {
    "service_request": "2024-1072882",
    "request_type": "Abandoned Vehicles",
    "request_reason": "Abandoned/Junk Vehicles",
    "date_created": "2024-03-05T20:42:12.000",
    "date_modified": "2024-03-05T20:42:12.000",
    "request_status": "Pending",
    "responsible_agency": "Department of Public Works",
    "final_address": "1932 Joliet St",
    "address_councildis": "A",
    "status": "Pending",
    "rowid": "1072882",
    "final_x": "3662707.26131",
    "final_y": "531366.180546",
    "longitude": "-90.1274164275475",
    "latitude": "29.95562994172527",
    "geocoded_column": {
      "latitude": "29.95562994172527",
      "longitude": "-90.1274164275475"
    }
  },
  {
    "service_request": "2024-1072881",
    "request_type": "Traffic Signals/Signs/Striping/Streetlights",
    "request_reason": "Street Light Outage/Malfunction",
    "date_created": "2024-03-05T20:29:21.000",
    "date_modified": "2024-03-05T20:29:21.000",
    "request_status": "Pending",
    "responsible_agency": "Department of Public Works",
    "final_address": "3438 Banks St",
    "address_councildis": "B",
    "status": "Assigned to Contractor",
    "contractor": "Legacy Professional Services",
    "rowid": "1072881",
    "final_x": "3672121.96366",
    "final_y": "535946.123463",
    "longitude": "-90.09753211219875",
    "latitude": "29.967947452636345",
    "geocoded_column": {
      "latitude": "29.967947452636345",
      "longitude": "-90.09753211219875"
    }
  },
  {
    "service_request": "2024-1072880",
    "request_type": "Trash/Recycling",
    "request_reason": "Missed Trash Pick-Up",
    "date_created": "2024-03-05T20:20:27.000",
    "date_modified": "2024-03-05T20:20:27.000",
    "request_status": "Pending",
    "responsible_agency": "Department of Sanitation",
    "final_address": "1316 Calhoun St",
    "address_councildis": "A",
    "status": "Assigned to Contractor",
    "contractor": "Richards Disposal",
    "rowid": "1072880",
    "final_x": "3664122.60551",
    "final_y": "521449.093689",
    "longitude": "-90.12327795014727",
    "latitude": "29.92832009050591",
    "geocoded_column": {
      "latitude": "29.92832009050591",
      "longitude": "-90.12327795014727"
    }
  },
  {
    "service_request": "2024-1072879",
    "request_type": "Trash/Recycling",
    "request_reason": "Missed Trash Pick-Up",
    "date_created": "2024-03-05T19:57:20.000",
    "date_modified": "2024-03-05T19:57:21.000",
    "request_status": "Pending",
    "responsible_agency": "Department of Sanitation",
    "final_address": "1314 Calhoun St",
    "address_councildis": "A",
    "status": "Assigned to Contractor",
    "contractor": "Richards Disposal",
    "rowid": "1072879",
    "final_x": "3664113.92493",
    "final_y": "521429.996473",
    "longitude": "-90.12330598958215",
    "latitude": "29.928267831234187",
    "geocoded_column": {
      "latitude": "29.928267831234187",
      "longitude": "-90.12330598958215"
    }
  },
  {
    "service_request": "2024-1072878",
    "request_type": "Trash/Recycling",
    "request_reason": "Order Recycling Cart",
    "date_created": "2024-03-05T19:29:06.000",
    "date_modified": "2024-03-05T19:29:06.000",
    "request_status": "Pending",
    "responsible_agency": "Department of Sanitation",
    "final_address": "8213 Spruce St",
    "address_councildis": "A",
    "status": "Pending",
    "rowid": "1072878",
    "final_x": "3663528.73607",
    "final_y": "530802.628546",
    "longitude": "-90.12484125848994",
    "latitude": "29.954056558718896",
    "geocoded_column": {
      "latitude": "29.954056558718896",
      "longitude": "-90.12484125848994"
    }
  },
  {
    "service_request": "2024-1072877",
    "request_type": "Abandoned Vehicles",
    "request_reason": "Abandoned/Junk Vehicles",
    "date_created": "2024-03-05T19:02:16.000",
    "date_modified": "2024-03-05T19:02:16.000",
    "request_status": "Pending",
    "responsible_agency": "Department of Public Works",
    "final_address": "4623 Danneel St",
    "address_councildis": "B",
    "status": "Pending",
    "rowid": "1072877",
    "final_x": "3669761.94663",
    "final_y": "522269.276602",
    "longitude": "-90.10544799381287",
    "latitude": "29.93041037311853",
    "geocoded_column": {
      "latitude": "29.93041037311853",
      "longitude": "-90.10544799381287"
    }
  },
  {
    "service_request": "2024-1072876",
    "request_type": "Property Maintenance",
    "request_reason": "Property Maintenance",
    "date_created": "2024-03-05T19:00:58.000",
    "date_modified": "2024-03-05T19:00:58.000",
    "request_status": "Pending",
    "responsible_agency": "Department of Code Enforcement",
    "final_address": "4520 Marais St",
    "address_councildis": "D",
    "status": "Pending",
    "rowid": "1072876",
    "final_x": "3693558.64278",
    "final_y": "535150.179718",
    "longitude": "-90.0298632412413",
    "latitude": "29.965105764277393",
    "geocoded_column": {
      "latitude": "29.965105764277393",
      "longitude": "-90.0298632412413"
    }
  },
  {
    "service_request": "2024-1072875",
    "request_type": "Property Maintenance",
    "request_reason": "Property Maintenance",
    "date_created": "2024-03-05T18:54:56.000",
    "date_modified": "2024-03-05T18:54:56.000",
    "request_status": "Pending",
    "responsible_agency": "Department of Code Enforcement",
    "final_address": "4520 Marais St",
    "address_councildis": "D",
    "status": "Pending",
    "rowid": "1072875",
    "final_x": "3693558.64278",
    "final_y": "535150.179718",
    "longitude": "-90.0298632412413",
    "latitude": "29.965105764277393",
    "geocoded_column": {
      "latitude": "29.965105764277393",
      "longitude": "-90.0298632412413"
    }
  },
  {
    "service_request": "2024-1072874",
    "request_type": "Trash/Recycling",
    "request_reason": "Illegal Dumping",
    "date_created": "2024-03-05T18:54:06.000",
    "date_modified": "2024-03-05T18:54:07.000",
    "request_status": "Pending",
    "responsible_agency": "Department of Sanitation",
    "final_address": "2031 Pace Blvd",
    "address_councildis": "C",
    "status": "Pending",
    "rowid": "1072874",
    "final_x": "3694393.67357",
    "final_y": "523002.564987",
    "longitude": "-90.02766339635909",
    "latitude": "29.931677898066674",
    "geocoded_column": {
      "latitude": "29.931677898066674",
      "longitude": "-90.02766339635909"
    }
  },
  {
    "service_request": "2024-1072873",
    "request_type": "Trash/Recycling",
    "request_reason": "Missed Trash Pick-Up",
    "date_created": "2024-03-05T18:52:31.000",
    "date_modified": "2024-03-05T18:52:32.000",
    "request_status": "Pending",
    "responsible_agency": "Department of Sanitation",
    "final_address": "7630 Shaw Ave",
    "address_councildis": "E",
    "status": "Assigned to Contractor",
    "contractor": "Waste Pro",
    "rowid": "1072873",
    "final_x": "3707103.0588",
    "final_y": "564306.044641",
    "longitude": "-89.98600848832744",
    "latitude": "30.04484266588644",
    "geocoded_column": {
      "latitude": "30.04484266588644",
      "longitude": "-89.98600848832744"
    }
  },
  {
    "service_request": "2024-1072872",
    "request_type": "Trash/Recycling",
    "request_reason": "Illegal Dumping",
    "date_created": "2024-03-05T18:51:55.000",
    "date_modified": "2024-03-05T18:51:55.000",
    "request_status": "Pending",
    "responsible_agency": "Department of Sanitation",
    "final_address": "1139 Rev. John Raphael, Jr. Way",
    "address_councildis": "B",
    "status": "Pending",
    "rowid": "1072872",
    "final_x": "3677160.0027",
    "final_y": "528022.087039",
    "longitude": "-90.08189510928851",
    "latitude": "29.94600864848389",
    "geocoded_column": {
      "latitude": "29.94600864848389",
      "longitude": "-90.08189510928851"
    }
  },
  {
    "service_request": "2024-1072871",
    "request_type": "Trash/Recycling",
    "request_reason": "Illegal Dumping",
    "date_created": "2024-03-05T18:50:06.000",
    "date_modified": "2024-03-05T18:50:06.000",
    "request_status": "Pending",
    "responsible_agency": "Department of Sanitation",
    "final_address": "2233 Clio St",
    "address_councildis": "B",
    "status": "Pending",
    "rowid": "1072871",
    "final_x": "3677259.67317",
    "final_y": "527948.473727",
    "longitude": "-90.08158295461732",
    "latitude": "29.945803242759656",
    "geocoded_column": {
      "latitude": "29.945803242759656",
      "longitude": "-90.08158295461732"
    }
  },
  {
    "service_request": "2024-1072870",
    "request_type": "Trash/Recycling",
    "request_reason": "Illegal Dumping",
    "date_created": "2024-03-05T18:48:18.000",
    "date_modified": "2024-03-05T18:48:18.000",
    "request_status": "Pending",
    "responsible_agency": "Department of Sanitation",
    "final_address": "2123 Clio St",
    "address_councildis": "B",
    "status": "Pending",
    "rowid": "1072870",
    "final_x": "3677702.84264",
    "final_y": "527808.720895",
    "longitude": "-90.08018854595456",
    "latitude": "29.945405649446805",
    "geocoded_column": {
      "latitude": "29.945405649446805",
      "longitude": "-90.08018854595456"
    }
  },
  {
    "service_request": "2024-1072869",
    "request_type": "Trash/Recycling",
    "request_reason": "Missed Trash Pick-Up",
    "date_created": "2024-03-05T18:37:39.000",
    "date_modified": "2024-03-05T18:37:39.000",
    "request_status": "Pending",
    "responsible_agency": "Department of Sanitation",
    "final_address": "7820 Trapier Ave",
    "address_councildis": "E",
    "status": "Assigned to Contractor",
    "contractor": "Waste Pro",
    "rowid": "1072869",
    "final_x": "3706212.36951",
    "final_y": "564076.813537",
    "longitude": "-89.98883196165598",
    "latitude": "30.044241138442462",
    "geocoded_column": {
      "latitude": "30.044241138442462",
      "longitude": "-89.98883196165598"
    }
  },
  {
    "service_request": "2024-1072868",
    "request_type": "Trash/Recycling",
    "request_reason": "Return Recycling Cart",
    "date_created": "2024-03-05T18:36:57.000",
    "date_modified": "2024-03-05T18:36:57.000",
    "request_status": "Pending",
    "responsible_agency": "Department of Sanitation",
    "final_address": "2616 Palmyra St",
    "address_councildis": "B",
    "status": "Pending",
    "rowid": "1072868",
    "final_x": "3675186.2084",
    "final_y": "534189.614021",
    "longitude": "-90.08791540335774",
    "latitude": "29.963026417724357",
    "geocoded_column": {
      "latitude": "29.963026417724357",
      "longitude": "-90.08791540335774"
    }
  },
  {
    "service_request": "2024-1072867",
    "request_type": "Trash/Recycling",
    "request_reason": "Request a Large Item Pick Up",
    "date_created": "2024-03-05T18:29:26.000",
    "date_modified": "2024-03-05T18:29:27.000",
    "request_status": "Pending",
    "responsible_agency": "Department of Sanitation",
    "final_address": "2931 St Claude Ave",
    "address_councildis": "C",
    "status": "Assigned to Contractor",
    "contractor": "IV Waste",
    "rowid": "1072867",
    "final_x": "3688401.44431",
    "final_y": "536252.633159",
    "longitude": "-90.04611022881703",
    "latitude": "29.968297431309566",
    "geocoded_column": {
      "latitude": "29.968297431309566",
      "longitude": "-90.04611022881703"
    }
  },
  {
    "service_request": "2024-1072866",
    "request_type": "Roads/Drainage",
    "request_reason": "Pothole",
    "date_created": "2024-03-05T18:27:44.000",
    "date_modified": "2024-03-05T18:27:44.000",
    "request_status": "Pending",
    "responsible_agency": "Department of Public Works",
    "final_address": "4500 General Meyer Ave",
    "address_councildis": "C",
    "status": "Pending",
    "rowid": "1072866",
    "final_x": "3700689.88836",
    "final_y": "524028.745724",
    "longitude": "-90.00774961673321",
    "latitude": "29.934300763858566",
    "geocoded_column": {
      "latitude": "29.934300763858566",
      "longitude": "-90.00774961673321"
    }
  },
  {
    "service_request": "2024-1072865",
    "request_type": "Abandoned Vehicles",
    "request_reason": "Abandoned/Junk Vehicles",
    "date_created": "2024-03-05T18:21:07.000",
    "date_modified": "2024-03-05T18:21:07.000",
    "request_status": "Pending",
    "responsible_agency": "Department of Public Works",
    "final_address": "2439 Conti St",
    "address_councildis": "B",
    "status": "Pending",
    "rowid": "1072865",
    "final_x": "3676905.81723",
    "final_y": "535436.818374",
    "longitude": "-90.08244208832929",
    "latitude": "29.96640430257773",
    "geocoded_column": {
      "latitude": "29.96640430257773",
      "longitude": "-90.08244208832929"
    }
  },
  {
    "service_request": "2024-1072864",
    "request_type": "Roads/Drainage",
    "request_reason": "Pothole",
    "date_created": "2024-03-05T18:20:10.000",
    "date_modified": "2024-03-05T18:20:10.000",
    "request_status": "Pending",
    "responsible_agency": "Department of Public Works",
    "final_address": "4216 Chestnut St",
    "address_councildis": "B",
    "status": "Pending",
    "rowid": "1072864",
    "final_x": "3671574.31393",
    "final_y": "519539.203703",
    "longitude": "-90.09981939416457",
    "latitude": "29.922850019854593",
    "geocoded_column": {
      "latitude": "29.922850019854593",
      "longitude": "-90.09981939416457"
    }
  },
  {
    "service_request": "2024-1072863",
    "request_type": "Trash/Recycling",
    "request_reason": "Request a Large Item Pick Up",
    "date_created": "2024-03-05T18:11:13.000",
    "date_modified": "2024-03-05T18:11:14.000",
    "request_status": "Pending",
    "responsible_agency": "Department of Sanitation",
    "final_address": "207 Pinewood Ct",
    "address_councildis": "C",
    "status": "Assigned to Contractor",
    "contractor": "Richards Disposal",
    "rowid": "1072863",
    "final_x": "3696139.96803",
    "final_y": "523627.697851",
    "longitude": "-90.02212798910293",
    "latitude": "29.933341968486037",
    "geocoded_column": {
      "latitude": "29.933341968486037",
      "longitude": "-90.02212798910293"
    }
  },
  {
    "service_request": "2024-1072862",
    "request_type": "Roads/Drainage",
    "request_reason": "Pothole",
    "date_created": "2024-03-05T18:10:21.000",
    "date_modified": "2024-03-05T18:10:21.000",
    "request_status": "Pending",
    "responsible_agency": "Department of Public Works",
    "final_address": "334 Audubon Blvd",
    "address_councildis": "A",
    "status": "Pending",
    "rowid": "1072862",
    "final_x": "3667209.91597",
    "final_y": "530156.565633",
    "longitude": "-90.11323926603018",
    "latitude": "29.952172828530394",
    "geocoded_column": {
      "latitude": "29.952172828530394",
      "longitude": "-90.11323926603018"
    }
  },
  {
    "service_request": "2024-1072861",
    "request_type": "Abandoned Vehicles",
    "request_reason": "Vehicle Blocking Your Driveway",
    "date_created": "2024-03-05T18:04:32.000",
    "date_modified": "2024-03-05T18:04:32.000",
    "request_status": "Pending",
    "responsible_agency": "Department of Public Works",
    "final_address": "335 S Alexander St",
    "address_councildis": "A",
    "status": "Pending",
    "rowid": "1072861",
    "final_x": "3669302.22849",
    "final_y": "538328.033865",
    "longitude": "-90.10635640983945",
    "latitude": "29.97458022689269",
    "geocoded_column": {
      "latitude": "29.97458022689269",
      "longitude": "-90.10635640983945"
    }
  },
  {
    "service_request": "2024-1072860",
    "request_type": "Roads/Drainage",
    "request_reason": "Street Flooding / Drainage",
    "date_created": "2024-03-05T17:46:46.000",
    "date_modified": "2024-03-05T17:46:46.000",
    "request_status": "Pending",
    "responsible_agency": "Department of Public Works",
    "final_address": "6363 St Charles Ave",
    "address_councildis": "A",
    "status": "Pending",
    "rowid": "1072860",
    "final_x": "3664695.3778",
    "final_y": "523768.445627",
    "longitude": "-90.12139238546794",
    "latitude": "29.934680930134874",
    "geocoded_column": {
      "latitude": "29.934680930134874",
      "longitude": "-90.12139238546794"
    }
  },
  {
    "service_request": "2024-1072859",
    "request_type": "Trash/Recycling",
    "request_reason": "Request a Large Item Pick Up",
    "date_created": "2024-03-05T17:38:04.000",
    "date_modified": "2024-03-05T17:48:29.000",
    "case_close_date": "2024-03-05T11:48:29.000",
    "request_status": "Closed",
    "responsible_agency": "Department of Sanitation",
    "final_address": "4908 Francisco Verrett Dr",
    "address_councildis": "E",
    "status": "Duplicate Request",
    "contractor": "Waste Pro",
    "contractor_action": "Duplicate",
    "rowid": "1072859",
    "final_x": "3704088.3514",
    "final_y": "555987.811545",
    "longitude": "-89.99584317077064",
    "latitude": "30.02206790165496",
    "geocoded_column": {
      "latitude": "30.02206790165496",
      "longitude": "-89.99584317077064"
    }
  },
  {
    "service_request": "2024-1072858",
    "request_type": "Trash/Recycling",
    "request_reason": "Missed Trash Pick-Up",
    "date_created": "2024-03-05T17:36:31.000",
    "date_modified": "2024-03-05T17:36:31.000",
    "request_status": "Pending",
    "responsible_agency": "Department of Sanitation",
    "final_address": "2828 Upperline St",
    "address_councildis": "B",
    "status": "Assigned to Contractor",
    "contractor": "Richards Disposal",
    "rowid": "1072858",
    "final_x": "3669160.05127",
    "final_y": "525203.114365",
    "longitude": "-90.10724898782733",
    "latitude": "29.938495206542953",
    "geocoded_column": {
      "latitude": "29.938495206542953",
      "longitude": "-90.10724898782733"
    }
  },
  {
    "service_request": "2024-1072857",
    "request_type": "Trash/Recycling",
    "request_reason": "Request a Large Item Pick Up",
    "date_created": "2024-03-05T17:36:26.000",
    "date_modified": "2024-03-05T17:36:27.000",
    "request_status": "Pending",
    "responsible_agency": "Department of Sanitation",
    "final_address": "4908 Francisco Verrett Dr",
    "address_councildis": "E",
    "status": "Assigned to Contractor",
    "contractor": "Waste Pro",
    "rowid": "1072857",
    "final_x": "3704088.3514",
    "final_y": "555987.811545",
    "longitude": "-89.99584317077064",
    "latitude": "30.02206790165496",
    "geocoded_column": {
      "latitude": "30.02206790165496",
      "longitude": "-89.99584317077064"
    }
  },
  {
    "service_request": "2024-1072856",
    "request_type": "Roads/Drainage",
    "request_reason": "Street Flooding / Drainage",
    "date_created": "2024-03-05T17:35:42.000",
    "date_modified": "2024-03-05T17:35:42.000",
    "request_status": "Pending",
    "responsible_agency": "Department of Public Works",
    "final_address": "574 Walnut St",
    "address_councildis": "A",
    "status": "Pending",
    "rowid": "1072856",
    "final_x": "3663149.51603",
    "final_y": "524078.16326",
    "longitude": "-90.12626236535993",
    "latitude": "29.935577423330315",
    "geocoded_column": {
      "latitude": "29.935577423330315",
      "longitude": "-90.12626236535993"
    }
  },
  {
    "service_request": "2024-1072855",
    "request_type": "Abandoned Vehicles",
    "request_reason": "Abandoned/Junk Vehicles",
    "date_created": "2024-03-05T17:30:55.000",
    "date_modified": "2024-03-05T17:30:55.000",
    "request_status": "Pending",
    "responsible_agency": "Department of Public Works",
    "final_address": "14500 BLK Morrison Rd",
    "address_councildis": "E",
    "status": "Pending",
    "rowid": "1072855",
    "final_x": "3721112.48064",
    "final_y": "572867.745784",
    "longitude": "-89.9414040280944",
    "latitude": "30.067923393650617",
    "geocoded_column": {
      "latitude": "30.067923393650617",
      "longitude": "-89.9414040280944"
    }
  },
  {
    "service_request": "2024-1072854",
    "request_type": "Trash/Recycling",
    "request_reason": "Request a Large Item Pick Up",
    "date_created": "2024-03-05T17:29:34.000",
    "date_modified": "2024-03-05T17:29:34.000",
    "request_status": "Pending",
    "responsible_agency": "Department of Sanitation",
    "final_address": "4709 Painters St",
    "address_councildis": "D",
    "status": "Assigned to Contractor",
    "contractor": "IV Waste",
    "rowid": "1072854",
    "final_x": "3686311.47676",
    "final_y": "550354.441876",
    "longitude": "-90.05221250671798",
    "latitude": "30.007136777351356",
    "geocoded_column": {
      "latitude": "30.007136777351356",
      "longitude": "-90.05221250671798"
    }
  },
  {
    "service_request": "2024-1072853",
    "request_type": "Roads/Drainage",
    "request_reason": "Pothole",
    "date_created": "2024-03-05T17:29:31.000",
    "date_modified": "2024-03-05T17:29:31.000",
    "request_status": "Pending",
    "responsible_agency": "Department of Public Works",
    "final_address": "100 BLK Lakeshore Dr",
    "address_councildis": "D",
    "status": "Pending",
    "rowid": "1072853",
    "final_x": "3668014.2663",
    "final_y": "557466.605327",
    "longitude": "-90.10977868336332",
    "latitude": "30.027242529062168",
    "geocoded_column": {
      "latitude": "30.027242529062168",
      "longitude": "-90.10977868336332"
    }
  },
  {
    "service_request": "2024-1072852",
    "request_type": "Mosquito, Termite & Rodent Control",
    "request_reason": "Non-Rodent Complaint (Mice, Possums, Snakes)",
    "date_created": "2024-03-05T17:28:05.000",
    "date_modified": "2024-03-05T17:28:05.000",
    "request_status": "Pending",
    "responsible_agency": "Mosquito, Termite & Rodent Control Board",
    "final_address": "7527 Lady Gray St",
    "address_councildis": "E",
    "status": "Pending",
    "rowid": "1072852",
    "final_x": "3710349.10885",
    "final_y": "564779.36957",
    "longitude": "-89.97573182297815",
    "latitude": "30.04603877127728",
    "geocoded_column": {
      "latitude": "30.04603877127728",
      "longitude": "-89.97573182297815"
    }
  },
  {
    "service_request": "2024-1072851",
    "request_type": "Abandoned Vehicles",
    "request_reason": "Abandoned/Junk Vehicles",
    "date_created": "2024-03-05T17:26:27.000",
    "date_modified": "2024-03-05T17:26:27.000",
    "request_status": "Pending",
    "responsible_agency": "Department of Public Works",
    "final_address": "2100 BLK Clio St",
    "address_councildis": "B",
    "status": "Pending",
    "rowid": "1072851",
    "final_x": "3677638.61549",
    "final_y": "527670.223319",
    "longitude": "-90.08039611328026",
    "latitude": "29.945026758349954",
    "geocoded_column": {
      "latitude": "29.945026758349954",
      "longitude": "-90.08039611328026"
    }
  },
  {
    "service_request": "2024-1072849",
    "request_type": "Abandoned Vehicles",
    "request_reason": "Abandoned/Junk Vehicles",
    "date_created": "2024-03-05T17:17:44.000",
    "date_modified": "2024-03-05T17:17:44.000",
    "request_status": "Pending",
    "responsible_agency": "Department of Public Works",
    "final_address": "950 Josephine St",
    "address_councildis": "B",
    "status": "Pending",
    "rowid": "1072849",
    "final_x": "3679392.29563",
    "final_y": "521960.612922",
    "longitude": "-90.07505716297808",
    "latitude": "29.929274372583826",
    "geocoded_column": {
      "latitude": "29.929274372583826",
      "longitude": "-90.07505716297808"
    }
  },
  {
    "service_request": "2024-1072848",
    "request_type": "Roads/Drainage",
    "request_reason": "Catch Basin - Broken/Damage",
    "date_created": "2024-03-05T17:17:32.000",
    "date_modified": "2024-03-05T17:17:32.000",
    "request_status": "Pending",
    "responsible_agency": "Department of Public Works",
    "final_address": "7033 Yorktown Dr",
    "address_councildis": "E",
    "status": "Pending",
    "rowid": "1072848",
    "final_x": "3706212.361",
    "final_y": "560600.030238",
    "longitude": "-89.98896090871574",
    "latitude": "30.034681360001134",
    "geocoded_column": {
      "latitude": "30.034681360001134",
      "longitude": "-89.98896090871574"
    }
  },
  {
    "service_request": "2024-1072847",
    "request_type": "Trash/Recycling",
    "request_reason": "Request a Large Item Pick Up",
    "date_created": "2024-03-05T17:17:07.000",
    "date_modified": "2024-03-05T17:17:07.000",
    "request_status": "Pending",
    "responsible_agency": "Department of Sanitation",
    "final_address": "5249 Pratt Dr",
    "address_councildis": "D",
    "status": "Assigned to Contractor",
    "contractor": "IV Waste",
    "rowid": "1072847",
    "final_x": "3680473.21461",
    "final_y": "551864.86607",
    "longitude": "-90.07060458746255",
    "latitude": "30.011468091838687",
    "geocoded_column": {
      "latitude": "30.011468091838687",
      "longitude": "-90.07060458746255"
    }
  },
  {
    "service_request": "2024-1072846",
    "request_type": "Trash/Recycling",
    "request_reason": "Replace Trash Cart",
    "date_created": "2024-03-05T17:12:20.000",
    "date_modified": "2024-03-05T17:12:21.000",
    "request_status": "Pending",
    "responsible_agency": "Department of Sanitation",
    "final_address": "4428 LaSalle St",
    "address_councildis": "B",
    "status": "Assigned to Contractor",
    "contractor": "Richards Disposal",
    "rowid": "1072846",
    "final_x": "3670227.85159",
    "final_y": "523629.010619",
    "longitude": "-90.1039311443992",
    "latitude": "29.934135468658738",
    "geocoded_column": {
      "latitude": "29.934135468658738",
      "longitude": "-90.1039311443992"
    }
  },
  {
    "service_request": "2024-1072845",
    "request_type": "Trash/Recycling",
    "request_reason": "Replace Trash Cart",
    "date_created": "2024-03-05T17:11:05.000",
    "date_modified": "2024-03-05T17:11:06.000",
    "request_status": "Pending",
    "responsible_agency": "Department of Sanitation",
    "final_address": "7300 Weaver Ave",
    "address_councildis": "E",
    "status": "Assigned to Contractor",
    "contractor": "Waste Pro",
    "rowid": "1072845",
    "final_x": "3707964.88798",
    "final_y": "563286.932768",
    "longitude": "-89.9833226757682",
    "latitude": "30.0420126227598",
    "geocoded_column": {
      "latitude": "30.0420126227598",
      "longitude": "-89.9833226757682"
    }
  },
  {
    "service_request": "2024-1072844",
    "request_type": "Trash/Recycling",
    "request_reason": "Request a Large Item Pick Up",
    "date_created": "2024-03-05T17:07:35.000",
    "date_modified": "2024-03-05T17:07:35.000",
    "request_status": "Pending",
    "responsible_agency": "Department of Sanitation",
    "final_address": "11211 N Idlewood Ct",
    "address_councildis": "E",
    "status": "Assigned to Contractor",
    "contractor": "Waste Pro",
    "rowid": "1072844",
    "final_x": "3716025.86207",
    "final_y": "560277.469149",
    "longitude": "-89.9579613954362",
    "latitude": "30.03347420878148",
    "geocoded_column": {
      "latitude": "30.03347420878148",
      "longitude": "-89.9579613954362"
    }
  },
  {
    "service_request": "2024-1072843",
    "request_type": "Traffic Signals/Signs/Striping/Streetlights",
    "request_reason": "Street Light Outage/Malfunction",
    "date_created": "2024-03-05T17:04:13.000",
    "date_modified": "2024-03-05T17:04:13.000",
    "request_status": "Pending",
    "responsible_agency": "Department of Public Works",
    "final_address": "3528 Erato St",
    "address_councildis": "B",
    "status": "Assigned to Contractor",
    "contractor": "Legacy Professional Services",
    "rowid": "1072843",
    "final_x": "3673395.15892",
    "final_y": "529831.649217",
    "longitude": "-90.09372021113337",
    "latitude": "29.951096871698187",
    "geocoded_column": {
      "latitude": "29.951096871698187",
      "longitude": "-90.09372021113337"
    }
  },
  {
    "service_request": "2024-1072842",
    "request_type": "Traffic Signals/Signs/Striping/Streetlights",
    "request_reason": "Street Light Outage/Malfunction",
    "date_created": "2024-03-05T17:03:20.000",
    "date_modified": "2024-03-05T17:03:21.000",
    "request_status": "Pending",
    "responsible_agency": "Department of Public Works",
    "final_address": "3520 Erato St",
    "address_councildis": "B",
    "status": "Assigned to Contractor",
    "contractor": "Legacy Professional Services",
    "rowid": "1072842",
    "final_x": "3673465.80865",
    "final_y": "529787.096001",
    "longitude": "-90.09349865634243",
    "latitude": "29.950972263288246",
    "geocoded_column": {
      "latitude": "29.950972263288246",
      "longitude": "-90.09349865634243"
    }
  },
  {
    "service_request": "2024-1072841",
    "request_type": "Traffic Signals/Signs/Striping/Streetlights",
    "request_reason": "Street Light Outage/Malfunction",
    "date_created": "2024-03-05T17:02:16.000",
    "date_modified": "2024-03-05T17:02:17.000",
    "request_status": "Pending",
    "responsible_agency": "Department of Public Works",
    "final_address": "3512 Erato St",
    "address_councildis": "B",
    "status": "Assigned to Contractor",
    "contractor": "Legacy Professional Services",
    "rowid": "1072841",
    "final_x": "3673518.16161",
    "final_y": "529754.803841",
    "longitude": "-90.0933344551685",
    "latitude": "29.950881912806793",
    "geocoded_column": {
      "latitude": "29.950881912806793",
      "longitude": "-90.0933344551685"
    }
  },
  {
    "service_request": "2024-1072840",
    "request_type": "Trash/Recycling",
    "request_reason": "Missed Trash Pick-Up",
    "date_created": "2024-03-05T17:01:33.000",
    "date_modified": "2024-03-05T17:01:33.000",
    "request_status": "Pending",
    "responsible_agency": "Department of Sanitation",
    "final_address": "11211 N Idlewood Ct, New Orleans, Louisiana, 70128",
    "address_councildis": "E",
    "status": "Assigned to Contractor",
    "contractor": "Waste Pro",
    "rowid": "1072840",
    "final_x": "3716025.86207",
    "final_y": "560277.469149",
    "longitude": "-89.9579613954362",
    "latitude": "30.03347420878148",
    "geocoded_column": {
      "latitude": "30.03347420878148",
      "longitude": "-89.9579613954362"
    }
  },
  {
    "service_request": "2024-1072839",
    "request_type": "Traffic Signals/Signs/Striping/Streetlights",
    "request_reason": "Street Light Outage/Malfunction",
    "date_created": "2024-03-05T17:01:25.000",
    "date_modified": "2024-03-05T17:01:25.000",
    "request_status": "Pending",
    "responsible_agency": "Department of Public Works",
    "final_address": "3310 Thalia St Apt A",
    "address_councildis": "B",
    "status": "Assigned to Contractor",
    "contractor": "Legacy Professional Services",
    "rowid": "1072839",
    "final_x": "3674171.79579",
    "final_y": "529022.768832",
    "longitude": "-90.09129566055806",
    "latitude": "29.948849592893506",
    "geocoded_column": {
      "latitude": "29.948849592893506",
      "longitude": "-90.09129566055806"
    }
  },
  {
    "service_request": "2024-1072838",
    "request_type": "Traffic Signals/Signs/Striping/Streetlights",
    "request_reason": "Street Light Outage/Malfunction",
    "date_created": "2024-03-05T17:00:19.000",
    "date_modified": "2024-03-05T17:00:19.000",
    "request_status": "Pending",
    "responsible_agency": "Department of Public Works",
    "final_address": "3362 Thalia St",
    "address_councildis": "B",
    "status": "Assigned to Contractor",
    "contractor": "Legacy Professional Services",
    "rowid": "1072838",
    "final_x": "3673904.40884",
    "final_y": "529184.638272",
    "longitude": "-90.09213438112589",
    "latitude": "29.949302647168665",
    "geocoded_column": {
      "latitude": "29.949302647168665",
      "longitude": "-90.09213438112589"
    }
  },
  {
    "service_request": "2024-1072837",
    "request_type": "Traffic Signals/Signs/Striping/Streetlights",
    "request_reason": "Street Light Outage/Malfunction",
    "date_created": "2024-03-05T16:59:20.000",
    "date_modified": "2024-03-05T16:59:20.000",
    "request_status": "Pending",
    "responsible_agency": "Department of Public Works",
    "final_address": "3413 Thalia St",
    "address_councildis": "B",
    "status": "Assigned to Contractor",
    "contractor": "Legacy Professional Services",
    "rowid": "1072837",
    "final_x": "3673572.89966",
    "final_y": "529489.469185",
    "longitude": "-90.09317068739229",
    "latitude": "29.95015070131824",
    "geocoded_column": {
      "latitude": "29.95015070131824",
      "longitude": "-90.09317068739229"
    }
  },
  {
    "service_request": "2024-1072836",
    "request_type": "Trash/Recycling",
    "request_reason": "Request a Large Item Pick Up",
    "date_created": "2024-03-05T16:58:56.000",
    "date_modified": "2024-03-05T16:58:56.000",
    "request_status": "Pending",
    "responsible_agency": "Department of Sanitation",
    "final_address": "7538 Forum Blvd",
    "address_councildis": "E",
    "status": "Assigned to Contractor",
    "contractor": "Waste Pro",
    "rowid": "1072836",
    "final_x": "3720602.11686",
    "final_y": "572780.145897",
    "longitude": "-89.94302072944572",
    "latitude": "30.067699567831244",
    "geocoded_column": {
      "latitude": "30.067699567831244",
      "longitude": "-89.94302072944572"
    }
  },
  {
    "service_request": "2024-1072835",
    "request_type": "Roads/Drainage",
    "request_reason": "Debris in Roadway",
    "date_created": "2024-03-05T16:58:44.000",
    "date_modified": "2024-03-05T16:58:44.000",
    "request_status": "Pending",
    "responsible_agency": "Department of Public Works",
    "final_address": "3701 Delgado Dr",
    "address_councildis": "A",
    "status": "Pending",
    "rowid": "1072835",
    "final_x": "3674311.29409",
    "final_y": "540561.876555",
    "longitude": "-90.09046001124534",
    "latitude": "29.980574095172003",
    "geocoded_column": {
      "latitude": "29.980574095172003",
      "longitude": "-90.09046001124534"
    }
  },
  {
    "service_request": "2024-1072834",
    "request_type": "Traffic Signals/Signs/Striping/Streetlights",
    "request_reason": "Street Light Outage/Malfunction",
    "date_created": "2024-03-05T16:58:31.000",
    "date_modified": "2024-03-05T16:58:32.000",
    "request_status": "Pending",
    "responsible_agency": "Department of Public Works",
    "final_address": "3714 Thalia St Apt B",
    "address_councildis": "B",
    "status": "Assigned to Contractor",
    "contractor": "Legacy Professional Services",
    "rowid": "1072834",
    "final_x": "3672658.95041",
    "final_y": "529949.633025",
    "longitude": "-90.09604077193234",
    "latitude": "29.951443167617473",
    "geocoded_column": {
      "latitude": "29.951443167617473",
      "longitude": "-90.09604077193234"
    }
  },
  {
    "service_request": "2024-1072833",
    "request_type": "Trash/Recycling",
    "request_reason": "Request a Large Item Pick Up",
    "date_created": "2024-03-05T16:58:26.000",
    "date_modified": "2024-03-05T16:58:27.000",
    "request_status": "Pending",
    "responsible_agency": "Department of Sanitation",
    "final_address": "1554 N Johnson St",
    "address_councildis": "D",
    "status": "Assigned to Contractor",
    "contractor": "IV Waste",
    "rowid": "1072833",
    "final_x": "3680929.88981",
    "final_y": "538429.370761",
    "longitude": "-90.06962990861788",
    "latitude": "29.974511384893344",
    "geocoded_column": {
      "latitude": "29.974511384893344",
      "longitude": "-90.06962990861788"
    }
  },
  {
    "service_request": "2024-1072832",
    "request_type": "Trash/Recycling",
    "request_reason": "Request a Large Item Pick Up",
    "date_created": "2024-03-05T16:58:13.000",
    "date_modified": "2024-03-05T16:58:14.000",
    "request_status": "Pending",
    "responsible_agency": "Department of Sanitation",
    "final_address": "89 S Wren St",
    "address_councildis": "D",
    "status": "Assigned to Contractor",
    "contractor": "IV Waste",
    "rowid": "1072832",
    "final_x": "3673162.13627",
    "final_y": "555755.612185",
    "longitude": "-90.09357033672045",
    "latitude": "30.02238576253897",
    "geocoded_column": {
      "latitude": "30.02238576253897",
      "longitude": "-90.09357033672045"
    }
  },
  {
    "service_request": "2024-1072831",
    "request_type": "Traffic Signals/Signs/Striping/Streetlights",
    "request_reason": "Street Light Outage/Malfunction",
    "date_created": "2024-03-05T16:57:40.000",
    "date_modified": "2024-03-05T16:57:40.000",
    "request_status": "Pending",
    "responsible_agency": "Department of Public Works",
    "final_address": "3625 Erato St",
    "address_councildis": "B",
    "status": "Assigned to Contractor",
    "contractor": "Legacy Professional Services",
    "rowid": "1072831",
    "final_x": "3673123.54856",
    "final_y": "530199.414657",
    "longitude": "-90.09456526865425",
    "latitude": "29.952116181827783",
    "geocoded_column": {
      "latitude": "29.952116181827783",
      "longitude": "-90.09456526865425"
    }
  },
  {
    "service_request": "2024-1072830",
    "request_type": "Traffic Signals/Signs/Striping/Streetlights",
    "request_reason": "Street Light Outage/Malfunction",
    "date_created": "2024-03-05T16:55:41.000",
    "date_modified": "2024-03-05T16:55:42.000",
    "request_status": "Pending",
    "responsible_agency": "Department of Public Works",
    "final_address": "3613 Thalia St",
    "address_councildis": "B",
    "status": "Assigned to Contractor",
    "contractor": "Legacy Professional Services",
    "rowid": "1072830",
    "final_x": "3673002.24936",
    "final_y": "529902.222209",
    "longitude": "-90.09495841736536",
    "latitude": "29.95130260610794",
    "geocoded_column": {
      "latitude": "29.95130260610794",
      "longitude": "-90.09495841736536"
    }
  },
  {
    "service_request": "2024-1072829",
    "request_type": "Traffic Signals/Signs/Striping/Streetlights",
    "request_reason": "Street Light Outage/Malfunction",
    "date_created": "2024-03-05T16:54:49.000",
    "date_modified": "2024-03-05T16:54:50.000",
    "request_status": "Pending",
    "responsible_agency": "Department of Public Works",
    "final_address": "3705 Thalia St",
    "address_councildis": "B",
    "status": "Assigned to Contractor",
    "contractor": "Legacy Professional Services",
    "rowid": "1072829",
    "final_x": "3672823.32923",
    "final_y": "530010.553153",
    "longitude": "-90.0955196649342",
    "latitude": "29.95160579620916",
    "geocoded_column": {
      "latitude": "29.95160579620916",
      "longitude": "-90.0955196649342"
    }
  },
  {
    "service_request": "2024-1072828",
    "request_type": "Parks & Parkways",
    "request_reason": "Request Tree Service (Right of Way/Public Property)",
    "date_created": "2024-03-05T16:54:26.000",
    "date_modified": "2024-03-05T16:54:26.000",
    "request_status": "Pending",
    "responsible_agency": "Department of Parks & Parkway",
    "final_address": "3131 Toledano St",
    "address_councildis": "B",
    "status": "Pending",
    "rowid": "1072828",
    "final_x": "3672344.49313",
    "final_y": "527360.500031",
    "longitude": "-90.09712187644618",
    "latitude": "29.944333235606027",
    "geocoded_column": {
      "latitude": "29.944333235606027",
      "longitude": "-90.09712187644618"
    }
  },
  {
    "service_request": "2024-1072827",
    "request_type": "Traffic Signals/Signs/Striping/Streetlights",
    "request_reason": "Street Light Outage/Malfunction",
    "date_created": "2024-03-05T16:53:29.000",
    "date_modified": "2024-03-05T16:53:29.000",
    "request_status": "Pending",
    "responsible_agency": "Department of Public Works",
    "final_address": "3622 Erato St Apt A",
    "address_councildis": "B",
    "status": "Assigned to Contractor",
    "contractor": "Legacy Professional Services",
    "rowid": "1072827",
    "final_x": "3673047.45339",
    "final_y": "530077.258497",
    "longitude": "-90.09480971121998",
    "latitude": "29.95178255462251",
    "geocoded_column": {
      "latitude": "29.95178255462251",
      "longitude": "-90.09480971121998"
    }
  },
  {
    "service_request": "2024-1072826",
    "request_type": "Traffic Signals/Signs/Striping/Streetlights",
    "request_reason": "Street Light Outage/Malfunction",
    "date_created": "2024-03-05T16:52:07.000",
    "date_modified": "2024-03-05T16:52:07.000",
    "request_status": "Pending",
    "responsible_agency": "Department of Public Works",
    "final_address": "3528 Erato St",
    "address_councildis": "B",
    "status": "Assigned to Contractor",
    "contractor": "Legacy Professional Services",
    "rowid": "1072826",
    "final_x": "3673395.15892",
    "final_y": "529831.649217",
    "longitude": "-90.09372021113337",
    "latitude": "29.951096871698187",
    "geocoded_column": {
      "latitude": "29.951096871698187",
      "longitude": "-90.09372021113337"
    }
  },
  {
    "service_request": "2024-1072825",
    "request_type": "Traffic Signals/Signs/Striping/Streetlights",
    "request_reason": "Street Light Outage/Malfunction",
    "date_created": "2024-03-05T16:51:09.000",
    "date_modified": "2024-03-05T16:51:09.000",
    "request_status": "Pending",
    "responsible_agency": "Department of Public Works",
    "final_address": "3520 Erato St",
    "address_councildis": "B",
    "status": "Assigned to Contractor",
    "contractor": "Legacy Professional Services",
    "rowid": "1072825",
    "final_x": "3673465.80865",
    "final_y": "529787.096001",
    "longitude": "-90.09349865634243",
    "latitude": "29.950972263288246",
    "geocoded_column": {
      "latitude": "29.950972263288246",
      "longitude": "-90.09349865634243"
    }
  },
  {
    "service_request": "2024-1072824",
    "request_type": "Traffic Signals/Signs/Striping/Streetlights",
    "request_reason": "Street Light Outage/Malfunction",
    "date_created": "2024-03-05T16:50:08.000",
    "date_modified": "2024-03-05T16:50:09.000",
    "request_status": "Pending",
    "responsible_agency": "Department of Public Works",
    "final_address": "3512 Erato St",
    "address_councildis": "B",
    "status": "Assigned to Contractor",
    "contractor": "Legacy Professional Services",
    "rowid": "1072824",
    "final_x": "3673518.16161",
    "final_y": "529754.803841",
    "longitude": "-90.0933344551685",
    "latitude": "29.950881912806793",
    "geocoded_column": {
      "latitude": "29.950881912806793",
      "longitude": "-90.0933344551685"
    }
  },
  {
    "service_request": "2024-1072823",
    "request_type": "Traffic Signals/Signs/Striping/Streetlights",
    "request_reason": "Street Light Outage/Malfunction",
    "date_created": "2024-03-05T16:49:16.000",
    "date_modified": "2024-03-05T16:49:16.000",
    "request_status": "Pending",
    "responsible_agency": "Department of Public Works",
    "final_address": "1321 S Prieur St",
    "address_councildis": "B",
    "status": "Assigned to Contractor",
    "contractor": "Legacy Professional Services",
    "rowid": "1072823",
    "final_x": "3674344.12756",
    "final_y": "529051.65984",
    "longitude": "-90.09075054509563",
    "latitude": "29.94892389612148",
    "geocoded_column": {
      "latitude": "29.94892389612148",
      "longitude": "-90.09075054509563"
    }
  },
  {
    "service_request": "2024-1072822",
    "request_type": "Abandoned Vehicles",
    "request_reason": "Abandoned/Junk Vehicles",
    "date_created": "2024-03-05T16:48:19.000",
    "date_modified": "2024-03-05T16:48:19.000",
    "request_status": "Pending",
    "responsible_agency": "Department of Public Works",
    "final_address": "7014 Zimpel St, New Orleans, Louisiana, 70118",
    "status": "Pending",
    "rowid": "1072822",
    "longitude": "0.0",
    "latitude": "0.0",
    "geocoded_column": {
      "latitude": "0.0",
      "longitude": "0.0"
    }
  },
  {
    "service_request": "2024-1072821",
    "request_type": "Traffic Signals/Signs/Striping/Streetlights",
    "request_reason": "Street Light Outage/Malfunction",
    "date_created": "2024-03-05T16:47:34.000",
    "date_modified": "2024-03-05T16:47:34.000",
    "request_status": "Pending",
    "responsible_agency": "Department of Public Works",
    "final_address": "3323 Thalia St",
    "address_councildis": "B",
    "status": "Assigned to Contractor",
    "contractor": "Legacy Professional Services",
    "rowid": "1072821",
    "final_x": "3674130.82196",
    "final_y": "529189.042048",
    "longitude": "-90.09141934259213",
    "latitude": "29.949308010444845",
    "geocoded_column": {
      "latitude": "29.949308010444845",
      "longitude": "-90.09141934259213"
    }
  },
  {
    "service_request": "2024-1072820",
    "request_type": "Traffic Signals/Signs/Striping/Streetlights",
    "request_reason": "Street Light Outage/Malfunction",
    "date_created": "2024-03-05T16:46:29.000",
    "date_modified": "2024-03-05T16:46:30.000",
    "request_status": "Pending",
    "responsible_agency": "Department of Public Works",
    "final_address": "3351 Thalia St",
    "address_councildis": "B",
    "status": "Assigned to Contractor",
    "contractor": "Legacy Professional Services",
    "rowid": "1072820",
    "final_x": "3674042.58356",
    "final_y": "529246.625921",
    "longitude": "-90.09169598065573",
    "latitude": "29.94946897645763",
    "geocoded_column": {
      "latitude": "29.94946897645763",
      "longitude": "-90.09169598065573"
    }
  },
  {
    "service_request": "2024-1072819",
    "request_type": "Traffic Signals/Signs/Striping/Streetlights",
    "request_reason": "Street Light Outage/Malfunction",
    "date_created": "2024-03-05T16:44:19.000",
    "date_modified": "2024-03-05T16:44:20.000",
    "request_status": "Pending",
    "responsible_agency": "Department of Public Works",
    "final_address": "3615 Erato St",
    "address_councildis": "B",
    "status": "Assigned to Contractor",
    "contractor": "Legacy Professional Services",
    "rowid": "1072819",
    "final_x": "3673191.85076",
    "final_y": "530159.644929",
    "longitude": "-90.0943509596347",
    "latitude": "29.952004797663857",
    "geocoded_column": {
      "latitude": "29.952004797663857",
      "longitude": "-90.0943509596347"
    }
  },
  {
    "service_request": "2024-1072818",
    "request_type": "Traffic Signals/Signs/Striping/Streetlights",
    "request_reason": "Street Light Outage/Malfunction",
    "date_created": "2024-03-05T16:43:05.000",
    "date_modified": "2024-03-05T16:43:06.000",
    "request_status": "Pending",
    "responsible_agency": "Department of Public Works",
    "final_address": "3501 Erato St",
    "address_councildis": "B",
    "status": "Assigned to Contractor",
    "contractor": "Legacy Professional Services",
    "rowid": "1072818",
    "final_x": "3673525.71451",
    "final_y": "529919.782145",
    "longitude": "-90.09330496951517",
    "latitude": "29.95133532382",
    "geocoded_column": {
      "latitude": "29.95133532382",
      "longitude": "-90.09330496951517"
    }
  },
  {
    "service_request": "2024-1072817",
    "request_type": "Traffic Signals/Signs/Striping/Streetlights",
    "request_reason": "Street Light Outage/Malfunction",
    "date_created": "2024-03-05T16:41:56.000",
    "date_modified": "2024-03-05T16:41:57.000",
    "request_status": "Pending",
    "responsible_agency": "Department of Public Works",
    "final_address": "3717 Clio St",
    "address_councildis": "B",
    "status": "Assigned to Contractor",
    "contractor": "Legacy Professional Services",
    "rowid": "1072817",
    "final_x": "3673060.80756",
    "final_y": "530599.838658",
    "longitude": "-90.09474970891398",
    "latitude": "29.95321908021416",
    "geocoded_column": {
      "latitude": "29.95321908021416",
      "longitude": "-90.09474970891398"
    }
  },
  {
    "service_request": "2024-1072816",
    "request_type": "Traffic Signals/Signs/Striping/Streetlights",
    "request_reason": "Street Light Outage/Malfunction",
    "date_created": "2024-03-05T16:41:00.000",
    "date_modified": "2024-03-05T16:41:00.000",
    "request_status": "Pending",
    "responsible_agency": "Department of Public Works",
    "final_address": "3711 Clio St Apt A",
    "address_councildis": "B",
    "status": "Assigned to Contractor",
    "contractor": "Legacy Professional Services",
    "rowid": "1072816",
    "final_x": "3673151.15483",
    "final_y": "530602.546946",
    "longitude": "-90.09446433829966",
    "latitude": "29.9532238414796",
    "geocoded_column": {
      "latitude": "29.9532238414796",
      "longitude": "-90.09446433829966"
    }
  },
  {
    "service_request": "2024-1072815",
    "request_type": "Traffic Signals/Signs/Striping/Streetlights",
    "request_reason": "Street Light Outage/Malfunction",
    "date_created": "2024-03-05T16:39:36.000",
    "date_modified": "2024-03-05T16:39:36.000",
    "request_status": "Pending",
    "responsible_agency": "Department of Public Works",
    "final_address": "3707 Clio St",
    "address_councildis": "B",
    "status": "Assigned to Contractor",
    "contractor": "Legacy Professional Services",
    "rowid": "1072815",
    "final_x": "3673181.98817",
    "final_y": "530582.477506",
    "longitude": "-90.09436766496471",
    "latitude": "29.953167740486894",
    "geocoded_column": {
      "latitude": "29.953167740486894",
      "longitude": "-90.09436766496471"
    }
  },
  {
    "service_request": "2024-1072814",
    "request_type": "Trash/Recycling",
    "request_reason": "Order Recycling Cart",
    "date_created": "2024-03-05T16:39:18.000",
    "date_modified": "2024-03-05T16:39:18.000",
    "request_status": "Pending",
    "responsible_agency": "Department of Sanitation",
    "final_address": "3236 Sabine St",
    "address_councildis": "C",
    "status": "Pending",
    "rowid": "1072814",
    "final_x": "3695079.22742",
    "final_y": "517872.247158",
    "longitude": "-90.02568402005211",
    "latitude": "29.917549766596093",
    "geocoded_column": {
      "latitude": "29.917549766596093",
      "longitude": "-90.02568402005211"
    }
  },
  {
    "service_request": "2024-1072813",
    "request_type": "Trash/Recycling",
    "request_reason": "Order Recycling Cart",
    "date_created": "2024-03-05T16:39:00.000",
    "date_modified": "2024-03-05T16:39:00.000",
    "request_status": "Pending",
    "responsible_agency": "Department of Sanitation",
    "final_address": "3236 Sabine St",
    "address_councildis": "C",
    "status": "Pending",
    "rowid": "1072813",
    "final_x": "3695079.22742",
    "final_y": "517872.247158",
    "longitude": "-90.02568402005211",
    "latitude": "29.917549766596093",
    "geocoded_column": {
      "latitude": "29.917549766596093",
      "longitude": "-90.02568402005211"
    }
  },
  {
    "service_request": "2024-1072812",
    "request_type": "Traffic Signals/Signs/Striping/Streetlights",
    "request_reason": "Street Light Outage/Malfunction",
    "date_created": "2024-03-05T16:38:34.000",
    "date_modified": "2024-03-05T16:38:34.000",
    "request_status": "Pending",
    "responsible_agency": "Department of Public Works",
    "final_address": "3707 Clio St",
    "address_councildis": "B",
    "status": "Assigned to Contractor",
    "contractor": "Legacy Professional Services",
    "rowid": "1072812",
    "final_x": "3673181.98817",
    "final_y": "530582.477506",
    "longitude": "-90.09436766496471",
    "latitude": "29.953167740486894",
    "geocoded_column": {
      "latitude": "29.953167740486894",
      "longitude": "-90.09436766496471"
    }
  },
  {
    "service_request": "2024-1072811",
    "request_type": "Traffic Signals/Signs/Striping/Streetlights",
    "request_reason": "Street Light Outage/Malfunction",
    "date_created": "2024-03-05T16:37:25.000",
    "date_modified": "2024-03-05T16:37:25.000",
    "request_status": "Pending",
    "responsible_agency": "Department of Public Works",
    "final_address": "3620 Clio St Apt A",
    "address_councildis": "B",
    "status": "Assigned to Contractor",
    "contractor": "Legacy Professional Services",
    "rowid": "1072811",
    "final_x": "3673220.63688",
    "final_y": "530353.99949",
    "longitude": "-90.09425343027888",
    "latitude": "29.952538352482495",
    "geocoded_column": {
      "latitude": "29.952538352482495",
      "longitude": "-90.09425343027888"
    }
  },
  {
    "service_request": "2024-1072810",
    "request_type": "Traffic Signals/Signs/Striping/Streetlights",
    "request_reason": "Street Light Outage/Malfunction",
    "date_created": "2024-03-05T16:35:48.000",
    "date_modified": "2024-03-05T16:35:48.000",
    "request_status": "Pending",
    "responsible_agency": "Department of Public Works",
    "final_address": "3615 Clio St Apt B",
    "address_councildis": "B",
    "status": "Assigned to Contractor",
    "contractor": "Legacy Professional Services",
    "rowid": "1072810",
    "final_x": "3673393.86318",
    "final_y": "530468.51917",
    "longitude": "-90.09370254726127",
    "latitude": "29.952848091794863",
    "geocoded_column": {
      "latitude": "29.952848091794863",
      "longitude": "-90.09370254726127"
    }
  },
  {
    "service_request": "2024-1072809",
    "request_type": "Trash/Recycling",
    "request_reason": "Request a Large Item Pick Up",
    "date_created": "2024-03-05T16:35:27.000",
    "date_modified": "2024-03-05T16:35:27.000",
    "request_status": "Pending",
    "responsible_agency": "Department of Sanitation",
    "final_address": "4256 Vendome Pl",
    "address_councildis": "B",
    "status": "Assigned to Contractor",
    "contractor": "Richards Disposal",
    "rowid": "1072809",
    "final_x": "3669057.08378",
    "final_y": "531486.060611",
    "longitude": "-90.1073618367837",
    "latitude": "29.955774291700784",
    "geocoded_column": {
      "latitude": "29.955774291700784",
      "longitude": "-90.1073618367837"
    }
  },
  {
    "service_request": "2024-1072808",
    "request_type": "Traffic Signals/Signs/Striping/Streetlights",
    "request_reason": "Street Light Outage/Malfunction",
    "date_created": "2024-03-05T16:34:14.000",
    "date_modified": "2024-03-05T16:34:15.000",
    "request_status": "Pending",
    "responsible_agency": "Department of Public Works",
    "final_address": "3609 Clio St",
    "address_councildis": "B",
    "status": "Assigned to Contractor",
    "contractor": "Legacy Professional Services",
    "rowid": "1072808",
    "final_x": "3673396.91873",
    "final_y": "530380.741378",
    "longitude": "-90.09369589769075",
    "latitude": "29.95260664105388",
    "geocoded_column": {
      "latitude": "29.95260664105388",
      "longitude": "-90.09369589769075"
    }
  },
  {
    "service_request": "2024-1072807",
    "request_type": "Roads/Drainage",
    "request_reason": "Pothole",
    "date_created": "2024-03-05T16:34:02.000",
    "date_modified": "2024-03-05T16:36:22.000",
    "request_status": "Pending",
    "responsible_agency": "Department of Public Works",
    "final_address": "6170 Orleans Ave",
    "address_councildis": "A",
    "status": "Pending",
    "rowid": "1072807",
    "final_x": "3670950.24379",
    "final_y": "548274.890066",
    "longitude": "-90.10081365249916",
    "latitude": "30.00188203950416",
    "geocoded_column": {
      "latitude": "30.00188203950416",
      "longitude": "-90.10081365249916"
    }
  },
  {
    "service_request": "2024-1072806",
    "request_type": "Traffic Signals/Signs/Striping/Streetlights",
    "request_reason": "Street Light Outage/Malfunction",
    "date_created": "2024-03-05T16:32:33.000",
    "date_modified": "2024-03-05T16:32:34.000",
    "request_status": "Pending",
    "responsible_agency": "Department of Public Works",
    "final_address": "3615 Clio St Apt A",
    "address_councildis": "B",
    "status": "Assigned to Contractor",
    "contractor": "Legacy Professional Services",
    "rowid": "1072806",
    "final_x": "3673374.4187",
    "final_y": "530465.046914",
    "longitude": "-90.09376406301267",
    "latitude": "29.952839122648484",
    "geocoded_column": {
      "latitude": "29.952839122648484",
      "longitude": "-90.09376406301267"
    }
  },
  {
    "service_request": "2024-1072805",
    "request_type": "Abandoned Vehicles",
    "request_reason": "Abandoned/Junk Vehicles",
    "date_created": "2024-03-05T16:31:25.000",
    "date_modified": "2024-03-05T16:31:25.000",
    "request_status": "Pending",
    "responsible_agency": "Department of Public Works",
    "final_address": "3343 Esplanade Ave",
    "address_councildis": "A",
    "status": "Pending",
    "rowid": "1072805",
    "final_x": "3675778.57781",
    "final_y": "540915.894027",
    "longitude": "-90.08581351461964",
    "latitude": "29.981503677945287",
    "geocoded_column": {
      "latitude": "29.981503677945287",
      "longitude": "-90.08581351461964"
    }
  },
  {
    "service_request": "2024-1072804",
    "request_type": "Traffic Signals/Signs/Striping/Streetlights",
    "request_reason": "Street Light Outage/Malfunction",
    "date_created": "2024-03-05T16:30:50.000",
    "date_modified": "2024-03-05T16:30:50.000",
    "request_status": "Pending",
    "responsible_agency": "Department of Public Works",
    "final_address": "3609 Clio St",
    "address_councildis": "B",
    "status": "Assigned to Contractor",
    "contractor": "Legacy Professional Services",
    "rowid": "1072804",
    "final_x": "3673396.91873",
    "final_y": "530380.741378",
    "longitude": "-90.09369589769075",
    "latitude": "29.95260664105388",
    "geocoded_column": {
      "latitude": "29.95260664105388",
      "longitude": "-90.09369589769075"
    }
  },
  {
    "service_request": "2024-1072802",
    "request_type": "Traffic Signals/Signs/Striping/Streetlights",
    "request_reason": "Street Light Outage/Malfunction",
    "date_created": "2024-03-05T16:27:43.000",
    "date_modified": "2024-03-05T16:27:43.000",
    "request_status": "Pending",
    "responsible_agency": "Department of Public Works",
    "final_address": "2472 Bedford Dr",
    "address_councildis": "C",
    "status": "Assigned to Contractor",
    "contractor": "Legacy Professional Services",
    "rowid": "1072802",
    "final_x": "3705275.6387",
    "final_y": "521779.81849",
    "longitude": "-89.99335568763448",
    "latitude": "29.92797033317305",
    "geocoded_column": {
      "latitude": "29.92797033317305",
      "longitude": "-89.99335568763448"
    }
  },
  {
    "service_request": "2024-1072801",
    "request_type": "Roads/Drainage",
    "request_reason": "Catch Basin - Clogged",
    "date_created": "2024-03-05T16:26:41.000",
    "date_modified": "2024-03-05T16:26:42.000",
    "request_status": "Pending",
    "responsible_agency": "Department of Public Works",
    "final_address": "6200 BLK Morrison Rd",
    "address_councildis": "D",
    "status": "Pending",
    "rowid": "1072801",
    "final_x": "3696652.20246",
    "final_y": "557868.144878",
    "longitude": "-90.01927126237726",
    "latitude": "30.027474671210914",
    "geocoded_column": {
      "latitude": "30.027474671210914",
      "longitude": "-90.01927126237726"
    }
  },
  {
    "service_request": "2024-1072800",
    "request_type": "Trash/Recycling",
    "request_reason": "MIssed Recycling Pick-Up",
    "date_created": "2024-03-05T16:26:03.000",
    "date_modified": "2024-03-05T16:26:03.000",
    "request_status": "Pending",
    "responsible_agency": "Department of Sanitation",
    "final_address": "11131 Winchester Park Dr",
    "address_councildis": "E",
    "status": "Assigned to Contractor",
    "contractor": "Waste Pro",
    "rowid": "1072800",
    "final_x": "3714990.43307",
    "final_y": "561371.901406",
    "longitude": "-89.96119201141566",
    "latitude": "30.036517590933506",
    "geocoded_column": {
      "latitude": "30.036517590933506",
      "longitude": "-89.96119201141566"
    }
  },
  {
    "service_request": "2024-1072799",
    "request_type": "Roads/Drainage",
    "request_reason": "Culvert Issue",
    "date_created": "2024-03-05T16:25:48.000",
    "date_modified": "2024-03-05T16:25:48.000",
    "request_status": "Pending",
    "responsible_agency": "Department of Public Works",
    "final_address": "2472 Bedford Dr",
    "address_councildis": "C",
    "status": "Pending",
    "rowid": "1072799",
    "final_x": "3705275.6387",
    "final_y": "521779.81849",
    "longitude": "-89.99335568763448",
    "latitude": "29.92797033317305",
    "geocoded_column": {
      "latitude": "29.92797033317305",
      "longitude": "-89.99335568763448"
    }
  },
  {
    "service_request": "2024-1072798",
    "request_type": "Traffic Signals/Signs/Striping/Streetlights",
    "request_reason": "Crosswalks and Signage",
    "date_created": "2024-03-05T16:25:34.000",
    "date_modified": "2024-03-05T16:25:34.000",
    "request_status": "Pending",
    "responsible_agency": "Department of Public Works",
    "final_address": "2604 Magazine St",
    "address_councildis": "B",
    "status": "Pending",
    "rowid": "1072798",
    "final_x": "3677552.45678",
    "final_y": "521095.466233",
    "longitude": "-90.08089504019853",
    "latitude": "29.926950926341675",
    "geocoded_column": {
      "latitude": "29.926950926341675",
      "longitude": "-90.08089504019853"
    }
  },
  {
    "service_request": "2024-1072797",
    "request_type": "Trash/Recycling",
    "request_reason": "Order Trash Cart",
    "date_created": "2024-03-05T16:21:28.000",
    "date_modified": "2024-03-05T16:21:28.000",
    "request_status": "Pending",
    "responsible_agency": "Department of Sanitation",
    "final_address": "3103 Cherry St Apt B",
    "address_councildis": "A",
    "status": "Assigned to Contractor",
    "contractor": "Richards Disposal",
    "rowid": "1072797",
    "final_x": "3663504.12506",
    "final_y": "536267.873991",
    "longitude": "-90.12473694846545",
    "latitude": "29.96908491183613",
    "geocoded_column": {
      "latitude": "29.96908491183613",
      "longitude": "-90.12473694846545"
    }
  },
  {
    "service_request": "2024-1072796",
    "request_type": "Trash/Recycling",
    "request_reason": "Order Trash Cart",
    "date_created": "2024-03-05T16:21:14.000",
    "date_modified": "2024-03-05T16:21:15.000",
    "request_status": "Pending",
    "responsible_agency": "Department of Sanitation",
    "final_address": "3103 Cherry St Apt A",
    "address_councildis": "A",
    "status": "Assigned to Contractor",
    "contractor": "Richards Disposal",
    "rowid": "1072796",
    "final_x": "3663496.61351",
    "final_y": "536261.301383",
    "longitude": "-90.124760889508",
    "latitude": "29.96906705718279",
    "geocoded_column": {
      "latitude": "29.96906705718279",
      "longitude": "-90.124760889508"
    }
  },
  {
    "service_request": "2024-1072795",
    "request_type": "Roads/Drainage",
    "request_reason": "Catch Basin - Clogged",
    "date_created": "2024-03-05T16:20:44.000",
    "date_modified": "2024-03-05T16:20:44.000",
    "request_status": "Pending",
    "responsible_agency": "Department of Public Works",
    "final_address": "2472 Bedford Dr",
    "address_councildis": "C",
    "status": "Pending",
    "rowid": "1072795",
    "final_x": "3705275.6387",
    "final_y": "521779.81849",
    "longitude": "-89.99335568763448",
    "latitude": "29.92797033317305",
    "geocoded_column": {
      "latitude": "29.92797033317305",
      "longitude": "-89.99335568763448"
    }
  },
  {
    "service_request": "2024-1072794",
    "request_type": "Trash/Recycling",
    "request_reason": "Repair Trash Cart",
    "date_created": "2024-03-05T16:20:36.000",
    "date_modified": "2024-03-05T16:20:36.000",
    "request_status": "Pending",
    "responsible_agency": "Department of Sanitation",
    "final_address": "6800 Glengary Rd",
    "address_councildis": "E",
    "status": "Assigned to Contractor",
    "contractor": "Waste Pro",
    "rowid": "1072794",
    "final_x": "3701691.42813",
    "final_y": "557003.127898",
    "longitude": "-90.00337955438337",
    "latitude": "30.024936343281457",
    "geocoded_column": {
      "latitude": "30.024936343281457",
      "longitude": "-90.00337955438337"
    }
  },
  {
    "service_request": "2024-1072793",
    "request_type": "Trash/Recycling",
    "request_reason": "Request a Large Item Pick Up",
    "date_created": "2024-03-05T16:19:26.000",
    "date_modified": "2024-03-05T16:19:27.000",
    "request_status": "Pending",
    "responsible_agency": "Department of Sanitation",
    "final_address": "2342 Annunciation St",
    "address_councildis": "B",
    "status": "Assigned to Contractor",
    "contractor": "Richards Disposal",
    "rowid": "1072793",
    "final_x": "3678911.9323",
    "final_y": "520695.897721",
    "longitude": "-90.07661736700915",
    "latitude": "29.925811314520725",
    "geocoded_column": {
      "latitude": "29.925811314520725",
      "longitude": "-90.07661736700915"
    }
  },
  {
    "service_request": "2024-1072792",
    "request_type": "Trash/Recycling",
    "request_reason": "Illegal Dumping",
    "date_created": "2024-03-05T16:15:58.000",
    "date_modified": "2024-03-05T16:15:59.000",
    "request_status": "Pending",
    "responsible_agency": "Department of Sanitation",
    "final_address": "5788 Tullis Dr",
    "address_councildis": "C",
    "status": "Pending",
    "rowid": "1072792",
    "final_x": "3705389.38929",
    "final_y": "513002.046961",
    "longitude": "-89.99332065518455",
    "latitude": "29.903830832989346",
    "geocoded_column": {
      "latitude": "29.903830832989346",
      "longitude": "-89.99332065518455"
    }
  },
  {
    "service_request": "2024-1072791",
    "request_type": "Traffic Signals/Signs/Striping/Streetlights",
    "request_reason": "Street Light Outage/Malfunction",
    "date_created": "2024-03-05T16:14:35.000",
    "date_modified": "2024-03-05T16:14:36.000",
    "request_status": "Pending",
    "responsible_agency": "Department of Public Works",
    "final_address": "1223 S Tonti St",
    "address_councildis": "B",
    "status": "Assigned to Contractor",
    "contractor": "Legacy Professional Services",
    "rowid": "1072791",
    "final_x": "3673352.99259",
    "final_y": "530093.740353",
    "longitude": "-90.09384439969881",
    "latitude": "29.951818789875116",
    "geocoded_column": {
      "latitude": "29.951818789875116",
      "longitude": "-90.09384439969881"
    }
  },
  {
    "service_request": "2024-1072790",
    "request_type": "Trash/Recycling",
    "request_reason": "Replace Trash Cart",
    "date_created": "2024-03-05T16:10:04.000",
    "date_modified": "2024-03-05T16:10:05.000",
    "request_status": "Pending",
    "responsible_agency": "Department of Sanitation",
    "final_address": "1201 Kabel Dr",
    "address_councildis": "C",
    "status": "Assigned to Contractor",
    "contractor": "Richards Disposal",
    "rowid": "1072790",
    "final_x": "3700695.18449",
    "final_y": "523222.915195",
    "longitude": "-90.00776232723918",
    "latitude": "29.93208484120383",
    "geocoded_column": {
      "latitude": "29.93208484120383",
      "longitude": "-90.00776232723918"
    }
  },
  {
    "service_request": "2024-1072789",
    "request_type": "Trash/Recycling",
    "request_reason": "Request a Large Item Pick Up",
    "date_created": "2024-03-05T16:08:30.000",
    "date_modified": "2024-03-05T16:08:31.000",
    "request_status": "Pending",
    "responsible_agency": "Department of Sanitation",
    "final_address": "8000 Oneida St",
    "address_councildis": "E",
    "status": "Assigned to Contractor",
    "contractor": "Waste Pro",
    "rowid": "1072789",
    "final_x": "3713105.24248",
    "final_y": "569102.00567",
    "longitude": "-89.96685821300905",
    "latitude": "30.057834182668312",
    "geocoded_column": {
      "latitude": "30.057834182668312",
      "longitude": "-89.96685821300905"
    }
  },
  {
    "service_request": "2024-1072788",
    "request_type": "Trash/Recycling",
    "request_reason": "Request a Large Item Pick Up",
    "date_created": "2024-03-05T16:07:54.000",
    "date_modified": "2024-03-05T16:16:13.000",
    "case_close_date": "2024-03-05T10:16:13.000",
    "request_status": "Closed",
    "responsible_agency": "Department of Sanitation",
    "final_address": "209 Chartres St, New Orleans, Louisiana, 70130",
    "address_councildis": "C",
    "status": "Assigned to Contractor",
    "contractor": "Empire Services",
    "contractor_action": "Invalid Request",
    "rowid": "1072788",
    "final_x": "3685293.05474",
    "final_y": "534545.844549",
    "longitude": "-90.05598673210564",
    "latitude": "29.963700003649272",
    "geocoded_column": {
      "latitude": "29.963700003649272",
      "longitude": "-90.05598673210564"
    }
  },
  {
    "service_request": "2024-1072787",
    "request_type": "Trash/Recycling",
    "request_reason": "MIssed Recycling Pick-Up",
    "date_created": "2024-03-05T16:05:25.000",
    "date_modified": "2024-03-05T16:05:26.000",
    "request_status": "Pending",
    "responsible_agency": "Department of Sanitation",
    "final_address": "4935 Arthur Dr",
    "address_councildis": "E",
    "status": "Assigned to Contractor",
    "contractor": "Waste Pro",
    "rowid": "1072787",
    "final_x": "3707635.72996",
    "final_y": "556732.587354",
    "longitude": "-89.98460674961423",
    "latitude": "30.024001414087188",
    "geocoded_column": {
      "latitude": "30.024001414087188",
      "longitude": "-89.98460674961423"
    }
  },
  {
    "service_request": "2024-1072786",
    "request_type": "Trash/Recycling",
    "request_reason": "Order Trash Cart",
    "date_created": "2024-03-05T16:05:21.000",
    "date_modified": "2024-03-05T16:05:22.000",
    "request_status": "Pending",
    "responsible_agency": "Department of Sanitation",
    "final_address": "5515 Royal St",
    "address_councildis": "E",
    "status": "Assigned to Contractor",
    "contractor": "Waste Pro",
    "rowid": "1072786",
    "final_x": "3697515.97661",
    "final_y": "532335.206083",
    "longitude": "-90.01746835903565",
    "latitude": "29.95724121042574",
    "geocoded_column": {
      "latitude": "29.95724121042574",
      "longitude": "-90.01746835903565"
    }
  },
  {
    "service_request": "2024-1072785",
    "request_type": "Trash/Recycling",
    "request_reason": "Order Recycling Cart",
    "date_created": "2024-03-05T16:05:12.000",
    "date_modified": "2024-03-05T16:05:12.000",
    "request_status": "Pending",
    "responsible_agency": "Department of Sanitation",
    "final_address": "5515 Royal St",
    "address_councildis": "E",
    "status": "Pending",
    "rowid": "1072785",
    "final_x": "3697515.97661",
    "final_y": "532335.206083",
    "longitude": "-90.01746835903565",
    "latitude": "29.95724121042574",
    "geocoded_column": {
      "latitude": "29.95724121042574",
      "longitude": "-90.01746835903565"
    }
  },
  {
    "service_request": "2024-1072784",
    "request_type": "Trash/Recycling",
    "request_reason": "Missed Trash Pick-Up",
    "date_created": "2024-03-05T16:05:10.000",
    "date_modified": "2024-03-05T16:12:10.000",
    "case_close_date": "2024-03-05T10:12:10.000",
    "request_status": "Closed",
    "responsible_agency": "Department of Sanitation",
    "final_address": "209 Chartres St, New Orleans, Louisiana, 70130",
    "address_councildis": "C",
    "status": "Invalid Request",
    "contractor": "IV Waste",
    "contractor_action": "Invalid Request",
    "rowid": "1072784",
    "final_x": "3685293.05474",
    "final_y": "534545.844549",
    "longitude": "-90.05598673210564",
    "latitude": "29.963700003649272",
    "geocoded_column": {
      "latitude": "29.963700003649272",
      "longitude": "-90.05598673210564"
    }
  },
  {
    "service_request": "2024-1072783",
    "request_type": "Trash/Recycling",
    "request_reason": "Order Recycling Cart",
    "date_created": "2024-03-05T16:04:56.000",
    "date_modified": "2024-03-05T16:04:56.000",
    "request_status": "Pending",
    "responsible_agency": "Department of Sanitation",
    "final_address": "700 Fats Domino Ave",
    "address_councildis": "E",
    "status": "Pending",
    "rowid": "1072783",
    "final_x": "3697580.99312",
    "final_y": "532322.188227",
    "longitude": "-90.0172635300185",
    "latitude": "29.95720336276117",
    "geocoded_column": {
      "latitude": "29.95720336276117",
      "longitude": "-90.0172635300185"
    }
  },
  {
    "service_request": "2024-1072782",
    "request_type": "Trash/Recycling",
    "request_reason": "Order Trash Cart",
    "date_created": "2024-03-05T16:04:45.000",
    "date_modified": "2024-03-05T16:04:46.000",
    "request_status": "Pending",
    "responsible_agency": "Department of Sanitation",
    "final_address": "700 Fats Domino Ave",
    "address_councildis": "E",
    "status": "Assigned to Contractor",
    "contractor": "Waste Pro",
    "rowid": "1072782",
    "final_x": "3697580.99312",
    "final_y": "532322.188227",
    "longitude": "-90.0172635300185",
    "latitude": "29.95720336276117",
    "geocoded_column": {
      "latitude": "29.95720336276117",
      "longitude": "-90.0172635300185"
    }
  },
  {
    "service_request": "2024-1072781",
    "request_type": "Healthy Homes",
    "request_reason": "Healthy Homes",
    "date_created": "2024-03-05T16:00:24.000",
    "date_modified": "2024-03-05T16:00:24.000",
    "request_status": "Pending",
    "responsible_agency": "Department of Code Enforcement",
    "final_address": "3400 Garden Oaks Dr Apt 201",
    "address_councildis": "C",
    "status": "Pending",
    "rowid": "1072781",
    "final_x": "3696115.70602",
    "final_y": "518992.857655",
    "longitude": "-90.02237198643223",
    "latitude": "29.92059850154534",
    "geocoded_column": {
      "latitude": "29.92059850154534",
      "longitude": "-90.02237198643223"
    }
  },
  {
    "service_request": "2024-1072780",
    "request_type": "Trash/Recycling",
    "request_reason": "Request a Large Item Pick Up",
    "date_created": "2024-03-05T16:00:12.000",
    "date_modified": "2024-03-05T16:00:12.000",
    "request_status": "Pending",
    "responsible_agency": "Department of Sanitation",
    "final_address": "1520 Arts St",
    "address_councildis": "C",
    "status": "Assigned to Contractor",
    "contractor": "IV Waste",
    "rowid": "1072780",
    "final_x": "3687037.13244",
    "final_y": "538145.275465",
    "longitude": "-90.05035185264467",
    "latitude": "29.97354360776205",
    "geocoded_column": {
      "latitude": "29.97354360776205",
      "longitude": "-90.05035185264467"
    }
  },
  {
    "service_request": "2024-1072779",
    "request_type": "Trash/Recycling",
    "request_reason": "Request a Large Item Pick Up",
    "date_created": "2024-03-05T15:54:33.000",
    "date_modified": "2024-03-05T15:54:33.000",
    "request_status": "Pending",
    "responsible_agency": "Department of Sanitation",
    "final_address": "1568 N Dorgenois St",
    "address_councildis": "D",
    "status": "Assigned to Contractor",
    "contractor": "IV Waste",
    "rowid": "1072779",
    "final_x": "3679518.55183",
    "final_y": "539675.924106",
    "longitude": "-90.0740439875504",
    "latitude": "29.97798169901041",
    "geocoded_column": {
      "latitude": "29.97798169901041",
      "longitude": "-90.0740439875504"
    }
  },
  {
    "service_request": "2024-1072778",
    "request_type": "Utility Poles",
    "request_reason": "Utility Pole Leaning",
    "date_created": "2024-03-05T15:51:30.000",
    "date_modified": "2024-03-05T15:51:34.000",
    "request_status": "Pending",
    "responsible_agency": "Utility Company Collective",
    "final_address": "SIMON BOLIVAR AVE & JOSEPHINE ST",
    "address_councildis": "B",
    "status": "Pending",
    "rowid": "1072778",
    "final_x": "3676517.6",
    "final_y": "525754.98",
    "longitude": "-90.0840014398942",
    "latitude": "29.939794128854697",
    "geocoded_column": {
      "latitude": "29.939794128854697",
      "longitude": "-90.0840014398942"
    }
  },
  {
    "service_request": "2024-1072777",
    "request_type": "Trash/Recycling",
    "request_reason": "Request a Large Item Pick Up",
    "date_created": "2024-03-05T15:51:08.000",
    "date_modified": "2024-03-05T15:51:09.000",
    "request_status": "Pending",
    "responsible_agency": "Department of Sanitation",
    "final_address": "10101 Chevy Chase Dr",
    "address_councildis": "E",
    "status": "Assigned to Contractor",
    "contractor": "Waste Pro",
    "rowid": "1072777",
    "final_x": "3709685.81406",
    "final_y": "563079.348384",
    "longitude": "-89.97789170842614",
    "latitude": "30.041385986017048",
    "geocoded_column": {
      "latitude": "30.041385986017048",
      "longitude": "-89.97789170842614"
    }
  },
  {
    "service_request": "2024-1072776",
    "request_type": "Trash/Recycling",
    "request_reason": "Request a Large Item Pick Up",
    "date_created": "2024-03-05T15:49:19.000",
    "date_modified": "2024-03-05T15:49:20.000",
    "request_status": "Pending",
    "responsible_agency": "Department of Sanitation",
    "final_address": "Loyola Ave, New Orleans, Louisiana, 70118",
    "address_councildis": "B",
    "status": "Assigned to Contractor",
    "contractor": "Empire Services",
    "rowid": "1072776",
    "final_x": "3679340.81851",
    "final_y": "531447.969283",
    "longitude": "-90.07489073688018",
    "latitude": "29.955363003913728",
    "geocoded_column": {
      "latitude": "29.955363003913728",
      "longitude": "-90.07489073688018"
    }
  },
  {
    "service_request": "2024-1072775",
    "request_type": "Roads/Drainage",
    "request_reason": "Catch Basin - Clogged",
    "date_created": "2024-03-05T15:49:15.000",
    "date_modified": "2024-03-05T15:49:16.000",
    "request_status": "Pending",
    "responsible_agency": "Department of Public Works",
    "final_address": "1000 BLK Howard Ave",
    "address_councildis": "B",
    "status": "Pending",
    "rowid": "1072775",
    "final_x": "3678952.66798",
    "final_y": "527979.317845",
    "longitude": "-90.07623653699031",
    "latitude": "29.945837090736312",
    "geocoded_column": {
      "latitude": "29.945837090736312",
      "longitude": "-90.07623653699031"
    }
  },
  {
    "service_request": "2024-1072774",
    "request_type": "Abandoned Vehicles",
    "request_reason": "Abandoned/Junk Vehicles",
    "date_created": "2024-03-05T15:47:06.000",
    "date_modified": "2024-03-05T15:47:06.000",
    "request_status": "Pending",
    "responsible_agency": "Department of Public Works",
    "final_address": "8400 BLK Nelson St",
    "address_councildis": "A",
    "status": "Pending",
    "rowid": "1072774",
    "final_x": "3664193.04953",
    "final_y": "532684.308107",
    "longitude": "-90.1226808400854",
    "latitude": "29.95921128342338",
    "geocoded_column": {
      "latitude": "29.95921128342338",
      "longitude": "-90.1226808400854"
    }
  },
  {
    "service_request": "2024-1072773",
    "request_type": "Roads/Drainage",
    "request_reason": "Pothole",
    "date_created": "2024-03-05T15:46:16.000",
    "date_modified": "2024-03-05T15:46:16.000",
    "request_status": "Pending",
    "responsible_agency": "Department of Public Works",
    "final_address": "2300 BLK Delery St",
    "address_councildis": "E",
    "status": "Pending",
    "rowid": "1072773",
    "final_x": "3702234.02069",
    "final_y": "537389.208802",
    "longitude": "-90.00238495030239",
    "latitude": "29.97098807424633",
    "geocoded_column": {
      "latitude": "29.97098807424633",
      "longitude": "-90.00238495030239"
    }
  },
  {
    "service_request": "2024-1072772",
    "request_type": "Trash/Recycling",
    "request_reason": "Replace Trash Cart",
    "date_created": "2024-03-05T15:45:44.000",
    "date_modified": "2024-03-05T15:45:45.000",
    "request_status": "Pending",
    "responsible_agency": "Department of Sanitation",
    "final_address": "1218 N Villere St",
    "address_councildis": "C",
    "status": "Assigned to Contractor",
    "contractor": "Richards Disposal",
    "rowid": "1072772",
    "final_x": "3681614.7668",
    "final_y": "535831.001287",
    "longitude": "-90.06755755540848",
    "latitude": "29.96734597917894",
    "geocoded_column": {
      "latitude": "29.96734597917894",
      "longitude": "-90.06755755540848"
    }
  },
  {
    "service_request": "2024-1072771",
    "request_type": "Roads/Drainage",
    "request_reason": "Pothole",
    "date_created": "2024-03-05T15:45:10.000",
    "date_modified": "2024-03-05T15:45:10.000",
    "request_status": "Pending",
    "responsible_agency": "Department of Public Works",
    "final_address": "2200 BLK Delery St",
    "address_councildis": "E",
    "status": "Pending",
    "rowid": "1072771",
    "final_x": "3702052.06338",
    "final_y": "536940.146708",
    "longitude": "-90.0029760567616",
    "latitude": "29.96975912647142",
    "geocoded_column": {
      "latitude": "29.96975912647142",
      "longitude": "-90.0029760567616"
    }
  },
  {
    "service_request": "2024-1072770",
    "request_type": "Trash/Recycling",
    "request_reason": "Replace Trash Cart",
    "date_created": "2024-03-05T15:45:09.000",
    "date_modified": "2024-03-05T15:45:09.000",
    "request_status": "Pending",
    "responsible_agency": "Department of Sanitation",
    "final_address": "1216 N Villere St",
    "address_councildis": "C",
    "status": "Assigned to Contractor",
    "contractor": "Richards Disposal",
    "rowid": "1072770",
    "final_x": "3681600.3917",
    "final_y": "535811.038343",
    "longitude": "-90.06760364855023",
    "latitude": "29.967291524576066",
    "geocoded_column": {
      "latitude": "29.967291524576066",
      "longitude": "-90.06760364855023"
    }
  },
  {
    "service_request": "2024-1072769",
    "request_type": "Trash/Recycling",
    "request_reason": "Missed Trash Pick-Up",
    "date_created": "2024-03-05T15:40:38.000",
    "date_modified": "2024-03-05T15:40:38.000",
    "request_status": "Pending",
    "responsible_agency": "Department of Sanitation",
    "final_address": "3027 Pine St",
    "address_councildis": "B",
    "status": "Assigned to Contractor",
    "contractor": "Richards Disposal",
    "rowid": "1072769",
    "final_x": "3667725.64001",
    "final_y": "532235.021955",
    "longitude": "-90.11154086567142",
    "latitude": "29.95787279285498",
    "geocoded_column": {
      "latitude": "29.95787279285498",
      "longitude": "-90.11154086567142"
    }
  },
  {
    "service_request": "2024-1072768",
    "request_type": "Trash/Recycling",
    "request_reason": "Missed Trash Pick-Up",
    "date_created": "2024-03-05T15:38:16.000",
    "date_modified": "2024-03-05T15:38:16.000",
    "request_status": "Pending",
    "responsible_agency": "Department of Sanitation",
    "final_address": "7089 W Tamaron Blvd",
    "address_councildis": "E",
    "status": "Assigned to Contractor",
    "contractor": "Waste Pro",
    "rowid": "1072768",
    "final_x": "3718553.16095",
    "final_y": "568625.167333",
    "longitude": "-89.94965640528575",
    "latitude": "30.056343309298796",
    "geocoded_column": {
      "latitude": "30.056343309298796",
      "longitude": "-89.94965640528575"
    }
  },
  {
    "service_request": "2024-1072766",
    "request_type": "Roads/Drainage",
    "request_reason": "Street Subsidence (Sinking)",
    "date_created": "2024-03-05T15:36:46.000",
    "date_modified": "2024-03-05T15:36:47.000",
    "request_status": "Pending",
    "responsible_agency": "Department of Public Works",
    "final_address": "5433 Vermillion Blvd",
    "address_councildis": "D",
    "status": "Pending",
    "rowid": "1072766",
    "final_x": "3683332.9885",
    "final_y": "552814.518166",
    "longitude": "-90.06153609354493",
    "latitude": "30.013992324542834",
    "geocoded_column": {
      "latitude": "30.013992324542834",
      "longitude": "-90.06153609354493"
    }
  },
  {
    "service_request": "2024-1072767",
    "request_type": "Roads/Drainage",
    "request_reason": "Pothole",
    "date_created": "2024-03-05T15:36:46.000",
    "date_modified": "2024-03-05T15:36:47.000",
    "request_status": "Pending",
    "responsible_agency": "Department of Public Works",
    "final_address": "PRENTISS AVE & WARRINGTON DR",
    "address_councildis": "D",
    "status": "Pending",
    "rowid": "1072767",
    "final_x": "3680828.4",
    "final_y": "553626.38",
    "longitude": "-90.06942102283878",
    "latitude": "30.016300849525358",
    "geocoded_column": {
      "latitude": "30.016300849525358",
      "longitude": "-90.06942102283878"
    }
  },
  {
    "service_request": "2024-1072765",
    "request_type": "Roads/Drainage",
    "request_reason": "Pothole",
    "date_created": "2024-03-05T15:35:35.000",
    "date_modified": "2024-03-05T15:35:35.000",
    "request_status": "Pending",
    "responsible_agency": "Department of Public Works",
    "final_address": "1312 Milan St",
    "address_councildis": "B",
    "status": "Pending",
    "rowid": "1072765",
    "final_x": "3671625.82823",
    "final_y": "520286.919608",
    "longitude": "-90.09963137110304",
    "latitude": "29.92490447494246",
    "geocoded_column": {
      "latitude": "29.92490447494246",
      "longitude": "-90.09963137110304"
    }
  },
  {
    "service_request": "2024-1072764",
    "request_type": "Traffic Signals/Signs/Striping/Streetlights",
    "request_reason": "Street Light Outage/Malfunction",
    "date_created": "2024-03-05T15:34:01.000",
    "date_modified": "2024-03-05T15:34:02.000",
    "request_status": "Pending",
    "responsible_agency": "Department of Public Works",
    "final_address": "846 Howard Ave",
    "address_councildis": "B",
    "status": "Assigned to Contractor",
    "contractor": "Legacy Professional Services",
    "rowid": "1072764",
    "final_x": "3679453.33045",
    "final_y": "527486.561855",
    "longitude": "-90.0746728681028",
    "latitude": "29.94446706335573",
    "geocoded_column": {
      "latitude": "29.94446706335573",
      "longitude": "-90.0746728681028"
    }
  },
  {
    "service_request": "2024-1072763",
    "request_type": "Traffic Signals/Signs/Striping/Streetlights",
    "request_reason": "Traffic Signal Malfunctioning/Damaged",
    "date_created": "2024-03-05T15:31:23.000",
    "date_modified": "2024-03-05T15:31:23.000",
    "request_status": "Pending",
    "responsible_agency": "Department of Public Works",
    "final_address": "HOWARD AVE & BARONNE ST",
    "address_councildis": "B",
    "status": "Pending",
    "rowid": "1072763",
    "final_x": "3679408.7",
    "final_y": "527574.18",
    "longitude": "-90.07481074100747",
    "latitude": "29.944709332002393",
    "geocoded_column": {
      "latitude": "29.944709332002393",
      "longitude": "-90.07481074100747"
    }
  },
  {
    "service_request": "2024-1072762",
    "request_type": "Trash/Recycling",
    "request_reason": "Dead Animal Pick Up",
    "date_created": "2024-03-05T15:30:22.000",
    "date_modified": "2024-03-05T15:30:23.000",
    "request_status": "Pending",
    "responsible_agency": "Department of Sanitation",
    "final_address": "2600 LaSalle St",
    "address_councildis": "B",
    "status": "Assigned to Contractor",
    "contractor": "Richards Disposal",
    "rowid": "1072762",
    "final_x": "3674855.9723",
    "final_y": "525191.616957",
    "longitude": "-90.08926675419497",
    "latitude": "29.938294776227785",
    "geocoded_column": {
      "latitude": "29.938294776227785",
      "longitude": "-90.08926675419497"
    }
  },
  {
    "service_request": "2024-1072761",
    "request_type": "Trash/Recycling",
    "request_reason": "Replace Recycling Cart",
    "date_created": "2024-03-05T15:27:47.000",
    "date_modified": "2024-03-05T15:27:47.000",
    "request_status": "Pending",
    "responsible_agency": "Department of Sanitation",
    "final_address": "929 Poland Ave",
    "address_councildis": "C",
    "status": "Pending",
    "rowid": "1072761",
    "final_x": "3692961.31216",
    "final_y": "534433.635909",
    "longitude": "-90.03177527303414",
    "latitude": "29.96315419162048",
    "geocoded_column": {
      "latitude": "29.96315419162048",
      "longitude": "-90.03177527303414"
    }
  },
  {
    "service_request": "2024-1072760",
    "request_type": "Trash/Recycling",
    "request_reason": "Order Trash Cart",
    "date_created": "2024-03-05T15:27:12.000",
    "date_modified": "2024-03-05T15:27:13.000",
    "request_status": "Pending",
    "responsible_agency": "Department of Sanitation",
    "final_address": "4601 Willow St",
    "address_councildis": "B",
    "status": "Assigned to Contractor",
    "contractor": "Richards Disposal",
    "rowid": "1072760",
    "final_x": "3669610.03623",
    "final_y": "525394.442493",
    "longitude": "-90.10582186433365",
    "latitude": "29.939008049823215",
    "geocoded_column": {
      "latitude": "29.939008049823215",
      "longitude": "-90.10582186433365"
    }
  },