[
  {
    "service_request": "2023-974797",
    "request_type": "Health Related Request",
    "request_reason": "Noise Ordinance Complaint",
    "date_created": "2023-02-13T01:26:15.000",
    "date_modified": "2023-02-13T01:26:15.000",
    "request_status": "Pending",
    "responsible_agency": "Health Department",
    "final_address": "1009 N Claiborne Ave, New Orleans, Louisiana, 70116",
    "address_councildis": "D",
    "status": "Pending",
    "rowid": "974797",
    "final_x": "3680417.66101",
    "final_y": "535635.218886",
    "longitude": "-90.07134484150656",
    "latitude": "29.966843952035386",
    "geocoded_column": {
      "latitude": "29.966843952035386",
      "longitude": "-90.07134484150656"
    }
  },
  {
    "service_request": "2023-974796",
    "request_type": "Traffic Signals/Signs/Striping/Streetlights",
    "request_reason": "Street Light Outage/Malfunction",
    "date_created": "2023-02-12T23:38:13.000",
    "date_modified": "2023-02-12T23:38:14.000",
    "request_status": "Pending",
    "responsible_agency": "Department of Public Works",
    "final_address": "3821 Red Cypress Dr",
    "address_councildis": "C",
    "status": "Assigned to Contractor",
    "contractor": "Legacy Professional Services",
    "rowid": "974796",
    "final_x": "3703700.52458",
    "final_y": "512165.306481",
    "longitude": "-89.99868144065317",
    "latitude": "29.901584280033312",
    "geocoded_column": {
      "latitude": "29.901584280033312",
      "longitude": "-89.99868144065317"
    }
  },
  {
    "service_request": "2023-974795",
    "request_type": "Traffic Signals/Signs/Striping/Streetlights",
    "request_reason": "Street Light Outage/Malfunction",
    "date_created": "2023-02-12T23:24:30.000",
    "date_modified": "2023-02-12T23:24:31.000",
    "request_status": "Pending",
    "responsible_agency": "Department of Public Works",
    "final_address": "3501 Mimosa Ct",
    "address_councildis": "C",
    "status": "Assigned to Contractor",
    "contractor": "Legacy Professional Services",
    "rowid": "974795",
    "final_x": "3703741.86839",
    "final_y": "512918.473457",
    "longitude": "-89.99852327387586",
    "latitude": "29.903653909607307",
    "geocoded_column": {
      "latitude": "29.903653909607307",
      "longitude": "-89.99852327387586"
    }
  },
  {
    "service_request": "2023-974794",
    "request_type": "Traffic Signals/Signs/Striping/Streetlights",
    "request_reason": "Street Light Outage/Malfunction",
    "date_created": "2023-02-12T23:06:37.000",
    "date_modified": "2023-02-12T23:06:38.000",
    "request_status": "Pending",
    "responsible_agency": "Department of Public Works",
    "final_address": "3920 S Pin Oak Ave",
    "address_councildis": "C",
    "status": "Assigned to Contractor",
    "contractor": "Legacy Professional Services",
    "rowid": "974794",
    "final_x": "3704935.83217",
    "final_y": "513637.39877",
    "longitude": "-89.99472864771663",
    "latitude": "29.905592410816674",
    "geocoded_column": {
      "latitude": "29.905592410816674",
      "longitude": "-89.99472864771663"
    }
  },
  {
    "service_request": "2023-974793",
    "request_type": "Trash/Recycling",
    "request_reason": "Request a Large Item Pick Up",
    "date_created": "2023-02-12T22:52:26.000",
    "date_modified": "2023-02-12T22:52:27.000",
    "request_status": "Pending",
    "responsible_agency": "Department of Sanitation",
    "final_address": "7000 Beauvoir Ct",
    "address_councildis": "E",
    "status": "Assigned to Contractor",
    "contractor": "Waste Pro",
    "rowid": "974793",
    "final_x": "3716773.0053",
    "final_y": "567068.267492",
    "longitude": "-89.95534229594888",
    "latitude": "30.052121462938644",
    "geocoded_column": {
      "latitude": "30.052121462938644",
      "longitude": "-89.95534229594888"
    }
  },
  {
    "service_request": "2023-974792",
    "request_type": "Traffic Signals/Signs/Striping/Streetlights",
    "request_reason": "Street Light Outage/Malfunction",
    "date_created": "2023-02-12T22:44:50.000",
    "date_modified": "2023-02-12T22:44:50.000",
    "request_status": "Pending",
    "responsible_agency": "Department of Public Works",
    "final_address": "3538 Pin Oak Ave",
    "address_councildis": "C",
    "status": "Assigned to Contractor",
    "contractor": "Legacy Professional Services",
    "rowid": "974792",
    "final_x": "3703481.70487",
    "final_y": "515035.288051",
    "longitude": "-89.99926656308327",
    "latitude": "29.909482760409695",
    "geocoded_column": {
      "latitude": "29.909482760409695",
      "longitude": "-89.99926656308327"
    }
  },
  {
    "service_request": "2023-974791",
    "request_type": "Traffic Signals/Signs/Striping/Streetlights",
    "request_reason": "Street Light Outage/Malfunction",
    "date_created": "2023-02-12T22:38:41.000",
    "date_modified": "2023-02-12T22:38:41.000",
    "request_status": "Pending",
    "responsible_agency": "Department of Public Works",
    "final_address": "3843 N Teak Ave",
    "address_councildis": "C",
    "status": "Assigned to Contractor",
    "contractor": "Legacy Professional Services",
    "rowid": "974791",
    "final_x": "3703073.68938",
    "final_y": "514843.401139",
    "longitude": "-90.00056137005971",
    "latitude": "29.908968192528363",
    "geocoded_column": {
      "latitude": "29.908968192528363",
      "longitude": "-90.00056137005971"
    }
  },
  {
    "service_request": "2023-974790",
    "request_type": "Traffic Signals/Signs/Striping/Streetlights",
    "request_reason": "Street Light Outage/Malfunction",
    "date_created": "2023-02-12T22:32:01.000",
    "date_modified": "2023-02-12T22:32:01.000",
    "request_status": "Pending",
    "responsible_agency": "Department of Public Works",
    "final_address": "3755 Red Oak Ct",
    "address_councildis": "C",
    "status": "Assigned to Contractor",
    "contractor": "Legacy Professional Services",
    "rowid": "974790",
    "final_x": "3703626.77188",
    "final_y": "514055.89285",
    "longitude": "-89.99884470891139",
    "latitude": "29.90678511255242",
    "geocoded_column": {
      "latitude": "29.90678511255242",
      "longitude": "-89.99884470891139"
    }
  },
  {
    "service_request": "2023-974789",
    "request_type": "Traffic Signals/Signs/Striping/Streetlights",
    "request_reason": "Street Light Outage/Malfunction",
    "date_created": "2023-02-12T22:25:17.000",
    "date_modified": "2023-02-12T22:25:18.000",
    "request_status": "Pending",
    "responsible_agency": "Department of Public Works",
    "final_address": "3731 Tall Pines Dr",
    "address_councildis": "C",
    "status": "Assigned to Contractor",
    "contractor": "Legacy Professional Services",
    "rowid": "974789",
    "final_x": "3703859.33329",
    "final_y": "513441.793842",
    "longitude": "-89.99813331210304",
    "latitude": "29.905089099748448",
    "geocoded_column": {
      "latitude": "29.905089099748448",
      "longitude": "-89.99813331210304"
    }
  },
  {
    "service_request": "2023-974788",
    "request_type": "Health Related Request",
    "request_reason": "Noise Ordinance Complaint",
    "date_created": "2023-02-12T21:33:40.000",
    "date_modified": "2023-02-12T21:33:40.000",
    "request_status": "Pending",
    "responsible_agency": "Health Department",
    "final_address": "1009 N Claiborne Ave, New Orleans, Louisiana, 70116",
    "address_councildis": "D",
    "status": "Pending",
    "rowid": "974788",
    "final_x": "3680417.66101",
    "final_y": "535635.218886",
    "longitude": "-90.07134484150656",
    "latitude": "29.966843952035386",
    "geocoded_column": {
      "latitude": "29.966843952035386",
      "longitude": "-90.07134484150656"
    }
  },
  {
    "service_request": "2023-974787",
    "request_type": "Roads/Drainage",
    "request_reason": "Street Subsidence (Sinking)",
    "date_created": "2023-02-12T21:28:48.000",
    "date_modified": "2023-02-12T21:28:48.000",
    "request_status": "Pending",
    "responsible_agency": "Department of Public Works",
    "final_address": "6335 Wales St",
    "address_councildis": "E",
    "status": "Pending",
    "rowid": "974787",
    "final_x": "3696341.71344",
    "final_y": "559924.159453",
    "longitude": "-90.02017792242059",
    "latitude": "30.03313771129868",
    "geocoded_column": {
      "latitude": "30.03313771129868",
      "longitude": "-90.02017792242059"
    }
  },
  {
    "service_request": "2023-974785",
    "request_type": "Abandoned Vehicles",
    "request_reason": "Abandoned/Junk Vehicles",
    "date_created": "2023-02-12T20:37:02.000",
    "date_modified": "2023-02-12T20:37:02.000",
    "request_status": "Pending",
    "responsible_agency": "Department of Public Works",
    "final_address": "746 Louisiana Ave",
    "address_councildis": "B",
    "status": "Pending",
    "rowid": "974785",
    "final_x": "3675431.54689",
    "final_y": "518493.384375",
    "longitude": "-90.08767949867654",
    "latitude": "29.919859612686352",
    "geocoded_column": {
      "latitude": "29.919859612686352",
      "longitude": "-90.08767949867654"
    }
  },
  {
    "service_request": "2023-974784",
    "request_type": "Traffic Signals/Signs/Striping/Streetlights",
    "request_reason": "Street Light Outage/Malfunction",
    "date_created": "2023-02-12T20:27:27.000",
    "date_modified": "2023-02-12T20:27:28.000",
    "request_status": "Pending",
    "responsible_agency": "Department of Public Works",
    "final_address": "2326 Holiday Dr",
    "address_councildis": "C",
    "status": "Assigned to Contractor",
    "contractor": "Legacy Professional Services",
    "rowid": "974784",
    "final_x": "3698951.64836",
    "final_y": "522751.404922",
    "longitude": "-90.0132836097515",
    "latitude": "29.930843696750383",
    "geocoded_column": {
      "latitude": "29.930843696750383",
      "longitude": "-90.0132836097515"
    }
  },
  {
    "service_request": "2023-974783",
    "request_type": "Parks & Parkways",
    "request_reason": "Request Tree Service (Right of Way/Public Property)",
    "date_created": "2023-02-12T20:13:05.000",
    "date_modified": "2023-02-12T20:13:05.000",
    "request_status": "Pending",
    "responsible_agency": "Department of Parks & Parkway",
    "status": "Pending",
    "rowid": "974783",
    "longitude": "0.0",
    "latitude": "0.0",
    "geocoded_column": {
      "latitude": "0.0",
      "longitude": "0.0"
    }
  },
  {
    "service_request": "2023-974782",
    "request_type": "Trash/Recycling",
    "request_reason": "Order Trash Cart",
    "date_created": "2023-02-12T19:36:15.000",
    "date_modified": "2023-02-12T19:36:16.000",
    "request_status": "Pending",
    "responsible_agency": "Department of Sanitation",
    "final_address": "2638 Louisiana Ave",
    "address_councildis": "B",
    "status": "Assigned to Contractor",
    "contractor": "Richards Disposal",
    "rowid": "974782",
    "final_x": "3672613.71521",
    "final_y": "525057.580477",
    "longitude": "-90.0963503567633",
    "latitude": "29.93799296902511",
    "geocoded_column": {
      "latitude": "29.93799296902511",
      "longitude": "-90.0963503567633"
    }
  },
  {
    "service_request": "2023-974781",
    "request_type": "Trash/Recycling",
    "request_reason": "Request a Large Item Pick Up",
    "date_created": "2023-02-12T19:30:40.000",
    "date_modified": "2023-02-12T19:30:40.000",
    "request_status": "Pending",
    "responsible_agency": "Department of Sanitation",
    "final_address": "921 Constantinople St",
    "address_councildis": "B",
    "status": "Assigned to Contractor",
    "contractor": "Richards Disposal",
    "rowid": "974781",
    "final_x": "3672537.27931",
    "final_y": "519123.989943",
    "longitude": "-90.09679382867373",
    "latitude": "29.921679775089135",
    "geocoded_column": {
      "latitude": "29.921679775089135",
      "longitude": "-90.09679382867373"
    }
  },
  {
    "service_request": "2023-974780",
    "request_type": "Traffic Signals/Signs/Striping/Streetlights",
    "request_reason": "Street Light Outage/Malfunction",
    "date_created": "2023-02-12T19:14:55.000",
    "date_modified": "2023-02-12T19:14:56.000",
    "request_status": "Pending",
    "responsible_agency": "Department of Public Works",
    "final_address": "6320 Pontchartrain Blvd",
    "address_councildis": "A",
    "status": "Assigned to Contractor",
    "contractor": "Legacy Professional Services",
    "rowid": "974780",
    "final_x": "3666148.44897",
    "final_y": "549763.467348",
    "longitude": "-90.1159331386901",
    "latitude": "30.006116258144914",
    "geocoded_column": {
      "latitude": "30.006116258144914",
      "longitude": "-90.1159331386901"
    }
  },
  {
    "service_request": "2023-974779",
    "request_type": "Mosquito, Termite & Rodent Control",
    "request_reason": "Non-Rodent Complaint (Mice, Possums, Snakes)",
    "date_created": "2023-02-12T18:26:22.000",
    "date_modified": "2023-02-12T18:26:22.000",
    "request_status": "Pending",
    "responsible_agency": "Mosquito, Termite & Rodent Control Board",
    "final_address": "2600 Elder St",
    "address_councildis": "D",
    "status": "Pending",
    "rowid": "974779",
    "final_x": "3687338.37129",
    "final_y": "545746.761936",
    "longitude": "-90.04913141957793",
    "latitude": "29.994435717073912",
    "geocoded_column": {
      "latitude": "29.994435717073912",
      "longitude": "-90.04913141957793"
    }
  },
  {
    "service_request": "2023-974778",
    "request_type": "Abandoned Vehicles",
    "request_reason": "Abandoned/Junk Vehicles",
    "date_created": "2023-02-12T18:15:05.000",
    "date_modified": "2023-02-12T18:15:05.000",
    "request_status": "Pending",
    "responsible_agency": "Department of Public Works",
    "final_address": "3708 Timber Bluff Ln",
    "address_councildis": "C",
    "status": "Pending",
    "rowid": "974778",
    "final_x": "3704052.53668",
    "final_y": "510762.463983",
    "longitude": "-89.99762213079649",
    "latitude": "29.897715659028023",
    "geocoded_column": {
      "latitude": "29.897715659028023",
      "longitude": "-89.99762213079649"
    }
  },
  {
    "service_request": "2023-974777",
    "request_type": "Trash/Recycling",
    "request_reason": "Request a Large Item Pick Up",
    "date_created": "2023-02-12T17:06:09.000",
    "date_modified": "2023-02-12T17:06:10.000",
    "request_status": "Pending",
    "responsible_agency": "Department of Sanitation",
    "final_address": "2666 Halsey Ave",
    "address_councildis": "C",
    "status": "Assigned to Contractor",
    "contractor": "Richards Disposal",
    "rowid": "974777",
    "final_x": "3697718.77066",
    "final_y": "521221.492025",
    "longitude": "-90.01723108351065",
    "latitude": "29.926675957500876",
    "geocoded_column": {
      "latitude": "29.926675957500876",
      "longitude": "-90.01723108351065"
    }
  },
  {
    "service_request": "2023-974776",
    "request_type": "Trash/Recycling",
    "request_reason": "Missed Trash Pick-Up",
    "date_created": "2023-02-12T16:11:12.000",
    "date_modified": "2023-02-12T16:11:12.000",
    "request_status": "Pending",
    "responsible_agency": "Department of Sanitation",
    "final_address": "3129 Jefferson Ave",
    "address_councildis": "B",
    "status": "Assigned to Contractor",
    "contractor": "Richards Disposal",
    "rowid": "974776",
    "final_x": "3668597.80468",
    "final_y": "526838.441406",
    "longitude": "-90.10896889620489",
    "latitude": "29.943008358478135",
    "geocoded_column": {
      "latitude": "29.943008358478135",
      "longitude": "-90.10896889620489"
    }
  },
  {
    "service_request": "2023-974775",
    "request_type": "Traffic Signals/Signs/Striping/Streetlights",
    "request_reason": "Traffic Sign Missing/Damaged",
    "date_created": "2023-02-12T15:54:19.000",
    "date_modified": "2023-02-12T15:54:19.000",
    "request_status": "Pending",
    "responsible_agency": "Department of Public Works",
    "final_address": "3801 S Carrollton Ave",
    "address_councildis": "B",
    "status": "Pending",
    "rowid": "974775",
    "final_x": "3668426.23284",
    "final_y": "535115.201926",
    "longitude": "-90.10923142623798",
    "latitude": "29.965771775668994",
    "geocoded_column": {
      "latitude": "29.965771775668994",
      "longitude": "-90.10923142623798"
    }
  },
  {
    "service_request": "2023-974774",
    "request_type": "Trash/Recycling",
    "request_reason": "Request a Large Item Pick Up",
    "date_created": "2023-02-12T15:49:02.000",
    "date_modified": "2023-02-12T15:49:03.000",
    "request_status": "Pending",
    "responsible_agency": "Department of Sanitation",
    "final_address": "121 N Solomon St",
    "address_councildis": "A",
    "status": "Assigned to Contractor",
    "contractor": "Richards Disposal",
    "rowid": "974774",
    "final_x": "3670692.19163",
    "final_y": "538951.110474",
    "longitude": "-90.10194540862372",
    "latitude": "29.9762524782692",
    "geocoded_column": {
      "latitude": "29.9762524782692",
      "longitude": "-90.10194540862372"
    }
  },
  {
    "service_request": "2023-974773",
    "request_type": "Abandoned Vehicles",
    "request_reason": "Vehicle Blocking Your Driveway",
    "date_created": "2023-02-12T15:23:40.000",
    "date_modified": "2023-02-12T15:23:40.000",
    "request_status": "Pending",
    "responsible_agency": "Department of Public Works",
    "final_address": "831 Solomon Pl",
    "address_councildis": "A",
    "status": "Pending",
    "rowid": "974773",
    "final_x": "3672428.38241",
    "final_y": "540930.935883",
    "longitude": "-90.09639449163913",
    "latitude": "29.98164490576208",
    "geocoded_column": {
      "latitude": "29.98164490576208",
      "longitude": "-90.09639449163913"
    }
  },
  {
    "service_request": "2023-974772",
    "request_type": "Abandoned Vehicles",
    "request_reason": "Abandoned/Junk Vehicles",
    "date_created": "2023-02-12T15:13:06.000",
    "date_modified": "2023-02-12T15:13:06.000",
    "request_status": "Pending",
    "responsible_agency": "Department of Public Works",
    "final_address": "LAKE WILLOW DR & HUNTINGTON PARK DR & CROWDER BLVD",
    "address_councildis": "E",
    "status": "Pending",
    "rowid": "974772",
    "final_x": "3704312.8",
    "final_y": "559687.28",
    "longitude": "-89.9949974442887",
    "latitude": "30.032232797519963",
    "geocoded_column": {
      "latitude": "30.032232797519963",
      "longitude": "-89.9949974442887"
    }
  },
  {
    "service_request": "2023-974771",
    "request_type": "Abandoned Vehicles",
    "request_reason": "Abandoned/Junk Vehicles",
    "date_created": "2023-02-12T15:07:40.000",
    "date_modified": "2023-02-12T15:12:23.000",
    "request_status": "Pending",
    "responsible_agency": "Department of Public Works",
    "final_address": "4900 BLK Kendall Dr",
    "address_councildis": "D",
    "status": "Pending",
    "rowid": "974771",
    "final_x": "3690225.15987",
    "final_y": "551903.123672",
    "longitude": "-90.03979291462444",
    "latitude": "30.011274184298454",
    "geocoded_column": {
      "latitude": "30.011274184298454",
      "longitude": "-90.03979291462444"
    }
  },
  {
    "service_request": "2023-974770",
    "request_type": "Property Maintenance",
    "request_reason": "Property Maintenance",
    "date_created": "2023-02-12T15:05:25.000",
    "date_modified": "2023-02-12T15:05:25.000",
    "request_status": "Pending",
    "responsible_agency": "Department of Code Enforcement",
    "final_address": "2809 Milan St",
    "address_councildis": "B",
    "status": "Pending",
    "rowid": "974770",
    "final_x": "3671206.99988",
    "final_y": "525263.591997",
    "longitude": "-90.10078449280785",
    "latitude": "29.938601115711823",
    "geocoded_column": {
      "latitude": "29.938601115711823",
      "longitude": "-90.10078449280785"
    }
  },
  {
    "service_request": "2023-974769",
    "request_type": "Trash/Recycling",
    "request_reason": "Replace Trash Cart",
    "date_created": "2023-02-12T14:58:27.000",
    "date_modified": "2023-02-12T14:58:28.000",
    "request_status": "Pending",
    "responsible_agency": "Department of Sanitation",
    "final_address": "1803 Murl St",
    "address_councildis": "C",
    "status": "Assigned to Contractor",
    "contractor": "Richards Disposal",
    "rowid": "974769",
    "final_x": "3695296.79997",
    "final_y": "524704.366076",
    "longitude": "-90.02475098887847",
    "latitude": "29.9363289399961",
    "geocoded_column": {
      "latitude": "29.9363289399961",
      "longitude": "-90.02475098887847"
    }
  },
  {
    "service_request": "2023-974767",
    "request_type": "Trash/Recycling",
    "request_reason": "Repair Trash Cart",
    "date_created": "2023-02-12T14:12:02.000",
    "date_modified": "2023-02-12T14:12:03.000",
    "request_status": "Pending",
    "responsible_agency": "Department of Sanitation",
    "final_address": "1724 Nie Prkwy",
    "address_councildis": "C",
    "status": "Assigned to Contractor",
    "contractor": "Richards Disposal",
    "rowid": "974767",
    "final_x": "3701258.86813",
    "final_y": "524411.534076",
    "longitude": "-90.00593937809985",
    "latitude": "29.935335187044284",
    "geocoded_column": {
      "latitude": "29.935335187044284",
      "longitude": "-90.00593937809985"
    }
  },
  {
    "service_request": "2023-974766",
    "request_type": "Roads/Drainage",
    "request_reason": "Debris in Roadway",
    "date_created": "2023-02-12T14:06:00.000",
    "date_modified": "2023-02-12T14:06:00.000",
    "request_status": "Pending",
    "responsible_agency": "Department of Public Works",
    "final_address": "829 Wilson Dr",
    "address_councildis": "A",
    "status": "Pending",
    "rowid": "974766",
    "final_x": "3674006.39784",
    "final_y": "539481.032138",
    "longitude": "-90.09146000617584",
    "latitude": "29.977611232847696",
    "geocoded_column": {
      "latitude": "29.977611232847696",
      "longitude": "-90.09146000617584"
    }
  },
  {
    "service_request": "2023-974765",
    "request_type": "Trash/Recycling",
    "request_reason": "Request a Large Item Pick Up",
    "date_created": "2023-02-12T13:58:01.000",
    "date_modified": "2023-02-12T13:58:01.000",
    "request_status": "Pending",
    "responsible_agency": "Department of Sanitation",
    "final_address": "1635 Leon C Simon Dr",
    "address_councildis": "D",
    "status": "Assigned to Contractor",
    "contractor": "IV Waste",
    "rowid": "974765",
    "final_x": "3679345.51176",
    "final_y": "555752.932185",
    "longitude": "-90.07403246153498",
    "latitude": "30.022192987383132",
    "geocoded_column": {
      "latitude": "30.022192987383132",
      "longitude": "-90.07403246153498"
    }
  },
  {
    "service_request": "2023-974764",
    "request_type": "Roads/Drainage",
    "request_reason": "Catch Basin - Clogged",
    "date_created": "2023-02-12T13:35:55.000",
    "date_modified": "2023-02-12T13:35:55.000",
    "request_status": "Pending",
    "responsible_agency": "Department of Public Works",
    "final_address": "PEARL ST & BURDETTE ST",
    "address_councildis": "A",
    "status": "Pending",
    "rowid": "974764",
    "final_x": "3661136.6",
    "final_y": "525794.08",
    "longitude": "-90.13256042609896",
    "latitude": "29.940353805142703",
    "geocoded_column": {
      "latitude": "29.940353805142703",
      "longitude": "-90.13256042609896"
    }
  },
  {
    "service_request": "2023-974763",
    "request_type": "Trash/Recycling",
    "request_reason": "Illegal Dumping",
    "date_created": "2023-02-12T13:32:25.000",
    "date_modified": "2023-02-12T13:32:25.000",
    "request_status": "Pending",
    "responsible_agency": "Department of Sanitation",
    "final_address": "2550 Ursulines Ave",
    "address_councildis": "D",
    "status": "Pending",
    "rowid": "974763",
    "final_x": "3678076.69998",
    "final_y": "537716.914312",
    "longitude": "-90.07866561296773",
    "latitude": "29.97263858844416",
    "geocoded_column": {
      "latitude": "29.97263858844416",
      "longitude": "-90.07866561296773"
    }
  },
  {
    "service_request": "2023-974761",
    "request_type": "Trash/Recycling",
    "request_reason": "Start Trash Service",
    "date_created": "2023-02-12T13:21:52.000",
    "date_modified": "2023-02-12T13:21:52.000",
    "request_status": "Pending",
    "responsible_agency": "Department of Sanitation",
    "final_address": "1933 Washington Ave",
    "address_councildis": "B",
    "status": "Assigned to Contractor",
    "contractor": "Richards Disposal",
    "rowid": "974761",
    "final_x": "3675198.538",
    "final_y": "523697.783419",
    "longitude": "-90.08823648725087",
    "latitude": "29.934176990577708",
    "geocoded_column": {
      "latitude": "29.934176990577708",
      "longitude": "-90.08823648725087"
    }
  },
  {
    "service_request": "2023-974762",
    "request_type": "Trash/Recycling",
    "request_reason": "Start Trash Service",
    "date_created": "2023-02-12T13:21:52.000",
    "date_modified": "2023-02-12T13:21:52.000",
    "request_status": "Pending",
    "responsible_agency": "Department of Sanitation",
    "final_address": "1933 Washington Ave",
    "address_councildis": "B",
    "status": "Assigned to Contractor",
    "contractor": "Richards Disposal",
    "rowid": "974762",
    "final_x": "3675198.538",
    "final_y": "523697.783419",
    "longitude": "-90.08823648725087",
    "latitude": "29.934176990577708",
    "geocoded_column": {
      "latitude": "29.934176990577708",
      "longitude": "-90.08823648725087"
    }
  },
  {
    "service_request": "2023-974760",
    "request_type": "Traffic Signals/Signs/Striping/Streetlights",
    "request_reason": "Street Light Outage/Malfunction",
    "date_created": "2023-02-12T13:21:36.000",
    "date_modified": "2023-02-12T13:21:36.000",
    "request_status": "Pending",
    "responsible_agency": "Department of Public Works",
    "final_address": "2610 Carondelet St",
    "address_councildis": "B",
    "status": "Assigned to Contractor",
    "contractor": "Legacy Professional Services",
    "rowid": "974760",
    "final_x": "3676136.86785",
    "final_y": "523100.418299",
    "longitude": "-90.0852947501691",
    "latitude": "29.932506362133662",
    "geocoded_column": {
      "latitude": "29.932506362133662",
      "longitude": "-90.0852947501691"
    }
  },
  {
    "service_request": "2023-974759",
    "request_type": "Traffic Signals/Signs/Striping/Streetlights",
    "request_reason": "Street Light Outage/Malfunction",
    "date_created": "2023-02-12T12:51:46.000",
    "date_modified": "2023-02-12T12:51:47.000",
    "request_status": "Pending",
    "responsible_agency": "Department of Public Works",
    "final_address": "1021 Allen Toussaint Blvd",
    "address_councildis": "D",
    "status": "Assigned to Contractor",
    "contractor": "Legacy Professional Services",
    "rowid": "974759",
    "final_x": "3672896.8436",
    "final_y": "554483.847192",
    "longitude": "-90.09445204656929",
    "latitude": "30.018896754838817",
    "geocoded_column": {
      "latitude": "30.018896754838817",
      "longitude": "-90.09445204656929"
    }
  },
  {
    "service_request": "2023-974758",
    "request_type": "Trash/Recycling",
    "request_reason": "Request a Large Item Pick Up",
    "date_created": "2023-02-12T12:35:16.000",
    "date_modified": "2023-02-12T12:35:17.000",
    "request_status": "Pending",
    "responsible_agency": "Department of Sanitation",
    "final_address": "3327 General Taylor St A",
    "address_councildis": "B",
    "status": "Assigned to Contractor",
    "contractor": "Richards Disposal",
    "rowid": "974758",
    "final_x": "3671262.54452",
    "final_y": "527227.480831",
    "longitude": "-90.1005424250798",
    "latitude": "29.943999528221568",
    "geocoded_column": {
      "latitude": "29.943999528221568",
      "longitude": "-90.1005424250798"
    }
  },
  {
    "service_request": "2023-974757",
    "request_type": "Trash/Recycling",
    "request_reason": "Order Recycling Cart",
    "date_created": "2023-02-12T12:34:43.000",
    "date_modified": "2023-02-12T12:34:43.000",
    "request_status": "Pending",
    "responsible_agency": "Department of Sanitation",
    "final_address": "151 Pinehurst Ct",
    "address_councildis": "E",
    "status": "Pending",
    "rowid": "974757",
    "final_x": "3720246.41132",
    "final_y": "564268.691873",
    "longitude": "-89.94447129701037",
    "latitude": "30.044308471870618",
    "geocoded_column": {
      "latitude": "30.044308471870618",
      "longitude": "-89.94447129701037"
    }
  },
  {
    "service_request": "2023-974755",
    "request_type": "Trash/Recycling",
    "request_reason": "Request a Large Item Pick Up",
    "date_created": "2023-02-12T12:20:41.000",
    "date_modified": "2023-02-12T12:20:42.000",
    "request_status": "Pending",
    "responsible_agency": "Department of Sanitation",
    "final_address": "3149 N Villere St",
    "address_councildis": "C",
    "status": "Assigned to Contractor",
    "contractor": "IV Waste",
    "rowid": "974755",
    "final_x": "3689671.87868",
    "final_y": "537038.760968",
    "longitude": "-90.04207017574346",
    "latitude": "29.97041970258712",
    "geocoded_column": {
      "latitude": "29.97041970258712",
      "longitude": "-90.04207017574346"
    }
  },
  {
    "service_request": "2023-974754",
    "request_type": "Trash/Recycling",
    "request_reason": "Replace Trash Cart",
    "date_created": "2023-02-12T11:56:36.000",
    "date_modified": "2023-02-12T11:56:37.000",
    "request_status": "Pending",
    "responsible_agency": "Department of Sanitation",
    "final_address": "621 S Pierce St",
    "address_councildis": "A",
    "status": "Assigned to Contractor",
    "contractor": "Richards Disposal",
    "rowid": "974754",
    "final_x": "3670127.45114",
    "final_y": "536334.004487",
    "longitude": "-90.10381772358967",
    "latitude": "29.969072992893235",
    "geocoded_column": {
      "latitude": "29.969072992893235",
      "longitude": "-90.10381772358967"
    }
  },
  {
    "service_request": "2023-974753",
    "request_type": "Trash/Recycling",
    "request_reason": "Replace Trash Cart",
    "date_created": "2023-02-12T11:54:39.000",
    "date_modified": "2023-02-12T11:54:40.000",
    "request_status": "Pending",
    "responsible_agency": "Department of Sanitation",
    "final_address": "619 S Pierce St",
    "address_councildis": "A",
    "status": "Assigned to Contractor",
    "contractor": "Richards Disposal",
    "rowid": "974753",
    "final_x": "3670109.27982",
    "final_y": "536363.898567",
    "longitude": "-90.10387409706686",
    "latitude": "29.969155727723287",
    "geocoded_column": {
      "latitude": "29.969155727723287",
      "longitude": "-90.10387409706686"
    }
  },
  {
    "service_request": "2023-974752",
    "request_type": "Trash/Recycling",
    "request_reason": "Replace Trash Cart",
    "date_created": "2023-02-12T11:53:45.000",
    "date_modified": "2023-02-12T11:53:45.000",
    "request_status": "Pending",
    "responsible_agency": "Department of Sanitation",
    "final_address": "617 S Pierce St",
    "address_councildis": "A",
    "status": "Assigned to Contractor",
    "contractor": "Richards Disposal",
    "rowid": "974752",
    "final_x": "3670149.97614",
    "final_y": "536361.350215",
    "longitude": "-90.10374566116352",
    "latitude": "29.96914751987505",
    "geocoded_column": {
      "latitude": "29.96914751987505",
      "longitude": "-90.10374566116352"
    }
  },
  {
    "service_request": "2023-974750",
    "request_type": "Trash/Recycling",
    "request_reason": "Replace Trash Cart",
    "date_created": "2023-02-12T11:45:32.000",
    "date_modified": "2023-02-12T11:45:33.000",
    "request_status": "Pending",
    "responsible_agency": "Department of Sanitation",
    "final_address": "6219 Magnolia St",
    "address_councildis": "A",
    "status": "Assigned to Contractor",
    "contractor": "Richards Disposal",
    "rowid": "974750",
    "final_x": "3666063.39495",
    "final_y": "525360.682365",
    "longitude": "-90.11702020562028",
    "latitude": "29.939019215711156",
    "geocoded_column": {
      "latitude": "29.939019215711156",
      "longitude": "-90.11702020562028"
    }
  },
  {
    "service_request": "2023-974749",
    "request_type": "Mayor's Request",
    "request_reason": "Requests to the Mayor",
    "date_created": "2023-02-12T11:44:40.000",
    "date_modified": "2023-02-12T11:44:40.000",
    "request_status": "Pending",
    "responsible_agency": "Executive Office of the Mayor",
    "final_address": "1709 Marais St",
    "address_councildis": "C",
    "status": "Pending",
    "rowid": "974749",
    "final_x": "3683199.03132",
    "final_y": "536555.745607",
    "longitude": "-90.06252904692543",
    "latitude": "29.969290559099438",
    "geocoded_column": {
      "latitude": "29.969290559099438",
      "longitude": "-90.06252904692543"
    }
  },
  {
    "service_request": "2023-974748",
    "request_type": "Property Maintenance",
    "request_reason": "Property Maintenance",
    "date_created": "2023-02-12T11:43:25.000",
    "date_modified": "2023-02-12T11:43:25.000",
    "request_status": "Pending",
    "responsible_agency": "Department of Code Enforcement",
    "final_address": "1709 Marais St",
    "address_councildis": "C",
    "status": "Pending",
    "rowid": "974748",
    "final_x": "3683199.03132",
    "final_y": "536555.745607",
    "longitude": "-90.06252904692543",
    "latitude": "29.969290559099438",
    "geocoded_column": {
      "latitude": "29.969290559099438",
      "longitude": "-90.06252904692543"
    }
  },
  {
    "service_request": "2023-974747",
    "request_type": "Trash/Recycling",
    "request_reason": "MIssed Recycling Pick-Up",
    "date_created": "2023-02-12T11:41:20.000",
    "date_modified": "2023-02-12T11:41:21.000",
    "request_status": "Pending",
    "responsible_agency": "Department of Sanitation",
    "final_address": "7924 S Claiborne Ave",
    "address_councildis": "A",
    "status": "Assigned to Contractor",
    "contractor": "Richards Disposal",
    "rowid": "974747",
    "final_x": "3665233.25901",
    "final_y": "531047.467714",
    "longitude": "-90.11945085398385",
    "latitude": "29.954680245335663",
    "geocoded_column": {
      "latitude": "29.954680245335663",
      "longitude": "-90.11945085398385"
    }
  },
  {
    "service_request": "2023-974746",
    "request_type": "Trash/Recycling",
    "request_reason": "Request a Large Item Pick Up",
    "date_created": "2023-02-12T11:32:54.000",
    "date_modified": "2023-02-12T11:32:54.000",
    "request_status": "Pending",
    "responsible_agency": "Department of Sanitation",
    "final_address": "210 N Clark St",
    "address_councildis": "B",
    "status": "Assigned to Contractor",
    "contractor": "Richards Disposal",
    "rowid": "974746",
    "final_x": "3673221.16539",
    "final_y": "537402.249608",
    "longitude": "-90.09401105299868",
    "latitude": "29.97191866457747",
    "geocoded_column": {
      "latitude": "29.97191866457747",
      "longitude": "-90.09401105299868"
    }
  },
  {
    "service_request": "2023-974745",
    "request_type": "Traffic Signals/Signs/Striping/Streetlights",
    "request_reason": "Street Light Outage/Malfunction",
    "date_created": "2023-02-12T11:22:48.000",
    "date_modified": "2023-02-12T11:22:49.000",
    "request_status": "Pending",
    "responsible_agency": "Department of Public Works",
    "final_address": "5100 Westlake Dr",
    "address_councildis": "E",
    "status": "Assigned to Contractor",
    "contractor": "Legacy Professional Services",
    "rowid": "974745",
    "final_x": "3699442.49994",
    "final_y": "556105.80425",
    "longitude": "-90.01051849305017",
    "latitude": "30.022540627941957",
    "geocoded_column": {
      "latitude": "30.022540627941957",
      "longitude": "-90.01051849305017"
    }
  },
  {
    "service_request": "2023-974744",
    "request_type": "Abandoned Vehicles",
    "request_reason": "Abandoned/Junk Vehicles",
    "date_created": "2023-02-12T11:06:29.000",
    "date_modified": "2023-02-12T11:12:48.000",
    "request_status": "Pending",
    "responsible_agency": "Department of Public Works",
    "final_address": "1800 BLK Orleans Ave",
    "address_councildis": "D",
    "status": "Inspected",
    "rowid": "974744",
    "final_x": "3679398.25534",
    "final_y": "535015.710596",
    "longitude": "-90.07458561526882",
    "latitude": "29.965171347815303",
    "geocoded_column": {
      "latitude": "29.965171347815303",
      "longitude": "-90.07458561526882"
    }
  },
  {
    "service_request": "2023-974743",
    "request_type": "Trash/Recycling",
    "request_reason": "Order Trash Cart",
    "date_created": "2023-02-12T11:04:55.000",
    "date_modified": "2023-02-12T11:04:56.000",
    "request_status": "Pending",
    "responsible_agency": "Department of Sanitation",
    "final_address": "543 Governor Nicholls St",
    "address_councildis": "C",
    "status": "Assigned to Contractor",
    "contractor": "Empire Services",
    "rowid": "974743",
    "final_x": "3684016.22793",
    "final_y": "533671.402757",
    "longitude": "-90.0600495022571",
    "latitude": "29.961334665381848",
    "geocoded_column": {
      "latitude": "29.961334665381848",
      "longitude": "-90.0600495022571"
    }
  },
  {
    "service_request": "2023-974742",
    "request_type": "Traffic Signals/Signs/Striping/Streetlights",
    "request_reason": "Street Light Outage/Malfunction",
    "date_created": "2023-02-12T11:02:59.000",
    "date_modified": "2023-02-12T11:03:00.000",
    "request_status": "Pending",
    "responsible_agency": "Department of Public Works",
    "final_address": "4406 Stemway Dr",
    "address_councildis": "D",
    "status": "Assigned to Contractor",
    "contractor": "Legacy Professional Services",
    "rowid": "974742",
    "final_x": "3697017.01143",
    "final_y": "552437.65583",
    "longitude": "-90.01831543632352",
    "latitude": "30.01253137488796",
    "geocoded_column": {
      "latitude": "30.01253137488796",
      "longitude": "-90.01831543632352"
    }
  },
  {
    "service_request": "2023-974741",
    "request_type": "Traffic Signals/Signs/Striping/Streetlights",
    "request_reason": "Additional signage",
    "date_created": "2023-02-12T10:59:25.000",
    "date_modified": "2023-02-12T10:59:26.000",
    "request_status": "Pending",
    "responsible_agency": "Department of Public Works",
    "final_address": "6TH ST & CARONDELET ST",
    "address_councildis": "B",
    "status": "Pending",
    "rowid": "974741",
    "final_x": "3675281.1",
    "final_y": "522574.78",
    "longitude": "-90.08801437231178",
    "latitude": "29.931086629482817",
    "geocoded_column": {
      "latitude": "29.931086629482817",
      "longitude": "-90.08801437231178"
    }
  },
  {
    "service_request": "2023-974740",
    "request_type": "Roads/Drainage",
    "request_reason": "Debris in Roadway",
    "date_created": "2023-02-12T10:54:09.000",
    "date_modified": "2023-02-12T10:54:09.000",
    "request_status": "Pending",
    "responsible_agency": "Department of Public Works",
    "final_address": "1600 Marengo St",
    "address_councildis": "B",
    "status": "Pending",
    "rowid": "974740",
    "final_x": "3671905.9618",
    "final_y": "521053.036409",
    "longitude": "-90.09872102189263",
    "latitude": "29.9270027544602",
    "geocoded_column": {
      "latitude": "29.9270027544602",
      "longitude": "-90.09872102189263"
    }
  },
  {
    "service_request": "2023-974739",
    "request_type": "Trash/Recycling",
    "request_reason": "Missed Trash Pick-Up",
    "date_created": "2023-02-12T10:35:56.000",
    "date_modified": "2023-02-12T10:35:57.000",
    "request_status": "Pending",
    "responsible_agency": "Department of Sanitation",
    "final_address": "4621 Haydel St",
    "address_councildis": "E",
    "status": "Assigned to Contractor",
    "contractor": "Waste Pro",
    "rowid": "974739",
    "final_x": "3699150.68996",
    "final_y": "553872.433943",
    "longitude": "-90.01152194425033",
    "latitude": "30.016408968983665",
    "geocoded_column": {
      "latitude": "30.016408968983665",
      "longitude": "-90.01152194425033"
    }
  },
  {
    "service_request": "2023-974738",
    "request_type": "Roads/Drainage",
    "request_reason": "Road Shoulder Repair",
    "date_created": "2023-02-12T10:04:46.000",
    "date_modified": "2023-02-12T10:04:47.000",
    "request_status": "Pending",
    "responsible_agency": "Department of Public Works",
    "final_address": "S MURAT ST & DHEMECOURT ST",
    "address_councildis": "A",
    "status": "Pending",
    "rowid": "974738",
    "final_x": "3668511.8",
    "final_y": "537821.78",
    "longitude": "-90.10886986958467",
    "latitude": "29.973211448042022",
    "geocoded_column": {
      "latitude": "29.973211448042022",
      "longitude": "-90.10886986958467"
    }
  },
  {
    "service_request": "2023-974737",
    "request_type": "Trash/Recycling",
    "request_reason": "Request a Large Item Pick Up",
    "date_created": "2023-02-12T09:54:10.000",
    "date_modified": "2023-02-12T09:54:10.000",
    "request_status": "Pending",
    "responsible_agency": "Department of Sanitation",
    "final_address": "7606 Briarwood Dr, New Orleans, Louisiana, 70128",
    "address_councildis": "E",
    "status": "Assigned to Contractor",
    "contractor": "Waste Pro",
    "rowid": "974737",
    "final_x": "3717601.57119",
    "final_y": "570693.763239",
    "longitude": "-89.95258539685423",
    "latitude": "30.06206265117319",
    "geocoded_column": {
      "latitude": "30.06206265117319",
      "longitude": "-89.95258539685423"
    }
  },
  {
    "service_request": "2023-974736",
    "request_type": "Roads/Drainage",
    "request_reason": "Pothole",
    "date_created": "2023-02-12T09:50:52.000",
    "date_modified": "2023-02-12T09:50:52.000",
    "request_status": "Pending",
    "responsible_agency": "Department of Public Works",
    "final_address": "2215 Burgundy St",
    "address_councildis": "C",
    "status": "Pending",
    "rowid": "974736",
    "final_x": "3685271.22441",
    "final_y": "535634.688582",
    "longitude": "-90.05601734004672",
    "latitude": "29.966694617120556",
    "geocoded_column": {
      "latitude": "29.966694617120556",
      "longitude": "-90.05601734004672"
    }
  },
  {
    "service_request": "2023-974735",
    "request_type": "Traffic Signals/Signs/Striping/Streetlights",
    "request_reason": "Street Light Outage/Malfunction",
    "date_created": "2023-02-12T09:42:14.000",
    "date_modified": "2023-02-12T09:42:15.000",
    "request_status": "Pending",
    "responsible_agency": "Department of Public Works",
    "final_address": "19919 Chef Menteur Hwy",
    "address_councildis": "E",
    "status": "Assigned to Contractor",
    "contractor": "Legacy Professional Services",
    "rowid": "974735",
    "final_x": "3753848.343",
    "final_y": "574416.966379",
    "longitude": "-89.83785800942131",
    "latitude": "30.07104898462735",
    "geocoded_column": {
      "latitude": "30.07104898462735",
      "longitude": "-89.83785800942131"
    }
  },
  {
    "service_request": "2023-974734",
    "request_type": "Trash/Recycling",
    "request_reason": "Request a Large Item Pick Up",
    "date_created": "2023-02-12T09:31:47.000",
    "date_modified": "2023-02-12T09:31:47.000",
    "request_status": "Pending",
    "responsible_agency": "Department of Sanitation",
    "final_address": "2760 Orchid St",
    "address_councildis": "A",
    "status": "Assigned to Contractor",
    "contractor": "Richards Disposal",
    "rowid": "974734",
    "final_x": "3677336.42338",
    "final_y": "538675.804233",
    "longitude": "-90.08097044403324",
    "latitude": "29.97529747451872",
    "geocoded_column": {
      "latitude": "29.97529747451872",
      "longitude": "-90.08097044403324"
    }
  },
  {
    "service_request": "2023-974733",
    "request_type": "Abandoned Vehicles",
    "request_reason": "Abandoned/Junk Vehicles",
    "date_created": "2023-02-12T09:29:43.000",
    "date_modified": "2023-02-12T09:29:43.000",
    "request_status": "Pending",
    "responsible_agency": "Department of Public Works",
    "final_address": "538 Hagan St",
    "address_councildis": "A",
    "status": "Pending",
    "rowid": "974733",
    "final_x": "3674398.87508",
    "final_y": "538070.229257",
    "longitude": "-90.09026876657985",
    "latitude": "29.97372030406642",
    "geocoded_column": {
      "latitude": "29.97372030406642",
      "longitude": "-90.09026876657985"
    }
  },
  {
    "service_request": "2023-974732",
    "request_type": "Trash/Recycling",
    "request_reason": "Replace Trash Cart",
    "date_created": "2023-02-12T09:23:35.000",
    "date_modified": "2023-02-12T09:23:36.000",
    "request_status": "Pending",
    "responsible_agency": "Department of Sanitation",
    "final_address": "1010 Short St",
    "address_councildis": "A",
    "status": "Assigned to Contractor",
    "contractor": "Richards Disposal",
    "rowid": "974732",
    "final_x": "3661843.57581",
    "final_y": "527622.827263",
    "longitude": "-90.13026775823379",
    "latitude": "29.9453618876916",
    "geocoded_column": {
      "latitude": "29.9453618876916",
      "longitude": "-90.13026775823379"
    }
  },
  {
    "service_request": "2023-974731",
    "request_type": "Trash/Recycling",
    "request_reason": "Illegal Dumping",
    "date_created": "2023-02-12T08:40:15.000",
    "date_modified": "2023-02-12T08:40:15.000",
    "request_status": "Pending",
    "responsible_agency": "Department of Sanitation",
    "final_address": "6160 S Hermes St",
    "address_councildis": "D",
    "status": "Pending",
    "rowid": "974731",
    "final_x": "3696906.98634",
    "final_y": "555024.996505",
    "longitude": "-90.01856925603778",
    "latitude": "30.019649057795082",
    "geocoded_column": {
      "latitude": "30.019649057795082",
      "longitude": "-90.01856925603778"
    }
  },
  {
    "service_request": "2023-974730",
    "request_type": "Property Maintenance",
    "request_reason": "Property Maintenance",
    "date_created": "2023-02-12T08:33:30.000",
    "date_modified": "2023-02-12T08:33:30.000",
    "request_status": "Pending",
    "responsible_agency": "Department of Code Enforcement",
    "final_address": "2705 N Roman St",
    "address_councildis": "D",
    "status": "Pending",
    "rowid": "974730",
    "final_x": "3688159.27286",
    "final_y": "539029.030218",
    "longitude": "-90.04677656764456",
    "latitude": "29.975939026455233",
    "geocoded_column": {
      "latitude": "29.975939026455233",
      "longitude": "-90.04677656764456"
    }
  },
  {
    "service_request": "2023-974729",
    "request_type": "Abandoned Vehicles",
    "request_reason": "Abandoned/Junk Vehicles",
    "date_created": "2023-02-12T08:32:53.000",
    "date_modified": "2023-02-12T08:32:53.000",
    "request_status": "Pending",
    "responsible_agency": "Department of Public Works",
    "final_address": "522 Washington Ave",
    "address_councildis": "B",
    "status": "Pending",
    "rowid": "974729",
    "final_x": "3678072.23138",
    "final_y": "519199.856887",
    "longitude": "-90.07931973647801",
    "latitude": "29.921722984193423",
    "geocoded_column": {
      "latitude": "29.921722984193423",
      "longitude": "-90.07931973647801"
    }
  },
  {
    "service_request": "2023-974728",
    "request_type": "Trash/Recycling",
    "request_reason": "Replace Trash Cart",
    "date_created": "2023-02-12T08:30:54.000",
    "date_modified": "2023-02-12T08:30:54.000",
    "request_status": "Pending",
    "responsible_agency": "Department of Sanitation",
    "final_address": "8501 Palmetto St",
    "address_councildis": "A",
    "status": "Assigned to Contractor",
    "contractor": "Richards Disposal",
    "rowid": "974728",
    "final_x": "3667141.19437",
    "final_y": "536227.729223",
    "longitude": "-90.11325213783088",
    "latitude": "29.968868541501212",
    "geocoded_column": {
      "latitude": "29.968868541501212",
      "longitude": "-90.11325213783088"
    }
  },
  {
    "service_request": "2023-974727",
    "request_type": "Trash/Recycling",
    "request_reason": "Order Recycling Cart",
    "date_created": "2023-02-12T08:15:47.000",
    "date_modified": "2023-02-12T08:15:47.000",
    "request_status": "Pending",
    "responsible_agency": "Department of Sanitation",
    "final_address": "6409 St Roch Ave",
    "address_councildis": "D",
    "status": "Pending",
    "rowid": "974727",
    "final_x": "3684957.47356",
    "final_y": "556762.005338",
    "longitude": "-90.05626455105921",
    "latitude": "30.024796783263774",
    "geocoded_column": {
      "latitude": "30.024796783263774",
      "longitude": "-90.05626455105921"
    }
  },
  {
    "service_request": "2023-974726",
    "request_type": "Trash/Recycling",
    "request_reason": "Missed Trash Pick-Up",
    "date_created": "2023-02-12T07:42:40.000",
    "date_modified": "2023-02-12T07:42:41.000",
    "request_status": "Pending",
    "responsible_agency": "Department of Sanitation",
    "final_address": "220 S Solomon St",
    "address_councildis": "A",
    "status": "Assigned to Contractor",
    "contractor": "Richards Disposal",
    "rowid": "974726",
    "final_x": "3670248.74311",
    "final_y": "538208.997833",
    "longitude": "-90.10337111327594",
    "latitude": "29.974225015194648",
    "geocoded_column": {
      "latitude": "29.974225015194648",
      "longitude": "-90.10337111327594"
    }
  },
  {
    "service_request": "2023-974725",
    "request_type": "Abandoned Vehicles",
    "request_reason": "Abandoned/Junk Vehicles",
    "date_created": "2023-02-12T07:28:37.000",
    "date_modified": "2023-02-12T07:28:37.000",
    "request_status": "Pending",
    "responsible_agency": "Department of Public Works",
    "final_address": "2659 Iberville St",
    "address_councildis": "B",
    "status": "Pending",
    "rowid": "974725",
    "final_x": "3675732.35176",
    "final_y": "535453.225798",
    "longitude": "-90.08614731470516",
    "latitude": "29.966484589744436",
    "geocoded_column": {
      "latitude": "29.966484589744436",
      "longitude": "-90.08614731470516"
    }
  },
  {
    "service_request": "2023-974724",
    "request_type": "Trash/Recycling",
    "request_reason": "Request a Large Item Pick Up",
    "date_created": "2023-02-12T06:34:31.000",
    "date_modified": "2023-02-12T06:34:31.000",
    "request_status": "Pending",
    "responsible_agency": "Department of Sanitation",
    "final_address": "1206 Austerlitz St",
    "address_councildis": "B",
    "status": "Assigned to Contractor",
    "contractor": "Richards Disposal",
    "rowid": "974724",
    "final_x": "3672722.53889",
    "final_y": "520079.859768",
    "longitude": "-90.09617646535092",
    "latitude": "29.92430261285375",
    "geocoded_column": {
      "latitude": "29.92430261285375",
      "longitude": "-90.09617646535092"
    }
  },
  {
    "service_request": "2023-974723",
    "request_type": "Traffic Signals/Signs/Striping/Streetlights",
    "request_reason": "Street Light Outage/Malfunction",
    "date_created": "2023-02-11T23:30:22.000",
    "date_modified": "2023-02-11T23:30:23.000",
    "request_status": "Pending",
    "responsible_agency": "Department of Public Works",
    "final_address": "2300 St Claude Ave",
    "address_councildis": "C",
    "status": "Assigned to Contractor",
    "contractor": "Legacy Professional Services",
    "rowid": "974723",
    "final_x": "3685972.92796",
    "final_y": "536198.830855",
    "longitude": "-90.05378147430721",
    "latitude": "29.96822428536932",
    "geocoded_column": {
      "latitude": "29.96822428536932",
      "longitude": "-90.05378147430721"
    }
  },
  {
    "service_request": "2023-974722",
    "request_type": "Trash/Recycling",
    "request_reason": "Request a Large Item Pick Up",
    "date_created": "2023-02-11T22:45:00.000",
    "date_modified": "2023-02-11T22:45:01.000",
    "request_status": "Pending",
    "responsible_agency": "Department of Sanitation",
    "final_address": "212 Alonzo St",
    "address_councildis": "A",
    "status": "Assigned to Contractor",
    "contractor": "Richards Disposal",
    "rowid": "974722",
    "final_x": "3664471.77088",
    "final_y": "517167.838325",
    "longitude": "-90.12231854418529",
    "latitude": "29.916537834419888",
    "geocoded_column": {
      "latitude": "29.916537834419888",
      "longitude": "-90.12231854418529"
    }
  },
  {
    "service_request": "2023-974721",
    "request_type": "Health Related Request",
    "request_reason": "Noise Ordinance Complaint",
    "date_created": "2023-02-11T22:14:40.000",
    "date_modified": "2023-02-11T22:14:40.000",
    "request_status": "Pending",
    "responsible_agency": "Health Department",
    "final_address": "1700 Joseph Guillaume Pl",
    "address_councildis": "C",
    "status": "Pending",
    "rowid": "974721",
    "final_x": "3683386.28796",
    "final_y": "535897.179015",
    "longitude": "-90.06196075343972",
    "latitude": "29.967474016842644",
    "geocoded_column": {
      "latitude": "29.967474016842644",
      "longitude": "-90.06196075343972"
    }
  },
  {
    "service_request": "2023-974720",
    "request_type": "Health Related Request",
    "request_reason": "Noise Ordinance Complaint",
    "date_created": "2023-02-11T22:13:13.000",
    "date_modified": "2023-02-11T22:13:13.000",
    "request_status": "Pending",
    "responsible_agency": "Health Department",
    "final_address": "1700 Joseph Guillaume Pl",
    "address_councildis": "C",
    "status": "Pending",
    "rowid": "974720",
    "final_x": "3683386.28796",
    "final_y": "535897.179015",
    "longitude": "-90.06196075343972",
    "latitude": "29.967474016842644",
    "geocoded_column": {
      "latitude": "29.967474016842644",
      "longitude": "-90.06196075343972"
    }
  },
  {
    "service_request": "2023-974719",
    "request_type": "Health Related Request",
    "request_reason": "Noise Ordinance Complaint",
    "date_created": "2023-02-11T22:11:04.000",
    "date_modified": "2023-02-11T22:11:04.000",
    "request_status": "Pending",
    "responsible_agency": "Health Department",
    "final_address": "1743 Joseph Guillaume Pl",
    "address_councildis": "C",
    "status": "Pending",
    "rowid": "974719",
    "final_x": "3683422.6653",
    "final_y": "536077.737735",
    "longitude": "-90.06183954588981",
    "latitude": "29.96796938106549",
    "geocoded_column": {
      "latitude": "29.96796938106549",
      "longitude": "-90.06183954588981"
    }
  },
  {
    "service_request": "2023-974718",
    "request_type": "Health Related Request",
    "request_reason": "Noise Ordinance Complaint",
    "date_created": "2023-02-11T22:09:28.000",
    "date_modified": "2023-02-11T22:09:28.000",
    "request_status": "Pending",
    "responsible_agency": "Health Department",
    "final_address": "1741 Joseph Guillaume Pl",
    "address_councildis": "C",
    "status": "Pending",
    "rowid": "974718",
    "final_x": "3683387.55746",
    "final_y": "536056.503367",
    "longitude": "-90.06195116158344",
    "latitude": "29.96791206504851",
    "geocoded_column": {
      "latitude": "29.96791206504851",
      "longitude": "-90.06195116158344"
    }
  },
  {
    "service_request": "2023-974717",
    "request_type": "Health Related Request",
    "request_reason": "Noise Ordinance Complaint",
    "date_created": "2023-02-11T22:07:42.000",
    "date_modified": "2023-02-11T22:07:42.000",
    "request_status": "Pending",
    "responsible_agency": "Health Department",
    "final_address": "1743 Joseph Guillaume Pl",
    "address_councildis": "C",
    "status": "Pending",
    "rowid": "974717",
    "final_x": "3683422.6653",
    "final_y": "536077.737735",
    "longitude": "-90.06183954588981",
    "latitude": "29.96796938106549",
    "geocoded_column": {
      "latitude": "29.96796938106549",
      "longitude": "-90.06183954588981"
    }
  },
  {
    "service_request": "2023-974716",
    "request_type": "Trash/Recycling",
    "request_reason": "Order Recycling Cart",
    "date_created": "2023-02-11T21:15:23.000",
    "date_modified": "2023-02-11T21:15:23.000",
    "request_status": "Pending",
    "responsible_agency": "Department of Sanitation",
    "final_address": "1410 Joliet St",
    "address_councildis": "A",
    "status": "Pending",
    "rowid": "974716",
    "final_x": "3661426.32762",
    "final_y": "529964.631937",
    "longitude": "-90.13150759993422",
    "latitude": "29.95181314030859",
    "geocoded_column": {
      "latitude": "29.95181314030859",
      "longitude": "-90.13150759993422"
    }
  },
  {
    "service_request": "2023-974715",
    "request_type": "Property Maintenance",
    "request_reason": "Property Maintenance",
    "date_created": "2023-02-11T21:07:42.000",
    "date_modified": "2023-02-11T21:07:42.000",
    "request_status": "Pending",
    "responsible_agency": "Department of Code Enforcement",
    "final_address": "3627 St Ferdinand St",
    "address_councildis": "D",
    "status": "Pending",
    "rowid": "974715",
    "final_x": "3690038.83068",
    "final_y": "546515.218961",
    "longitude": "-90.04057365405012",
    "latitude": "29.99646519993442",
    "geocoded_column": {
      "latitude": "29.99646519993442",
      "longitude": "-90.04057365405012"
    }
  },
  {
    "service_request": "2023-974714",
    "request_type": "Parks & Parkways",
    "request_reason": "Request Tree Service (Right of Way/Public Property)",
    "date_created": "2023-02-11T20:22:25.000",
    "date_modified": "2023-02-11T20:22:26.000",
    "request_status": "Pending",
    "responsible_agency": "Department of Parks & Parkway",
    "final_address": "922 Chartres St",
    "address_councildis": "C",
    "status": "Pending",
    "rowid": "974714",
    "final_x": "3683435.7677",
    "final_y": "532953.090116",
    "longitude": "-90.06190766066062",
    "latitude": "29.959377274800687",
    "geocoded_column": {
      "latitude": "29.959377274800687",
      "longitude": "-90.06190766066062"
    }
  },
  {
    "service_request": "2023-974713",
    "request_type": "Trash/Recycling",
    "request_reason": "Request a Large Item Pick Up",
    "date_created": "2023-02-11T19:58:28.000",
    "date_modified": "2023-02-11T19:58:29.000",
    "request_status": "Pending",
    "responsible_agency": "Department of Sanitation",
    "final_address": "5594 Jacquelyn Ct",
    "address_councildis": "A",
    "status": "Assigned to Contractor",
    "contractor": "IV Waste",
    "rowid": "974713",
    "final_x": "3664675.1552",
    "final_y": "544951.515087",
    "longitude": "-90.12074852763057",
    "latitude": "29.99292799790847",
    "geocoded_column": {
      "latitude": "29.99292799790847",
      "longitude": "-90.12074852763057"
    }
  },
  {
    "service_request": "2023-974712",
    "request_type": "Roads/Drainage",
    "request_reason": "Pothole",
    "date_created": "2023-02-11T19:32:22.000",
    "date_modified": "2023-02-11T19:32:22.000",
    "request_status": "Pending",
    "responsible_agency": "Department of Public Works",
    "final_address": "3721 N Robertson St, New Orleans, Louisiana, 70117",
    "address_councildis": "D",
    "status": "Pending",
    "rowid": "974712",
    "final_x": "3691496.16374",
    "final_y": "536996.77588",
    "longitude": "-90.03631040150445",
    "latitude": "29.970247604621463",
    "geocoded_column": {
      "latitude": "29.970247604621463",
      "longitude": "-90.03631040150445"
    }
  },
  {
    "service_request": "2023-974711",
    "request_type": "Abandoned Vehicles",
    "request_reason": "Abandoned/Junk Vehicles",
    "date_created": "2023-02-11T19:06:04.000",
    "date_modified": "2023-02-11T19:06:05.000",
    "request_status": "Pending",
    "responsible_agency": "Department of Public Works",
    "final_address": "3108 Hollygrove St",
    "address_councildis": "A",
    "status": "Pending",
    "rowid": "974711",
    "final_x": "3664211.40122",
    "final_y": "535620.388742",
    "longitude": "-90.12252491838757",
    "latitude": "29.96728400919649",
    "geocoded_column": {
      "latitude": "29.96728400919649",
      "longitude": "-90.12252491838757"
    }
  },
  {
    "service_request": "2023-974710",
    "request_type": "Taxi Issues",
    "request_reason": "Taxi Complaint",
    "date_created": "2023-02-11T18:15:33.000",
    "date_modified": "2023-02-11T18:15:33.000",
    "request_status": "Pending",
    "responsible_agency": "Ground Transportation Bureau",
    "final_address": "1200 BLK Decatur St",
    "address_councildis": "C",
    "status": "Pending",
    "rowid": "974710",
    "final_x": "3684373.93371",
    "final_y": "533579.935252",
    "longitude": "-90.05892314437494",
    "latitude": "29.961072226691",
    "geocoded_column": {
      "latitude": "29.961072226691",
      "longitude": "-90.05892314437494"
    }
  },
  {
    "service_request": "2023-974709",
    "request_type": "Roads/Drainage",
    "request_reason": "Pothole",
    "date_created": "2023-02-11T17:53:43.000",
    "date_modified": "2023-02-11T17:53:43.000",
    "request_status": "Pending",
    "responsible_agency": "Department of Public Works",
    "final_address": "921 Touro St",
    "address_councildis": "C",
    "status": "Pending",
    "rowid": "974709",
    "final_x": "3684304.78876",
    "final_y": "535712.918919",
    "longitude": "-90.0590665861643",
    "latitude": "29.966939310871233",
    "geocoded_column": {
      "latitude": "29.966939310871233",
      "longitude": "-90.0590665861643"
    }
  },
  {
    "service_request": "2023-974708",
    "request_type": "Traffic Signals/Signs/Striping/Streetlights",
    "request_reason": "Street Light Outage/Malfunction",
    "date_created": "2023-02-11T17:48:14.000",
    "date_modified": "2023-02-11T17:48:15.000",
    "request_status": "Pending",
    "responsible_agency": "Department of Public Works",
    "final_address": "2021 Royal St",
    "address_councildis": "C",
    "status": "Assigned to Contractor",
    "contractor": "Legacy Professional Services",
    "rowid": "974708",
    "final_x": "3684527.59791",
    "final_y": "534848.98311",
    "longitude": "-90.05839331258237",
    "latitude": "29.964556970942553",
    "geocoded_column": {
      "latitude": "29.964556970942553",
      "longitude": "-90.05839331258237"
    }
  },
  {
    "service_request": "2023-974707",
    "request_type": "Traffic Signals/Signs/Striping/Streetlights",
    "request_reason": "Street Light Outage/Malfunction",
    "date_created": "2023-02-11T17:45:38.000",
    "date_modified": "2023-02-11T17:45:39.000",
    "request_status": "Pending",
    "responsible_agency": "Department of Public Works",
    "final_address": "2028 Royal St",
    "address_councildis": "C",
    "status": "Assigned to Contractor",
    "contractor": "Legacy Professional Services",
    "rowid": "974707",
    "final_x": "3684458.93417",
    "final_y": "534789.492358",
    "longitude": "-90.05861223726966",
    "latitude": "29.964395492459893",
    "geocoded_column": {
      "latitude": "29.964395492459893",
      "longitude": "-90.05861223726966"
    }
  },
  {
    "service_request": "2023-974706",
    "request_type": "Trash/Recycling",
    "request_reason": "Replace Trash Cart",
    "date_created": "2023-02-11T17:45:02.000",
    "date_modified": "2023-02-11T17:45:03.000",
    "request_status": "Pending",
    "responsible_agency": "Department of Sanitation",
    "final_address": "2239 Ursulines Ave",
    "address_councildis": "D",
    "status": "Assigned to Contractor",
    "contractor": "Richards Disposal",
    "rowid": "974706",
    "final_x": "3679049.5437",
    "final_y": "537124.73204",
    "longitude": "-90.07561372315428",
    "latitude": "29.970980964233814",
    "geocoded_column": {
      "latitude": "29.970980964233814",
      "longitude": "-90.07561372315428"
    }
  },
  {
    "service_request": "2023-974705",
    "request_type": "Traffic Signals/Signs/Striping/Streetlights",
    "request_reason": "Street Light Outage/Malfunction",
    "date_created": "2023-02-11T17:00:54.000",
    "date_modified": "2023-02-11T17:00:56.000",
    "request_status": "Pending",
    "responsible_agency": "Department of Public Works",
    "final_address": "2735 Constitution Pl",
    "address_councildis": "D",
    "status": "Assigned to Contractor",
    "contractor": "Legacy Professional Services",
    "rowid": "974705",
    "final_x": "3687698.92527",
    "final_y": "543019.414925",
    "longitude": "-90.04808911329695",
    "latitude": "29.986925374046674",
    "geocoded_column": {
      "latitude": "29.986925374046674",
      "longitude": "-90.04808911329695"
    }
  },
  {
    "service_request": "2023-974704",
    "request_type": "Trash/Recycling",
    "request_reason": "Replace Recycling Cart",
    "date_created": "2023-02-11T16:45:52.000",
    "date_modified": "2023-02-11T16:45:52.000",
    "request_status": "Pending",
    "responsible_agency": "Department of Sanitation",
    "final_address": "833 Ninth St",
    "address_councildis": "B",
    "status": "Pending",
    "rowid": "974704",
    "final_x": "3676346.57256",
    "final_y": "519374.250807",
    "longitude": "-90.08476090847552",
    "latitude": "29.922254328000392",
    "geocoded_column": {
      "latitude": "29.922254328000392",
      "longitude": "-90.08476090847552"
    }
  },
  {
    "service_request": "2023-974703",
    "request_type": "Trash/Recycling",
    "request_reason": "Request a Large Item Pick Up",
    "date_created": "2023-02-11T15:46:23.000",
    "date_modified": "2023-02-11T15:46:24.000",
    "request_status": "Pending",
    "responsible_agency": "Department of Sanitation",
    "final_address": "4624 Annunciation St",
    "address_councildis": "B",
    "status": "Assigned to Contractor",
    "contractor": "Richards Disposal",
    "rowid": "974703",
    "final_x": "3670197.64558",
    "final_y": "517620.651574",
    "longitude": "-90.10422996916266",
    "latitude": "29.917615287790653",
    "geocoded_column": {
      "latitude": "29.917615287790653",
      "longitude": "-90.10422996916266"
    }
  },
  {
    "service_request": "2023-974702",
    "request_type": "Trash/Recycling",
    "request_reason": "Request a Large Item Pick Up",
    "date_created": "2023-02-11T15:33:32.000",
    "date_modified": "2023-02-11T15:33:33.000",
    "request_status": "Pending",
    "responsible_agency": "Department of Sanitation",
    "final_address": "10311 Brookfield Dr",
    "address_councildis": "E",
    "status": "Assigned to Contractor",
    "contractor": "Waste Pro",
    "rowid": "974702",
    "final_x": "3710438.59787",
    "final_y": "563194.590688",
    "longitude": "-89.9755083481934",
    "latitude": "30.04167834977917",
    "geocoded_column": {
      "latitude": "30.04167834977917",
      "longitude": "-89.9755083481934"
    }
  },
  {
    "service_request": "2023-974701",
    "request_type": "Trash/Recycling",
    "request_reason": "Order Recycling Cart",
    "date_created": "2023-02-11T15:19:37.000",
    "date_modified": "2023-02-11T15:19:38.000",
    "request_status": "Pending",
    "responsible_agency": "Department of Sanitation",
    "final_address": "2032 Peniston St",
    "address_councildis": "B",
    "status": "Pending",
    "rowid": "974701",
    "final_x": "3672415.48014",
    "final_y": "522756.04729",
    "longitude": "-90.09705459966135",
    "latitude": "29.93167038096321",
    "geocoded_column": {
      "latitude": "29.93167038096321",
      "longitude": "-90.09705459966135"
    }
  },
  {
    "service_request": "2023-974700",
    "request_type": "Trash/Recycling",
    "request_reason": "Order Recycling Cart",
    "date_created": "2023-02-11T15:16:20.000",
    "date_modified": "2023-02-11T15:16:20.000",
    "request_status": "Pending",
    "responsible_agency": "Department of Sanitation",
    "final_address": "3821 Prytania St",
    "address_councildis": "B",
    "status": "Pending",
    "rowid": "974700",
    "final_x": "3672808.64123",
    "final_y": "520613.04716",
    "longitude": "-90.0958864931361",
    "latitude": "29.925766150743545",
    "geocoded_column": {
      "latitude": "29.925766150743545",
      "longitude": "-90.0958864931361"
    }
  },
  {
    "service_request": "2023-974699",
    "request_type": "Trash/Recycling",
    "request_reason": "Replace Recycling Cart",
    "date_created": "2023-02-11T15:09:38.000",
    "date_modified": "2023-02-11T15:09:38.000",
    "request_status": "Pending",
    "responsible_agency": "Department of Sanitation",
    "final_address": "2221 Calhoun St",
    "address_councildis": "A",
    "status": "Pending",
    "rowid": "974699",
    "final_x": "3665900.00122",
    "final_y": "525225.147837",
    "longitude": "-90.11754060127387",
    "latitude": "29.93865130723436",
    "geocoded_column": {
      "latitude": "29.93865130723436",
      "longitude": "-90.11754060127387"
    }
  },
  {
    "service_request": "2023-974698",
    "request_type": "Trash/Recycling",
    "request_reason": "Repair Recycling Cart",
    "date_created": "2023-02-11T15:07:26.000",
    "date_modified": "2023-02-11T15:07:26.000",
    "request_status": "Pending",
    "responsible_agency": "Department of Sanitation",
    "final_address": "2201 Wirth Pl",
    "address_councildis": "A",
    "status": "Pending",
    "rowid": "974698",
    "final_x": "3667086.09479",
    "final_y": "524236.837756",
    "longitude": "-90.11382917136925",
    "latitude": "29.935899113148388",
    "geocoded_column": {
      "latitude": "29.935899113148388",
      "longitude": "-90.11382917136925"
    }
  },
  {
    "service_request": "2023-974697",
    "request_type": "Trash/Recycling",
    "request_reason": "Request a Large Item Pick Up",
    "date_created": "2023-02-11T15:06:37.000",
    "date_modified": "2023-02-11T15:06:38.000",
    "request_status": "Pending",
    "responsible_agency": "Department of Sanitation",
    "final_address": "1421 General Collins Ave",
    "address_councildis": "C",
    "status": "Assigned to Contractor",
    "contractor": "Richards Disposal",
    "rowid": "974697",
    "final_x": "3698446.39504",
    "final_y": "525887.978749",
    "longitude": "-90.01476467102263",
    "latitude": "29.939484185015605",
    "geocoded_column": {
      "latitude": "29.939484185015605",
      "longitude": "-90.01476467102263"
    }
  },
  {
    "service_request": "2023-974696",
    "request_type": "Trash/Recycling",
    "request_reason": "MIssed Recycling Pick-Up",
    "date_created": "2023-02-11T15:05:03.000",
    "date_modified": "2023-02-11T15:05:04.000",
    "request_status": "Pending",
    "responsible_agency": "Department of Sanitation",
    "final_address": "8011 Sycamore St",
    "address_councildis": "A",
    "status": "Assigned to Contractor",
    "contractor": "Richards Disposal",
    "rowid": "974696",
    "final_x": "3664612.21447",
    "final_y": "530768.95821",
    "longitude": "-90.12142118284694",
    "latitude": "29.95393251074446",
    "geocoded_column": {
      "latitude": "29.95393251074446",
      "longitude": "-90.12142118284694"
    }
  },
  {
    "service_request": "2023-974695",
    "request_type": "Traffic Signals/Signs/Striping/Streetlights",
    "request_reason": "Street Light Outage/Malfunction",
    "date_created": "2023-02-11T14:39:51.000",
    "date_modified": "2023-02-11T14:39:51.000",
    "request_status": "Pending",
    "responsible_agency": "Department of Public Works",
    "final_address": "2021 Royal St",
    "address_councildis": "C",
    "status": "Assigned to Contractor",
    "contractor": "Legacy Professional Services",
    "rowid": "974695",
    "final_x": "3684527.59791",
    "final_y": "534848.98311",
    "longitude": "-90.05839331258237",
    "latitude": "29.964556970942553",
    "geocoded_column": {
      "latitude": "29.964556970942553",
      "longitude": "-90.05839331258237"
    }
  },
  {
    "service_request": "2023-974694",
    "request_type": "Traffic Signals/Signs/Striping/Streetlights",
    "request_reason": "Street Light Outage/Malfunction",
    "date_created": "2023-02-11T14:38:49.000",
    "date_modified": "2023-02-11T14:38:49.000",
    "request_status": "Pending",
    "responsible_agency": "Department of Public Works",
    "final_address": "2028 Royal St",
    "address_councildis": "C",
    "status": "Assigned to Contractor",
    "contractor": "Legacy Professional Services",
    "rowid": "974694",
    "final_x": "3684458.93417",
    "final_y": "534789.492358",
    "longitude": "-90.05861223726966",
    "latitude": "29.964395492459893",
    "geocoded_column": {
      "latitude": "29.964395492459893",
      "longitude": "-90.05861223726966"
    }
  },
  {
    "service_request": "2023-974693",
    "request_type": "Traffic Signals/Signs/Striping/Streetlights",
    "request_reason": "Traffic Sign Missing/Damaged",
    "date_created": "2023-02-11T14:27:08.000",
    "date_modified": "2023-02-11T14:27:08.000",
    "request_status": "Pending",
    "responsible_agency": "Department of Public Works",
    "final_address": "7120 Willow St",
    "address_councildis": "A",
    "status": "Pending",
    "rowid": "974693",
    "final_x": "3664630.20781",
    "final_y": "526998.64915",
    "longitude": "-90.12149027566139",
    "latitude": "29.94356485421478",
    "geocoded_column": {
      "latitude": "29.94356485421478",
      "longitude": "-90.12149027566139"
    }
  },
  {
    "service_request": "2023-974692",
    "request_type": "Trash/Recycling",
    "request_reason": "Order Recycling Cart",
    "date_created": "2023-02-11T14:26:54.000",
    "date_modified": "2023-02-11T14:26:54.000",
    "request_status": "Pending",
    "responsible_agency": "Department of Sanitation",
    "final_address": "2122 Lowerline St",
    "address_councildis": "A",
    "status": "Pending",
    "rowid": "974692",
    "final_x": "3665522.95207",
    "final_y": "529679.769473",
    "longitude": "-90.11858189531041",
    "latitude": "29.950911077817125",
    "geocoded_column": {
      "latitude": "29.950911077817125",
      "longitude": "-90.11858189531041"
    }
  },
  {
    "service_request": "2023-974691",
    "request_type": "Trash/Recycling",
    "request_reason": "Replace Trash Cart",
    "date_created": "2023-02-11T14:26:12.000",
    "date_modified": "2023-02-11T14:26:13.000",
    "request_status": "Pending",
    "responsible_agency": "Department of Sanitation",
    "final_address": "4519 Dale St",
    "address_councildis": "E",
    "status": "Assigned to Contractor",
    "contractor": "Waste Pro",
    "rowid": "974691",
    "final_x": "3699626.08554",
    "final_y": "553859.972503",
    "longitude": "-90.01002036361321",
    "latitude": "30.016359617096583",
    "geocoded_column": {
      "latitude": "30.016359617096583",
      "longitude": "-90.01002036361321"
    }
  },
  {
    "service_request": "2023-974689",
    "request_type": "Roads/Drainage",
    "request_reason": "Street Subsidence (Sinking)",
    "date_created": "2023-02-11T14:07:49.000",
    "date_modified": "2023-02-11T14:07:49.000",
    "request_status": "Pending",
    "responsible_agency": "Department of Public Works",
    "final_address": "3600 Bienville St, New Orleans, Louisiana, 70119",
    "status": "Pending",
    "rowid": "974689",
    "longitude": "0.0",
    "latitude": "0.0",
    "geocoded_column": {
      "latitude": "0.0",
      "longitude": "0.0"
    }
  },
  {
    "service_request": "2023-974688",
    "request_type": "Trash/Recycling",
    "request_reason": "Missed Trash Pick-Up",
    "date_created": "2023-02-11T14:01:11.000",
    "date_modified": "2023-02-11T14:01:12.000",
    "request_status": "Pending",
    "responsible_agency": "Department of Sanitation",
    "final_address": "3300 Aurora Dr",
    "address_councildis": "C",
    "status": "Assigned to Contractor",
    "contractor": "Richards Disposal",
    "rowid": "974688",
    "final_x": "3706984.11422",
    "final_y": "518681.002935",
    "longitude": "-89.98807731812023",
    "latitude": "29.919394625619677",
    "geocoded_column": {
      "latitude": "29.919394625619677",
      "longitude": "-89.98807731812023"
    }
  },
  {
    "service_request": "2023-974687",
    "request_type": "Trash/Recycling",
    "request_reason": "Missed Trash Pick-Up",
    "date_created": "2023-02-11T13:23:02.000",
    "date_modified": "2023-02-11T13:23:03.000",
    "request_status": "Pending",
    "responsible_agency": "Department of Sanitation",
    "final_address": "2004 Lapeyrouse St",
    "address_councildis": "D",
    "status": "Assigned to Contractor",
    "contractor": "IV Waste",
    "rowid": "974687",
    "final_x": "3680937.68175",
    "final_y": "538620.459465",
    "longitude": "-90.06959864382029",
    "latitude": "29.975036576390917",
    "geocoded_column": {
      "latitude": "29.975036576390917",
      "longitude": "-90.06959864382029"
    }
  },
  {
    "service_request": "2023-974686",
    "request_type": "Trash/Recycling",
    "request_reason": "MIssed Recycling Pick-Up",
    "date_created": "2023-02-11T13:21:35.000",
    "date_modified": "2023-02-11T13:21:36.000",
    "request_status": "Pending",
    "responsible_agency": "Department of Sanitation",
    "final_address": "2004 Lapeyrouse St",
    "address_councildis": "D",
    "status": "Assigned to Contractor",
    "contractor": "IV Waste",
    "rowid": "974686",
    "final_x": "3680937.68175",
    "final_y": "538620.459465",
    "longitude": "-90.06959864382029",
    "latitude": "29.975036576390917",
    "geocoded_column": {
      "latitude": "29.975036576390917",
      "longitude": "-90.06959864382029"
    }
  },
  {
    "service_request": "2023-974685",
    "request_type": "Trash/Recycling",
    "request_reason": "Illegal Dumping",
    "date_created": "2023-02-11T13:21:09.000",
    "date_modified": "2023-02-11T13:21:10.000",
    "request_status": "Pending",
    "responsible_agency": "Department of Sanitation",
    "final_address": "3500 BLK Gravier St",
    "address_councildis": "B",
    "status": "Pending",
    "rowid": "974685",
    "final_x": "3671028.86821",
    "final_y": "534855.218463",
    "longitude": "-90.10102120425631",
    "latitude": "29.964980199888885",
    "geocoded_column": {
      "latitude": "29.964980199888885",
      "longitude": "-90.10102120425631"
    }
  },
  {
    "service_request": "2023-974684",
    "request_type": "Roads/Drainage",
    "request_reason": "Pothole",
    "date_created": "2023-02-11T13:20:30.000",
    "date_modified": "2023-02-11T13:20:30.000",
    "request_status": "Pending",
    "responsible_agency": "Department of Public Works",
    "final_address": "3900 BLK N Robertson St",
    "address_councildis": "D",
    "status": "Pending",
    "rowid": "974684",
    "final_x": "3692017.9801",
    "final_y": "536832.074746",
    "longitude": "-90.03466835139716",
    "latitude": "29.969778483192226",
    "geocoded_column": {
      "latitude": "29.969778483192226",
      "longitude": "-90.03466835139716"
    }
  },
  {
    "service_request": "2023-974682",
    "request_type": "Parks & Parkways",
    "request_reason": "Request Tree Service (Right of Way/Public Property)",
    "date_created": "2023-02-11T13:10:54.000",
    "date_modified": "2023-02-11T13:10:54.000",
    "request_status": "Pending",
    "responsible_agency": "Department of Parks & Parkway",
    "final_address": "3930 Perrier St",
    "address_councildis": "B",
    "status": "Pending",
    "rowid": "974682",
    "final_x": "3672516.81671",
    "final_y": "520195.171",
    "longitude": "-90.0968219322253",
    "latitude": "29.924625787717115",
    "geocoded_column": {
      "latitude": "29.924625787717115",
      "longitude": "-90.0968219322253"
    }
  },
  {
    "service_request": "2023-974680",
    "request_type": "Roads/Drainage",
    "request_reason": "Pothole",
    "date_created": "2023-02-11T13:02:51.000",
    "date_modified": "2023-02-11T13:02:51.000",
    "request_status": "Pending",
    "responsible_agency": "Department of Public Works",
    "final_address": "3929 N Robertson St",
    "address_councildis": "D",
    "status": "Pending",
    "rowid": "974680",
    "final_x": "3692117.64355",
    "final_y": "536849.49748",
    "longitude": "-90.03435298255197",
    "latitude": "29.9698232832769",
    "geocoded_column": {
      "latitude": "29.9698232832769",
      "longitude": "-90.03435298255197"
    }
  },
  {
    "service_request": "2023-974679",
    "request_type": "Mosquito, Termite & Rodent Control",
    "request_reason": "Rodent Complaint (Rats)",
    "date_created": "2023-02-11T12:50:19.000",
    "date_modified": "2023-02-11T12:50:19.000",
    "request_status": "Pending",
    "responsible_agency": "Mosquito, Termite & Rodent Control Board",
    "final_address": "2707 Aubry St",
    "address_councildis": "D",
    "status": "Pending",
    "rowid": "974679",
    "final_x": "3679432.2061",
    "final_y": "541338.3835",
    "longitude": "-90.07425900262733",
    "latitude": "29.982555494285748",
    "geocoded_column": {
      "latitude": "29.982555494285748",
      "longitude": "-90.07425900262733"
    }
  },
  {
    "service_request": "2023-974678",
    "request_type": "Roads/Drainage",
    "request_reason": "Pothole",
    "date_created": "2023-02-11T12:31:06.000",
    "date_modified": "2023-02-11T12:31:06.000",
    "request_status": "Pending",
    "responsible_agency": "Department of Public Works",
    "final_address": "3140 Paris Ave",
    "address_councildis": "D",
    "status": "Pending",
    "rowid": "974678",
    "final_x": "3679714.99477",
    "final_y": "544136.154638",
    "longitude": "-90.07326863929907",
    "latitude": "29.990239839013274",
    "geocoded_column": {
      "latitude": "29.990239839013274",
      "longitude": "-90.07326863929907"
    }
  },
  {
    "service_request": "2023-974677",
    "request_type": "Property Maintenance",
    "request_reason": "Property Maintenance",
    "date_created": "2023-02-11T12:28:58.000",
    "date_modified": "2023-02-11T12:28:58.000",
    "request_status": "Pending",
    "responsible_agency": "Department of Code Enforcement",
    "final_address": "2548 Ursulines Ave",
    "address_councildis": "D",
    "status": "Pending",
    "rowid": "974677",
    "final_x": "3678084.33883",
    "final_y": "537713.094856",
    "longitude": "-90.07864162016224",
    "latitude": "29.97262785625664",
    "geocoded_column": {
      "latitude": "29.97262785625664",
      "longitude": "-90.07864162016224"
    }
  },
  {
    "service_request": "2023-974676",
    "request_type": "Trash/Recycling",
    "request_reason": "Illegal Dumping",
    "date_created": "2023-02-11T12:24:42.000",
    "date_modified": "2023-02-11T12:24:42.000",
    "request_status": "Pending",
    "responsible_agency": "Department of Code Enforcement",
    "final_address": "2123 Carondelet St",
    "address_councildis": "B",
    "status": "Pending",
    "rowid": "974676",
    "final_x": "3677501.53333",
    "final_y": "524148.812284",
    "longitude": "-90.08095044393541",
    "latitude": "29.93534816092282",
    "geocoded_column": {
      "latitude": "29.93534816092282",
      "longitude": "-90.08095044393541"
    }
  },
  {
    "service_request": "2023-974675",
    "request_type": "Taxi Issues",
    "request_reason": "Taxi Complaint",
    "date_created": "2023-02-11T12:22:00.000",
    "date_modified": "2023-02-11T12:22:02.000",
    "request_status": "Pending",
    "responsible_agency": "Ground Transportation Bureau",
    "final_address": "3700 BLK Banks St",
    "address_councildis": "B",
    "status": "Pending",
    "rowid": "974675",
    "final_x": "3671463.77121",
    "final_y": "536522.011389",
    "longitude": "-90.09959112918861",
    "latitude": "29.969550453497973",
    "geocoded_column": {
      "latitude": "29.969550453497973",
      "longitude": "-90.09959112918861"
    }
  },
  {
    "service_request": "2023-974674",
    "request_type": "Roads/Drainage",
    "request_reason": "Unpermitted work in ROW",
    "date_created": "2023-02-11T12:21:46.000",
    "date_modified": "2023-02-11T12:21:46.000",
    "request_status": "Pending",
    "responsible_agency": "Department of Public Works",
    "final_address": "223 Spencer Ave",
    "address_councildis": "A",
    "status": "Pending",
    "rowid": "974674",
    "final_x": "3665782.73549",
    "final_y": "553679.614935",
    "longitude": "-90.1169571840595",
    "latitude": "30.016894976171237",
    "geocoded_column": {
      "latitude": "30.016894976171237",
      "longitude": "-90.1169571840595"
    }
  },
  {
    "service_request": "2023-974673",
    "request_type": "Trash/Recycling",
    "request_reason": "Order Trash Cart",
    "date_created": "2023-02-11T12:20:20.000",
    "date_modified": "2023-02-11T12:20:20.000",
    "request_status": "Pending",
    "responsible_agency": "Department of Sanitation",
    "final_address": "5520 Red Maple Dr",
    "address_councildis": "E",
    "status": "Assigned to Contractor",
    "contractor": "Waste Pro",
    "rowid": "974673",
    "final_x": "3723365.14649",
    "final_y": "563661.026145",
    "longitude": "-89.93463826455114",
    "latitude": "30.042533332661062",
    "geocoded_column": {
      "latitude": "30.042533332661062",
      "longitude": "-89.93463826455114"
    }
  },
  {
    "service_request": "2023-974672",
    "request_type": "Trash/Recycling",
    "request_reason": "Missed Trash Pick-Up",
    "date_created": "2023-02-11T12:18:39.000",
    "date_modified": "2023-02-11T16:14:55.000",
    "request_status": "Pending",
    "responsible_agency": "Department of Sanitation",
    "final_address": "1497 Gardena Dr",
    "address_councildis": "D",
    "status": "Assigned to Contractor",
    "contractor": "IV Waste",
    "rowid": "974672",
    "final_x": "3678441.37275",
    "final_y": "551586.145493",
    "longitude": "-90.0770336691967",
    "latitude": "30.010763121380517",
    "geocoded_column": {
      "latitude": "30.010763121380517",
      "longitude": "-90.0770336691967"
    }
  },
  {
    "service_request": "2023-974671",
    "request_type": "Trash/Recycling",
    "request_reason": "Illegal Dumping",
    "date_created": "2023-02-11T12:10:36.000",
    "date_modified": "2023-02-11T12:10:36.000",
    "request_status": "Pending",
    "responsible_agency": "Department of Sanitation",
    "final_address": "2526 Philip St",
    "address_councildis": "B",
    "status": "Pending",
    "rowid": "974671",
    "final_x": "3675173.18536",
    "final_y": "526263.85235",
    "longitude": "-90.08822849690931",
    "latitude": "29.94123359813029",
    "geocoded_column": {
      "latitude": "29.94123359813029",
      "longitude": "-90.08822849690931"
    }
  },
  {
    "service_request": "2023-974670",
    "request_type": "Trash/Recycling",
    "request_reason": "Missed Trash Pick-Up",
    "date_created": "2023-02-11T11:38:48.000",
    "date_modified": "2023-02-11T11:38:49.000",
    "request_status": "Pending",
    "responsible_agency": "Department of Sanitation",
    "final_address": "7626 Hayne Blvd",
    "address_councildis": "E",
    "status": "Assigned to Contractor",
    "contractor": "Waste Pro",
    "rowid": "974670",
    "final_x": "3700548.55581",
    "final_y": "562162.727839",
    "longitude": "-90.0068020783592",
    "latitude": "30.039159669630823",
    "geocoded_column": {
      "latitude": "30.039159669630823",
      "longitude": "-90.0068020783592"
    }
  },
  {
    "service_request": "2023-974669",
    "request_type": "Traffic Signals/Signs/Striping/Streetlights",
    "request_reason": "Traffic Sign Missing/Damaged",
    "date_created": "2023-02-11T11:33:11.000",
    "date_modified": "2023-02-11T11:33:11.000",
    "request_status": "Pending",
    "responsible_agency": "Department of Public Works",
    "final_address": "9600 Lake Forest Blvd",
    "address_councildis": "E",
    "status": "Pending",
    "rowid": "974669",
    "final_x": "3708616.80081",
    "final_y": "558345.998684",
    "longitude": "-89.98144663383816",
    "latitude": "30.028405874469446",
    "geocoded_column": {
      "latitude": "30.028405874469446",
      "longitude": "-89.98144663383816"
    }
  },
  {
    "service_request": "2023-974668",
    "request_type": "Trash/Recycling",
    "request_reason": "MIssed Recycling Pick-Up",
    "date_created": "2023-02-11T11:31:46.000",
    "date_modified": "2023-02-11T11:31:47.000",
    "request_status": "Pending",
    "responsible_agency": "Department of Sanitation",
    "final_address": "2615 Orleans Ave",
    "address_councildis": "D",
    "status": "Assigned to Contractor",
    "contractor": "Richards Disposal",
    "rowid": "974668",
    "final_x": "3677143.9595",
    "final_y": "536815.478024",
    "longitude": "-90.08164247830935",
    "latitude": "29.970187996699345",
    "geocoded_column": {
      "latitude": "29.970187996699345",
      "longitude": "-90.08164247830935"
    }
  },
  {
    "service_request": "2023-974667",
    "request_type": "Roads/Drainage",
    "request_reason": "Debris in Roadway",
    "date_created": "2023-02-11T11:31:31.000",
    "date_modified": "2023-02-11T11:31:31.000",
    "request_status": "Pending",
    "responsible_agency": "Department of Public Works",
    "final_address": "9800 Lake Forest Blvd",
    "address_councildis": "E",
    "status": "Pending",
    "rowid": "974667",
    "final_x": "3709283.69912",
    "final_y": "558662.502684",
    "longitude": "-89.97932747113909",
    "latitude": "30.029254484440223",
    "geocoded_column": {
      "latitude": "30.029254484440223",
      "longitude": "-89.97932747113909"
    }
  },
  {
    "service_request": "2023-974666",
    "request_type": "Trash/Recycling",
    "request_reason": "Missed Trash Pick-Up",
    "date_created": "2023-02-11T11:27:37.000",
    "date_modified": "2023-02-11T11:27:38.000",
    "request_status": "Pending",
    "responsible_agency": "Department of Sanitation",
    "final_address": "1220 Gallier St",
    "address_councildis": "C",
    "status": "Assigned to Contractor",
    "contractor": "IV Waste",
    "rowid": "974666",
    "final_x": "3690564.23542",
    "final_y": "536177.716295",
    "longitude": "-90.03928273286918",
    "latitude": "29.96802445196129",
    "geocoded_column": {
      "latitude": "29.96802445196129",
      "longitude": "-90.03928273286918"
    }
  },
  {
    "service_request": "2023-974665",
    "request_type": "Trash/Recycling",
    "request_reason": "Missed Trash Pick-Up",
    "date_created": "2023-02-11T11:05:06.000",
    "date_modified": "2023-02-11T11:05:47.000",
    "request_status": "Pending",
    "responsible_agency": "Department of Sanitation",
    "final_address": "8830 Palmetto St",
    "address_councildis": "A",
    "status": "Assigned to Contractor",
    "contractor": "Richards Disposal",
    "rowid": "974665",
    "final_x": "3666077.50682",
    "final_y": "536903.405832",
    "longitude": "-90.11658868461363",
    "latitude": "29.970757527790656",
    "geocoded_column": {
      "latitude": "29.970757527790656",
      "longitude": "-90.11658868461363"
    }
  },
  {
    "service_request": "2023-974664",
    "request_type": "Trash/Recycling",
    "request_reason": "Request a Large Item Pick Up",
    "date_created": "2023-02-11T10:50:11.000",
    "date_modified": "2023-02-11T10:50:12.000",
    "request_status": "Pending",
    "responsible_agency": "Department of Sanitation",
    "final_address": "2126 Franklin Ave, New Orleans ",
    "address_councildis": "D",
    "status": "Assigned to Contractor",
    "contractor": "IV Waste",
    "rowid": "974664",
    "final_x": "3687521.21878",
    "final_y": "540450.653195",
    "longitude": "-90.04874138457517",
    "latitude": "29.97986767124855",
    "geocoded_column": {
      "latitude": "29.97986767124855",
      "longitude": "-90.04874138457517"
    }
  },
  {
    "service_request": "2023-974662",
    "request_type": "Property Maintenance",
    "request_reason": "Property Maintenance",
    "date_created": "2023-02-11T10:37:10.000",
    "date_modified": "2023-02-11T10:37:10.000",
    "request_status": "Pending",
    "responsible_agency": "Department of Code Enforcement",
    "final_address": "1208 Marigny St",
    "address_councildis": "C",
    "status": "Pending",
    "rowid": "974662",
    "final_x": "3685353.90127",
    "final_y": "536805.2338",
    "longitude": "-90.05571503049937",
    "latitude": "29.969910675505904",
    "geocoded_column": {
      "latitude": "29.969910675505904",
      "longitude": "-90.05571503049937"
    }
  },
  {
    "service_request": "2023-974661",
    "request_type": "Property Maintenance",
    "request_reason": "Property Maintenance",
    "date_created": "2023-02-11T10:35:17.000",
    "date_modified": "2023-02-11T10:35:17.000",
    "request_status": "Pending",
    "responsible_agency": "Department of Code Enforcement",
    "final_address": "1200 Marigny St",
    "address_councildis": "C",
    "status": "Pending",
    "rowid": "974661",
    "final_x": "3685361.54799",
    "final_y": "536733.108423",
    "longitude": "-90.05569342125638",
    "latitude": "29.96971212137017",
    "geocoded_column": {
      "latitude": "29.96971212137017",
      "longitude": "-90.05569342125638"
    }
  },
  {
    "service_request": "2023-974659",
    "request_type": "Property Maintenance",
    "request_reason": "Property Maintenance",
    "date_created": "2023-02-11T10:31:18.000",
    "date_modified": "2023-02-11T10:31:18.000",
    "request_status": "Pending",
    "responsible_agency": "Department of Code Enforcement",
    "final_address": "1128 Marigny St",
    "address_councildis": "C",
    "status": "Pending",
    "rowid": "974659",
    "final_x": "3685369.07081",
    "final_y": "536637.990599",
    "longitude": "-90.05567301303981",
    "latitude": "29.969450349791025",
    "geocoded_column": {
      "latitude": "29.969450349791025",
      "longitude": "-90.05567301303981"
    }
  },
  {
    "service_request": "2023-974658",
    "request_type": "Trash/Recycling",
    "request_reason": "Order Trash Cart",
    "date_created": "2023-02-11T10:28:54.000",
    "date_modified": "2023-02-11T10:28:55.000",
    "request_status": "Pending",
    "responsible_agency": "Department of Sanitation",
    "final_address": "1538 Flood St",
    "address_councildis": "E",
    "status": "Assigned to Contractor",
    "contractor": "Waste Pro",
    "rowid": "974658",
    "final_x": "3698122.91351",
    "final_y": "535509.484294",
    "longitude": "-90.01543656392076",
    "latitude": "29.96595016765192",
    "geocoded_column": {
      "latitude": "29.96595016765192",
      "longitude": "-90.01543656392076"
    }
  },
  {
    "service_request": "2023-974657",
    "request_type": "Property Maintenance",
    "request_reason": "Property Maintenance",
    "date_created": "2023-02-11T10:28:16.000",
    "date_modified": "2023-02-11T10:28:16.000",
    "request_status": "Pending",
    "responsible_agency": "Department of Code Enforcement",
    "final_address": "2705 N Roman St",
    "address_councildis": "D",
    "status": "Pending",
    "rowid": "974657",
    "final_x": "3688159.27286",
    "final_y": "539029.030218",
    "longitude": "-90.04677656764456",
    "latitude": "29.975939026455233",
    "geocoded_column": {
      "latitude": "29.975939026455233",
      "longitude": "-90.04677656764456"
    }
  },
  {
    "service_request": "2023-974656",
    "request_type": "Trash/Recycling",
    "request_reason": "Illegal Dumping",
    "date_created": "2023-02-11T10:24:13.000",
    "date_modified": "2023-02-11T10:24:13.000",
    "request_status": "Pending",
    "responsible_agency": "Department of Sanitation",
    "final_address": "8734 Apricot St",
    "address_councildis": "A",
    "status": "Pending",
    "rowid": "974656",
    "final_x": "3664019.632",
    "final_y": "534212.130437",
    "longitude": "-90.1231775000922",
    "latitude": "29.96341733218351",
    "geocoded_column": {
      "latitude": "29.96341733218351",
      "longitude": "-90.1231775000922"
    }
  },
  {
    "service_request": "2023-974655",
    "request_type": "Traffic Signals/Signs/Striping/Streetlights",
    "request_reason": "Traffic Sign Missing/Damaged",
    "date_created": "2023-02-11T10:12:01.000",
    "date_modified": "2023-02-11T10:12:01.000",
    "request_status": "Pending",
    "responsible_agency": "Department of Public Works",
    "final_address": "2857 Carondelet St",
    "address_councildis": "B",
    "status": "Pending",
    "rowid": "974655",
    "final_x": "3675294.98101",
    "final_y": "522619.760634",
    "longitude": "-90.08796900843292",
    "latitude": "29.931209896788122",
    "geocoded_column": {
      "latitude": "29.931209896788122",
      "longitude": "-90.08796900843292"
    }
  },
  {
    "service_request": "2023-974654",
    "request_type": "Abandoned Vehicles",
    "request_reason": "Abandoned/Junk Vehicles",
    "date_created": "2023-02-11T10:10:21.000",
    "date_modified": "2023-02-11T10:15:22.000",
    "request_status": "Pending",
    "responsible_agency": "Department of Public Works",
    "final_address": "FRERET ST & NAPOLEON AVE",
    "address_councildis": "B",
    "status": "Pending",
    "rowid": "974654",
    "final_x": "3670575.6",
    "final_y": "524047.98",
    "longitude": "-90.10281910815539",
    "latitude": "29.935277235589393",
    "geocoded_column": {
      "latitude": "29.935277235589393",
      "longitude": "-90.10281910815539"
    }
  },
  {
    "service_request": "2023-974653",
    "request_type": "Traffic Signals/Signs/Striping/Streetlights",
    "request_reason": "Street Light Outage/Malfunction",
    "date_created": "2023-02-11T10:03:51.000",
    "date_modified": "2023-02-11T10:03:52.000",
    "request_status": "Pending",
    "responsible_agency": "Department of Public Works",
    "final_address": "9700 W Wheaton Cir",
    "address_councildis": "E",
    "status": "Assigned to Contractor",
    "contractor": "Legacy Professional Services",
    "rowid": "974653",
    "final_x": "3708628.29604",
    "final_y": "562086.994271",
    "longitude": "-89.98127082130563",
    "latitude": "30.038691761469998",
    "geocoded_column": {
      "latitude": "30.038691761469998",
      "longitude": "-89.98127082130563"
    }
  },
  {
    "service_request": "2023-974651",
    "request_type": "Traffic Signals/Signs/Striping/Streetlights",
    "request_reason": "Street Light Outage/Malfunction",
    "date_created": "2023-02-11T09:58:35.000",
    "date_modified": "2023-02-11T09:58:36.000",
    "request_status": "Pending",
    "responsible_agency": "Department of Public Works",
    "final_address": "9706 W Wheaton Cir",
    "address_councildis": "E",
    "status": "Assigned to Contractor",
    "contractor": "Legacy Professional Services",
    "rowid": "974651",
    "final_x": "3708574.62411",
    "final_y": "562057.734175",
    "longitude": "-89.98144152875413",
    "latitude": "30.038613049098057",
    "geocoded_column": {
      "latitude": "30.038613049098057",
      "longitude": "-89.98144152875413"
    }
  },
  {
    "service_request": "2023-974650",
    "request_type": "Trash/Recycling",
    "request_reason": "MIssed Recycling Pick-Up",
    "date_created": "2023-02-11T09:50:53.000",
    "date_modified": "2023-02-11T09:50:54.000",
    "request_status": "Pending",
    "responsible_agency": "Department of Sanitation",
    "final_address": "717 Fern St",
    "address_councildis": "A",
    "status": "Assigned to Contractor",
    "contractor": "Richards Disposal",
    "rowid": "974650",
    "final_x": "3661507.27315",
    "final_y": "526659.942014",
    "longitude": "-90.1313614693624",
    "latitude": "29.942723964633444",
    "geocoded_column": {
      "latitude": "29.942723964633444",
      "longitude": "-90.1313614693624"
    }
  },