[
  {
    "service_request": "2026-1275188",
    "request_type": "Roads and Streets",
    "request_reason": "Sidewalk Damaged or Missing",
    "date_created": "2026-04-20T22:10:49.000",
    "date_modified": "2026-04-20T22:10:50.000",
    "request_status": "Pending",
    "responsible_agency": "Department of Public Works",
    "final_address": "4108 Mithra St",
    "address_councildis": "D",
    "status": "Pending",
    "rowid": "1275188",
    "final_x": "3689083.73993",
    "final_y": "552987.555479",
    "longitude": "-90.04336054121029",
    "latitude": "30.01429135285408",
    "geocoded_column": {
      "latitude": "30.01429135285408",
      "longitude": "-90.04336054121029"
    }
  },
  {
    "service_request": "2026-1275187",
    "request_type": "Trash/Recycling",
    "request_reason": "Replace Trash Cart",
    "date_created": "2026-04-20T22:10:27.000",
    "date_modified": "2026-04-20T22:10:30.000",
    "request_status": "Pending",
    "responsible_agency": "Department of Sanitation",
    "final_address": "1946 Gentilly Blvd",
    "address_councildis": "D",
    "status": "Assigned to Contractor",
    "contractor": "IV Waste",
    "rowid": "1275187",
    "final_x": "3679631.18664",
    "final_y": "543591.63515",
    "longitude": "-90.07355227761602",
    "latitude": "29.988745135449715",
    "geocoded_column": {
      "latitude": "29.988745135449715",
      "longitude": "-90.07355227761602"
    }
  },
  {
    "service_request": "2026-1275186",
    "request_type": "Streetlights",
    "request_reason": "Streetlight Outage/Malfunction",
    "date_created": "2026-04-20T21:38:39.000",
    "date_modified": "2026-04-20T21:38:41.000",
    "request_status": "Pending",
    "responsible_agency": "Department of Public Works",
    "final_address": "5315 Paris Ave",
    "address_councildis": "D",
    "status": "Pending",
    "rowid": "1275186",
    "final_x": "3679312.78466",
    "final_y": "551663.302037",
    "longitude": "-90.07427786102944",
    "latitude": "30.010948974823506",
    "geocoded_column": {
      "latitude": "30.010948974823506",
      "longitude": "-90.07427786102944"
    }
  },
  {
    "service_request": "2026-1275185",
    "request_type": "Trash/Recycling",
    "request_reason": "Order Trash Cart",
    "date_created": "2026-04-20T21:32:16.000",
    "date_modified": "2026-04-20T21:32:18.000",
    "request_status": "Pending",
    "responsible_agency": "Department of Sanitation",
    "final_address": "8817 Palm St",
    "address_councildis": "A",
    "status": "Assigned to Contractor",
    "contractor": "IV Waste",
    "rowid": "1275185",
    "final_x": "3665802.37773",
    "final_y": "536488.772423",
    "longitude": "-90.11747147440724",
    "latitude": "29.969625453916905",
    "geocoded_column": {
      "latitude": "29.969625453916905",
      "longitude": "-90.11747147440724"
    }
  },
  {
    "service_request": "2026-1275184",
    "request_type": "Health Related Request",
    "request_reason": "Noise Ordinance Complaint",
    "date_created": "2026-04-20T21:28:39.000",
    "date_modified": "2026-04-20T21:28:41.000",
    "request_status": "Pending",
    "responsible_agency": "Health Department",
    "final_address": "801 Bourbon St, New Orleans, Louisiana, 70116",
    "address_councildis": "C",
    "status": "Pending",
    "rowid": "1275184",
    "final_x": "3682490.98735",
    "final_y": "533018.672772",
    "longitude": "-90.06488875731978",
    "latitude": "29.959586396383013",
    "geocoded_column": {
      "latitude": "29.959586396383013",
      "longitude": "-90.06488875731978"
    }
  },
  {
    "service_request": "2026-1275183",
    "request_type": "Health Related Request",
    "request_reason": "Noise Ordinance Complaint",
    "date_created": "2026-04-20T21:15:43.000",
    "date_modified": "2026-04-20T21:15:45.000",
    "request_status": "Pending",
    "responsible_agency": "Health Department",
    "final_address": "801 Bourbon St, New Orleans, Louisiana, 70116",
    "address_councildis": "C",
    "status": "Pending",
    "rowid": "1275183",
    "final_x": "3682490.98735",
    "final_y": "533018.672772",
    "longitude": "-90.06488875731978",
    "latitude": "29.959586396383013",
    "geocoded_column": {
      "latitude": "29.959586396383013",
      "longitude": "-90.06488875731978"
    }
  },
  {
    "service_request": "2026-1275182",
    "request_type": "Health Related Request",
    "request_reason": "Noise Ordinance Complaint",
    "date_created": "2026-04-20T21:14:28.000",
    "date_modified": "2026-04-20T21:14:31.000",
    "request_status": "Pending",
    "responsible_agency": "Health Department",
    "final_address": "801 Bourbon St, New Orleans, Louisiana, 70116",
    "address_councildis": "C",
    "status": "Pending",
    "rowid": "1275182",
    "final_x": "3682490.98735",
    "final_y": "533018.672772",
    "longitude": "-90.06488875731978",
    "latitude": "29.959586396383013",
    "geocoded_column": {
      "latitude": "29.959586396383013",
      "longitude": "-90.06488875731978"
    }
  },
  {
    "service_request": "2026-1275181",
    "request_type": "Tree Service",
    "request_reason": "Tree Trim",
    "date_created": "2026-04-20T20:51:24.000",
    "date_modified": "2026-04-20T20:51:26.000",
    "request_status": "Pending",
    "responsible_agency": "Department of Parks & Parkways",
    "final_address": "237 Bermuda St",
    "address_councildis": "C",
    "status": "Pending",
    "rowid": "1275181",
    "final_x": "3686210.57366",
    "final_y": "530802.918338",
    "longitude": "-90.05322135408878",
    "latitude": "29.953380088967023",
    "geocoded_column": {
      "latitude": "29.953380088967023",
      "longitude": "-90.05322135408878"
    }
  },
  {
    "service_request": "2026-1275180",
    "request_type": "Utility Poles",
    "request_reason": "Wires Sagging/Hanging Low",
    "date_created": "2026-04-20T20:27:24.000",
    "date_modified": "2026-04-20T20:27:27.000",
    "request_status": "Pending",
    "responsible_agency": "Utility Company Collective",
    "final_address": "1369 Holiday Pl",
    "address_councildis": "C",
    "status": "Pending",
    "rowid": "1275180",
    "final_x": "3698927.93034",
    "final_y": "526146.572798",
    "longitude": "-90.0132350034238",
    "latitude": "29.940179983320874",
    "geocoded_column": {
      "latitude": "29.940179983320874",
      "longitude": "-90.0132350034238"
    }
  },
  {
    "service_request": "2026-1275179",
    "request_type": "Trash/Recycling",
    "request_reason": "Repair Trash Cart",
    "date_created": "2026-04-20T20:12:56.000",
    "date_modified": "2026-04-20T20:12:58.000",
    "request_status": "Pending",
    "responsible_agency": "Department of Sanitation",
    "final_address": "4610 Toulouse St",
    "address_councildis": "A",
    "status": "Assigned to Contractor",
    "contractor": "IV Waste",
    "rowid": "1275179",
    "final_x": "3670382.45652",
    "final_y": "541080.219148",
    "longitude": "-90.10285143579733",
    "latitude": "29.982115953748846",
    "geocoded_column": {
      "latitude": "29.982115953748846",
      "longitude": "-90.10285143579733"
    }
  },
  {
    "service_request": "2026-1275178",
    "request_type": "Roads and Streets",
    "request_reason": "Pothole",
    "date_created": "2026-04-20T19:59:36.000",
    "date_modified": "2026-04-20T19:59:38.000",
    "request_status": "Pending",
    "responsible_agency": "Department of Public Works",
    "final_address": "437 Vallette St",
    "address_councildis": "C",
    "status": "Pending",
    "rowid": "1275178",
    "final_x": "3687504.30658",
    "final_y": "530044.813889",
    "longitude": "-90.04916313587036",
    "latitude": "29.95125575647938",
    "geocoded_column": {
      "latitude": "29.95125575647938",
      "longitude": "-90.04916313587036"
    }
  },
  {
    "service_request": "2026-1275177",
    "request_type": "Streetlights",
    "request_reason": "Streetlight Outage/Malfunction",
    "date_created": "2026-04-20T19:57:30.000",
    "date_modified": "2026-04-20T19:57:33.000",
    "request_status": "Pending",
    "responsible_agency": "Department of Public Works",
    "final_address": "8117 Apple St",
    "address_councildis": "A",
    "status": "Pending",
    "rowid": "1275177",
    "final_x": "3665287.91181",
    "final_y": "532221.242947",
    "longitude": "-90.1192390097369",
    "latitude": "29.95790615234316",
    "geocoded_column": {
      "latitude": "29.95790615234316",
      "longitude": "-90.1192390097369"
    }
  },
  {
    "service_request": "2026-1275176",
    "request_type": "Trash/Recycling",
    "request_reason": "Replace Recycling Cart",
    "date_created": "2026-04-20T19:36:58.000",
    "date_modified": "2026-04-20T19:37:00.000",
    "request_status": "Pending",
    "responsible_agency": "Department of Sanitation",
    "final_address": "61 Versailles Blvd",
    "address_councildis": "B",
    "status": "Pending",
    "rowid": "1275176",
    "final_x": "3667728.63988",
    "final_y": "530239.374657",
    "longitude": "-90.11159858373334",
    "latitude": "29.952385328638137",
    "geocoded_column": {
      "latitude": "29.952385328638137",
      "longitude": "-90.11159858373334"
    }
  },
  {
    "service_request": "2026-1275175",
    "request_type": "Trash/Recycling",
    "request_reason": "Request a Large Item Pick Up",
    "date_created": "2026-04-20T19:36:14.000",
    "date_modified": "2026-04-20T19:36:16.000",
    "request_status": "Pending",
    "responsible_agency": "Department of Sanitation",
    "final_address": "11424 S Easterlyn Cir",
    "address_councildis": "E",
    "status": "Assigned to Contractor",
    "contractor": "Waste Pro",
    "rowid": "1275175",
    "final_x": "3718899.22162",
    "final_y": "560458.236062",
    "longitude": "-89.94887447822983",
    "latitude": "30.033876098854947",
    "geocoded_column": {
      "latitude": "30.033876098854947",
      "longitude": "-89.94887447822983"
    }
  },
  {
    "service_request": "2026-1275174",
    "request_type": "Trash/Recycling",
    "request_reason": "Replace Trash Cart",
    "date_created": "2026-04-20T19:35:12.000",
    "date_modified": "2026-04-20T19:35:15.000",
    "request_status": "Pending",
    "responsible_agency": "Department of Sanitation",
    "final_address": "61 Versailles Blvd",
    "address_councildis": "B",
    "status": "Assigned to Contractor",
    "contractor": "IV Waste",
    "rowid": "1275174",
    "final_x": "3667728.63988",
    "final_y": "530239.374657",
    "longitude": "-90.11159858373334",
    "latitude": "29.952385328638137",
    "geocoded_column": {
      "latitude": "29.952385328638137",
      "longitude": "-90.11159858373334"
    }
  },
  {
    "service_request": "2026-1275173",
    "request_type": "Abandoned Vehicles",
    "request_reason": "Abandoned/Junk Vehicles",
    "date_created": "2026-04-20T19:26:00.000",
    "date_modified": "2026-04-20T19:26:02.000",
    "request_status": "Pending",
    "responsible_agency": "Department of Public Works",
    "final_address": "1410 Port St",
    "address_councildis": "C",
    "status": "Pending",
    "rowid": "1275173",
    "final_x": "3687706.21507",
    "final_y": "537608.321224",
    "longitude": "-90.04825777274858",
    "latitude": "29.97204655577204",
    "geocoded_column": {
      "latitude": "29.97204655577204",
      "longitude": "-90.04825777274858"
    }
  },
  {
    "service_request": "2026-1275172",
    "request_type": "Trash/Recycling",
    "request_reason": "Request a Large Item Pick Up",
    "date_created": "2026-04-20T19:14:13.000",
    "date_modified": "2026-04-20T19:14:14.000",
    "request_status": "Pending",
    "responsible_agency": "Department of Sanitation",
    "final_address": "2305 Soniat St",
    "address_councildis": "B",
    "status": "Assigned to Contractor",
    "contractor": "IV Waste",
    "rowid": "1275172",
    "final_x": "3668553.27086",
    "final_y": "523989.816956",
    "longitude": "-90.10920558381487",
    "latitude": "29.935176867600692",
    "geocoded_column": {
      "latitude": "29.935176867600692",
      "longitude": "-90.10920558381487"
    }
  },
  {
    "service_request": "2026-1275171",
    "request_type": "Tree Service",
    "request_reason": "Tree Trim",
    "date_created": "2026-04-20T19:13:53.000",
    "date_modified": "2026-04-20T19:13:55.000",
    "request_status": "Pending",
    "responsible_agency": "Department of Parks & Parkways",
    "final_address": "5428 Elysian Fields Ave",
    "address_councildis": "D",
    "status": "Pending",
    "rowid": "1275171",
    "final_x": "3683570.00169",
    "final_y": "552705.306454",
    "longitude": "-90.06079108536572",
    "latitude": "30.013684796637275",
    "geocoded_column": {
      "latitude": "30.013684796637275",
      "longitude": "-90.06079108536572"
    }
  },
  {
    "service_request": "2026-1275170",
    "request_type": "Trash/Recycling",
    "request_reason": "Repair Recycling Cart",
    "date_created": "2026-04-20T19:12:54.000",
    "date_modified": "2026-04-20T19:12:59.000",
    "request_status": "Pending",
    "responsible_agency": "Department of Sanitation",
    "final_address": "245 Belleville St",
    "address_councildis": "C",
    "status": "Pending",
    "rowid": "1275170",
    "final_x": "3687865.86998",
    "final_y": "531091.340674",
    "longitude": "-90.04798443308074",
    "latitude": "29.954122198857434",
    "geocoded_column": {
      "latitude": "29.954122198857434",
      "longitude": "-90.04798443308074"
    }
  },
  {
    "service_request": "2026-1275169",
    "request_type": "Trash/Recycling",
    "request_reason": "Request a Large Item Pick Up",
    "date_created": "2026-04-20T19:09:20.000",
    "date_modified": "2026-04-20T19:09:22.000",
    "request_status": "Pending",
    "responsible_agency": "Department of Sanitation",
    "final_address": "3055 Grand-Route St John St",
    "address_councildis": "A",
    "status": "Assigned to Contractor",
    "contractor": "IV Waste",
    "rowid": "1275169",
    "final_x": "3676733.56942",
    "final_y": "540386.868747",
    "longitude": "-90.08281544217853",
    "latitude": "29.980020417287218",
    "geocoded_column": {
      "latitude": "29.980020417287218",
      "longitude": "-90.08281544217853"
    }
  },
  {
    "service_request": "2026-1275168",
    "request_type": "Trash/Recycling",
    "request_reason": "MIssed Recycling Pick-Up",
    "date_created": "2026-04-20T19:02:06.000",
    "date_modified": "2026-04-20T19:02:07.000",
    "request_status": "Pending",
    "responsible_agency": "Department of Sanitation",
    "final_address": "5489 Canal Blvd",
    "address_councildis": "A",
    "status": "Assigned to Contractor",
    "contractor": "IV Waste",
    "rowid": "1275168",
    "final_x": "3668279.53652",
    "final_y": "543716.798926",
    "longitude": "-90.10940454206076",
    "latitude": "29.98942757793269",
    "geocoded_column": {
      "latitude": "29.98942757793269",
      "longitude": "-90.10940454206076"
    }
  },
  {
    "service_request": "2026-1275167",
    "request_type": "Property Maintenance",
    "request_reason": "Property Maintenance",
    "date_created": "2026-04-20T18:54:29.000",
    "date_modified": "2026-04-20T18:54:31.000",
    "request_status": "Pending",
    "responsible_agency": "Department of Code Enforcement",
    "final_address": "5700 E Louis Prima Dr",
    "address_councildis": "E",
    "status": "Pending",
    "rowid": "1275167",
    "final_x": "3716335.15768",
    "final_y": "561893.531743",
    "longitude": "-89.95692265359399",
    "latitude": "30.03790751799672",
    "geocoded_column": {
      "latitude": "30.03790751799672",
      "longitude": "-89.95692265359399"
    }
  },
  {
    "service_request": "2026-1275166",
    "request_type": "Property Maintenance",
    "request_reason": "Property Maintenance",
    "date_created": "2026-04-20T18:50:22.000",
    "date_modified": "2026-04-20T18:50:24.000",
    "request_status": "Pending",
    "responsible_agency": "Department of Code Enforcement",
    "final_address": "3517 Danneel St",
    "address_councildis": "B",
    "status": "Pending",
    "rowid": "1275166",
    "final_x": "3673107.54932",
    "final_y": "522693.757818",
    "longitude": "-90.09487193736092",
    "latitude": "29.931478555301858",
    "geocoded_column": {
      "latitude": "29.931478555301858",
      "longitude": "-90.09487193736092"
    }
  },
  {
    "service_request": "2026-1275165",
    "request_type": "Abandoned Vehicles",
    "request_reason": "Abandoned/Junk Vehicles",
    "date_created": "2026-04-20T18:48:34.000",
    "date_modified": "2026-04-20T18:48:37.000",
    "request_status": "Pending",
    "responsible_agency": "Department of Public Works",
    "final_address": "1111 Poland Ave",
    "address_councildis": "D",
    "status": "Pending",
    "rowid": "1275165",
    "final_x": "3693198.2847",
    "final_y": "535193.421126",
    "longitude": "-90.03099967493971",
    "latitude": "29.965235929674588",
    "geocoded_column": {
      "latitude": "29.965235929674588",
      "longitude": "-90.03099967493971"
    }
  },
  {
    "service_request": "2026-1275164",
    "request_type": "Trash/Recycling",
    "request_reason": "Order Recycling Cart",
    "date_created": "2026-04-20T18:26:07.000",
    "date_modified": "2026-04-20T18:26:09.000",
    "request_status": "Pending",
    "responsible_agency": "Department of Sanitation",
    "final_address": "6425 General Haig St",
    "address_councildis": "A",
    "status": "Pending",
    "rowid": "1275164",
    "final_x": "3670856.76967",
    "final_y": "550057.416788",
    "longitude": "-90.10104838781767",
    "latitude": "30.006786128397408",
    "geocoded_column": {
      "latitude": "30.006786128397408",
      "longitude": "-90.10104838781767"
    }
  },
  {
    "service_request": "2026-1275163",
    "request_type": "New Orleans Recreation Development Commission (NORDC)",
    "request_reason": "Facilities and Parks Maintenance/Clean Up",
    "date_created": "2026-04-20T18:19:59.000",
    "date_modified": "2026-04-20T18:20:02.000",
    "request_status": "Pending",
    "responsible_agency": "New Orleans Recreation Development Commission",
    "final_address": "2721 Second St",
    "address_councildis": "B",
    "status": "Pending",
    "rowid": "1275163",
    "final_x": "3674440.4562",
    "final_y": "526524.736126",
    "longitude": "-90.09053293087442",
    "latitude": "29.941972815631207",
    "geocoded_column": {
      "latitude": "29.941972815631207",
      "longitude": "-90.09053293087442"
    }
  },
  {
    "service_request": "2026-1275162",
    "request_type": "Trash/Recycling",
    "request_reason": "Order Trash Cart",
    "date_created": "2026-04-20T18:10:56.000",
    "date_modified": "2026-04-20T18:10:57.000",
    "request_status": "Pending",
    "responsible_agency": "Department of Sanitation",
    "final_address": "1903 Dauphine St",
    "address_councildis": "C",
    "status": "Assigned to Contractor",
    "contractor": "IV Waste",
    "rowid": "1275162",
    "final_x": "3683999.46121",
    "final_y": "535165.231814",
    "longitude": "-90.06005002943763",
    "latitude": "29.965442693359314",
    "geocoded_column": {
      "latitude": "29.965442693359314",
      "longitude": "-90.06005002943763"
    }
  },
  {
    "service_request": "2026-1275161",
    "request_type": "Trash/Recycling",
    "request_reason": "Request a Large Item Pick Up",
    "date_created": "2026-04-20T18:01:38.000",
    "date_modified": "2026-04-20T18:01:40.000",
    "request_status": "Pending",
    "responsible_agency": "Department of Sanitation",
    "final_address": "137 N Norman C Francis Prkwy",
    "address_councildis": "B",
    "status": "Assigned to Contractor",
    "contractor": "IV Waste",
    "rowid": "1275161",
    "final_x": "3673312.05236",
    "final_y": "537102.60244",
    "longitude": "-90.09373425461202",
    "latitude": "29.971092033030175",
    "geocoded_column": {
      "latitude": "29.971092033030175",
      "longitude": "-90.09373425461202"
    }
  },
  {
    "service_request": "2026-1275160",
    "request_type": "Trash/Recycling",
    "request_reason": "Request a Large Item Pick Up",
    "date_created": "2026-04-20T17:59:23.000",
    "date_modified": "2026-04-20T17:59:26.000",
    "request_status": "Pending",
    "responsible_agency": "Department of Sanitation",
    "final_address": "1036 Robert St",
    "address_councildis": "B",
    "status": "Assigned to Contractor",
    "contractor": "IV Waste",
    "rowid": "1275160",
    "final_x": "3668617.49364",
    "final_y": "519259.952759",
    "longitude": "-90.10916236162244",
    "latitude": "29.92216936083899",
    "geocoded_column": {
      "latitude": "29.92216936083899",
      "longitude": "-90.10916236162244"
    }
  },
  {
    "service_request": "2026-1275159",
    "request_type": "Streetlights",
    "request_reason": "Streetlight Outage/Malfunction",
    "date_created": "2026-04-20T17:45:20.000",
    "date_modified": "2026-04-20T17:45:22.000",
    "request_status": "Pending",
    "responsible_agency": "Department of Public Works",
    "final_address": "CONSTANCE ST & CALLIOPE ST",
    "address_councildis": "B",
    "status": "Pending",
    "rowid": "1275159",
    "final_x": "3681056.15",
    "final_y": "525761.73",
    "longitude": "-90.06967236076322",
    "latitude": "29.93967584232915",
    "geocoded_column": {
      "latitude": "29.93967584232915",
      "longitude": "-90.06967236076322"
    }
  },
  {
    "service_request": "2026-1275158",
    "request_type": "Trash/Recycling",
    "request_reason": "Request a Large Item Pick Up",
    "date_created": "2026-04-20T17:37:39.000",
    "date_modified": "2026-04-20T17:37:41.000",
    "request_status": "Pending",
    "responsible_agency": "Department of Sanitation",
    "final_address": "2445 N Villere St",
    "address_councildis": "C",
    "status": "Assigned to Contractor",
    "contractor": "IV Waste",
    "rowid": "1275158",
    "final_x": "3686859.58876",
    "final_y": "537604.373448",
    "longitude": "-90.05093169049088",
    "latitude": "29.972061781653462",
    "geocoded_column": {
      "latitude": "29.972061781653462",
      "longitude": "-90.05093169049088"
    }
  },
  {
    "service_request": "2026-1275157",
    "request_type": "Trash/Recycling",
    "request_reason": "Order Second Trash Cart",
    "date_created": "2026-04-20T17:25:49.000",
    "date_modified": "2026-04-20T17:26:06.000",
    "request_status": "Pending",
    "responsible_agency": "Department of Sanitation",
    "final_address": "5040 Good Dr",
    "address_councildis": "E",
    "status": "Assigned to Contractor",
    "contractor": "Waste Pro",
    "rowid": "1275157",
    "final_x": "3714601.76306",
    "final_y": "558154.056795",
    "longitude": "-89.96254192871967",
    "latitude": "30.02768259661609",
    "geocoded_column": {
      "latitude": "30.02768259661609",
      "longitude": "-89.96254192871967"
    }
  },
  {
    "service_request": "2026-1275156",
    "request_type": "Parks & Grass Service",
    "request_reason": "Request Grass Cutting Service (City Owned Property)",
    "date_created": "2026-04-20T17:22:49.000",
    "date_modified": "2026-04-20T17:22:51.000",
    "request_status": "Pending",
    "responsible_agency": "Department of Parks & Parkways",
    "final_address": "1615 Choctaw St",
    "address_councildis": "E",
    "status": "Pending",
    "rowid": "1275156",
    "final_x": "3698008.91555",
    "final_y": "535886.617735",
    "longitude": "-90.01578286956838",
    "latitude": "29.9669907545436",
    "geocoded_column": {
      "latitude": "29.9669907545436",
      "longitude": "-90.01578286956838"
    }
  },
  {
    "service_request": "2026-1275155",
    "request_type": "Trash/Recycling",
    "request_reason": "Request a Large Item Pick Up",
    "date_created": "2026-04-20T17:12:28.000",
    "date_modified": "2026-04-20T17:12:31.000",
    "request_status": "Pending",
    "responsible_agency": "Department of Sanitation",
    "final_address": "5810 Pratt Dr",
    "address_councildis": "D",
    "status": "Assigned to Contractor",
    "contractor": "IV Waste",
    "rowid": "1275155",
    "final_x": "3680159.51439",
    "final_y": "554006.18204",
    "longitude": "-90.07152119517099",
    "latitude": "30.01736543739235",
    "geocoded_column": {
      "latitude": "30.01736543739235",
      "longitude": "-90.07152119517099"
    }
  },
  {
    "service_request": "2026-1275154",
    "request_type": "Trash/Recycling",
    "request_reason": "Request a Large Item Pick Up",
    "date_created": "2026-04-20T17:10:35.000",
    "date_modified": "2026-04-20T17:10:37.000",
    "request_status": "Pending",
    "responsible_agency": "Department of Sanitation",
    "final_address": "5810 Pratt Dr",
    "address_councildis": "D",
    "status": "Assigned to Contractor",
    "contractor": "IV Waste",
    "rowid": "1275154",
    "final_x": "3680159.51439",
    "final_y": "554006.18204",
    "longitude": "-90.07152119517099",
    "latitude": "30.01736543739235",
    "geocoded_column": {
      "latitude": "30.01736543739235",
      "longitude": "-90.07152119517099"
    }
  },
  {
    "service_request": "2026-1275153",
    "request_type": "Trash/Recycling",
    "request_reason": "Request a Large Item Pick Up",
    "date_created": "2026-04-20T17:09:34.000",
    "date_modified": "2026-04-20T17:09:36.000",
    "request_status": "Pending",
    "responsible_agency": "Department of Sanitation",
    "final_address": "5 Brownlee Ct",
    "address_councildis": "E",
    "status": "Assigned to Contractor",
    "contractor": "Waste Pro",
    "rowid": "1275153",
    "final_x": "3712672.82469",
    "final_y": "567255.755364",
    "longitude": "-89.96829454123358",
    "latitude": "30.052771920979204",
    "geocoded_column": {
      "latitude": "30.052771920979204",
      "longitude": "-89.96829454123358"
    }
  },
  {
    "service_request": "2026-1275152",
    "request_type": "Abandoned Vehicles",
    "request_reason": "Abandoned/Junk Vehicles",
    "date_created": "2026-04-20T17:07:36.000",
    "date_modified": "2026-04-20T17:07:37.000",
    "request_status": "Pending",
    "responsible_agency": "Department of Public Works",
    "final_address": "1110 Felicity St",
    "address_councildis": "B",
    "status": "Pending",
    "rowid": "1275152",
    "final_x": "3679891.84559",
    "final_y": "523107.791995",
    "longitude": "-90.07344035988554",
    "latitude": "29.932413644850218",
    "geocoded_column": {
      "latitude": "29.932413644850218",
      "longitude": "-90.07344035988554"
    }
  },
  {
    "service_request": "2026-1275151",
    "request_type": "Street and Traffic Signs",
    "request_reason": "Stop Sign Missing or Damaged",
    "date_created": "2026-04-20T17:07:00.000",
    "date_modified": "2026-04-20T17:07:01.000",
    "request_status": "Pending",
    "responsible_agency": "Department of Public Works",
    "final_address": "400 BLK S Derbigny St",
    "address_councildis": "B",
    "status": "Pending",
    "rowid": "1275151",
    "final_x": "3677327.72241",
    "final_y": "531916.864432",
    "longitude": "-90.08123118552898",
    "latitude": "29.956712947521382",
    "geocoded_column": {
      "latitude": "29.956712947521382",
      "longitude": "-90.08123118552898"
    }
  },
  {
    "service_request": "2026-1275150",
    "request_type": "Trash/Recycling",
    "request_reason": "Replace Trash Cart",
    "date_created": "2026-04-20T17:01:58.000",
    "date_modified": "2026-04-20T17:02:07.000",
    "request_status": "Pending",
    "responsible_agency": "Department of Sanitation",
    "final_address": "1725 St Andrew St C",
    "address_councildis": "B",
    "status": "Assigned to Contractor",
    "contractor": "IV Waste",
    "rowid": "1275150",
    "final_x": "3677792.5085",
    "final_y": "524790.501756",
    "longitude": "-90.08000967576484",
    "latitude": "29.93710384800486",
    "geocoded_column": {
      "latitude": "29.93710384800486",
      "longitude": "-90.08000967576484"
    }
  },
  {
    "service_request": "2026-1275149",
    "request_type": "Utility Poles",
    "request_reason": "Wires Sagging/Hanging Low",
    "date_created": "2026-04-20T16:53:58.000",
    "date_modified": "2026-04-20T16:54:01.000",
    "request_status": "Pending",
    "responsible_agency": "Utility Company Collective",
    "final_address": "WASHINGTON AVE & BROADWAY ST",
    "address_councildis": "B",
    "status": "Pending",
    "rowid": "1275149",
    "final_x": "3669260.1",
    "final_y": "533991.58",
    "longitude": "-90.10663608256961",
    "latitude": "29.962657667921043",
    "geocoded_column": {
      "latitude": "29.962657667921043",
      "longitude": "-90.10663608256961"
    }
  },
  {
    "service_request": "2026-1275148",
    "request_type": "Trash/Recycling",
    "request_reason": "Request a Large Item Pick Up",
    "date_created": "2026-04-20T16:49:13.000",
    "date_modified": "2026-04-20T16:49:15.000",
    "request_status": "Pending",
    "responsible_agency": "Department of Sanitation",
    "final_address": "1425 Arts St",
    "address_councildis": "C",
    "status": "Assigned to Contractor",
    "contractor": "IV Waste",
    "rowid": "1275148",
    "final_x": "3687132.68892",
    "final_y": "537815.850568",
    "longitude": "-90.05006171760687",
    "latitude": "29.97263486253544",
    "geocoded_column": {
      "latitude": "29.97263486253544",
      "longitude": "-90.05006171760687"
    }
  },
  {
    "service_request": "2026-1275147",
    "request_type": "Property Maintenance",
    "request_reason": "Property Maintenance",
    "date_created": "2026-04-20T16:39:41.000",
    "date_modified": "2026-04-20T16:39:43.000",
    "request_status": "Pending",
    "responsible_agency": "Department of Code Enforcement",
    "final_address": "1329 Mazant St",
    "address_councildis": "D",
    "status": "Pending",
    "rowid": "1275147",
    "final_x": "3692388.28822",
    "final_y": "536193.012999",
    "longitude": "-90.03352178314942",
    "latitude": "29.96800974389442",
    "geocoded_column": {
      "latitude": "29.96800974389442",
      "longitude": "-90.03352178314942"
    }
  },
  {
    "service_request": "2026-1275146",
    "request_type": "Trash/Recycling",
    "request_reason": "Request a Large Item Pick Up",
    "date_created": "2026-04-20T16:34:06.000",
    "date_modified": "2026-04-20T16:34:09.000",
    "request_status": "Pending",
    "responsible_agency": "Department of Sanitation",
    "final_address": "1333 Mazant St",
    "address_councildis": "D",
    "status": "Assigned to Contractor",
    "contractor": "IV Waste",
    "rowid": "1275146",
    "final_x": "3692397.3439",
    "final_y": "536221.895495",
    "longitude": "-90.03349215039599",
    "latitude": "29.96808887809493",
    "geocoded_column": {
      "latitude": "29.96808887809493",
      "longitude": "-90.03349215039599"
    }
  },
  {
    "service_request": "2026-1275145",
    "request_type": "Safety & Permits",
    "request_reason": "Zoning Enforcement",
    "date_created": "2026-04-20T16:33:15.000",
    "date_modified": "2026-04-20T16:33:17.000",
    "request_status": "Pending",
    "responsible_agency": "Safety and Permits",
    "final_address": "2417 Jonquil St",
    "address_councildis": "D",
    "status": "Pending",
    "rowid": "1275145",
    "final_x": "3685895.38556",
    "final_y": "547160.161425",
    "longitude": "-90.05363975515361",
    "latitude": "29.99836644712251",
    "geocoded_column": {
      "latitude": "29.99836644712251",
      "longitude": "-90.05363975515361"
    }
  },
  {
    "service_request": "2026-1275144",
    "request_type": "Trash/Recycling",
    "request_reason": "Request a Large Item Pick Up",
    "date_created": "2026-04-20T16:31:12.000",
    "date_modified": "2026-04-20T16:31:13.000",
    "request_status": "Pending",
    "responsible_agency": "Department of Sanitation",
    "final_address": "732 Jackson Ave",
    "address_councildis": "B",
    "status": "Assigned to Contractor",
    "contractor": "IV Waste",
    "rowid": "1275144",
    "final_x": "3679533.87304",
    "final_y": "521096.914937",
    "longitude": "-90.07464018061357",
    "latitude": "29.92689521010469",
    "geocoded_column": {
      "latitude": "29.92689521010469",
      "longitude": "-90.07464018061357"
    }
  },
  {
    "service_request": "2026-1275143",
    "request_type": "Trash/Recycling",
    "request_reason": "Illegal Dumping",
    "date_created": "2026-04-20T16:30:57.000",
    "date_modified": "2026-04-20T16:30:59.000",
    "request_status": "Pending",
    "responsible_agency": "Department of Sanitation",
    "final_address": "IDEAL PL & FRANKLIN AVE",
    "address_councildis": "D",
    "status": "Pending",
    "rowid": "1275143",
    "final_x": "3687443.5",
    "final_y": "542262.58",
    "longitude": "-90.04892270299928",
    "latitude": "29.9848522228194",
    "geocoded_column": {
      "latitude": "29.9848522228194",
      "longitude": "-90.04892270299928"
    }
  },
  {
    "service_request": "2026-1275142",
    "request_type": "Property Maintenance",
    "request_reason": "Property Maintenance",
    "date_created": "2026-04-20T16:30:26.000",
    "date_modified": "2026-04-20T16:30:27.000",
    "request_status": "Pending",
    "responsible_agency": "Department of Code Enforcement",
    "final_address": "2549 Dumaine St",
    "address_councildis": "C",
    "status": "Pending",
    "rowid": "1275142",
    "final_x": "3677667.18952",
    "final_y": "537167.238472",
    "longitude": "-90.07997791095183",
    "latitude": "29.97113949124866",
    "geocoded_column": {
      "latitude": "29.97113949124866",
      "longitude": "-90.07997791095183"
    }
  },
  {
    "service_request": "2026-1275141",
    "request_type": "Trash/Recycling",
    "request_reason": "Repair Trash Cart",
    "date_created": "2026-04-20T16:30:19.000",
    "date_modified": "2026-04-20T16:30:21.000",
    "request_status": "Pending",
    "responsible_agency": "Department of Sanitation",
    "final_address": "7532 Morrison Rd",
    "address_councildis": "E",
    "status": "Assigned to Contractor",
    "contractor": "Waste Pro",
    "rowid": "1275141",
    "final_x": "3701131.69604",
    "final_y": "559542.336477",
    "longitude": "-90.0050551958964",
    "latitude": "30.031936038019854",
    "geocoded_column": {
      "latitude": "30.031936038019854",
      "longitude": "-90.0050551958964"
    }
  },
  {
    "service_request": "2026-1275140",
    "request_type": "Trash/Recycling",
    "request_reason": "Replace Trash Cart",
    "date_created": "2026-04-20T16:29:02.000",
    "date_modified": "2026-04-20T16:29:24.000",
    "request_status": "Pending",
    "responsible_agency": "Department of Sanitation",
    "final_address": "7737 Scottwood Dr",
    "address_councildis": "E",
    "status": "Assigned to Contractor",
    "contractor": "Waste Pro",
    "rowid": "1275140",
    "final_x": "3716948.27493",
    "final_y": "571321.90116",
    "longitude": "-89.95462656101941",
    "latitude": "30.063811398527427",
    "geocoded_column": {
      "latitude": "30.063811398527427",
      "longitude": "-89.95462656101941"
    }
  },
  {
    "service_request": "2026-1275139",
    "request_type": "Trash/Recycling",
    "request_reason": "Request a Large Item Pick Up",
    "date_created": "2026-04-20T16:26:00.000",
    "date_modified": "2026-04-20T16:26:14.000",
    "request_status": "Pending",
    "responsible_agency": "Department of Sanitation",
    "final_address": "7050 W Renaissance Ct",
    "address_councildis": "E",
    "status": "Assigned to Contractor",
    "contractor": "Waste Pro",
    "rowid": "1275139",
    "final_x": "3716837.77432",
    "final_y": "567209.475876",
    "longitude": "-89.95513221471538",
    "latitude": "30.052507586078917",
    "geocoded_column": {
      "latitude": "30.052507586078917",
      "longitude": "-89.95513221471538"
    }
  },
  {
    "service_request": "2026-1275138",
    "request_type": "Streetlights",
    "request_reason": "Streetlight Knocked Down/Leaning",
    "date_created": "2026-04-20T16:24:25.000",
    "date_modified": "2026-04-20T16:24:27.000",
    "request_status": "Pending",
    "responsible_agency": "Department of Public Works",
    "final_address": "ST JOSEPH ST & CAMP ST",
    "address_councildis": "B",
    "status": "Pending",
    "rowid": "1275138",
    "final_x": "3680651.1",
    "final_y": "527375.08",
    "longitude": "-90.0708950407311",
    "latitude": "29.944124293720602",
    "geocoded_column": {
      "latitude": "29.944124293720602",
      "longitude": "-90.0708950407311"
    }
  },
  {
    "service_request": "2026-1275137",
    "request_type": "Trash/Recycling",
    "request_reason": "Request a Large Item Pick Up",
    "date_created": "2026-04-20T16:20:33.000",
    "date_modified": "2026-04-20T16:20:35.000",
    "request_status": "Pending",
    "responsible_agency": "Department of Sanitation",
    "final_address": "1239 Fern St",
    "address_councildis": "A",
    "status": "Assigned to Contractor",
    "contractor": "IV Waste",
    "rowid": "1275137",
    "final_x": "3662769.56928",
    "final_y": "528044.199871",
    "longitude": "-90.12733008431893",
    "latitude": "29.94649376160216",
    "geocoded_column": {
      "latitude": "29.94649376160216",
      "longitude": "-90.12733008431893"
    }
  },
  {
    "service_request": "2026-1275136",
    "request_type": "Trash/Recycling",
    "request_reason": "Order Trash Cart",
    "date_created": "2026-04-20T16:18:13.000",
    "date_modified": "2026-04-20T16:18:14.000",
    "request_status": "Pending",
    "responsible_agency": "Department of Sanitation",
    "final_address": "2513 Mexico St",
    "address_councildis": "D",
    "status": "Assigned to Contractor",
    "contractor": "IV Waste",
    "rowid": "1275136",
    "final_x": "3685714.54882",
    "final_y": "556400.647386",
    "longitude": "-90.0538850732215",
    "latitude": "30.023779960374423",
    "geocoded_column": {
      "latitude": "30.023779960374423",
      "longitude": "-90.0538850732215"
    }
  },
  {
    "service_request": "2026-1275135",
    "request_type": "Trash/Recycling",
    "request_reason": "Request a Large Item Pick Up",
    "date_created": "2026-04-20T16:17:49.000",
    "date_modified": "2026-04-20T16:17:52.000",
    "request_status": "Pending",
    "responsible_agency": "Department of Sanitation",
    "final_address": "2524 Nashville Ave",
    "address_councildis": "A",
    "status": "Assigned to Contractor",
    "contractor": "IV Waste",
    "rowid": "1275135",
    "final_x": "3667163.60749",
    "final_y": "525408.409853",
    "longitude": "-90.11354508756749",
    "latitude": "29.939118292278273",
    "geocoded_column": {
      "latitude": "29.939118292278273",
      "longitude": "-90.11354508756749"
    }
  },
  {
    "service_request": "2026-1275134",
    "request_type": "Trash/Recycling",
    "request_reason": "Damaged Caused By Contractor",
    "date_created": "2026-04-20T16:16:45.000",
    "date_modified": "2026-04-20T16:16:46.000",
    "request_status": "Pending",
    "responsible_agency": "Department of Sanitation",
    "final_address": "61 Dove St",
    "address_councildis": "D",
    "status": "Assigned to Contractor",
    "contractor": "IV Waste",
    "rowid": "1275134",
    "final_x": "3673370.42491",
    "final_y": "555310.192729",
    "longitude": "-90.09292742962593",
    "latitude": "30.021154820927713",
    "geocoded_column": {
      "latitude": "30.021154820927713",
      "longitude": "-90.09292742962593"
    }
  },
  {
    "service_request": "2026-1275133",
    "request_type": "Trash/Recycling",
    "request_reason": "Request a Large Item Pick Up",
    "date_created": "2026-04-20T16:13:50.000",
    "date_modified": "2026-04-20T16:13:51.000",
    "request_status": "Pending",
    "responsible_agency": "Department of Sanitation",
    "final_address": "523 Octavia St",
    "address_councildis": "A",
    "status": "Assigned to Contractor",
    "contractor": "IV Waste",
    "rowid": "1275133",
    "final_x": "3666309.24205",
    "final_y": "518069.519606",
    "longitude": "-90.11648848936947",
    "latitude": "29.918963649694543",
    "geocoded_column": {
      "latitude": "29.918963649694543",
      "longitude": "-90.11648848936947"
    }
  },
  {
    "service_request": "2026-1275132",
    "request_type": "Trash/Recycling",
    "request_reason": "Request a Large Item Pick Up",
    "date_created": "2026-04-20T16:13:23.000",
    "date_modified": "2026-04-20T16:13:26.000",
    "request_status": "Pending",
    "responsible_agency": "Department of Sanitation",
    "final_address": "7609 Lady Gray St",
    "address_councildis": "E",
    "status": "Assigned to Contractor",
    "contractor": "Waste Pro",
    "rowid": "1275132",
    "final_x": "3710059.76805",
    "final_y": "565225.590242",
    "longitude": "-89.9766295797748",
    "latitude": "30.04727512148317",
    "geocoded_column": {
      "latitude": "30.04727512148317",
      "longitude": "-89.9766295797748"
    }
  },
  {
    "service_request": "2026-1275131",
    "request_type": "Mosquito, Termite & Rodent Control",
    "request_reason": "Rodent Complaint (Mice & Rats)",
    "date_created": "2026-04-20T16:08:14.000",
    "date_modified": "2026-04-20T16:08:15.000",
    "request_status": "Pending",
    "responsible_agency": "Mosquito, Termite & Rodent Control Board",
    "final_address": "622 PirateS Aly",
    "address_councildis": "C",
    "status": "Pending",
    "rowid": "1275131",
    "final_x": "3682736.74882",
    "final_y": "532445.114627",
    "longitude": "-90.06413276163453",
    "latitude": "29.958001824335554",
    "geocoded_column": {
      "latitude": "29.958001824335554",
      "longitude": "-90.06413276163453"
    }
  },
  {
    "service_request": "2026-1275130",
    "request_type": "Trash/Recycling",
    "request_reason": "Order Trash Cart",
    "date_created": "2026-04-20T16:06:00.000",
    "date_modified": "2026-04-20T16:06:01.000",
    "request_status": "Pending",
    "responsible_agency": "Department of Sanitation",
    "final_address": "5000 Sierra Madre Dr",
    "address_councildis": "E",
    "status": "Assigned to Contractor",
    "contractor": "Waste Pro",
    "rowid": "1275130",
    "final_x": "3713711.18002",
    "final_y": "557682.218843",
    "longitude": "-89.96537387409685",
    "latitude": "30.026414494462117",
    "geocoded_column": {
      "latitude": "30.026414494462117",
      "longitude": "-89.96537387409685"
    }
  },
  {
    "service_request": "2026-1275129",
    "request_type": "Trash/Recycling",
    "request_reason": "Damaged Caused By Contractor",
    "date_created": "2026-04-20T16:05:29.000",
    "date_modified": "2026-04-20T16:05:31.000",
    "request_status": "Pending",
    "responsible_agency": "Department of Sanitation",
    "final_address": "61 Dove St",
    "address_councildis": "D",
    "status": "Assigned to Contractor",
    "contractor": "IV Waste",
    "rowid": "1275129",
    "final_x": "3673370.42491",
    "final_y": "555310.192729",
    "longitude": "-90.09292742962593",
    "latitude": "30.021154820927713",
    "geocoded_column": {
      "latitude": "30.021154820927713",
      "longitude": "-90.09292742962593"
    }
  },
  {
    "service_request": "2026-1275128",
    "request_type": "Traffic Signals",
    "request_reason": "Traffic Signal Malfunctioning or Damaged",
    "date_created": "2026-04-20T16:04:40.000",
    "date_modified": "2026-04-20T16:04:42.000",
    "request_status": "Pending",
    "responsible_agency": "Department of Public Works",
    "final_address": "FLORIDA AVE & PIETY ST",
    "address_councildis": "D",
    "status": "Pending",
    "rowid": "1275128",
    "final_x": "3691439.0",
    "final_y": "542202.18",
    "longitude": "-90.03630484728399",
    "latitude": "29.984562391315364",
    "geocoded_column": {
      "latitude": "29.984562391315364",
      "longitude": "-90.03630484728399"
    }
  },
  {
    "service_request": "2026-1275127",
    "request_type": "Streetlights",
    "request_reason": "Streetlight Outage/Malfunction",
    "date_created": "2026-04-20T16:03:53.000",
    "date_modified": "2026-04-20T16:03:55.000",
    "request_status": "Pending",
    "responsible_agency": "Department of Public Works",
    "final_address": "7530 Mayo Rd",
    "address_councildis": "E",
    "status": "Pending",
    "rowid": "1275127",
    "final_x": "3700765.02564",
    "final_y": "560535.784286",
    "longitude": "-90.00617752761764",
    "latitude": "30.03467931625234",
    "geocoded_column": {
      "latitude": "30.03467931625234",
      "longitude": "-90.00617752761764"
    }
  },
  {
    "service_request": "2026-1275126",
    "request_type": "Trash/Recycling",
    "request_reason": "Request a Large Item Pick Up",
    "date_created": "2026-04-20T16:01:32.000",
    "date_modified": "2026-04-20T16:41:39.000",
    "request_status": "Pending",
    "responsible_agency": "Department of Sanitation",
    "final_address": "6455 Louisville St",
    "address_councildis": "A",
    "status": "Assigned to Contractor",
    "contractor": "IV Waste",
    "rowid": "1275126",
    "final_x": "3668129.69428",
    "final_y": "550511.60162",
    "longitude": "-90.10964864267994",
    "latitude": "30.00811533810461",
    "geocoded_column": {
      "latitude": "30.00811533810461",
      "longitude": "-90.10964864267994"
    }
  },
  {
    "service_request": "2026-1275125",
    "request_type": "Property Maintenance",
    "request_reason": "Property Maintenance",
    "date_created": "2026-04-20T15:59:50.000",
    "date_modified": "2026-04-20T15:59:51.000",
    "request_status": "Pending",
    "responsible_agency": "Department of Code Enforcement",
    "final_address": "1824 Lamanche St",
    "address_councildis": "E",
    "status": "Pending",
    "rowid": "1275125",
    "final_x": "3699074.49808",
    "final_y": "536495.782919",
    "longitude": "-90.01239559967273",
    "latitude": "29.96863200660468",
    "geocoded_column": {
      "latitude": "29.96863200660468",
      "longitude": "-90.01239559967273"
    }
  },
  {
    "service_request": "2026-1275124",
    "request_type": "Trash/Recycling",
    "request_reason": "Request a Large Item Pick Up",
    "date_created": "2026-04-20T15:59:27.000",
    "date_modified": "2026-04-20T16:42:36.000",
    "request_status": "Pending",
    "responsible_agency": "Department of Sanitation",
    "final_address": "1301 Jay St",
    "address_councildis": "D",
    "status": "Assigned to Contractor",
    "contractor": "IV Waste",
    "rowid": "1275124",
    "final_x": "3677087.93224",
    "final_y": "556156.884762",
    "longitude": "-90.0811519083502",
    "latitude": "30.02337173892967",
    "geocoded_column": {
      "latitude": "30.02337173892967",
      "longitude": "-90.0811519083502"
    }
  },
  {
    "service_request": "2026-1275123",
    "request_type": "Trash/Recycling",
    "request_reason": "Request a Large Item Pick Up",
    "date_created": "2026-04-20T15:59:15.000",
    "date_modified": "2026-04-20T15:59:17.000",
    "request_status": "Pending",
    "responsible_agency": "Department of Sanitation",
    "final_address": "4969 Tynecastle Dr",
    "address_councildis": "E",
    "status": "Assigned to Contractor",
    "contractor": "Waste Pro",
    "rowid": "1275123",
    "final_x": "3718462.12441",
    "final_y": "558420.613852",
    "longitude": "-89.95033345984216",
    "latitude": "30.028287972746426",
    "geocoded_column": {
      "latitude": "30.028287972746426",
      "longitude": "-89.95033345984216"
    }
  },
  {
    "service_request": "2026-1275122",
    "request_type": "Tree Service",
    "request_reason": "Blocking Stop Sign or Traffic Signal",
    "date_created": "2026-04-20T15:57:20.000",
    "date_modified": "2026-04-20T15:57:22.000",
    "request_status": "Pending",
    "responsible_agency": "Department of Parks & Parkways",
    "final_address": "BORDEAUX ST & PERRIER ST",
    "address_councildis": "B",
    "status": "Pending",
    "rowid": "1275122",
    "final_x": "3669463.2",
    "final_y": "519919.28",
    "longitude": "-90.10647052531253",
    "latitude": "29.923957430665812",
    "geocoded_column": {
      "latitude": "29.923957430665812",
      "longitude": "-90.10647052531253"
    }
  },
  {
    "service_request": "2026-1275121",
    "request_type": "Property Maintenance",
    "request_reason": "Property Maintenance",
    "date_created": "2026-04-20T15:56:51.000",
    "date_modified": "2026-04-20T15:56:53.000",
    "request_status": "Pending",
    "responsible_agency": "Department of Code Enforcement",
    "final_address": "2275 N Derbigny St",
    "address_councildis": "D",
    "status": "Pending",
    "rowid": "1275121",
    "final_x": "3685551.08828",
    "final_y": "538601.452745",
    "longitude": "-90.05502901211203",
    "latitude": "29.974843603591033",
    "geocoded_column": {
      "latitude": "29.974843603591033",
      "longitude": "-90.05502901211203"
    }
  },
  {
    "service_request": "2026-1275120",
    "request_type": "Trash/Recycling",
    "request_reason": "Order Recycling Cart",
    "date_created": "2026-04-20T15:55:51.000",
    "date_modified": "2026-04-20T15:55:52.000",
    "request_status": "Pending",
    "responsible_agency": "Department of Sanitation",
    "final_address": "1302 Jackson Ave",
    "address_councildis": "B",
    "status": "Pending",
    "rowid": "1275120",
    "final_x": "3678326.94715",
    "final_y": "522667.49721",
    "longitude": "-90.0783958274365",
    "latitude": "29.93125019823844",
    "geocoded_column": {
      "latitude": "29.93125019823844",
      "longitude": "-90.0783958274365"
    }
  },
  {
    "service_request": "2026-1275119",
    "request_type": "Trash/Recycling",
    "request_reason": "Request a Large Item Pick Up",
    "date_created": "2026-04-20T15:54:23.000",
    "date_modified": "2026-04-20T15:54:24.000",
    "request_status": "Pending",
    "responsible_agency": "Department of Sanitation",
    "final_address": "7610 Brevard Ave",
    "address_councildis": "E",
    "status": "Assigned to Contractor",
    "contractor": "Waste Pro",
    "rowid": "1275119",
    "final_x": "3706367.81483",
    "final_y": "563358.507168",
    "longitude": "-89.98836733538437",
    "latitude": "30.042261065312218",
    "geocoded_column": {
      "latitude": "30.042261065312218",
      "longitude": "-89.98836733538437"
    }
  },
  {
    "service_request": "2026-1275118",
    "request_type": "Health Related Request",
    "request_reason": "Homeless Encampment Complaint",
    "date_created": "2026-04-20T15:52:17.000",
    "date_modified": "2026-04-20T15:52:18.000",
    "request_status": "Pending",
    "responsible_agency": "Office Of Homeless Services And Strategy",
    "final_address": "713 Clouet St",
    "address_councildis": "C",
    "status": "Pending",
    "rowid": "1275118",
    "final_x": "3688681.83286",
    "final_y": "534610.176774",
    "longitude": "-90.04528305867991",
    "latitude": "29.963772585865357",
    "geocoded_column": {
      "latitude": "29.963772585865357",
      "longitude": "-90.04528305867991"
    }
  },
  {
    "service_request": "2026-1275117",
    "request_type": "Health Related Request",
    "request_reason": "Noise Ordinance Complaint",
    "date_created": "2026-04-20T15:50:35.000",
    "date_modified": "2026-04-20T15:50:37.000",
    "request_status": "Pending",
    "responsible_agency": "Health Department",
    "final_address": "6866 Milne Blvd",
    "address_councildis": "A",
    "status": "Pending",
    "rowid": "1275117",
    "final_x": "3667489.80506",
    "final_y": "553291.347543",
    "longitude": "-90.11157661617497",
    "latitude": "30.015777439482186",
    "geocoded_column": {
      "latitude": "30.015777439482186",
      "longitude": "-90.11157661617497"
    }
  },
  {
    "service_request": "2026-1275116",
    "request_type": "Drainage",
    "request_reason": "Catch Basin Frame and Cover Missing or Damaged",
    "date_created": "2026-04-20T15:48:19.000",
    "date_modified": "2026-04-20T15:52:34.000",
    "request_status": "Pending",
    "responsible_agency": "Sewerage & Water Board",
    "final_address": "5001 Perlita St",
    "address_councildis": "D",
    "status": "Pending",
    "rowid": "1275116",
    "final_x": "3678824.21403",
    "final_y": "550600.930068",
    "longitude": "-90.07585828364795",
    "latitude": "30.008042585289",
    "geocoded_column": {
      "latitude": "30.008042585289",
      "longitude": "-90.07585828364795"
    }
  },
  {
    "service_request": "2026-1275115",
    "request_type": "Roads and Streets",
    "request_reason": "Sidewalk Damaged or Missing",
    "date_created": "2026-04-20T15:47:11.000",
    "date_modified": "2026-04-20T16:01:18.000",
    "request_status": "Pending",
    "responsible_agency": "Department of Public Works",
    "final_address": "5001 Perlita St",
    "address_councildis": "D",
    "status": "Pending",
    "rowid": "1275115",
    "final_x": "3678824.21403",
    "final_y": "550600.930068",
    "longitude": "-90.07585828364795",
    "latitude": "30.008042585289",
    "geocoded_column": {
      "latitude": "30.008042585289",
      "longitude": "-90.07585828364795"
    }
  },
  {
    "service_request": "2026-1275114",
    "request_type": "Mosquito, Termite & Rodent Control",
    "request_reason": "Rodent Complaint (Mice & Rats)",
    "date_created": "2026-04-20T15:45:40.000",
    "date_modified": "2026-04-20T16:26:15.000",
    "request_status": "Pending",
    "responsible_agency": "Mosquito, Termite & Rodent Control Board",
    "final_address": "1815 Dumaine St",
    "address_councildis": "C",
    "status": "Pending",
    "rowid": "1275114",
    "final_x": "3679827.44815",
    "final_y": "535532.284422",
    "longitude": "-90.0732123076612",
    "latitude": "29.96657877813849",
    "geocoded_column": {
      "latitude": "29.96657877813849",
      "longitude": "-90.0732123076612"
    }
  },
  {
    "service_request": "2026-1275113",
    "request_type": "Trash/Recycling",
    "request_reason": "Request a Large Item Pick Up",
    "date_created": "2026-04-20T15:41:55.000",
    "date_modified": "2026-04-20T15:41:57.000",
    "request_status": "Pending",
    "responsible_agency": "Department of Sanitation",
    "final_address": "1508 Tennessee St",
    "address_councildis": "E",
    "status": "Assigned to Contractor",
    "contractor": "Waste Pro",
    "rowid": "1275113",
    "final_x": "3696092.32694",
    "final_y": "535946.082887",
    "longitude": "-90.02183328241927",
    "latitude": "29.967214720190725",
    "geocoded_column": {
      "latitude": "29.967214720190725",
      "longitude": "-90.02183328241927"
    }
  },
  {
    "service_request": "2026-1275112",
    "request_type": "Trash/Recycling",
    "request_reason": "Request a Large Item Pick Up",
    "date_created": "2026-04-20T15:41:50.000",
    "date_modified": "2026-04-20T15:41:52.000",
    "request_status": "Pending",
    "responsible_agency": "Department of Sanitation",
    "final_address": "7817 Spruce St",
    "address_councildis": "A",
    "status": "Assigned to Contractor",
    "contractor": "IV Waste",
    "rowid": "1275112",
    "final_x": "3664578.29517",
    "final_y": "529842.152321",
    "longitude": "-90.12155923529201",
    "latitude": "29.951385081366794",
    "geocoded_column": {
      "latitude": "29.951385081366794",
      "longitude": "-90.12155923529201"
    }
  },
  {
    "service_request": "2026-1275111",
    "request_type": "Trash/Recycling",
    "request_reason": "Request a Large Item Pick Up",
    "date_created": "2026-04-20T15:37:58.000",
    "date_modified": "2026-04-20T15:38:00.000",
    "request_status": "Pending",
    "responsible_agency": "Department of Sanitation",
    "final_address": "7560 Wave Dr",
    "address_councildis": "E",
    "status": "Assigned to Contractor",
    "contractor": "Waste Pro",
    "rowid": "1275111",
    "final_x": "3715112.84306",
    "final_y": "568448.203685",
    "longitude": "-89.96053725704094",
    "latitude": "30.05597051316982",
    "geocoded_column": {
      "latitude": "30.05597051316982",
      "longitude": "-89.96053725704094"
    }
  },
  {
    "service_request": "2026-1275110",
    "request_type": "Trash/Recycling",
    "request_reason": "Request a Large Item Pick Up",
    "date_created": "2026-04-20T15:33:59.000",
    "date_modified": "2026-04-20T15:34:00.000",
    "request_status": "Pending",
    "responsible_agency": "Department of Sanitation",
    "final_address": "6959 E Hermes St",
    "address_councildis": "D",
    "status": "Assigned to Contractor",
    "contractor": "Waste Pro",
    "rowid": "1275110",
    "final_x": "3697493.53322",
    "final_y": "557088.222298",
    "longitude": "-90.0166410599207",
    "latitude": "30.02530362552556",
    "geocoded_column": {
      "latitude": "30.02530362552556",
      "longitude": "-90.0166410599207"
    }
  },
  {
    "service_request": "2026-1275109",
    "request_type": "Trash/Recycling",
    "request_reason": "Request a Large Item Pick Up",
    "date_created": "2026-04-20T15:31:14.000",
    "date_modified": "2026-04-20T15:31:15.000",
    "request_status": "Pending",
    "responsible_agency": "Department of Sanitation",
    "final_address": "1220 Gallier St",
    "address_councildis": "C",
    "status": "Assigned to Contractor",
    "contractor": "IV Waste",
    "rowid": "1275109",
    "final_x": "3690564.23542",
    "final_y": "536177.716295",
    "longitude": "-90.03928273286918",
    "latitude": "29.96802445196129",
    "geocoded_column": {
      "latitude": "29.96802445196129",
      "longitude": "-90.03928273286918"
    }
  },
  {
    "service_request": "2026-1275108",
    "request_type": "Trash/Recycling",
    "request_reason": "Request a Large Item Pick Up",
    "date_created": "2026-04-20T15:28:36.000",
    "date_modified": "2026-04-20T15:28:38.000",
    "request_status": "Pending",
    "responsible_agency": "Department of Sanitation",
    "final_address": "6300 Fairfax Pl",
    "address_councildis": "C",
    "status": "Assigned to Contractor",
    "contractor": "Richards Disposal",
    "rowid": "1275108",
    "final_x": "3707208.43544",
    "final_y": "517375.370741",
    "longitude": "-89.987417663015",
    "latitude": "29.915797347138366",
    "geocoded_column": {
      "latitude": "29.915797347138366",
      "longitude": "-89.987417663015"
    }
  },
  {
    "service_request": "2026-1275107",
    "request_type": "Trash/Recycling",
    "request_reason": "Request a Large Item Pick Up",
    "date_created": "2026-04-20T15:23:19.000",
    "date_modified": "2026-04-20T15:23:21.000",
    "request_status": "Pending",
    "responsible_agency": "Department of Sanitation",
    "final_address": "8812 Dinkins St",
    "address_councildis": "E",
    "status": "Assigned to Contractor",
    "contractor": "Waste Pro",
    "rowid": "1275107",
    "final_x": "3704521.52017",
    "final_y": "563264.19984",
    "longitude": "-89.99420577928596",
    "latitude": "30.042061216442303",
    "geocoded_column": {
      "latitude": "30.042061216442303",
      "longitude": "-89.99420577928596"
    }
  },
  {
    "service_request": "2026-1275106",
    "request_type": "Trash/Recycling",
    "request_reason": "Request a Large Item Pick Up",
    "date_created": "2026-04-20T15:21:30.000",
    "date_modified": "2026-04-20T15:21:31.000",
    "request_status": "Pending",
    "responsible_agency": "Department of Sanitation",
    "final_address": "4320 Annunciation St",
    "address_councildis": "B",
    "status": "Assigned to Contractor",
    "contractor": "IV Waste",
    "rowid": "1275106",
    "final_x": "3671408.74523",
    "final_y": "517658.627766",
    "longitude": "-90.10040590490141",
    "latitude": "29.917683933529243",
    "geocoded_column": {
      "latitude": "29.917683933529243",
      "longitude": "-90.10040590490141"
    }
  },
  {
    "service_request": "2026-1275105",
    "request_type": "Trash/Recycling",
    "request_reason": "Request a Large Item Pick Up",
    "date_created": "2026-04-20T15:21:20.000",
    "date_modified": "2026-04-20T15:21:22.000",
    "request_status": "Pending",
    "responsible_agency": "Department of Sanitation",
    "final_address": "4541 Congress Dr",
    "address_councildis": "D",
    "status": "Assigned to Contractor",
    "contractor": "IV Waste",
    "rowid": "1275105",
    "final_x": "3692496.29174",
    "final_y": "551392.088277",
    "longitude": "-90.03263584449805",
    "latitude": "30.00979833344072",
    "geocoded_column": {
      "latitude": "30.00979833344072",
      "longitude": "-90.03263584449805"
    }
  },
  {
    "service_request": "2026-1275104",
    "request_type": "Trash/Recycling",
    "request_reason": "Request a Large Item Pick Up",
    "date_created": "2026-04-20T15:20:52.000",
    "date_modified": "2026-04-20T15:20:54.000",
    "request_status": "Pending",
    "responsible_agency": "Department of Sanitation",
    "final_address": "566 Abalon Ct",
    "address_councildis": "C",
    "status": "Assigned to Contractor",
    "contractor": "Richards Disposal",
    "rowid": "1275104",
    "final_x": "3688970.14236",
    "final_y": "530652.615298",
    "longitude": "-90.04451317874492",
    "latitude": "29.95288174847581",
    "geocoded_column": {
      "latitude": "29.95288174847581",
      "longitude": "-90.04451317874492"
    }
  },
  {
    "service_request": "2026-1275103",
    "request_type": "Trash/Recycling",
    "request_reason": "Repair Trash Cart",
    "date_created": "2026-04-20T15:19:07.000",
    "date_modified": "2026-04-20T15:19:09.000",
    "request_status": "Pending",
    "responsible_agency": "Department of Sanitation",
    "final_address": "2022 Governor Nicholls St",
    "address_councildis": "C",
    "status": "Assigned to Contractor",
    "contractor": "IV Waste",
    "rowid": "1275103",
    "final_x": "3679845.46159",
    "final_y": "536800.840456",
    "longitude": "-90.07311136151317",
    "latitude": "29.970066327797305",
    "geocoded_column": {
      "latitude": "29.970066327797305",
      "longitude": "-90.07311136151317"
    }
  },
  {
    "service_request": "2026-1275102",
    "request_type": "Property Maintenance",
    "request_reason": "Property Maintenance",
    "date_created": "2026-04-20T15:18:13.000",
    "date_modified": "2026-04-20T15:18:16.000",
    "request_status": "Pending",
    "responsible_agency": "Department of Code Enforcement",
    "final_address": "4635 Pauger St",
    "address_councildis": "D",
    "status": "Pending",
    "rowid": "1275102",
    "final_x": "3682828.91983",
    "final_y": "549751.851924",
    "longitude": "-90.06323595066928",
    "latitude": "30.005586475831432",
    "geocoded_column": {
      "latitude": "30.005586475831432",
      "longitude": "-90.06323595066928"
    }
  },
  {
    "service_request": "2026-1275101",
    "request_type": "Trash/Recycling",
    "request_reason": "Order Second Trash Cart",
    "date_created": "2026-04-20T15:14:00.000",
    "date_modified": "2026-04-20T15:14:02.000",
    "request_status": "Pending",
    "responsible_agency": "Department of Sanitation",
    "final_address": "175 English Turn Dr",
    "address_councildis": "C",
    "status": "Assigned to Contractor",
    "contractor": "Richards Disposal",
    "rowid": "1275101",
    "final_x": "3719572.94687",
    "final_y": "512205.434353",
    "longitude": "-89.94858821751548",
    "latitude": "29.90117672162757",
    "geocoded_column": {
      "latitude": "29.90117672162757",
      "longitude": "-89.94858821751548"
    }
  },
  {
    "service_request": "2026-1275100",
    "request_type": "Trash/Recycling",
    "request_reason": "Repair Trash Cart",
    "date_created": "2026-04-20T15:10:56.000",
    "date_modified": "2026-04-20T15:10:57.000",
    "request_status": "Pending",
    "responsible_agency": "Department of Sanitation",
    "final_address": "1222 General Pershing St",
    "address_councildis": "B",
    "status": "Assigned to Contractor",
    "contractor": "IV Waste",
    "rowid": "1275100",
    "final_x": "3671295.11342",
    "final_y": "520065.399416",
    "longitude": "-90.10068285428629",
    "latitude": "29.924305151856114",
    "geocoded_column": {
      "latitude": "29.924305151856114",
      "longitude": "-90.10068285428629"
    }
  },
  {
    "service_request": "2026-1275099",
    "request_type": "Trash/Recycling",
    "request_reason": "Replace Trash Cart",
    "date_created": "2026-04-20T15:09:47.000",
    "date_modified": "2026-04-20T15:09:48.000",
    "request_status": "Pending",
    "responsible_agency": "Department of Sanitation",
    "final_address": "1725 St Andrew St H",
    "address_councildis": "B",
    "status": "Assigned to Contractor",
    "contractor": "IV Waste",
    "rowid": "1275099",
    "final_x": "3677861.30786",
    "final_y": "524857.267004",
    "longitude": "-90.07979016616079",
    "latitude": "29.937285361072263",
    "geocoded_column": {
      "latitude": "29.937285361072263",
      "longitude": "-90.07979016616079"
    }
  },
  {
    "service_request": "2026-1275098",
    "request_type": "Trash/Recycling",
    "request_reason": "Request a Large Item Pick Up",
    "date_created": "2026-04-20T15:08:08.000",
    "date_modified": "2026-04-20T15:08:09.000",
    "request_status": "Pending",
    "responsible_agency": "Department of Sanitation",
    "final_address": "1621 Short St",
    "address_councildis": "A",
    "status": "Assigned to Contractor",
    "contractor": "IV Waste",
    "rowid": "1275098",
    "final_x": "3663399.10176",
    "final_y": "529219.417344",
    "longitude": "-90.12530329768987",
    "latitude": "29.94970699790668",
    "geocoded_column": {
      "latitude": "29.94970699790668",
      "longitude": "-90.12530329768987"
    }
  },
  {
    "service_request": "2026-1275097",
    "request_type": "Trash/Recycling",
    "request_reason": "Request a Large Item Pick Up",
    "date_created": "2026-04-20T15:07:50.000",
    "date_modified": "2026-04-20T15:07:52.000",
    "request_status": "Pending",
    "responsible_agency": "Department of Sanitation",
    "final_address": "1011 Newton St",
    "address_councildis": "C",
    "status": "Assigned to Contractor",
    "contractor": "Richards Disposal",
    "rowid": "1275097",
    "final_x": "3688530.07139",
    "final_y": "527874.334271",
    "longitude": "-90.04600128239707",
    "latitude": "29.945256030454665",
    "geocoded_column": {
      "latitude": "29.945256030454665",
      "longitude": "-90.04600128239707"
    }
  },
  {
    "service_request": "2026-1275096",
    "request_type": "Abandoned Vehicles",
    "request_reason": "Abandoned/Junk Vehicles",
    "date_created": "2026-04-20T15:07:47.000",
    "date_modified": "2026-04-20T15:07:49.000",
    "request_status": "Pending",
    "responsible_agency": "Department of Public Works",
    "final_address": "1235 St Roch Ave",
    "address_councildis": "C",
    "status": "Pending",
    "rowid": "1275096",
    "final_x": "3686525.51753",
    "final_y": "537072.12468",
    "longitude": "-90.05200553677145",
    "latitude": "29.970608559896657",
    "geocoded_column": {
      "latitude": "29.970608559896657",
      "longitude": "-90.05200553677145"
    }
  },
  {
    "service_request": "2026-1275095",
    "request_type": "Abandoned Vehicles",
    "request_reason": "Abandoned/Junk Vehicles",
    "date_created": "2026-04-20T15:03:55.000",
    "date_modified": "2026-04-20T15:03:56.000",
    "request_status": "Pending",
    "responsible_agency": "Department of Public Works",
    "final_address": "1227 St Roch Ave",
    "address_councildis": "C",
    "status": "Pending",
    "rowid": "1275095",
    "final_x": "3686536.58498",
    "final_y": "537023.947336",
    "longitude": "-90.05197228598125",
    "latitude": "29.970475748718897",
    "geocoded_column": {
      "latitude": "29.970475748718897",
      "longitude": "-90.05197228598125"
    }
  },
  {
    "service_request": "2026-1275094",
    "request_type": "Trash/Recycling",
    "request_reason": "Order Recycling Cart",
    "date_created": "2026-04-20T15:03:36.000",
    "date_modified": "2026-04-20T15:03:38.000",
    "request_status": "Pending",
    "responsible_agency": "Department of Sanitation",
    "final_address": "175 English Turn Dr",
    "address_councildis": "C",
    "status": "Pending",
    "rowid": "1275094",
    "final_x": "3719572.94687",
    "final_y": "512205.434353",
    "longitude": "-89.94858821751548",
    "latitude": "29.90117672162757",
    "geocoded_column": {
      "latitude": "29.90117672162757",
      "longitude": "-89.94858821751548"
    }
  },
  {
    "service_request": "2026-1275093",
    "request_type": "Trash/Recycling",
    "request_reason": "Request a Large Item Pick Up",
    "date_created": "2026-04-20T15:03:14.000",
    "date_modified": "2026-04-20T15:03:16.000",
    "request_status": "Pending",
    "responsible_agency": "Department of Sanitation",
    "final_address": "7161 Bunker Hill Rd",
    "address_councildis": "E",
    "status": "Assigned to Contractor",
    "contractor": "Waste Pro",
    "rowid": "1275093",
    "final_x": "3705648.29534",
    "final_y": "561058.241246",
    "longitude": "-89.99072645793701",
    "latitude": "30.035959444968075",
    "geocoded_column": {
      "latitude": "30.035959444968075",
      "longitude": "-89.99072645793701"
    }
  },
  {
    "service_request": "2026-1275092",
    "request_type": "Property Maintenance",
    "request_reason": "Property Maintenance",
    "date_created": "2026-04-20T15:02:27.000",
    "date_modified": "2026-04-20T15:28:12.000",
    "case_close_date": "2026-04-20T10:28:11.000",
    "request_status": "Closed",
    "responsible_agency": "Department of Code Enforcement",
    "final_address": "2809 St Anthony St",
    "address_councildis": "D",
    "status": "Referred to Code Enforcement",
    "rowid": "1275092",
    "final_x": "3683034.56309",
    "final_y": "542545.066893",
    "longitude": "-90.06283872525445",
    "latitude": "29.985764116686713",
    "geocoded_column": {
      "latitude": "29.985764116686713",
      "longitude": "-90.06283872525445"
    }
  },
  {
    "service_request": "2026-1275091",
    "request_type": "Trash/Recycling",
    "request_reason": "Request a Large Item Pick Up",
    "date_created": "2026-04-20T14:59:47.000",
    "date_modified": "2026-04-20T14:59:49.000",
    "request_status": "Pending",
    "responsible_agency": "Department of Sanitation",
    "final_address": "4224 Clio St",
    "address_councildis": "B",
    "status": "Assigned to Contractor",
    "contractor": "IV Waste",
    "rowid": "1275091",
    "final_x": "3671432.56884",
    "final_y": "531538.787587",
    "longitude": "-90.0998590796906",
    "latitude": "29.955849173942532",
    "geocoded_column": {
      "latitude": "29.955849173942532",
      "longitude": "-90.0998590796906"
    }
  },
  {
    "service_request": "2026-1275090",
    "request_type": "Trash/Recycling",
    "request_reason": "Return Recycling Cart",
    "date_created": "2026-04-20T14:56:01.000",
    "date_modified": "2026-04-20T14:56:02.000",
    "request_status": "Pending",
    "responsible_agency": "Department of Sanitation",
    "final_address": "2508 Myrtle St",
    "address_councildis": "D",
    "status": "Pending",
    "rowid": "1275090",
    "final_x": "3686637.96956",
    "final_y": "545983.98632",
    "longitude": "-90.05133551025082",
    "latitude": "29.99510956439953",
    "geocoded_column": {
      "latitude": "29.99510956439953",
      "longitude": "-90.05133551025082"
    }
  },
  {
    "service_request": "2026-1275089",
    "request_type": "Trash/Recycling",
    "request_reason": "Request a Large Item Pick Up",
    "date_created": "2026-04-20T14:55:22.000",
    "date_modified": "2026-04-20T14:55:23.000",
    "request_status": "Pending",
    "responsible_agency": "Department of Sanitation",
    "final_address": "7096 W Tamaron Blvd",
    "address_councildis": "E",
    "status": "Assigned to Contractor",
    "contractor": "Waste Pro",
    "rowid": "1275089",
    "final_x": "3718385.59852",
    "final_y": "568615.327333",
    "longitude": "-89.95018641116356",
    "latitude": "30.056321815939263",
    "geocoded_column": {
      "latitude": "30.056321815939263",
      "longitude": "-89.95018641116356"
    }
  },
  {
    "service_request": "2026-1275088",
    "request_type": "Trash/Recycling",
    "request_reason": "Dead Animal Pick Up",
    "date_created": "2026-04-20T14:52:56.000",
    "date_modified": "2026-04-20T14:52:58.000",
    "request_status": "Pending",
    "responsible_agency": "Department of Sanitation",
    "final_address": "1011 Marigny St",
    "address_councildis": "C",
    "status": "Assigned to Contractor",
    "contractor": "IV Waste",
    "rowid": "1275088",
    "final_x": "3685473.17769",
    "final_y": "536075.662471",
    "longitude": "-90.05536404221907",
    "latitude": "29.96790095056585",
    "geocoded_column": {
      "latitude": "29.96790095056585",
      "longitude": "-90.05536404221907"
    }
  },
  {
    "service_request": "2026-1275087",
    "request_type": "Trash/Recycling",
    "request_reason": "Request a Large Item Pick Up",
    "date_created": "2026-04-20T14:51:12.000",
    "date_modified": "2026-04-20T14:51:14.000",
    "request_status": "Pending",
    "responsible_agency": "Department of Sanitation",
    "final_address": "7521 Vanderkloot Ave",
    "address_councildis": "E",
    "status": "Assigned to Contractor",
    "contractor": "Waste Pro",
    "rowid": "1275087",
    "final_x": "3706133.66929",
    "final_y": "562972.153312",
    "longitude": "-89.98912164393622",
    "latitude": "30.041206300268815",
    "geocoded_column": {
      "latitude": "30.041206300268815",
      "longitude": "-89.98912164393622"
    }
  },
  {
    "service_request": "2026-1275086",
    "request_type": "Abandoned Vehicles",
    "request_reason": "Abandoned/Junk Vehicles",
    "date_created": "2026-04-20T14:48:12.000",
    "date_modified": "2026-04-20T14:49:46.000",
    "request_status": "Pending",
    "responsible_agency": "Department of Public Works",
    "final_address": "5524 Camp St",
    "address_councildis": "A",
    "status": "Pending",
    "rowid": "1275086",
    "final_x": "3666292.46087",
    "final_y": "519190.766519",
    "longitude": "-90.11650387441259",
    "latitude": "29.922047216968064",
    "geocoded_column": {
      "latitude": "29.922047216968064",
      "longitude": "-90.11650387441259"
    }
  },
  {
    "service_request": "2026-1275085",
    "request_type": "Trash/Recycling",
    "request_reason": "Request a Large Item Pick Up",
    "date_created": "2026-04-20T14:47:02.000",
    "date_modified": "2026-04-20T14:47:04.000",
    "request_status": "Pending",
    "responsible_agency": "Department of Sanitation",
    "final_address": "2321 Chartres St Apt A",
    "address_councildis": "C",
    "status": "Assigned to Contractor",
    "contractor": "IV Waste",
    "rowid": "1275085",
    "final_x": "3685740.12758",
    "final_y": "534588.126213",
    "longitude": "-90.054573433717",
    "latitude": "29.963802552212346",
    "geocoded_column": {
      "latitude": "29.963802552212346",
      "longitude": "-90.054573433717"
    }
  },
  {
    "service_request": "2026-1275084",
    "request_type": "Property Maintenance",
    "request_reason": "Property Maintenance",
    "date_created": "2026-04-20T14:44:53.000",
    "date_modified": "2026-04-20T15:07:30.000",
    "case_close_date": "2026-04-20T10:07:29.000",
    "request_status": "Closed",
    "responsible_agency": "Department of Code Enforcement",
    "final_address": "9133 Edinburgh St",
    "address_councildis": "A",
    "status": "Referred to Code Enforcement",
    "rowid": "1275084",
    "final_x": "3664711.97639",
    "final_y": "537005.158408",
    "longitude": "-90.12089781583745",
    "latitude": "29.97107711387778",
    "geocoded_column": {
      "latitude": "29.97107711387778",
      "longitude": "-90.12089781583745"
    }
  },
  {
    "service_request": "2026-1275083",
    "request_type": "Trash/Recycling",
    "request_reason": "Repair Trash Cart",
    "date_created": "2026-04-20T14:44:45.000",
    "date_modified": "2026-04-20T14:44:46.000",
    "request_status": "Pending",
    "responsible_agency": "Department of Sanitation",
    "final_address": "5868 Macarthur Blvd",
    "address_councildis": "C",
    "status": "Assigned to Contractor",
    "contractor": "Richards Disposal",
    "rowid": "1275083",
    "final_x": "3705211.47748",
    "final_y": "519227.098487",
    "longitude": "-89.9936524435853",
    "latitude": "29.92095330450997",
    "geocoded_column": {
      "latitude": "29.92095330450997",
      "longitude": "-89.9936524435853"
    }
  },
  {
    "service_request": "2026-1275082",
    "request_type": "Trash/Recycling",
    "request_reason": "Request a Large Item Pick Up",
    "date_created": "2026-04-20T14:42:53.000",
    "date_modified": "2026-04-20T16:43:40.000",
    "request_status": "Pending",
    "responsible_agency": "Department of Sanitation",
    "final_address": "1426 Prentiss Ave",
    "address_councildis": "D",
    "status": "Assigned to Contractor",
    "contractor": "IV Waste",
    "rowid": "1275082",
    "final_x": "3678012.32174",
    "final_y": "553252.095191",
    "longitude": "-90.07833156083458",
    "latitude": "30.015356811573028",
    "geocoded_column": {
      "latitude": "30.015356811573028",
      "longitude": "-90.07833156083458"
    }
  },
  {
    "service_request": "2026-1275081",
    "request_type": "Property Maintenance",
    "request_reason": "Property Maintenance",
    "date_created": "2026-04-20T14:41:23.000",
    "date_modified": "2026-04-20T14:41:25.000",
    "request_status": "Pending",
    "responsible_agency": "Department of Code Enforcement",
    "final_address": "844 Nunez St",
    "address_councildis": "C",
    "status": "Pending",
    "rowid": "1275081",
    "final_x": "3687000.43081",
    "final_y": "528480.931584",
    "longitude": "-90.05080939269712",
    "latitude": "29.946971131748448",
    "geocoded_column": {
      "latitude": "29.946971131748448",
      "longitude": "-90.05080939269712"
    }
  },
  {
    "service_request": "2026-1275080",
    "request_type": "Trash/Recycling",
    "request_reason": "Order Recycling Cart",
    "date_created": "2026-04-20T14:35:50.000",
    "date_modified": "2026-04-20T14:35:51.000",
    "request_status": "Pending",
    "responsible_agency": "Department of Sanitation",
    "final_address": "918 Pleasant St",
    "address_councildis": "B",
    "status": "Pending",
    "rowid": "1275080",
    "final_x": "3675772.81429",
    "final_y": "519352.617399",
    "longitude": "-90.08657277210384",
    "latitude": "29.92221202158392",
    "geocoded_column": {
      "latitude": "29.92221202158392",
      "longitude": "-90.08657277210384"
    }
  },
  {
    "service_request": "2026-1275079",
    "request_type": "Trash/Recycling",
    "request_reason": "Request a Large Item Pick Up",
    "date_created": "2026-04-20T14:34:53.000",
    "date_modified": "2026-04-20T14:34:54.000",
    "request_status": "Pending",
    "responsible_agency": "Department of Sanitation",
    "final_address": "1748 N Rocheblave St",
    "address_councildis": "D",
    "status": "Assigned to Contractor",
    "contractor": "IV Waste",
    "rowid": "1275079",
    "final_x": "3680679.12674",
    "final_y": "540427.780363",
    "longitude": "-90.07035231176941",
    "latitude": "29.98001391995228",
    "geocoded_column": {
      "latitude": "29.98001391995228",
      "longitude": "-90.07035231176941"
    }
  },
  {
    "service_request": "2026-1275078",
    "request_type": "Roads and Streets",
    "request_reason": "Pothole",
    "date_created": "2026-04-20T14:34:41.000",
    "date_modified": "2026-04-20T14:34:44.000",
    "request_status": "Pending",
    "responsible_agency": "Department of Public Works",
    "final_address": "1637 St Mary St",
    "address_councildis": "B",
    "status": "Pending",
    "rowid": "1275078",
    "final_x": "3678193.35611",
    "final_y": "524579.520124",
    "longitude": "-90.07875146912566",
    "latitude": "29.936511656027406",
    "geocoded_column": {
      "latitude": "29.936511656027406",
      "longitude": "-90.07875146912566"
    }
  },
  {
    "service_request": "2026-1275077",
    "request_type": "Trash/Recycling",
    "request_reason": "Order Trash Cart",
    "date_created": "2026-04-20T14:33:12.000",
    "date_modified": "2026-04-20T14:35:43.000",
    "request_status": "Pending",
    "responsible_agency": "Department of Sanitation",
    "final_address": "918 Pleasant St",
    "address_councildis": "B",
    "status": "Assigned to Contractor",
    "contractor": "IV Waste",
    "rowid": "1275077",
    "final_x": "3675772.81429",
    "final_y": "519352.617399",
    "longitude": "-90.08657277210384",
    "latitude": "29.92221202158392",
    "geocoded_column": {
      "latitude": "29.92221202158392",
      "longitude": "-90.08657277210384"
    }
  },
  {
    "service_request": "2026-1275076",
    "request_type": "Trash/Recycling",
    "request_reason": "Missed Trash Pick-Up",
    "date_created": "2026-04-20T14:32:20.000",
    "date_modified": "2026-04-20T14:42:46.000",
    "case_close_date": "2026-04-20T09:42:46.000",
    "request_status": "Closed",
    "responsible_agency": "Department of Sanitation",
    "final_address": "1228 Carondelet St, New Orleans, Louisiana, 70130",
    "address_councildis": "B",
    "status": "Invalid Request",
    "contractor": "Sanitation Dept. ",
    "contractor_action": "Invalid Request",
    "rowid": "1275076",
    "final_x": "3679278.08341",
    "final_y": "526367.51827",
    "longitude": "-90.07526496594873",
    "latitude": "29.94139535755576",
    "geocoded_column": {
      "latitude": "29.94139535755576",
      "longitude": "-90.07526496594873"
    }
  },
  {
    "service_request": "2026-1275075",
    "request_type": "Streetlights",
    "request_reason": "Streetlight Outage/Malfunction",
    "date_created": "2026-04-20T14:31:55.000",
    "date_modified": "2026-04-20T14:31:56.000",
    "request_status": "Pending",
    "responsible_agency": "Department of Public Works",
    "final_address": "6944 Cove Dr",
    "address_councildis": "E",
    "status": "Pending",
    "rowid": "1275075",
    "final_x": "3700369.19677",
    "final_y": "558090.628827",
    "longitude": "-90.00751780401639",
    "latitude": "30.02796868450283",
    "geocoded_column": {
      "latitude": "30.02796868450283",
      "longitude": "-90.00751780401639"
    }
  },
  {
    "service_request": "2026-1275074",
    "request_type": "Trash/Recycling",
    "request_reason": "Start Trash Service",
    "date_created": "2026-04-20T14:31:47.000",
    "date_modified": "2026-04-20T14:31:50.000",
    "request_status": "Pending",
    "responsible_agency": "Department of Sanitation",
    "final_address": "5012 Stephen Girard Ave",
    "address_councildis": "D",
    "status": "Assigned to Contractor",
    "contractor": "IV Waste",
    "rowid": "1275074",
    "final_x": "3692699.27197",
    "final_y": "551026.900373",
    "longitude": "-90.03200766291577",
    "latitude": "30.008787864913238",
    "geocoded_column": {
      "latitude": "30.008787864913238",
      "longitude": "-90.03200766291577"
    }
  },
  {
    "service_request": "2026-1275073",
    "request_type": "Trash/Recycling",
    "request_reason": "Request a Large Item Pick Up",
    "date_created": "2026-04-20T14:29:56.000",
    "date_modified": "2026-04-20T14:29:58.000",
    "request_status": "Pending",
    "responsible_agency": "Department of Sanitation",
    "final_address": "10336 Brookfield Dr",
    "address_councildis": "E",
    "status": "Assigned to Contractor",
    "contractor": "Waste Pro",
    "rowid": "1275073",
    "final_x": "3710622.45976",
    "final_y": "563225.570784",
    "longitude": "-89.97492612177898",
    "latitude": "30.04175754056776",
    "geocoded_column": {
      "latitude": "30.04175754056776",
      "longitude": "-89.97492612177898"
    }
  },
  {
    "service_request": "2026-1275072",
    "request_type": "Trash/Recycling",
    "request_reason": "Return Trash Cart",
    "date_created": "2026-04-20T14:29:33.000",
    "date_modified": "2026-04-20T14:29:35.000",
    "request_status": "Pending",
    "responsible_agency": "Department of Sanitation",
    "final_address": "7166 Lamb Rd",
    "address_councildis": "D",
    "status": "Assigned to Contractor",
    "contractor": "Waste Pro",
    "rowid": "1275072",
    "final_x": "3697430.59741",
    "final_y": "557670.256923",
    "longitude": "-90.01681879572801",
    "latitude": "30.02690598687092",
    "geocoded_column": {
      "latitude": "30.02690598687092",
      "longitude": "-90.01681879572801"
    }
  },
  {
    "service_request": "2026-1275071",
    "request_type": "Streetlights",
    "request_reason": "Streetlight Outage/Malfunction",
    "date_created": "2026-04-20T14:29:16.000",
    "date_modified": "2026-04-20T14:29:18.000",
    "request_status": "Pending",
    "responsible_agency": "Department of Public Works",
    "final_address": "2029 Lapeyrouse St",
    "address_councildis": "D",
    "status": "Pending",
    "rowid": "1275071",
    "final_x": "3680909.52315",
    "final_y": "538865.828489",
    "longitude": "-90.06967902973868",
    "latitude": "29.975712110115328",
    "geocoded_column": {
      "latitude": "29.975712110115328",
      "longitude": "-90.06967902973868"
    }
  },
  {
    "service_request": "2026-1275070",
    "request_type": "Trash/Recycling",
    "request_reason": "Repair Recycling Cart",
    "date_created": "2026-04-20T14:26:33.000",
    "date_modified": "2026-04-20T14:26:34.000",
    "request_status": "Pending",
    "responsible_agency": "Department of Sanitation",
    "final_address": "7166 Lamb Rd",
    "address_councildis": "D",
    "status": "Pending",
    "rowid": "1275070",
    "final_x": "3697430.59741",
    "final_y": "557670.256923",
    "longitude": "-90.01681879572801",
    "latitude": "30.02690598687092",
    "geocoded_column": {
      "latitude": "30.02690598687092",
      "longitude": "-90.01681879572801"
    }
  },
  {
    "service_request": "2026-1275069",
    "request_type": "Trash/Recycling",
    "request_reason": "Order Trash Cart",
    "date_created": "2026-04-20T14:24:50.000",
    "date_modified": "2026-04-20T14:24:53.000",
    "request_status": "Pending",
    "responsible_agency": "Department of Sanitation",
    "final_address": "927 N Rendon St",
    "address_councildis": "A",
    "status": "Assigned to Contractor",
    "contractor": "IV Waste",
    "rowid": "1275069",
    "final_x": "3675523.36251",
    "final_y": "539060.766218",
    "longitude": "-90.08668335214217",
    "latitude": "29.976410351200254",
    "geocoded_column": {
      "latitude": "29.976410351200254",
      "longitude": "-90.08668335214217"
    }
  },
  {
    "service_request": "2026-1275068",
    "request_type": "Trash/Recycling",
    "request_reason": "Replace Recycling Cart",
    "date_created": "2026-04-20T14:24:04.000",
    "date_modified": "2026-04-20T14:24:05.000",
    "request_status": "Pending",
    "responsible_agency": "Department of Sanitation",
    "final_address": "4032 Vincennes Pl",
    "address_councildis": "B",
    "status": "Pending",
    "rowid": "1275068",
    "final_x": "3668463.13748",
    "final_y": "530376.604866",
    "longitude": "-90.10927474075761",
    "latitude": "29.952741112440478",
    "geocoded_column": {
      "latitude": "29.952741112440478",
      "longitude": "-90.10927474075761"
    }
  },
  {
    "service_request": "2026-1275067",
    "request_type": "Abandoned Vehicles",
    "request_reason": "Abandoned/Junk Vehicles",
    "date_created": "2026-04-20T14:21:49.000",
    "date_modified": "2026-04-20T14:22:16.000",
    "request_status": "Pending",
    "responsible_agency": "Department of Public Works",
    "final_address": "900 BLK N Miro St",
    "address_councildis": "C",
    "status": "Pending",
    "rowid": "1275067",
    "final_x": "3678639.78278",
    "final_y": "536636.035768",
    "longitude": "-90.07692472455064",
    "latitude": "29.969649577611598",
    "geocoded_column": {
      "latitude": "29.969649577611598",
      "longitude": "-90.07692472455064"
    }
  },
  {
    "service_request": "2026-1275066",
    "request_type": "Property Maintenance",
    "request_reason": "Property Maintenance",
    "date_created": "2026-04-20T14:16:53.000",
    "date_modified": "2026-04-20T14:31:44.000",
    "case_close_date": "2026-04-20T09:31:43.000",
    "request_status": "Closed",
    "responsible_agency": "Department of Code Enforcement",
    "final_address": "2275 N Derbigny St",
    "address_councildis": "D",
    "status": "Referred to Code Enforcement",
    "rowid": "1275066",
    "final_x": "3685551.08828",
    "final_y": "538601.452745",
    "longitude": "-90.05502901211203",
    "latitude": "29.974843603591033",
    "geocoded_column": {
      "latitude": "29.974843603591033",
      "longitude": "-90.05502901211203"
    }
  },
  {
    "service_request": "2026-1275065",
    "request_type": "Abandoned Vehicles",
    "request_reason": "Abandoned/Junk Vehicles",
    "date_created": "2026-04-20T14:15:20.000",
    "date_modified": "2026-04-20T14:15:22.000",
    "request_status": "Pending",
    "responsible_agency": "Department of Public Works",
    "final_address": "3138 Maurepas St",
    "address_councildis": "A",
    "status": "Pending",
    "rowid": "1275065",
    "final_x": "3676289.42824",
    "final_y": "540718.469131",
    "longitude": "-90.08420680866847",
    "latitude": "29.980945524597498",
    "geocoded_column": {
      "latitude": "29.980945524597498",
      "longitude": "-90.08420680866847"
    }
  },
  {
    "service_request": "2026-1275064",
    "request_type": "Tree Service",
    "request_reason": "Tree Trim",
    "date_created": "2026-04-20T14:14:23.000",
    "date_modified": "2026-04-20T14:14:24.000",
    "request_status": "Pending",
    "responsible_agency": "Department of Parks & Parkways",
    "final_address": "4631 St Charles Ave",
    "address_councildis": "B",
    "status": "Pending",
    "rowid": "1275064",
    "final_x": "3669803.52225",
    "final_y": "520842.875449",
    "longitude": "-90.10536500240015",
    "latitude": "29.926487000403203",
    "geocoded_column": {
      "latitude": "29.926487000403203",
      "longitude": "-90.10536500240015"
    }
  },
  {
    "service_request": "2026-1275063",
    "request_type": "Drainage",
    "request_reason": "Catch Basin Not Draining",
    "date_created": "2026-04-20T14:14:13.000",
    "date_modified": "2026-04-20T14:14:16.000",
    "request_status": "Pending",
    "responsible_agency": "Sewerage & Water Board",
    "final_address": "4301 General Ogden St",
    "address_councildis": "A",
    "status": "Pending",
    "rowid": "1275063",
    "final_x": "3667330.6658",
    "final_y": "538413.308041",
    "longitude": "-90.1125802384319",
    "latitude": "29.97487260492829",
    "geocoded_column": {
      "latitude": "29.97487260492829",
      "longitude": "-90.1125802384319"
    }
  },
  {
    "service_request": "2026-1275062",
    "request_type": "Trash/Recycling",
    "request_reason": "Order Trash Cart",
    "date_created": "2026-04-20T14:12:50.000",
    "date_modified": "2026-04-20T14:12:51.000",
    "request_status": "Pending",
    "responsible_agency": "Department of Sanitation",
    "final_address": "724 Pacific Ave",
    "address_councildis": "C",
    "status": "Assigned to Contractor",
    "contractor": "Richards Disposal",
    "rowid": "1275062",
    "final_x": "3688513.58646",
    "final_y": "528849.170752",
    "longitude": "-90.0460187515799",
    "latitude": "29.94793700699248",
    "geocoded_column": {
      "latitude": "29.94793700699248",
      "longitude": "-90.0460187515799"
    }
  },
  {
    "service_request": "2026-1275061",
    "request_type": "Property Maintenance",
    "request_reason": "Property Maintenance",
    "date_created": "2026-04-20T14:11:34.000",
    "date_modified": "2026-04-20T14:50:27.000",
    "case_close_date": "2026-04-20T09:50:26.000",
    "request_status": "Closed",
    "responsible_agency": "Department of Code Enforcement",
    "final_address": "4101 Stephen Girard Ave",
    "address_councildis": "D",
    "status": "Referred to Code Enforcement",
    "rowid": "1275061",
    "final_x": "3689553.25955",
    "final_y": "549758.067988",
    "longitude": "-90.04199209027566",
    "latitude": "30.005396908232928",
    "geocoded_column": {
      "latitude": "30.005396908232928",
      "longitude": "-90.04199209027566"
    }
  },
  {
    "service_request": "2026-1275060",
    "request_type": "Trash/Recycling",
    "request_reason": "Request a Large Item Pick Up",
    "date_created": "2026-04-20T14:08:19.000",
    "date_modified": "2026-04-20T14:08:21.000",
    "request_status": "Pending",
    "responsible_agency": "Department of Sanitation",
    "final_address": "527 Belleville St",
    "address_councildis": "C",
    "status": "Assigned to Contractor",
    "contractor": "Richards Disposal",
    "rowid": "1275060",
    "final_x": "3687795.78441",
    "final_y": "529699.198977",
    "longitude": "-90.04825503424247",
    "latitude": "29.950296448445076",
    "geocoded_column": {
      "latitude": "29.950296448445076",
      "longitude": "-90.04825503424247"
    }
  },
  {
    "service_request": "2026-1275059",
    "request_type": "Property Maintenance",
    "request_reason": "Property Maintenance",
    "date_created": "2026-04-20T14:07:54.000",
    "date_modified": "2026-04-20T14:24:39.000",
    "case_close_date": "2026-04-20T09:24:38.000",
    "request_status": "Closed",
    "responsible_agency": "Department of Code Enforcement",
    "final_address": "2018 Painters St",
    "address_councildis": "D",
    "status": "Referred to Code Enforcement",
    "rowid": "1275059",
    "final_x": "3687217.32028",
    "final_y": "539923.773258",
    "longitude": "-90.04971986056302",
    "latitude": "29.97842830202415",
    "geocoded_column": {
      "latitude": "29.97842830202415",
      "longitude": "-90.04971986056302"
    }
  },
  {
    "service_request": "2026-1275058",
    "request_type": "Trash/Recycling",
    "request_reason": "Request a Large Item Pick Up",
    "date_created": "2026-04-20T14:07:22.000",
    "date_modified": "2026-04-20T14:07:23.000",
    "request_status": "Pending",
    "responsible_agency": "Department of Sanitation",
    "final_address": "5435 Dauphine St",
    "address_councildis": "E",
    "status": "Assigned to Contractor",
    "contractor": "Waste Pro",
    "rowid": "1275058",
    "final_x": "3697118.25879",
    "final_y": "532822.200452",
    "longitude": "-90.01870658072971",
    "latitude": "29.958592825459686",
    "geocoded_column": {
      "latitude": "29.958592825459686",
      "longitude": "-90.01870658072971"
    }
  },
  {
    "service_request": "2026-1275057",
    "request_type": "Roads and Streets",
    "request_reason": "Street Subsidence (Sinking)",
    "date_created": "2026-04-20T14:07:03.000",
    "date_modified": "2026-04-20T14:07:04.000",
    "request_status": "Pending",
    "responsible_agency": "Sewerage & Water Board",
    "final_address": "100 BLK Saint Joseph St",
    "address_councildis": "B",
    "status": "Pending",
    "rowid": "1275057",
    "final_x": "3682664.20878",
    "final_y": "526873.906998",
    "longitude": "-90.06455662013943",
    "latitude": "29.942685096135765",
    "geocoded_column": {
      "latitude": "29.942685096135765",
      "longitude": "-90.06455662013943"
    }
  },
  {
    "service_request": "2026-1275056",
    "request_type": "Property Maintenance",
    "request_reason": "Property Maintenance",
    "date_created": "2026-04-20T14:06:44.000",
    "date_modified": "2026-04-20T15:17:13.000",
    "case_close_date": "2026-04-20T10:17:12.000",
    "request_status": "Closed",
    "responsible_agency": "Department of Code Enforcement",
    "final_address": "4950 Bundy Rd",
    "address_councildis": "E",
    "status": "Resolved",
    "rowid": "1275056",
    "final_x": "3709011.56836",
    "final_y": "556956.389786",
    "longitude": "-89.98025105306185",
    "latitude": "30.024572182655188",
    "geocoded_column": {
      "latitude": "30.024572182655188",
      "longitude": "-89.98025105306185"
    }
  },
  {
    "service_request": "2026-1275055",
    "request_type": "Trash/Recycling",
    "request_reason": "Request a Large Item Pick Up",
    "date_created": "2026-04-20T14:06:35.000",
    "date_modified": "2026-04-20T14:06:37.000",
    "request_status": "Pending",
    "responsible_agency": "Department of Sanitation",
    "final_address": "2835 OReilly St",
    "address_councildis": "D",
    "status": "Assigned to Contractor",
    "contractor": "IV Waste",
    "rowid": "1275055",
    "final_x": "3679229.60322",
    "final_y": "541977.005836",
    "longitude": "-90.07487676976892",
    "latitude": "29.98431760316828",
    "geocoded_column": {
      "latitude": "29.98431760316828",
      "longitude": "-90.07487676976892"
    }
  },
  {
    "service_request": "2026-1275054",
    "request_type": "Trash/Recycling",
    "request_reason": "Missed Trash Pick-Up",
    "date_created": "2026-04-20T14:03:23.000",
    "date_modified": "2026-04-20T14:26:31.000",
    "case_close_date": "2026-04-20T09:26:29.000",
    "request_status": "Closed",
    "responsible_agency": "Department of Sanitation",
    "final_address": "6596 Catina St",
    "address_councildis": "A",
    "status": "Invalid Request",
    "contractor": "IV Waste",
    "contractor_action": "Invalid Request",
    "rowid": "1275054",
    "final_x": "3666972.78509",
    "final_y": "551681.380373",
    "longitude": "-90.11326433479974",
    "latitude": "30.01136574250018",
    "geocoded_column": {
      "latitude": "30.01136574250018",
      "longitude": "-90.11326433479974"
    }
  },
  {
    "service_request": "2026-1275053",
    "request_type": "Trash/Recycling",
    "request_reason": "Request a Large Item Pick Up",
    "date_created": "2026-04-20T13:59:57.000",
    "date_modified": "2026-04-20T13:59:58.000",
    "request_status": "Pending",
    "responsible_agency": "Department of Sanitation",
    "final_address": "2765 Clover St",
    "address_councildis": "D",
    "status": "Assigned to Contractor",
    "contractor": "IV Waste",
    "rowid": "1275053",
    "final_x": "3688353.4022",
    "final_y": "546826.579025",
    "longitude": "-90.04588674993029",
    "latitude": "29.997373505288206",
    "geocoded_column": {
      "latitude": "29.997373505288206",
      "longitude": "-90.04588674993029"
    }
  },
  {
    "service_request": "2026-1275052",
    "request_type": "Trash/Recycling",
    "request_reason": "Request a Large Item Pick Up",
    "date_created": "2026-04-20T13:58:48.000",
    "date_modified": "2026-04-20T13:58:49.000",
    "request_status": "Pending",
    "responsible_agency": "Department of Sanitation",
    "final_address": "11408 S Easterlyn Cir",
    "address_councildis": "E",
    "status": "Assigned to Contractor",
    "contractor": "Waste Pro",
    "rowid": "1275052",
    "final_x": "3718684.79167",
    "final_y": "560277.573277",
    "longitude": "-89.9495589891483",
    "latitude": "30.03338647131278",
    "geocoded_column": {
      "latitude": "30.03338647131278",
      "longitude": "-89.9495589891483"
    }
  },
  {
    "service_request": "2026-1275051",
    "request_type": "New Orleans Recreation Development Commission (NORDC)",
    "request_reason": "Facilities and Parks Maintenance/Clean Up",
    "date_created": "2026-04-20T13:56:54.000",
    "date_modified": "2026-04-20T13:56:56.000",
    "request_status": "Pending",
    "responsible_agency": "New Orleans Recreation Development Commission",
    "final_address": "743 Second St",
    "address_councildis": "B",
    "status": "Pending",
    "rowid": "1275051",
    "final_x": "3678480.23298",
    "final_y": "520410.985976",
    "longitude": "-90.07798996626734",
    "latitude": "29.925040911817728",
    "geocoded_column": {
      "latitude": "29.925040911817728",
      "longitude": "-90.07798996626734"
    }
  },