[
  {
    "service_request": "2022-858762",
    "request_type": "Parks & Parkways",
    "request_reason": "Request Tree Service (Right of Way/Public Property)",
    "date_created": "2022-02-04T00:07:07.000",
    "date_modified": "2022-02-04T00:11:06.000",
    "request_status": "Pending",
    "responsible_agency": "Department of Parks & Parkway",
    "final_address": "FAIRFAX PL & WESTCHESTER ST",
    "address_councildis": "C",
    "status": "Pending",
    "rowid": "858762",
    "final_x": "3705977.7",
    "final_y": "517436.78",
    "longitude": "-89.9913000343529",
    "latitude": "29.916005894169643",
    "geocoded_column": {
      "latitude": "29.916005894169643",
      "longitude": "-89.9913000343529"
    }
  },
  {
    "service_request": "2022-858761",
    "request_type": "Roads/Drainage",
    "request_reason": "Street Flooding / Drainage",
    "date_created": "2022-02-03T23:58:07.000",
    "date_modified": "2022-02-03T23:58:07.000",
    "request_status": "Pending",
    "responsible_agency": "Department of Public Works",
    "final_address": "120 Chalfant Pl",
    "address_councildis": "D",
    "status": "Pending",
    "rowid": "858761",
    "final_x": "3677644.17454",
    "final_y": "544601.612623",
    "longitude": "-90.0797937397795",
    "latitude": "29.991582139485505",
    "geocoded_column": {
      "latitude": "29.991582139485505",
      "longitude": "-90.0797937397795"
    }
  },
  {
    "service_request": "2022-858760",
    "request_type": "Trash/Recycling",
    "request_reason": "Order Trash Cart",
    "date_created": "2022-02-03T23:45:09.000",
    "date_modified": "2022-02-03T23:45:10.000",
    "request_status": "Pending",
    "responsible_agency": "Department of Sanitation",
    "final_address": "7043 Bunker Hill Rd",
    "address_councildis": "E",
    "status": "Assigned to Contractor",
    "contractor": "Metro Disposal",
    "rowid": "858760",
    "final_x": "3705915.45579",
    "final_y": "560537.82595",
    "longitude": "-89.98990146982118",
    "latitude": "30.034519897573364",
    "geocoded_column": {
      "latitude": "30.034519897573364",
      "longitude": "-89.98990146982118"
    }
  },
  {
    "service_request": "2022-858759",
    "request_type": "Trash/Recycling",
    "request_reason": "Repair Trash Cart",
    "date_created": "2022-02-03T22:19:13.000",
    "date_modified": "2022-02-03T22:19:14.000",
    "request_status": "Pending",
    "responsible_agency": "Department of Sanitation",
    "final_address": "320 S Gayoso St",
    "address_councildis": "B",
    "status": "Assigned to Contractor",
    "contractor": "Richards Disposal",
    "rowid": "858759",
    "final_x": "3673776.27054",
    "final_y": "535061.546118",
    "longitude": "-90.09233800150112",
    "latitude": "29.96546600026725",
    "geocoded_column": {
      "latitude": "29.96546600026725",
      "longitude": "-90.09233800150112"
    }
  },
  {
    "service_request": "2022-858758",
    "request_type": "Trash/Recycling",
    "request_reason": "Repair Recycling Cart",
    "date_created": "2022-02-03T22:00:36.000",
    "date_modified": "2022-02-03T22:00:36.000",
    "request_status": "Pending",
    "responsible_agency": "Department of Sanitation",
    "final_address": "8124 Hampson St",
    "address_councildis": "A",
    "status": "Pending",
    "rowid": "858758",
    "final_x": "3660634.86394",
    "final_y": "527199.692415",
    "longitude": "-90.13409805077195",
    "latitude": "29.94423324152962",
    "geocoded_column": {
      "latitude": "29.94423324152962",
      "longitude": "-90.13409805077195"
    }
  },
  {
    "service_request": "2022-858757",
    "request_type": "Abandoned Vehicles",
    "request_reason": "Abandoned/Junk Vehicles",
    "date_created": "2022-02-03T21:45:53.000",
    "date_modified": "2022-02-03T21:45:53.000",
    "request_status": "Pending",
    "responsible_agency": "Department of Public Works",
    "final_address": "LEAKE AVE & WALNUT ST",
    "address_councildis": "A",
    "status": "Pending",
    "rowid": "858757",
    "final_x": "3660872.0",
    "final_y": "520526.58",
    "longitude": "-90.13356994535773",
    "latitude": "29.925877455471337",
    "geocoded_column": {
      "latitude": "29.925877455471337",
      "longitude": "-90.13356994535773"
    }
  },
  {
    "service_request": "2022-858756",
    "request_type": "COVID-19",
    "request_reason": "COVID-19 Business Non-Compliance",
    "date_created": "2022-02-03T21:35:35.000",
    "date_modified": "2022-02-03T21:35:37.000",
    "request_status": "Pending",
    "responsible_agency": "Safety and Permits",
    "final_address": "4825 Prytania St",
    "address_councildis": "B",
    "status": "Pending",
    "rowid": "858756",
    "final_x": "3669237.59604",
    "final_y": "520233.369848",
    "longitude": "-90.107172068737",
    "latitude": "29.924827718126664",
    "geocoded_column": {
      "latitude": "29.924827718126664",
      "longitude": "-90.107172068737"
    }
  },
  {
    "service_request": "2022-858755",
    "request_type": "Roads/Drainage",
    "request_reason": "Pothole",
    "date_created": "2022-02-03T21:16:04.000",
    "date_modified": "2022-02-03T21:16:04.000",
    "request_status": "Pending",
    "responsible_agency": "Department of Public Works",
    "final_address": "HAMMOND ST & WERNER DR",
    "address_councildis": "E",
    "status": "Pending",
    "rowid": "858755",
    "final_x": "3704733.3",
    "final_y": "555620.58",
    "longitude": "-89.99381887699023",
    "latitude": "30.02103744121229",
    "geocoded_column": {
      "latitude": "30.02103744121229",
      "longitude": "-89.99381887699023"
    }
  },
  {
    "service_request": "2022-858754",
    "request_type": "Roads/Drainage",
    "request_reason": "Catch Basin - Clogged",
    "date_created": "2022-02-03T21:08:30.000",
    "date_modified": "2022-02-03T21:08:30.000",
    "request_status": "Pending",
    "responsible_agency": "Department of Public Works",
    "final_address": "7040 Pinebrook Dr",
    "address_councildis": "E",
    "status": "Pending",
    "rowid": "858754",
    "final_x": "3719515.24729",
    "final_y": "569711.089126",
    "longitude": "-89.94657390819788",
    "latitude": "30.05929716283975",
    "geocoded_column": {
      "latitude": "30.05929716283975",
      "longitude": "-89.94657390819788"
    }
  },
  {
    "service_request": "2022-858753",
    "request_type": "Traffic Signals/Signs/Striping/Streetlights",
    "request_reason": "Street Light Outage/Malfunction",
    "date_created": "2022-02-03T20:54:36.000",
    "date_modified": "2022-02-03T20:54:37.000",
    "request_status": "Pending",
    "responsible_agency": "Department of Public Works",
    "final_address": "2555 N Tonti St, New Orleans, Louisiana, 70117",
    "address_councildis": "D",
    "status": "Pending",
    "contractor": "Royal Engineering",
    "rowid": "858753",
    "final_x": "3686980.13686",
    "final_y": "540952.660491",
    "longitude": "-90.05043258773358",
    "latitude": "29.98126468216653",
    "geocoded_column": {
      "latitude": "29.98126468216653",
      "longitude": "-90.05043258773358"
    }
  },
  {
    "service_request": "2022-858751",
    "request_type": "Roads/Drainage",
    "request_reason": "Man hole cover issue",
    "date_created": "2022-02-03T20:28:07.000",
    "date_modified": "2022-02-03T20:28:07.000",
    "request_status": "Pending",
    "responsible_agency": "Department of Public Works",
    "final_address": "200 BLK Warrington Dr",
    "address_councildis": "D",
    "status": "Pending",
    "rowid": "858751",
    "final_x": "3682471.06448",
    "final_y": "547167.10132",
    "longitude": "-90.06445692156092",
    "latitude": "29.99849024061116",
    "geocoded_column": {
      "latitude": "29.99849024061116",
      "longitude": "-90.06445692156092"
    }
  },
  {
    "service_request": "2022-858750",
    "request_type": "Roads/Drainage",
    "request_reason": "Accessibility Ramps, Curbs and Sidewalk Repair",
    "date_created": "2022-02-03T20:22:23.000",
    "date_modified": "2022-02-03T20:22:23.000",
    "request_status": "Pending",
    "responsible_agency": "Department of Public Works",
    "final_address": "7040 Pinebrook Dr",
    "address_councildis": "E",
    "status": "Pending",
    "rowid": "858750",
    "final_x": "3719515.24729",
    "final_y": "569711.089126",
    "longitude": "-89.94657390819788",
    "latitude": "30.05929716283975",
    "geocoded_column": {
      "latitude": "30.05929716283975",
      "longitude": "-89.94657390819788"
    }
  },
  {
    "service_request": "2022-858749",
    "request_type": "Property Maintenance",
    "request_reason": "Property Maintenance",
    "date_created": "2022-02-03T20:21:35.000",
    "date_modified": "2022-02-03T20:21:35.000",
    "request_status": "Pending",
    "responsible_agency": "Department of Code Enforcement",
    "final_address": "1620 Rev. John Raphael, Jr. Way",
    "address_councildis": "B",
    "status": "Pending",
    "rowid": "858749",
    "final_x": "3676417.83144",
    "final_y": "526725.052798",
    "longitude": "-90.08428303854635",
    "latitude": "29.94246450017148",
    "geocoded_column": {
      "latitude": "29.94246450017148",
      "longitude": "-90.08428303854635"
    }
  },
  {
    "service_request": "2022-858748",
    "request_type": "Trash/Recycling",
    "request_reason": "MIssed Recycling Pick-Up",
    "date_created": "2022-02-03T20:08:46.000",
    "date_modified": "2022-02-03T20:08:47.000",
    "request_status": "Pending",
    "responsible_agency": "Department of Sanitation",
    "final_address": "6016 St Charles Ave",
    "address_councildis": "A",
    "status": "Assigned to Contractor",
    "contractor": "Richards Disposal",
    "rowid": "858748",
    "final_x": "3665536.5257",
    "final_y": "522450.08089",
    "longitude": "-90.11878100278054",
    "latitude": "29.931031355859783",
    "geocoded_column": {
      "latitude": "29.931031355859783",
      "longitude": "-90.11878100278054"
    }
  },
  {
    "service_request": "2022-858747",
    "request_type": "Trash/Recycling",
    "request_reason": "Order Recycling Cart",
    "date_created": "2022-02-03T20:03:36.000",
    "date_modified": "2022-02-03T20:03:36.000",
    "request_status": "Pending",
    "responsible_agency": "Department of Sanitation",
    "final_address": "101 Westchester St",
    "address_councildis": "C",
    "status": "Pending",
    "rowid": "858747",
    "final_x": "3706097.16964",
    "final_y": "521753.911802",
    "longitude": "-89.99076328408194",
    "latitude": "29.927872656670797",
    "geocoded_column": {
      "latitude": "29.927872656670797",
      "longitude": "-89.99076328408194"
    }
  },
  {
    "service_request": "2022-858746",
    "request_type": "Trash/Recycling",
    "request_reason": "Missed Trash Pick-Up",
    "date_created": "2022-02-03T19:56:55.000",
    "date_modified": "2022-02-03T19:56:56.000",
    "request_status": "Pending",
    "responsible_agency": "Department of Sanitation",
    "final_address": "2838 Dryades St",
    "address_councildis": "B",
    "status": "Assigned to Contractor",
    "contractor": "Richards Disposal",
    "rowid": "858746",
    "final_x": "3675068.36648",
    "final_y": "523228.923643",
    "longitude": "-90.08866351316642",
    "latitude": "29.932891667520074",
    "geocoded_column": {
      "latitude": "29.932891667520074",
      "longitude": "-90.08866351316642"
    }
  },
  {
    "service_request": "2022-858745",
    "request_type": "Traffic Signals/Signs/Striping/Streetlights",
    "request_reason": "Street Light Outage/Malfunction",
    "date_created": "2022-02-03T19:55:10.000",
    "date_modified": "2022-02-03T19:55:11.000",
    "request_status": "Pending",
    "responsible_agency": "Department of Public Works",
    "final_address": "1317 Henry Clay Ave",
    "address_councildis": "A",
    "status": "Pending",
    "contractor": "Royal Engineering",
    "rowid": "858745",
    "final_x": "3664534.7568",
    "final_y": "521264.632569",
    "longitude": "-90.12198302937432",
    "latitude": "29.927800906155344",
    "geocoded_column": {
      "latitude": "29.927800906155344",
      "longitude": "-90.12198302937432"
    }
  },
  {
    "service_request": "2022-858744",
    "request_type": "Traffic Signals/Signs/Striping/Streetlights",
    "request_reason": "Street Light Outage/Malfunction",
    "date_created": "2022-02-03T19:48:51.000",
    "date_modified": "2022-02-03T19:48:52.000",
    "request_status": "Pending",
    "responsible_agency": "Department of Public Works",
    "final_address": "1317 Henry Clay Ave",
    "address_councildis": "A",
    "status": "Pending",
    "contractor": "Royal Engineering",
    "rowid": "858744",
    "final_x": "3664534.7568",
    "final_y": "521264.632569",
    "longitude": "-90.12198302937432",
    "latitude": "29.927800906155344",
    "geocoded_column": {
      "latitude": "29.927800906155344",
      "longitude": "-90.12198302937432"
    }
  },
  {
    "service_request": "2022-858743",
    "request_type": "Traffic Signals/Signs/Striping/Streetlights",
    "request_reason": "Traffic Signal Malfunctioning/Damaged",
    "date_created": "2022-02-03T19:23:47.000",
    "date_modified": "2022-02-03T19:23:47.000",
    "request_status": "Pending",
    "responsible_agency": "Department of Public Works",
    "final_address": "EARHART BLVD & MAGNOLIA ST",
    "address_councildis": "B",
    "status": "Pending",
    "rowid": "858743",
    "final_x": "3676590.5",
    "final_y": "528721.38",
    "longitude": "-90.08366914458753",
    "latitude": "29.947948562397546",
    "geocoded_column": {
      "latitude": "29.947948562397546",
      "longitude": "-90.08366914458753"
    }
  },
  {
    "service_request": "2022-858742",
    "request_type": "Abandoned Vehicles",
    "request_reason": "Abandoned/Junk Vehicles",
    "date_created": "2022-02-03T19:15:22.000",
    "date_modified": "2022-02-03T19:15:22.000",
    "request_status": "Pending",
    "responsible_agency": "Department of Public Works",
    "final_address": "5114 Willow St",
    "address_councildis": "B",
    "status": "Pending",
    "rowid": "858742",
    "final_x": "3668500.42394",
    "final_y": "525248.668285",
    "longitude": "-90.10932996900442",
    "latitude": "29.938639856445498",
    "geocoded_column": {
      "latitude": "29.938639856445498",
      "longitude": "-90.10932996900442"
    }
  },
  {
    "service_request": "2022-858741",
    "request_type": "Abandoned Vehicles",
    "request_reason": "Abandoned/Junk Vehicles",
    "date_created": "2022-02-03T19:11:31.000",
    "date_modified": "2022-02-03T19:11:31.000",
    "request_status": "Pending",
    "responsible_agency": "Department of Public Works",
    "final_address": "2707 Soniat St",
    "address_councildis": "B",
    "status": "Pending",
    "rowid": "858741",
    "final_x": "3668598.61806",
    "final_y": "525387.920317",
    "longitude": "-90.10901526127233",
    "latitude": "29.93901987010588",
    "geocoded_column": {
      "latitude": "29.93901987010588",
      "longitude": "-90.10901526127233"
    }
  },
  {
    "service_request": "2022-858740",
    "request_type": "Traffic Signals/Signs/Striping/Streetlights",
    "request_reason": "Street Light Outage/Malfunction",
    "date_created": "2022-02-03T19:06:39.000",
    "date_modified": "2022-02-03T19:06:40.000",
    "request_status": "Pending",
    "responsible_agency": "Department of Public Works",
    "final_address": "515 S Clark St",
    "address_councildis": "B",
    "status": "Pending",
    "contractor": "Royal Engineering",
    "rowid": "858740",
    "final_x": "3671773.15489",
    "final_y": "535622.912518",
    "longitude": "-90.09864466316492",
    "latitude": "29.967069070486975",
    "geocoded_column": {
      "latitude": "29.967069070486975",
      "longitude": "-90.09864466316492"
    }
  },
  {
    "service_request": "2022-858739",
    "request_type": "Trash/Recycling",
    "request_reason": "Replace Recycling Cart",
    "date_created": "2022-02-03T18:53:10.000",
    "date_modified": "2022-02-03T18:53:10.000",
    "request_status": "Pending",
    "responsible_agency": "Department of Sanitation",
    "final_address": "1719 2nd St, New Orleans, Louisiana, 70113",
    "status": "Pending",
    "rowid": "858739",
    "longitude": "0.0",
    "latitude": "0.0",
    "geocoded_column": {
      "latitude": "0.0",
      "longitude": "0.0"
    }
  },
  {
    "service_request": "2022-858738",
    "request_type": "Property Maintenance",
    "request_reason": "Property Maintenance",
    "date_created": "2022-02-03T18:49:58.000",
    "date_modified": "2022-02-03T18:49:58.000",
    "request_status": "Pending",
    "responsible_agency": "Department of Code Enforcement",
    "final_address": "2801 Soniat St",
    "address_councildis": "B",
    "status": "Pending",
    "rowid": "858738",
    "final_x": "3668610.29089",
    "final_y": "525689.314493",
    "longitude": "-90.10896824117398",
    "latitude": "29.93984826396046",
    "geocoded_column": {
      "latitude": "29.93984826396046",
      "longitude": "-90.10896824117398"
    }
  },
  {
    "service_request": "2022-858737",
    "request_type": "Traffic Signals/Signs/Striping/Streetlights",
    "request_reason": "Street Light Outage/Malfunction",
    "date_created": "2022-02-03T18:47:16.000",
    "date_modified": "2022-02-03T18:47:17.000",
    "request_status": "Pending",
    "responsible_agency": "Department of Public Works",
    "final_address": "3772 Silver Maple Ct",
    "address_councildis": "C",
    "status": "Pending",
    "contractor": "Royal Engineering",
    "rowid": "858737",
    "final_x": "3703629.24273",
    "final_y": "512674.552113",
    "longitude": "-89.99888768305408",
    "latitude": "29.902986815742096",
    "geocoded_column": {
      "latitude": "29.902986815742096",
      "longitude": "-89.99888768305408"
    }
  },
  {
    "service_request": "2022-858736",
    "request_type": "Traffic Signals/Signs/Striping/Streetlights",
    "request_reason": "Street Light Outage/Malfunction",
    "date_created": "2022-02-03T18:39:34.000",
    "date_modified": "2022-02-03T18:39:35.000",
    "request_status": "Pending",
    "responsible_agency": "Department of Public Works",
    "final_address": "4843 Chrysler St",
    "address_councildis": "E",
    "status": "Pending",
    "contractor": "Royal Engineering",
    "rowid": "858736",
    "final_x": "3715337.28485",
    "final_y": "557329.737563",
    "longitude": "-89.96024897473912",
    "latitude": "30.025391831821544",
    "geocoded_column": {
      "latitude": "30.025391831821544",
      "longitude": "-89.96024897473912"
    }
  },
  {
    "service_request": "2022-858735",
    "request_type": "Trash/Recycling",
    "request_reason": "Missed Trash Pick-Up",
    "date_created": "2022-02-03T18:36:24.000",
    "date_modified": "2022-02-03T18:36:25.000",
    "request_status": "Pending",
    "responsible_agency": "Department of Sanitation",
    "final_address": "5810 Chamberlain Dr, New Orleans, Louisiana, 70122",
    "address_councildis": "D",
    "status": "Assigned to Contractor",
    "contractor": "Metro Disposal",
    "rowid": "858735",
    "final_x": "3679258.26786",
    "final_y": "553924.250648",
    "longitude": "-90.074371616807",
    "latitude": "30.01716741409558",
    "geocoded_column": {
      "latitude": "30.01716741409558",
      "longitude": "-90.074371616807"
    }
  },
  {
    "service_request": "2022-858734",
    "request_type": "Traffic Signals/Signs/Striping/Streetlights",
    "request_reason": "Street Light Outage/Malfunction",
    "date_created": "2022-02-03T18:24:26.000",
    "date_modified": "2022-02-03T18:24:27.000",
    "request_status": "Pending",
    "responsible_agency": "Department of Public Works",
    "final_address": "1305 St Andrew St",
    "address_councildis": "B",
    "status": "Pending",
    "contractor": "Royal Engineering",
    "rowid": "858734",
    "final_x": "3679039.33743",
    "final_y": "523231.214459",
    "longitude": "-90.0761273762998",
    "latitude": "29.932778762971367",
    "geocoded_column": {
      "latitude": "29.932778762971367",
      "longitude": "-90.0761273762998"
    }
  },
  {
    "service_request": "2022-858733",
    "request_type": "Trash/Recycling",
    "request_reason": "Request a Large Item Pick Up",
    "date_created": "2022-02-03T18:23:32.000",
    "date_modified": "2022-02-03T18:23:33.000",
    "request_status": "Pending",
    "responsible_agency": "Department of Sanitation",
    "final_address": "5614 Camp St",
    "address_councildis": "A",
    "status": "Assigned to Contractor",
    "contractor": "Richards Disposal",
    "rowid": "858733",
    "final_x": "3666049.89588",
    "final_y": "519212.656439",
    "longitude": "-90.11726882034654",
    "latitude": "29.92211448811807",
    "geocoded_column": {
      "latitude": "29.92211448811807",
      "longitude": "-90.11726882034654"
    }
  },
  {
    "service_request": "2022-858732",
    "request_type": "Traffic Signals/Signs/Striping/Streetlights",
    "request_reason": "Street Light Knocked Down/Leaning",
    "date_created": "2022-02-03T17:56:23.000",
    "date_modified": "2022-02-03T17:56:24.000",
    "request_status": "Pending",
    "responsible_agency": "Department of Public Works",
    "final_address": "READ BLVD & QUEISSER ST",
    "address_councildis": "E",
    "status": "Pending",
    "contractor": "Royal Engineering",
    "rowid": "858732",
    "final_x": "3708745.5",
    "final_y": "564195.78",
    "longitude": "-89.98082176464614",
    "latitude": "30.044486278039184",
    "geocoded_column": {
      "latitude": "30.044486278039184",
      "longitude": "-89.98082176464614"
    }
  },
  {
    "service_request": "2022-858731",
    "request_type": "Roads/Drainage",
    "request_reason": "Pothole",
    "date_created": "2022-02-03T17:48:31.000",
    "date_modified": "2022-02-03T17:48:31.000",
    "request_status": "Pending",
    "responsible_agency": "Department of Public Works",
    "final_address": "7221 Willow St",
    "address_councildis": "A",
    "status": "Pending",
    "rowid": "858731",
    "final_x": "3664408.79501",
    "final_y": "527216.520639",
    "longitude": "-90.12218206618664",
    "latitude": "29.944170367894973",
    "geocoded_column": {
      "latitude": "29.944170367894973",
      "longitude": "-90.12218206618664"
    }
  },
  {
    "service_request": "2022-858730",
    "request_type": "Trash/Recycling",
    "request_reason": "Missed Trash Pick-Up",
    "date_created": "2022-02-03T17:40:15.000",
    "date_modified": "2022-02-03T17:40:16.000",
    "case_close_date": "2021-08-25T19:00:00.000",
    "request_status": "Pending",
    "responsible_agency": "Department of Sanitation",
    "final_address": "4721 N Villere St",
    "address_councildis": "E",
    "status": "Assigned to Contractor",
    "contractor": "Metro Disposal",
    "rowid": "858730",
    "final_x": "3695186.45245",
    "final_y": "535757.119559",
    "longitude": "-90.0247008449676",
    "latitude": "29.966723616600905",
    "geocoded_column": {
      "latitude": "29.966723616600905",
      "longitude": "-90.0247008449676"
    }
  },
  {
    "service_request": "2022-858729",
    "request_type": "Abandoned Vehicles",
    "request_reason": "Abandoned/Junk Vehicles",
    "date_created": "2022-02-03T17:33:52.000",
    "date_modified": "2022-02-03T17:33:52.000",
    "request_status": "Pending",
    "responsible_agency": "Department of Public Works",
    "final_address": "1033 Kentucky St",
    "address_councildis": "C",
    "status": "Pending",
    "rowid": "858729",
    "final_x": "3693314.30621",
    "final_y": "534738.269894",
    "longitude": "-90.03064962748157",
    "latitude": "29.963980797889906",
    "geocoded_column": {
      "latitude": "29.963980797889906",
      "longitude": "-90.03064962748157"
    }
  },
  {
    "service_request": "2022-858728",
    "request_type": "Abandoned Vehicles",
    "request_reason": "Vehicle Blocking Your Driveway",
    "date_created": "2022-02-03T17:32:33.000",
    "date_modified": "2022-02-03T17:32:33.000",
    "request_status": "Pending",
    "responsible_agency": "Department of Public Works",
    "final_address": "1033 kentucky street new orleans la 70117",
    "address_councildis": "C",
    "status": "Pending",
    "rowid": "858728",
    "final_x": "3693314.30621",
    "final_y": "534738.269894",
    "longitude": "-90.03064962748157",
    "latitude": "29.963980797889906",
    "geocoded_column": {
      "latitude": "29.963980797889906",
      "longitude": "-90.03064962748157"
    }
  },
  {
    "service_request": "2022-858727",
    "request_type": "Traffic Signals/Signs/Striping/Streetlights",
    "request_reason": "Street Light Outage/Malfunction",
    "date_created": "2022-02-03T17:32:05.000",
    "date_modified": "2022-02-03T17:32:06.000",
    "request_status": "Pending",
    "responsible_agency": "Department of Public Works",
    "final_address": "2374 N Claiborne Ave",
    "address_councildis": "C",
    "status": "Pending",
    "contractor": "Royal Engineering",
    "rowid": "858727",
    "final_x": "3686187.47106",
    "final_y": "538213.875209",
    "longitude": "-90.05303283613591",
    "latitude": "29.973758364621467",
    "geocoded_column": {
      "latitude": "29.973758364621467",
      "longitude": "-90.05303283613591"
    }
  },
  {
    "service_request": "2022-858726",
    "request_type": "Abandoned Vehicles",
    "request_reason": "Vehicle Blocking Your Driveway",
    "date_created": "2022-02-03T17:31:04.000",
    "date_modified": "2022-02-03T17:31:04.000",
    "request_status": "Pending",
    "responsible_agency": "Department of Public Works",
    "final_address": "1033 kentucky street new orleans la 70117",
    "address_councildis": "C",
    "status": "Pending",
    "rowid": "858726",
    "final_x": "3693314.30621",
    "final_y": "534738.269894",
    "longitude": "-90.03064962748157",
    "latitude": "29.963980797889906",
    "geocoded_column": {
      "latitude": "29.963980797889906",
      "longitude": "-90.03064962748157"
    }
  },
  {
    "service_request": "2022-858725",
    "request_type": "Traffic Signals/Signs/Striping/Streetlights",
    "request_reason": "Street Light Outage/Malfunction",
    "date_created": "2022-02-03T17:30:58.000",
    "date_modified": "2022-02-03T17:30:59.000",
    "request_status": "Pending",
    "responsible_agency": "Department of Public Works",
    "final_address": "2362 N Claiborne Ave",
    "address_councildis": "C",
    "status": "Pending",
    "contractor": "Royal Engineering",
    "rowid": "858725",
    "final_x": "3686156.119",
    "final_y": "538210.110985",
    "longitude": "-90.053131985384",
    "latitude": "29.973748977520344",
    "geocoded_column": {
      "latitude": "29.973748977520344",
      "longitude": "-90.053131985384"
    }
  },
  {
    "service_request": "2022-858724",
    "request_type": "Traffic Signals/Signs/Striping/Streetlights",
    "request_reason": "Street Light Outage/Malfunction",
    "date_created": "2022-02-03T17:30:13.000",
    "date_modified": "2022-02-03T17:30:17.000",
    "request_status": "Pending",
    "responsible_agency": "Department of Public Works",
    "final_address": "2362 N Claiborne Ave",
    "address_councildis": "C",
    "status": "Pending",
    "contractor": "Royal Engineering",
    "rowid": "858724",
    "final_x": "3686156.119",
    "final_y": "538210.110985",
    "longitude": "-90.053131985384",
    "latitude": "29.973748977520344",
    "geocoded_column": {
      "latitude": "29.973748977520344",
      "longitude": "-90.053131985384"
    }
  },
  {
    "service_request": "2022-858723",
    "request_type": "Traffic Signals/Signs/Striping/Streetlights",
    "request_reason": "Street Light Outage/Malfunction",
    "date_created": "2022-02-03T17:29:05.000",
    "date_modified": "2022-02-03T17:29:06.000",
    "request_status": "Pending",
    "responsible_agency": "Department of Public Works",
    "final_address": "2362 N Claiborne Ave",
    "address_councildis": "C",
    "status": "Pending",
    "contractor": "Royal Engineering",
    "rowid": "858723",
    "final_x": "3686156.119",
    "final_y": "538210.110985",
    "longitude": "-90.053131985384",
    "latitude": "29.973748977520344",
    "geocoded_column": {
      "latitude": "29.973748977520344",
      "longitude": "-90.053131985384"
    }
  },
  {
    "service_request": "2022-858722",
    "request_type": "Trash/Recycling",
    "request_reason": "Order Recycling Cart",
    "date_created": "2022-02-03T17:27:01.000",
    "date_modified": "2022-02-03T17:27:01.000",
    "request_status": "Pending",
    "responsible_agency": "Department of Sanitation",
    "final_address": "2823 Allen St",
    "address_councildis": "D",
    "status": "Pending",
    "contractor": "Metro Disposal",
    "rowid": "858722",
    "final_x": "3682303.831",
    "final_y": "542497.504269",
    "longitude": "-90.0651484746588",
    "latitude": "29.985655594376485",
    "geocoded_column": {
      "latitude": "29.985655594376485",
      "longitude": "-90.0651484746588"
    }
  },
  {
    "service_request": "2022-858721",
    "request_type": "Abandoned Vehicles",
    "request_reason": "Abandoned/Junk Vehicles",
    "date_created": "2022-02-03T17:26:43.000",
    "date_modified": "2022-02-03T17:26:43.000",
    "request_status": "Pending",
    "responsible_agency": "Department of Public Works",
    "final_address": "1033 Kentucky St",
    "address_councildis": "C",
    "status": "Pending",
    "rowid": "858721",
    "final_x": "3693314.30621",
    "final_y": "534738.269894",
    "longitude": "-90.03064962748157",
    "latitude": "29.963980797889906",
    "geocoded_column": {
      "latitude": "29.963980797889906",
      "longitude": "-90.03064962748157"
    }
  },
  {
    "service_request": "2022-858720",
    "request_type": "Trash/Recycling",
    "request_reason": "Replace Trash Cart",
    "date_created": "2022-02-03T17:26:34.000",
    "date_modified": "2022-02-03T17:26:35.000",
    "request_status": "Pending",
    "responsible_agency": "Department of Sanitation",
    "final_address": "New Orleans,LA",
    "status": "Assigned to Contractor",
    "rowid": "858720",
    "longitude": "0.0",
    "latitude": "0.0",
    "geocoded_column": {
      "latitude": "0.0",
      "longitude": "0.0"
    }
  },
  {
    "service_request": "2022-858719",
    "request_type": "Trash/Recycling",
    "request_reason": "Order Trash Cart",
    "date_created": "2022-02-03T17:26:29.000",
    "date_modified": "2022-02-03T17:26:30.000",
    "request_status": "Pending",
    "responsible_agency": "Department of Sanitation",
    "final_address": "2823 Allen St",
    "address_councildis": "D",
    "status": "Assigned to Contractor",
    "contractor": "Metro Disposal",
    "rowid": "858719",
    "final_x": "3682303.831",
    "final_y": "542497.504269",
    "longitude": "-90.0651484746588",
    "latitude": "29.985655594376485",
    "geocoded_column": {
      "latitude": "29.985655594376485",
      "longitude": "-90.0651484746588"
    }
  },
  {
    "service_request": "2022-858718",
    "request_type": "Trash/Recycling",
    "request_reason": "Start Trash Service",
    "date_created": "2022-02-03T17:26:06.000",
    "date_modified": "2022-02-03T17:26:07.000",
    "request_status": "Pending",
    "responsible_agency": "Department of Sanitation",
    "final_address": "2823 Allen St",
    "address_councildis": "D",
    "status": "Assigned to Contractor",
    "contractor": "Metro Disposal",
    "rowid": "858718",
    "final_x": "3682303.831",
    "final_y": "542497.504269",
    "longitude": "-90.0651484746588",
    "latitude": "29.985655594376485",
    "geocoded_column": {
      "latitude": "29.985655594376485",
      "longitude": "-90.0651484746588"
    }
  },
  {
    "service_request": "2022-858717",
    "request_type": "Roads/Drainage",
    "request_reason": "Street Subsidence (Sinking)",
    "date_created": "2022-02-03T17:21:20.000",
    "date_modified": "2022-02-03T17:21:20.000",
    "request_status": "Pending",
    "responsible_agency": "Department of Public Works",
    "final_address": "3730 Plymouth Pl",
    "address_councildis": "C",
    "status": "Pending",
    "rowid": "858717",
    "final_x": "3702791.94001",
    "final_y": "516727.624693",
    "longitude": "-90.00138148368515",
    "latitude": "29.91415817220345",
    "geocoded_column": {
      "latitude": "29.91415817220345",
      "longitude": "-90.00138148368515"
    }
  },
  {
    "service_request": "2022-858716",
    "request_type": "Trash/Recycling",
    "request_reason": "Request a Large Item Pick Up",
    "date_created": "2022-02-03T17:14:19.000",
    "date_modified": "2022-02-03T17:14:20.000",
    "request_status": "Pending",
    "responsible_agency": "Department of Sanitation",
    "final_address": "7549 Jonlee Dr",
    "address_councildis": "E",
    "status": "Assigned to Contractor",
    "contractor": "Metro Disposal",
    "rowid": "858716",
    "final_x": "3717357.90335",
    "final_y": "570301.808103",
    "longitude": "-89.95337054654495",
    "latitude": "30.06099300874447",
    "geocoded_column": {
      "latitude": "30.06099300874447",
      "longitude": "-89.95337054654495"
    }
  },
  {
    "service_request": "2022-858715",
    "request_type": "Trash/Recycling",
    "request_reason": "MIssed Recycling Pick-Up",
    "date_created": "2022-02-03T17:09:28.000",
    "date_modified": "2022-02-03T17:09:29.000",
    "case_close_date": "2021-05-13T19:00:00.000",
    "request_status": "Pending",
    "responsible_agency": "Department of Sanitation",
    "final_address": "2809 St Charles Ave",
    "address_councildis": "B",
    "status": "Assigned to Contractor",
    "contractor": "Richards Disposal",
    "rowid": "858715",
    "final_x": "3675795.02344",
    "final_y": "522531.79001",
    "longitude": "-90.08639345918574",
    "latitude": "29.93095305294322",
    "geocoded_column": {
      "latitude": "29.93095305294322",
      "longitude": "-90.08639345918574"
    }
  },
  {
    "service_request": "2022-858714",
    "request_type": "Trash/Recycling",
    "request_reason": "Request a Large Item Pick Up",
    "date_created": "2022-02-03T16:50:31.000",
    "date_modified": "2022-02-03T16:50:32.000",
    "request_status": "Pending",
    "responsible_agency": "Department of Sanitation",
    "final_address": "3132 Trafalgar St",
    "address_councildis": "A",
    "status": "Assigned to Contractor",
    "contractor": "Metro Disposal",
    "rowid": "858714",
    "final_x": "3678498.75451",
    "final_y": "543116.576717",
    "longitude": "-90.0771457337542",
    "latitude": "29.98747307642743",
    "geocoded_column": {
      "latitude": "29.98747307642743",
      "longitude": "-90.0771457337542"
    }
  },
  {
    "service_request": "2022-858713",
    "request_type": "Traffic Signals/Signs/Striping/Streetlights",
    "request_reason": "Traffic Signal Malfunctioning/Damaged",
    "date_created": "2022-02-03T16:43:54.000",
    "date_modified": "2022-02-03T16:43:55.000",
    "request_status": "Pending",
    "responsible_agency": "Department of Public Works",
    "final_address": "OKEEFE AVE & POYDRAS ST",
    "address_councildis": "B",
    "status": "Pending",
    "rowid": "858713",
    "final_x": "3679566.4",
    "final_y": "529676.48",
    "longitude": "-90.07423989870051",
    "latitude": "29.95048519026077",
    "geocoded_column": {
      "latitude": "29.95048519026077",
      "longitude": "-90.07423989870051"
    }
  },
  {
    "service_request": "2022-858712",
    "request_type": "Trash/Recycling",
    "request_reason": "Order Trash Cart",
    "date_created": "2022-02-03T16:43:34.000",
    "date_modified": "2022-02-03T16:43:35.000",
    "request_status": "Pending",
    "responsible_agency": "Department of Sanitation",
    "final_address": "15534 Dwyer Blvd",
    "address_councildis": "E",
    "status": "Assigned to Contractor",
    "contractor": "Metro Disposal",
    "rowid": "858712",
    "final_x": "3731063.96352",
    "final_y": "563740.389153",
    "longitude": "-89.91030424401059",
    "latitude": "30.042490899022763",
    "geocoded_column": {
      "latitude": "30.042490899022763",
      "longitude": "-89.91030424401059"
    }
  },
  {
    "service_request": "2022-858711",
    "request_type": "Trash/Recycling",
    "request_reason": "Order Trash Cart",
    "date_created": "2022-02-03T16:43:17.000",
    "date_modified": "2022-02-03T16:43:18.000",
    "request_status": "Pending",
    "responsible_agency": "Department of Sanitation",
    "final_address": "15532 Dwyer Blvd",
    "address_councildis": "E",
    "status": "Assigned to Contractor",
    "contractor": "Metro Disposal",
    "rowid": "858711",
    "final_x": "3731047.68359",
    "final_y": "563718.351329",
    "longitude": "-89.91035655908873",
    "latitude": "30.04243086016733",
    "geocoded_column": {
      "latitude": "30.04243086016733",
      "longitude": "-89.91035655908873"
    }
  },
  {
    "service_request": "2022-858710",
    "request_type": "Roads/Drainage",
    "request_reason": "Ditch Issue",
    "date_created": "2022-02-03T16:41:22.000",
    "date_modified": "2022-02-03T16:41:22.000",
    "request_status": "Pending",
    "responsible_agency": "Department of Public Works",
    "final_address": "122 Lavergne St",
    "address_councildis": "C",
    "status": "Pending",
    "rowid": "858710",
    "final_x": "3686476.28655",
    "final_y": "531181.809666",
    "longitude": "-90.0523689735205",
    "latitude": "29.95441374525521",
    "geocoded_column": {
      "latitude": "29.95441374525521",
      "longitude": "-90.0523689735205"
    }
  },
  {
    "service_request": "2022-858709",
    "request_type": "Trash/Recycling",
    "request_reason": "Order Trash Cart",
    "date_created": "2022-02-03T16:37:47.000",
    "date_modified": "2022-02-03T16:37:48.000",
    "request_status": "Pending",
    "responsible_agency": "Department of Sanitation",
    "final_address": "6666 Argonne Blvd",
    "address_councildis": "A",
    "status": "Assigned to Contractor",
    "contractor": "Metro Disposal",
    "rowid": "858709",
    "final_x": "3670525.13332",
    "final_y": "551779.020693",
    "longitude": "-90.10203767080488",
    "latitude": "30.011529736079453",
    "geocoded_column": {
      "latitude": "30.011529736079453",
      "longitude": "-90.10203767080488"
    }
  },
  {
    "service_request": "2022-858708",
    "request_type": "Abandoned Vehicles",
    "request_reason": "Abandoned/Junk Vehicles",
    "date_created": "2022-02-03T16:36:23.000",
    "date_modified": "2022-02-03T16:36:23.000",
    "request_status": "Pending",
    "responsible_agency": "Department of Public Works",
    "final_address": "7601 Rochon Ave",
    "address_councildis": "E",
    "status": "Pending",
    "rowid": "858708",
    "final_x": "3718754.05253",
    "final_y": "571696.635112",
    "longitude": "-89.94890412982919",
    "latitude": "30.064781894058054",
    "geocoded_column": {
      "latitude": "30.064781894058054",
      "longitude": "-89.94890412982919"
    }
  },
  {
    "service_request": "2022-858707",
    "request_type": "Roads/Drainage",
    "request_reason": "Catch Basin - Clogged",
    "date_created": "2022-02-03T16:35:05.000",
    "date_modified": "2022-02-03T16:35:05.000",
    "request_status": "Pending",
    "responsible_agency": "Department of Public Works",
    "final_address": "819 S Carrollton Ave",
    "address_councildis": "A",
    "status": "Pending",
    "rowid": "858707",
    "final_x": "3661245.35891",
    "final_y": "527350.890047",
    "longitude": "-90.13216553054026",
    "latitude": "29.94463140391575",
    "geocoded_column": {
      "latitude": "29.94463140391575",
      "longitude": "-90.13216553054026"
    }
  },
  {
    "service_request": "2022-858706",
    "request_type": "Abandoned Vehicles",
    "request_reason": "Abandoned/Junk Vehicles",
    "date_created": "2022-02-03T16:34:29.000",
    "date_modified": "2022-02-03T16:34:29.000",
    "request_status": "Pending",
    "responsible_agency": "Department of Public Works",
    "final_address": "7620 Rochon Ave",
    "address_councildis": "E",
    "status": "Pending",
    "rowid": "858706",
    "final_x": "3718581.17599",
    "final_y": "571678.564264",
    "longitude": "-89.94945129320509",
    "latitude": "30.064737948841916",
    "geocoded_column": {
      "latitude": "30.064737948841916",
      "longitude": "-89.94945129320509"
    }
  },
  {
    "service_request": "2022-858705",
    "request_type": "Trash/Recycling",
    "request_reason": "Illegal Dumping",
    "date_created": "2022-02-03T16:31:18.000",
    "date_modified": "2022-02-03T16:31:18.000",
    "request_status": "Pending",
    "responsible_agency": "Department of Sanitation",
    "final_address": "7550 Rochon Ave",
    "address_councildis": "E",
    "status": "Pending",
    "rowid": "858705",
    "final_x": "3718856.76479",
    "final_y": "571375.217576",
    "longitude": "-89.94859172868748",
    "latitude": "30.063894717732342",
    "geocoded_column": {
      "latitude": "30.063894717732342",
      "longitude": "-89.94859172868748"
    }
  },
  {
    "service_request": "2022-858704",
    "request_type": "Trash/Recycling",
    "request_reason": "Order Recycling Cart",
    "date_created": "2022-02-03T16:28:53.000",
    "date_modified": "2022-02-03T16:28:53.000",
    "request_status": "Pending",
    "responsible_agency": "Department of Sanitation",
    "final_address": "1013 Broadway St",
    "address_councildis": "A",
    "status": "Pending",
    "rowid": "858704",
    "final_x": "3663885.16365",
    "final_y": "525967.297917",
    "longitude": "-90.12387695665684",
    "latitude": "29.940750613267653",
    "geocoded_column": {
      "latitude": "29.940750613267653",
      "longitude": "-90.12387695665684"
    }
  },
  {
    "service_request": "2022-858703",
    "request_type": "Property Maintenance",
    "request_reason": "Property Maintenance",
    "date_created": "2022-02-03T16:19:17.000",
    "date_modified": "2022-02-03T16:26:14.000",
    "request_status": "Pending",
    "responsible_agency": "Department of Code Enforcement",
    "final_address": "9201 Palmetto St",
    "address_councildis": "A",
    "status": "Pending",
    "rowid": "858703",
    "final_x": "3665286.63488",
    "final_y": "538014.015433",
    "longitude": "-90.11904919616774",
    "latitude": "29.973834403331583",
    "geocoded_column": {
      "latitude": "29.973834403331583",
      "longitude": "-90.11904919616774"
    }
  },
  {
    "service_request": "2022-858702",
    "request_type": "Trash/Recycling",
    "request_reason": "Missed Trash Pick-Up",
    "date_created": "2022-02-03T16:11:06.000",
    "date_modified": "2022-02-03T16:11:06.000",
    "request_status": "Pending",
    "responsible_agency": "Department of Sanitation",
    "final_address": "1232 St Andrew St",
    "address_councildis": "B",
    "status": "Assigned to Contractor",
    "contractor": "Richards Disposal",
    "rowid": "858702",
    "final_x": "3679074.68104",
    "final_y": "523055.966715",
    "longitude": "-90.07602186994683",
    "latitude": "29.93229582290714",
    "geocoded_column": {
      "latitude": "29.93229582290714",
      "longitude": "-90.07602186994683"
    }
  },
  {
    "service_request": "2022-858701",
    "request_type": "Trash/Recycling",
    "request_reason": "Replace Trash Cart",
    "date_created": "2022-02-03T16:04:09.000",
    "date_modified": "2022-02-03T16:04:10.000",
    "request_status": "Pending",
    "responsible_agency": "Department of Sanitation",
    "final_address": "4405 Duplessis St",
    "address_councildis": "D",
    "status": "Assigned to Contractor",
    "contractor": "Metro Disposal",
    "rowid": "858701",
    "final_x": "3678357.53678",
    "final_y": "548579.382675",
    "longitude": "-90.0774026620997",
    "latitude": "30.002498124667664",
    "geocoded_column": {
      "latitude": "30.002498124667664",
      "longitude": "-90.0774026620997"
    }
  },
  {
    "service_request": "2022-858700",
    "request_type": "Traffic Signals/Signs/Striping/Streetlights",
    "request_reason": "Street Light Outage/Malfunction",
    "date_created": "2022-02-03T15:57:24.000",
    "date_modified": "2022-02-03T15:57:25.000",
    "request_status": "Pending",
    "responsible_agency": "Department of Public Works",
    "final_address": "2600 BLK Bristol Pl",
    "address_councildis": "C",
    "status": "Pending",
    "contractor": "Royal Engineering",
    "rowid": "858700",
    "final_x": "3702602.41398",
    "final_y": "521166.279634",
    "longitude": "-90.00181688609588",
    "latitude": "29.92636900185359",
    "geocoded_column": {
      "latitude": "29.92636900185359",
      "longitude": "-90.00181688609588"
    }
  },
  {
    "service_request": "2022-858699",
    "request_type": "Trash/Recycling",
    "request_reason": "Repair Trash Cart",
    "date_created": "2022-02-03T15:57:19.000",
    "date_modified": "2022-02-03T15:57:20.000",
    "request_status": "Pending",
    "responsible_agency": "Department of Sanitation",
    "final_address": "1210 Peniston St",
    "address_councildis": "B",
    "status": "Assigned to Contractor",
    "contractor": "Richards Disposal",
    "rowid": "858699",
    "final_x": "3673070.73268",
    "final_y": "520149.477688",
    "longitude": "-90.0950749614316",
    "latitude": "29.924483698017024",
    "geocoded_column": {
      "latitude": "29.924483698017024",
      "longitude": "-90.0950749614316"
    }
  },
  {
    "service_request": "2022-858698",
    "request_type": "Trash/Recycling",
    "request_reason": "Request a Large Item Pick Up",
    "date_created": "2022-02-03T15:57:08.000",
    "date_modified": "2022-02-03T15:57:08.000",
    "request_status": "Pending",
    "responsible_agency": "Department of Sanitation",
    "final_address": "1223 Flanders St",
    "address_councildis": "C",
    "status": "Assigned to Contractor",
    "contractor": "Richards Disposal",
    "rowid": "858698",
    "final_x": "3696688.28221",
    "final_y": "526790.91539",
    "longitude": "-90.02028257086415",
    "latitude": "29.942022460309264",
    "geocoded_column": {
      "latitude": "29.942022460309264",
      "longitude": "-90.02028257086415"
    }
  },
  {
    "service_request": "2022-858697",
    "request_type": "Abandoned Vehicles",
    "request_reason": "Abandoned/Junk Vehicles",
    "date_created": "2022-02-03T15:53:00.000",
    "date_modified": "2022-02-03T15:53:00.000",
    "request_status": "Pending",
    "responsible_agency": "Department of Public Works",
    "final_address": "CLEVELAND AVE & S ALEXANDER ST",
    "address_councildis": "A",
    "status": "Pending",
    "rowid": "858697",
    "final_x": "3669744.6",
    "final_y": "538844.18",
    "longitude": "-90.10494181320445",
    "latitude": "29.97598642232923",
    "geocoded_column": {
      "latitude": "29.97598642232923",
      "longitude": "-90.10494181320445"
    }
  },
  {
    "service_request": "2022-858696",
    "request_type": "Trash/Recycling",
    "request_reason": "Request a Large Item Pick Up",
    "date_created": "2022-02-03T15:52:23.000",
    "date_modified": "2022-02-03T15:52:24.000",
    "request_status": "Pending",
    "responsible_agency": "Department of Sanitation",
    "final_address": "6830 Memphis St",
    "address_councildis": "A",
    "status": "Assigned to Contractor",
    "contractor": "Metro Disposal",
    "rowid": "858696",
    "final_x": "3669610.51194",
    "final_y": "552879.615639",
    "longitude": "-90.10489006747947",
    "latitude": "30.01458297664181",
    "geocoded_column": {
      "latitude": "30.01458297664181",
      "longitude": "-90.10489006747947"
    }
  },
  {
    "service_request": "2022-858695",
    "request_type": "Roads/Drainage",
    "request_reason": "Catch Basin - Clogged",
    "date_created": "2022-02-03T15:51:41.000",
    "date_modified": "2022-02-03T15:51:41.000",
    "request_status": "Pending",
    "responsible_agency": "Department of Public Works",
    "final_address": "1436 Elysian Fields Ave",
    "address_councildis": "C",
    "status": "Pending",
    "rowid": "858695",
    "final_x": "3684796.55804",
    "final_y": "537704.707912",
    "longitude": "-90.05744354070043",
    "latitude": "29.972400992041294",
    "geocoded_column": {
      "latitude": "29.972400992041294",
      "longitude": "-90.05744354070043"
    }
  },
  {
    "service_request": "2022-858693",
    "request_type": "Roads/Drainage",
    "request_reason": "Catch Basin - Clogged",
    "date_created": "2022-02-03T15:50:01.000",
    "date_modified": "2022-02-03T15:50:02.000",
    "request_status": "Pending",
    "responsible_agency": "Department of Public Works",
    "final_address": "4001 Toulouse St",
    "address_councildis": "A",
    "status": "Pending",
    "rowid": "858693",
    "final_x": "3672562.29825",
    "final_y": "539535.280458",
    "longitude": "-90.09601912238169",
    "latitude": "29.977803353908875",
    "geocoded_column": {
      "latitude": "29.977803353908875",
      "longitude": "-90.09601912238169"
    }
  },
  {
    "service_request": "2022-858692",
    "request_type": "Traffic Signals/Signs/Striping/Streetlights",
    "request_reason": "Traffic Signal Malfunctioning/Damaged",
    "date_created": "2022-02-03T15:48:49.000",
    "date_modified": "2022-02-03T15:48:49.000",
    "request_status": "Pending",
    "responsible_agency": "Department of Public Works",
    "final_address": "S GALVEZ ST & TULANE AVE",
    "address_councildis": "B",
    "status": "Pending",
    "rowid": "858692",
    "final_x": "3676127.5",
    "final_y": "532804.68",
    "longitude": "-90.08499056322277",
    "latitude": "29.95919015041573",
    "geocoded_column": {
      "latitude": "29.95919015041573",
      "longitude": "-90.08499056322277"
    }
  },
  {
    "service_request": "2022-858691",
    "request_type": "Trash/Recycling",
    "request_reason": "Illegal Dumping",
    "date_created": "2022-02-03T15:46:22.000",
    "date_modified": "2022-02-03T15:46:22.000",
    "request_status": "Pending",
    "responsible_agency": "Department of Sanitation",
    "final_address": "6745 Cindy Pl",
    "address_councildis": "E",
    "status": "Pending",
    "rowid": "858691",
    "final_x": "3707238.61336",
    "final_y": "558887.255388",
    "longitude": "-89.98578148275335",
    "latitude": "30.029938755583267",
    "geocoded_column": {
      "latitude": "30.029938755583267",
      "longitude": "-89.98578148275335"
    }
  },
  {
    "service_request": "2022-858690",
    "request_type": "Roads/Drainage",
    "request_reason": "Catch Basin - Clogged",
    "date_created": "2022-02-03T15:45:43.000",
    "date_modified": "2022-02-03T15:45:43.000",
    "request_status": "Pending",
    "responsible_agency": "Department of Public Works",
    "final_address": "800 Commerce St",
    "address_councildis": "B",
    "status": "Pending",
    "rowid": "858690",
    "final_x": "3682020.03151",
    "final_y": "527572.846207",
    "longitude": "-90.06656604115952",
    "latitude": "29.944626542178703",
    "geocoded_column": {
      "latitude": "29.944626542178703",
      "longitude": "-90.06656604115952"
    }
  },
  {
    "service_request": "2022-858689",
    "request_type": "Property Maintenance",
    "request_reason": "Property Maintenance",
    "date_created": "2022-02-03T15:38:50.000",
    "date_modified": "2022-02-03T15:38:50.000",
    "request_status": "Pending",
    "responsible_agency": "Department of Code Enforcement",
    "final_address": "4609 Shalimar Dr",
    "address_councildis": "D",
    "status": "Pending",
    "rowid": "858689",
    "final_x": "3697310.17731",
    "final_y": "553513.208151",
    "longitude": "-90.01735017263164",
    "latitude": "30.015479484466784",
    "geocoded_column": {
      "latitude": "30.015479484466784",
      "longitude": "-90.01735017263164"
    }
  },
  {
    "service_request": "2022-858687",
    "request_type": "Property Maintenance",
    "request_reason": "Property Maintenance",
    "date_created": "2022-02-03T15:37:05.000",
    "date_modified": "2022-02-03T15:37:05.000",
    "request_status": "Pending",
    "responsible_agency": "Department of Code Enforcement",
    "final_address": "7919 Means Ave",
    "address_councildis": "E",
    "status": "Pending",
    "rowid": "858687",
    "final_x": "3707621.78769",
    "final_y": "565639.86813",
    "longitude": "-89.98431944650785",
    "latitude": "30.048493365502853",
    "geocoded_column": {
      "latitude": "30.048493365502853",
      "longitude": "-89.98431944650785"
    }
  },
  {
    "service_request": "2022-858686",
    "request_type": "Trash/Recycling",
    "request_reason": "Repair Trash Cart",
    "date_created": "2022-02-03T15:35:34.000",
    "date_modified": "2022-02-03T15:35:35.000",
    "request_status": "Pending",
    "responsible_agency": "Department of Sanitation",
    "final_address": "2609 Danneel St",
    "address_councildis": "B",
    "status": "Assigned to Contractor",
    "contractor": "Richards Disposal",
    "rowid": "858686",
    "final_x": "3675546.73736",
    "final_y": "524045.036668",
    "longitude": "-90.08712530975335",
    "latitude": "29.935121415400904",
    "geocoded_column": {
      "latitude": "29.935121415400904",
      "longitude": "-90.08712530975335"
    }
  },
  {
    "service_request": "2022-858685",
    "request_type": "Trash/Recycling",
    "request_reason": "Illegal Dumping",
    "date_created": "2022-02-03T15:32:36.000",
    "date_modified": "2022-02-03T15:32:37.000",
    "request_status": "Pending",
    "responsible_agency": "Department of Sanitation",
    "final_address": "2ND ST & ST THOMAS ST",
    "address_councildis": "B",
    "status": "Pending",
    "rowid": "858685",
    "final_x": "3678836.2",
    "final_y": "519809.28",
    "longitude": "-90.07688712074352",
    "latitude": "29.92337568798495",
    "geocoded_column": {
      "latitude": "29.92337568798495",
      "longitude": "-90.07688712074352"
    }
  },
  {
    "service_request": "2022-858684",
    "request_type": "Trash/Recycling",
    "request_reason": "Missed Trash Pick-Up",
    "date_created": "2022-02-03T15:31:11.000",
    "date_modified": "2022-02-03T15:31:12.000",
    "request_status": "Pending",
    "responsible_agency": "Department of Sanitation",
    "final_address": "2016 Urquhart St",
    "address_councildis": "C",
    "status": "Assigned to Contractor",
    "contractor": "Metro Disposal",
    "rowid": "858684",
    "final_x": "3684306.78972",
    "final_y": "536959.213768",
    "longitude": "-90.05901649616068",
    "latitude": "29.970366128610745",
    "geocoded_column": {
      "latitude": "29.970366128610745",
      "longitude": "-90.05901649616068"
    }
  },
  {
    "service_request": "2022-858683",
    "request_type": "Property Maintenance",
    "request_reason": "Property Maintenance",
    "date_created": "2022-02-03T15:27:40.000",
    "date_modified": "2022-02-03T15:27:40.000",
    "request_status": "Pending",
    "responsible_agency": "Department of Code Enforcement",
    "final_address": "6006 Cameron Blvd",
    "address_councildis": "D",
    "status": "Pending",
    "rowid": "858683",
    "final_x": "3682325.40412",
    "final_y": "554767.179928",
    "longitude": "-90.0646512369902",
    "latitude": "30.0193921439451",
    "geocoded_column": {
      "latitude": "30.0193921439451",
      "longitude": "-90.0646512369902"
    }
  },
  {
    "service_request": "2022-858680",
    "request_type": "Traffic Signals/Signs/Striping/Streetlights",
    "request_reason": "Street Light Outage/Malfunction",
    "date_created": "2022-02-03T15:17:02.000",
    "date_modified": "2022-02-03T15:17:02.000",
    "request_status": "Pending",
    "responsible_agency": "Department of Public Works",
    "final_address": "11 Brownlee Ct",
    "address_councildis": "E",
    "status": "Pending",
    "contractor": "Royal Engineering",
    "rowid": "858680",
    "final_x": "3712802.67883",
    "final_y": "567029.718372",
    "longitude": "-89.96789262649388",
    "latitude": "30.052146157198457",
    "geocoded_column": {
      "latitude": "30.052146157198457",
      "longitude": "-89.96789262649388"
    }
  },
  {
    "service_request": "2022-858682",
    "request_type": "Traffic Signals/Signs/Striping/Streetlights",
    "request_reason": "Street Light Outage/Malfunction",
    "date_created": "2022-02-03T15:17:02.000",
    "date_modified": "2022-02-03T15:17:03.000",
    "request_status": "Pending",
    "responsible_agency": "Department of Public Works",
    "final_address": "11 Brownlee Ct",
    "address_councildis": "E",
    "status": "Pending",
    "contractor": "Royal Engineering",
    "rowid": "858682",
    "final_x": "3712802.67883",
    "final_y": "567029.718372",
    "longitude": "-89.96789262649388",
    "latitude": "30.052146157198457",
    "geocoded_column": {
      "latitude": "30.052146157198457",
      "longitude": "-89.96789262649388"
    }
  },
  {
    "service_request": "2022-858681",
    "request_type": "Traffic Signals/Signs/Striping/Streetlights",
    "request_reason": "Street Light Outage/Malfunction",
    "date_created": "2022-02-03T15:17:02.000",
    "date_modified": "2022-02-03T15:17:03.000",
    "request_status": "Pending",
    "responsible_agency": "Department of Public Works",
    "final_address": "11 Brownlee Ct",
    "address_councildis": "E",
    "status": "Pending",
    "contractor": "Royal Engineering",
    "rowid": "858681",
    "final_x": "3712802.67883",
    "final_y": "567029.718372",
    "longitude": "-89.96789262649388",
    "latitude": "30.052146157198457",
    "geocoded_column": {
      "latitude": "30.052146157198457",
      "longitude": "-89.96789262649388"
    }
  },
  {
    "service_request": "2022-858679",
    "request_type": "Traffic Signals/Signs/Striping/Streetlights",
    "request_reason": "Street Light Outage/Malfunction",
    "date_created": "2022-02-03T15:13:40.000",
    "date_modified": "2022-02-03T15:13:42.000",
    "request_status": "Pending",
    "responsible_agency": "Department of Public Works",
    "final_address": "1235 Constance St",
    "address_councildis": "B",
    "status": "Pending",
    "contractor": "Royal Engineering",
    "rowid": "858679",
    "final_x": "3680897.28527",
    "final_y": "525255.723197",
    "longitude": "-90.07019152936448",
    "latitude": "29.938289308260263",
    "geocoded_column": {
      "latitude": "29.938289308260263",
      "longitude": "-90.07019152936448"
    }
  },
  {
    "service_request": "2022-858678",
    "request_type": "Roads/Drainage",
    "request_reason": "Pothole",
    "date_created": "2022-02-03T15:11:57.000",
    "date_modified": "2022-02-03T15:12:00.000",
    "request_status": "Pending",
    "responsible_agency": "Department of Public Works",
    "final_address": "ATLANTIC AVE & ELIZA ST",
    "address_councildis": "C",
    "status": "Pending",
    "rowid": "858678",
    "final_x": "3688811.0",
    "final_y": "529873.48",
    "longitude": "-90.04504333843465",
    "latitude": "29.950744315256195",
    "geocoded_column": {
      "latitude": "29.950744315256195",
      "longitude": "-90.04504333843465"
    }
  },
  {
    "service_request": "2022-858677",
    "request_type": "Trash/Recycling",
    "request_reason": "Request a Large Item Pick Up",
    "date_created": "2022-02-03T15:11:38.000",
    "date_modified": "2022-02-03T15:11:38.000",
    "request_status": "Pending",
    "responsible_agency": "Department of Sanitation",
    "final_address": "10311 Flossmoor Dr",
    "address_councildis": "E",
    "status": "Assigned to Contractor",
    "contractor": "Metro Disposal",
    "rowid": "858677",
    "final_x": "3709955.83768",
    "final_y": "563931.027297",
    "longitude": "-89.97700648445907",
    "latitude": "30.04371897655244",
    "geocoded_column": {
      "latitude": "30.04371897655244",
      "longitude": "-89.97700648445907"
    }
  },
  {
    "service_request": "2022-858675",
    "request_type": "Roads/Drainage",
    "request_reason": "Catch Basin - Clogged",
    "date_created": "2022-02-03T15:09:43.000",
    "date_modified": "2022-02-03T15:09:43.000",
    "request_status": "Pending",
    "responsible_agency": "Department of Public Works",
    "final_address": "2552 Dumaine St",
    "address_councildis": "D",
    "status": "Pending",
    "rowid": "858675",
    "final_x": "3677602.1677",
    "final_y": "537131.789768",
    "longitude": "-90.08018448309603",
    "latitude": "29.9710439749077",
    "geocoded_column": {
      "latitude": "29.9710439749077",
      "longitude": "-90.08018448309603"
    }
  },
  {
    "service_request": "2022-858674",
    "request_type": "Trash/Recycling",
    "request_reason": "Replace Recycling Cart",
    "date_created": "2022-02-03T15:06:08.000",
    "date_modified": "2022-02-03T15:06:08.000",
    "request_status": "Pending",
    "responsible_agency": "Department of Sanitation",
    "final_address": "7911 Freret St",
    "address_councildis": "A",
    "status": "Pending",
    "rowid": "858674",
    "final_x": "3662007.33453",
    "final_y": "527446.227391",
    "longitude": "-90.1297565738208",
    "latitude": "29.9448715657",
    "geocoded_column": {
      "latitude": "29.9448715657",
      "longitude": "-90.1297565738208"
    }
  },
  {
    "service_request": "2022-858673",
    "request_type": "Traffic Signals/Signs/Striping/Streetlights",
    "request_reason": "Street Light Outage/Malfunction",
    "date_created": "2022-02-03T15:01:32.000",
    "date_modified": "2022-02-03T15:01:35.000",
    "request_status": "Pending",
    "responsible_agency": "Department of Public Works",
    "final_address": "538 Madison St",
    "address_councildis": "C",
    "status": "Pending",
    "contractor": "Royal Engineering",
    "rowid": "858673",
    "final_x": "3683204.73167",
    "final_y": "532639.083076",
    "longitude": "-90.06264821268074",
    "latitude": "29.958520909727063",
    "geocoded_column": {
      "latitude": "29.958520909727063",
      "longitude": "-90.06264821268074"
    }
  },
  {
    "service_request": "2022-858671",
    "request_type": "Roads/Drainage",
    "request_reason": "Catch Basin - Clogged",
    "date_created": "2022-02-03T14:52:21.000",
    "date_modified": "2022-02-03T14:52:21.000",
    "request_status": "Pending",
    "responsible_agency": "Department of Public Works",
    "final_address": "1328 Mandolin St",
    "address_councildis": "D",
    "status": "Pending",
    "rowid": "858671",
    "final_x": "3677470.92642",
    "final_y": "547949.007506",
    "longitude": "-90.08022535766304",
    "latitude": "30.000791507391373",
    "geocoded_column": {
      "latitude": "30.000791507391373",
      "longitude": "-90.08022535766304"
    }
  },
  {
    "service_request": "2022-858670",
    "request_type": "Property Maintenance",
    "request_reason": "Property Maintenance",
    "date_created": "2022-02-03T14:47:57.000",
    "date_modified": "2022-02-03T14:47:57.000",
    "request_status": "Pending",
    "responsible_agency": "Department of Code Enforcement",
    "final_address": "1008 Third St",
    "address_councildis": "B",
    "status": "Pending",
    "rowid": "858670",
    "final_x": "3677680.21531",
    "final_y": "520903.394745",
    "longitude": "-90.08049836928909",
    "latitude": "29.9264189518421",
    "geocoded_column": {
      "latitude": "29.9264189518421",
      "longitude": "-90.08049836928909"
    }
  },
  {
    "service_request": "2022-858669",
    "request_type": "Roads/Drainage",
    "request_reason": "Catch Basin - Clogged",
    "date_created": "2022-02-03T14:47:54.000",
    "date_modified": "2022-02-03T14:47:54.000",
    "request_status": "Pending",
    "responsible_agency": "Department of Public Works",
    "final_address": "1328 Mandolin St",
    "address_councildis": "D",
    "status": "Pending",
    "rowid": "858669",
    "final_x": "3677470.92642",
    "final_y": "547949.007506",
    "longitude": "-90.08022535766304",
    "latitude": "30.000791507391373",
    "geocoded_column": {
      "latitude": "30.000791507391373",
      "longitude": "-90.08022535766304"
    }
  },
  {
    "service_request": "2022-858668",
    "request_type": "Traffic Signals/Signs/Striping/Streetlights",
    "request_reason": "Traffic Signal Malfunctioning/Damaged",
    "date_created": "2022-02-03T14:47:28.000",
    "date_modified": "2022-02-03T14:47:28.000",
    "request_status": "Pending",
    "responsible_agency": "Department of Public Works",
    "final_address": "300 Magazine St",
    "address_councildis": "B",
    "status": "Pending",
    "rowid": "858668",
    "final_x": "3681672.9702",
    "final_y": "529657.996225",
    "longitude": "-90.06758909220582",
    "latitude": "29.950370549311394",
    "geocoded_column": {
      "latitude": "29.950370549311394",
      "longitude": "-90.06758909220582"
    }
  },
  {
    "service_request": "2022-858667",
    "request_type": "Traffic Signals/Signs/Striping/Streetlights",
    "request_reason": "Traffic Signal Malfunctioning/Damaged",
    "date_created": "2022-02-03T14:45:28.000",
    "date_modified": "2022-02-03T14:45:28.000",
    "request_status": "Pending",
    "responsible_agency": "Department of Public Works",
    "final_address": "5620 Read Blvd",
    "address_councildis": "E",
    "status": "Pending",
    "rowid": "858667",
    "final_x": "3710490.60779",
    "final_y": "558508.852252",
    "longitude": "-89.97551946044383",
    "latitude": "30.028792736910013",
    "geocoded_column": {
      "latitude": "30.028792736910013",
      "longitude": "-89.97551946044383"
    }
  },
  {
    "service_request": "2022-858666",
    "request_type": "Trash/Recycling",
    "request_reason": "Request a Large Item Pick Up",
    "date_created": "2022-02-03T14:45:18.000",
    "date_modified": "2022-02-03T14:45:18.000",
    "request_status": "Pending",
    "responsible_agency": "Department of Sanitation",
    "final_address": "3609 Iberville St",
    "address_councildis": "B",
    "status": "Assigned to Contractor",
    "contractor": "Richards Disposal",
    "rowid": "858666",
    "final_x": "3672806.27118",
    "final_y": "537632.047112",
    "longitude": "-90.09531351644901",
    "latitude": "29.972562862314856",
    "geocoded_column": {
      "latitude": "29.972562862314856",
      "longitude": "-90.09531351644901"
    }
  },
  {
    "service_request": "2022-858665",
    "request_type": "Traffic Signals/Signs/Striping/Streetlights",
    "request_reason": "Additional signage",
    "date_created": "2022-02-03T14:40:45.000",
    "date_modified": "2022-02-03T14:40:45.000",
    "request_status": "Pending",
    "responsible_agency": "Department of Public Works",
    "final_address": "CONTI ST & N TONTI ST",
    "address_councildis": "B",
    "status": "Pending",
    "rowid": "858665",
    "final_x": "3677125.8",
    "final_y": "535226.18",
    "longitude": "-90.08175465135311",
    "latitude": "29.965818513409864",
    "geocoded_column": {
      "latitude": "29.965818513409864",
      "longitude": "-90.08175465135311"
    }
  },
  {
    "service_request": "2022-858664",
    "request_type": "Traffic Signals/Signs/Striping/Streetlights",
    "request_reason": "Street Light Outage/Malfunction",
    "date_created": "2022-02-03T14:36:42.000",
    "date_modified": "2022-02-03T14:36:43.000",
    "request_status": "Pending",
    "responsible_agency": "Department of Public Works",
    "final_address": "4800 BLK N Prieur St",
    "address_councildis": "E",
    "status": "Pending",
    "contractor": "Royal Engineering",
    "rowid": "858664",
    "final_x": "3696049.70596",
    "final_y": "537439.1234",
    "longitude": "-90.02191391550858",
    "latitude": "29.971321390117513",
    "geocoded_column": {
      "latitude": "29.971321390117513",
      "longitude": "-90.02191391550858"
    }
  },
  {
    "service_request": "2022-858662",
    "request_type": "Trash/Recycling",
    "request_reason": "Illegal Dumping",
    "date_created": "2022-02-03T14:17:23.000",
    "date_modified": "2022-02-03T14:17:23.000",
    "request_status": "Pending",
    "responsible_agency": "Department of Sanitation",
    "final_address": "1937 St Ann St",
    "address_councildis": "D",
    "status": "Pending",
    "rowid": "858662",
    "final_x": "3679243.69864",
    "final_y": "535591.551174",
    "longitude": "-90.07505372781881",
    "latitude": "29.96675938053113",
    "geocoded_column": {
      "latitude": "29.96675938053113",
      "longitude": "-90.07505372781881"
    }
  },
  {
    "service_request": "2022-858661",
    "request_type": "Property Maintenance",
    "request_reason": "Property Maintenance",
    "date_created": "2022-02-03T14:14:28.000",
    "date_modified": "2022-02-03T14:14:28.000",
    "request_status": "Pending",
    "responsible_agency": "Department of Code Enforcement",
    "final_address": "1937 St Ann St",
    "address_councildis": "D",
    "status": "Pending",
    "rowid": "858661",
    "final_x": "3679243.69864",
    "final_y": "535591.551174",
    "longitude": "-90.07505372781881",
    "latitude": "29.96675938053113",
    "geocoded_column": {
      "latitude": "29.96675938053113",
      "longitude": "-90.07505372781881"
    }
  },
  {
    "service_request": "2022-858660",
    "request_type": "Mosquito, Termite & Rodent Control",
    "request_reason": "Rodent Complaint (Rats)",
    "date_created": "2022-02-03T14:12:33.000",
    "date_modified": "2022-02-03T14:12:33.000",
    "request_status": "Pending",
    "responsible_agency": "Mosquito, Termite & Rodent Control Board",
    "final_address": "1937 St Ann St",
    "address_councildis": "D",
    "status": "Pending",
    "rowid": "858660",
    "final_x": "3679243.69864",
    "final_y": "535591.551174",
    "longitude": "-90.07505372781881",
    "latitude": "29.96675938053113",
    "geocoded_column": {
      "latitude": "29.96675938053113",
      "longitude": "-90.07505372781881"
    }
  },
  {
    "service_request": "2022-858659",
    "request_type": "Roads/Drainage",
    "request_reason": "Catch Basin - Clogged",
    "date_created": "2022-02-03T14:12:29.000",
    "date_modified": "2022-02-03T14:13:00.000",
    "case_close_date": "2022-02-03T08:13:00.000",
    "request_status": "Closed",
    "responsible_agency": "Department of Public Works",
    "final_address": "4600 Bienville Ave",
    "address_councildis": "A",
    "status": "Resolved",
    "rowid": "858659",
    "final_x": "3669828.11092",
    "final_y": "540228.950091",
    "longitude": "-90.1046311631113",
    "latitude": "29.97979160972628",
    "geocoded_column": {
      "latitude": "29.97979160972628",
      "longitude": "-90.1046311631113"
    }
  },
  {
    "service_request": "2022-858658",
    "request_type": "Trash/Recycling",
    "request_reason": "MIssed Recycling Pick-Up",
    "date_created": "2022-02-03T14:12:14.000",
    "date_modified": "2022-02-03T14:12:15.000",
    "request_status": "Pending",
    "responsible_agency": "Department of Sanitation",
    "final_address": "5826 Clara St",
    "address_councildis": "A",
    "status": "Assigned to Contractor",
    "contractor": "Richards Disposal",
    "rowid": "858658",
    "final_x": "3666914.57978",
    "final_y": "525225.735933",
    "longitude": "-90.11433743670578",
    "latitude": "29.938623284611396",
    "geocoded_column": {
      "latitude": "29.938623284611396",
      "longitude": "-90.11433743670578"
    }
  },
  {
    "service_request": "2022-858657",
    "request_type": "Property Maintenance",
    "request_reason": "Property Maintenance",
    "date_created": "2022-02-03T14:11:37.000",
    "date_modified": "2022-02-03T14:11:37.000",
    "request_status": "Pending",
    "responsible_agency": "Department of Code Enforcement",
    "final_address": "CAMERON BLVD & BURBANK DR",
    "address_councildis": "D",
    "status": "Pending",
    "rowid": "858657",
    "final_x": "3682439.8",
    "final_y": "554674.68",
    "longitude": "-90.06429302185069",
    "latitude": "30.019134319818463",
    "geocoded_column": {
      "latitude": "30.019134319818463",
      "longitude": "-90.06429302185069"
    }
  },
  {
    "service_request": "2022-858656",
    "request_type": "Roads/Drainage",
    "request_reason": "Catch Basin - Clogged",
    "date_created": "2022-02-03T14:10:45.000",
    "date_modified": "2022-02-03T14:11:06.000",
    "case_close_date": "2022-02-03T08:11:06.000",
    "request_status": "Closed",
    "responsible_agency": "Department of Public Works",
    "final_address": "122 S Norman C Francis Prkwy Apt 101",
    "address_councildis": "B",
    "status": "Resolved",
    "rowid": "858656",
    "final_x": "3673169.54273",
    "final_y": "536414.008903",
    "longitude": "-90.09420783701795",
    "latitude": "29.96920287186335",
    "geocoded_column": {
      "latitude": "29.96920287186335",
      "longitude": "-90.09420783701795"
    }
  },
  {
    "service_request": "2022-858655",
    "request_type": "Roads/Drainage",
    "request_reason": "Catch Basin - Clogged",
    "date_created": "2022-02-03T14:05:58.000",
    "date_modified": "2022-02-03T14:06:29.000",
    "case_close_date": "2022-02-03T08:06:29.000",
    "request_status": "Closed",
    "responsible_agency": "Department of Public Works",
    "final_address": "2500 Banks St",
    "address_councildis": "B",
    "status": "Resolved",
    "rowid": "858655",
    "final_x": "3675340.06376",
    "final_y": "533521.545797",
    "longitude": "-90.0874524849992",
    "latitude": "29.961184855881598",
    "geocoded_column": {
      "latitude": "29.961184855881598",
      "longitude": "-90.0874524849992"
    }
  },
  {
    "service_request": "2022-858654",
    "request_type": "COVID-19",
    "request_reason": "COVID-19 Business Non-Compliance",
    "date_created": "2022-02-03T13:57:10.000",
    "date_modified": "2022-02-03T13:57:11.000",
    "request_status": "Pending",
    "responsible_agency": "Safety and Permits",
    "final_address": "900 Canal St",
    "address_councildis": "B",
    "status": "Pending",
    "rowid": "858654",
    "final_x": "3680496.48795",
    "final_y": "531077.842498",
    "longitude": "-90.07125442807181",
    "latitude": "29.95431033000237",
    "geocoded_column": {
      "latitude": "29.95431033000237",
      "longitude": "-90.07125442807181"
    }
  },
  {
    "service_request": "2022-858653",
    "request_type": "COVID-19",
    "request_reason": "COVID-19 Business Non-Compliance",
    "date_created": "2022-02-03T13:56:01.000",
    "date_modified": "2022-02-03T13:56:03.000",
    "request_status": "Pending",
    "responsible_agency": "Safety and Permits",
    "final_address": "1111 Canal St",
    "address_councildis": "C",
    "status": "Pending",
    "rowid": "858653",
    "final_x": "3679986.71823",
    "final_y": "531707.587395",
    "longitude": "-90.07284220329849",
    "latitude": "29.956057344840524",
    "geocoded_column": {
      "latitude": "29.956057344840524",
      "longitude": "-90.07284220329849"
    }
  },
  {
    "service_request": "2022-858652",
    "request_type": "Trash/Recycling",
    "request_reason": "Missed Trash Pick-Up",
    "date_created": "2022-02-03T13:54:04.000",
    "date_modified": "2022-02-03T13:54:04.000",
    "request_status": "Pending",
    "responsible_agency": "Department of Sanitation",
    "final_address": "3043 Elmwood Park Dr",
    "address_councildis": "C",
    "status": "Assigned to Contractor",
    "contractor": "Richards Disposal",
    "rowid": "858652",
    "final_x": "3693997.12944",
    "final_y": "519103.263799",
    "longitude": "-90.02905535254935",
    "latitude": "29.92096855979572",
    "geocoded_column": {
      "latitude": "29.92096855979572",
      "longitude": "-90.02905535254935"
    }
  },
  {
    "service_request": "2022-858651",
    "request_type": "Property Maintenance",
    "request_reason": "Property Maintenance",
    "date_created": "2022-02-03T13:53:25.000",
    "date_modified": "2022-02-03T13:53:25.000",
    "request_status": "Pending",
    "responsible_agency": "Department of Code Enforcement",
    "final_address": "9001 Hickory St",
    "address_councildis": "A",
    "status": "Pending",
    "rowid": "858651",
    "final_x": "3661029.88198",
    "final_y": "532124.159299",
    "longitude": "-90.13268794394858",
    "latitude": "29.957762572525617",
    "geocoded_column": {
      "latitude": "29.957762572525617",
      "longitude": "-90.13268794394858"
    }
  },
  {
    "service_request": "2022-858650",
    "request_type": "Trash/Recycling",
    "request_reason": "Request a Large Item Pick Up",
    "date_created": "2022-02-03T13:43:59.000",
    "date_modified": "2022-02-03T13:44:01.000",
    "request_status": "Pending",
    "responsible_agency": "Department of Sanitation",
    "final_address": "2524 Hamilton St",
    "address_councildis": "A",
    "status": "Assigned to Contractor",
    "contractor": "Richards Disposal",
    "rowid": "858650",
    "final_x": "3662601.19322",
    "final_y": "534373.478917",
    "longitude": "-90.12765143526424",
    "latitude": "29.96390210301948",
    "geocoded_column": {
      "latitude": "29.96390210301948",
      "longitude": "-90.12765143526424"
    }
  },
  {
    "service_request": "2022-858649",
    "request_type": "Abandoned Vehicles",
    "request_reason": "Abandoned/Junk Vehicles",
    "date_created": "2022-02-03T13:41:09.000",
    "date_modified": "2022-02-03T13:41:09.000",
    "request_status": "Pending",
    "responsible_agency": "Department of Public Works",
    "status": "Inspected",
    "rowid": "858649",
    "longitude": "0.0",
    "latitude": "0.0",
    "geocoded_column": {
      "latitude": "0.0",
      "longitude": "0.0"
    }
  },
  {
    "service_request": "2022-858648",
    "request_type": "Trash/Recycling",
    "request_reason": "Request a Large Item Pick Up",
    "date_created": "2022-02-03T13:40:55.000",
    "date_modified": "2022-02-03T13:53:19.000",
    "request_status": "Pending",
    "responsible_agency": "Department of Sanitation",
    "final_address": "New Orleans,LA",
    "address_councildis": "B",
    "status": "Assigned to Contractor",
    "contractor": "Richards Disposal",
    "rowid": "858648",
    "final_x": "3677480.42158",
    "final_y": "524737.832188",
    "longitude": "-90.0809967701606",
    "latitude": "29.93696840663906",
    "geocoded_column": {
      "latitude": "29.93696840663906",
      "longitude": "-90.0809967701606"
    }
  },
  {
    "service_request": "2022-858647",
    "request_type": "Trash/Recycling",
    "request_reason": "Request a Large Item Pick Up",
    "date_created": "2022-02-03T13:37:57.000",
    "date_modified": "2022-02-03T13:37:59.000",
    "request_status": "Pending",
    "responsible_agency": "Department of Sanitation",
    "final_address": "520 N Salcedo St",
    "address_councildis": "A",
    "status": "Assigned to Contractor",
    "contractor": "Richards Disposal",
    "rowid": "858647",
    "final_x": "3675129.11259",
    "final_y": "537389.872264",
    "longitude": "-90.08798586862079",
    "latitude": "29.971827751089823",
    "geocoded_column": {
      "latitude": "29.971827751089823",
      "longitude": "-90.08798586862079"
    }
  },
  {
    "service_request": "2022-858646",
    "request_type": "Traffic Signals/Signs/Striping/Streetlights",
    "request_reason": "Street Light Outage/Malfunction",
    "date_created": "2022-02-03T13:33:15.000",
    "date_modified": "2022-02-03T13:33:16.000",
    "request_status": "Pending",
    "responsible_agency": "Department of Public Works",
    "final_address": "4909 Carondelet St",
    "address_councildis": "B",
    "status": "Pending",
    "contractor": "Royal Engineering",
    "rowid": "858646",
    "final_x": "3668967.87502",
    "final_y": "521173.868281",
    "longitude": "-90.10799174322814",
    "latitude": "29.927421723435902",
    "geocoded_column": {
      "latitude": "29.927421723435902",
      "longitude": "-90.10799174322814"
    }
  },
  {
    "service_request": "2022-858645",
    "request_type": "Trash/Recycling",
    "request_reason": "Repair Trash Cart",
    "date_created": "2022-02-03T13:28:46.000",
    "date_modified": "2022-02-03T13:28:47.000",
    "request_status": "Pending",
    "responsible_agency": "Department of Sanitation",
    "final_address": "5045 S Prieur St",
    "address_councildis": "B",
    "status": "Assigned to Contractor",
    "contractor": "Richards Disposal",
    "rowid": "858645",
    "final_x": "3668607.24993",
    "final_y": "526654.521662",
    "longitude": "-90.10894528000385",
    "latitude": "29.94250236119401",
    "geocoded_column": {
      "latitude": "29.94250236119401",
      "longitude": "-90.10894528000385"
    }
  },
  {
    "service_request": "2022-858643",
    "request_type": "Abandoned Vehicles",
    "request_reason": "Vehicle Blocking Your Driveway",
    "date_created": "2022-02-03T13:13:59.000",
    "date_modified": "2022-02-03T13:13:59.000",
    "request_status": "Pending",
    "responsible_agency": "Department of Public Works",
    "final_address": "3133 Louisiana Avenue Pkwy, New Orleans, Louisiana, 70125",
    "status": "Pending",
    "rowid": "858643",
    "longitude": "0.0",
    "latitude": "0.0",
    "geocoded_column": {
      "latitude": "0.0",
      "longitude": "0.0"
    }
  },
  {
    "service_request": "2022-858642",
    "request_type": "Abandoned Vehicles",
    "request_reason": "Abandoned/Junk Vehicles",
    "date_created": "2022-02-03T13:12:50.000",
    "date_modified": "2022-02-03T13:12:50.000",
    "request_status": "Pending",
    "responsible_agency": "Department of Public Works",
    "final_address": "1001 Valence St",
    "address_councildis": "B",
    "status": "Pending",
    "rowid": "858642",
    "final_x": "3669950.3771",
    "final_y": "519080.296311",
    "longitude": "-90.1049610684968",
    "latitude": "29.92163613987772",
    "geocoded_column": {
      "latitude": "29.92163613987772",
      "longitude": "-90.1049610684968"
    }
  },
  {
    "service_request": "2022-858641",
    "request_type": "Abandoned Vehicles",
    "request_reason": "Abandoned/Junk Vehicles",
    "date_created": "2022-02-03T13:12:27.000",
    "date_modified": "2022-02-03T13:12:27.000",
    "request_status": "Pending",
    "responsible_agency": "Department of Public Works",
    "final_address": "3135 Louisiana Avenue Pkwy, New Orleans, Louisiana, 70125",
    "status": "Pending",
    "rowid": "858641",
    "longitude": "0.0",
    "latitude": "0.0",
    "geocoded_column": {
      "latitude": "0.0",
      "longitude": "0.0"
    }
  },
  {
    "service_request": "2022-858640",
    "request_type": "Trash/Recycling",
    "request_reason": "Order Recycling Cart",
    "date_created": "2022-02-03T13:10:52.000",
    "date_modified": "2022-02-03T13:10:52.000",
    "request_status": "Pending",
    "responsible_agency": "Department of Sanitation",
    "final_address": "2028 Ursulines Ave",
    "address_councildis": "D",
    "status": "Pending",
    "rowid": "858640",
    "final_x": "3679588.53128",
    "final_y": "536535.183943",
    "longitude": "-90.07393199446804",
    "latitude": "29.96934363093376",
    "geocoded_column": {
      "latitude": "29.96934363093376",
      "longitude": "-90.07393199446804"
    }
  },
  {
    "service_request": "2022-858639",
    "request_type": "Safety & Permits",
    "request_reason": "Construction permit",
    "date_created": "2022-02-03T13:10:26.000",
    "date_modified": "2022-02-03T13:10:26.000",
    "request_status": "Pending",
    "responsible_agency": "Department of Code Enforcement",
    "status": "Pending",
    "rowid": "858639",
    "longitude": "0.0",
    "latitude": "0.0",
    "geocoded_column": {
      "latitude": "0.0",
      "longitude": "0.0"
    }
  },
  {
    "service_request": "2022-858637",
    "request_type": "Trash/Recycling",
    "request_reason": "Request a Large Item Pick Up",
    "date_created": "2022-02-03T13:02:14.000",
    "date_modified": "2022-02-03T13:02:15.000",
    "request_status": "Pending",
    "responsible_agency": "Department of Sanitation",
    "final_address": "6020 Marshal Foch St",
    "address_councildis": "A",
    "status": "Assigned to Contractor",
    "contractor": "Metro Disposal",
    "rowid": "858637",
    "final_x": "3669750.2361",
    "final_y": "547345.159057",
    "longitude": "-90.10463611259566",
    "latitude": "29.99936103978108",
    "geocoded_column": {
      "latitude": "29.99936103978108",
      "longitude": "-90.10463611259566"
    }
  },
  {
    "service_request": "2022-858636",
    "request_type": "Trash/Recycling",
    "request_reason": "Request a Large Item Pick Up",
    "date_created": "2022-02-03T13:02:01.000",
    "date_modified": "2022-02-03T13:02:07.000",
    "request_status": "Pending",
    "responsible_agency": "Department of Sanitation",
    "final_address": "7715 Panola St",
    "address_councildis": "A",
    "status": "Assigned to Contractor",
    "contractor": "Richards Disposal",
    "rowid": "858636",
    "final_x": "3665136.77543",
    "final_y": "529869.627201",
    "longitude": "-90.11979490222309",
    "latitude": "29.95144437657975",
    "geocoded_column": {
      "latitude": "29.95144437657975",
      "longitude": "-90.11979490222309"
    }
  },
  {
    "service_request": "2022-858635",
    "request_type": "Abandoned Vehicles",
    "request_reason": "Abandoned/Junk Vehicles",
    "date_created": "2022-02-03T13:00:31.000",
    "date_modified": "2022-02-03T13:00:31.000",
    "request_status": "Pending",
    "responsible_agency": "Department of Public Works",
    "final_address": "7923 Means Ave",
    "address_councildis": "E",
    "status": "Pending",
    "rowid": "858635",
    "final_x": "3707601.87134",
    "final_y": "565676.133602",
    "longitude": "-89.98438104389504",
    "latitude": "30.048593725718316",
    "geocoded_column": {
      "latitude": "30.048593725718316",
      "longitude": "-89.98438104389504"
    }
  },
  {
    "service_request": "2022-858634",
    "request_type": "Abandoned Vehicles",
    "request_reason": "Abandoned/Junk Vehicles",
    "date_created": "2022-02-03T12:59:23.000",
    "date_modified": "2022-02-03T12:59:23.000",
    "request_status": "Pending",
    "responsible_agency": "Department of Public Works",
    "final_address": "3454 Magazine St",
    "address_councildis": "B",
    "status": "Pending",
    "rowid": "858634",
    "final_x": "3674585.26536",
    "final_y": "519345.101047",
    "longitude": "-90.09032163635133",
    "latitude": "29.922226830350127",
    "geocoded_column": {
      "latitude": "29.922226830350127",
      "longitude": "-90.09032163635133"
    }
  },
  {
    "service_request": "2022-858633",
    "request_type": "Roads/Drainage",
    "request_reason": "Pothole",
    "date_created": "2022-02-03T12:51:16.000",
    "date_modified": "2022-02-03T12:51:16.000",
    "request_status": "Pending",
    "responsible_agency": "Department of Public Works",
    "final_address": "3407 Camp St",
    "address_councildis": "B",
    "status": "Pending",
    "rowid": "858633",
    "final_x": "3674761.46542",
    "final_y": "519965.724792",
    "longitude": "-90.08974418292789",
    "latitude": "29.923928089137455",
    "geocoded_column": {
      "latitude": "29.923928089137455",
      "longitude": "-90.08974418292789"
    }
  },
  {
    "service_request": "2022-858630",
    "request_type": "Trash/Recycling",
    "request_reason": "Repair Trash Cart",
    "date_created": "2022-02-03T12:45:21.000",
    "date_modified": "2022-02-03T12:45:22.000",
    "request_status": "Pending",
    "responsible_agency": "Department of Sanitation",
    "final_address": "1120 Eighth St",
    "address_councildis": "B",
    "status": "Assigned to Contractor",
    "contractor": "Richards Disposal",
    "rowid": "858630",
    "final_x": "3675980.96021",
    "final_y": "520332.467832",
    "longitude": "-90.08588206810029",
    "latitude": "29.924900065027835",
    "geocoded_column": {
      "latitude": "29.924900065027835",
      "longitude": "-90.08588206810029"
    }
  },
  {
    "service_request": "2022-858629",
    "request_type": "Traffic Signals/Signs/Striping/Streetlights",
    "request_reason": "Street Light Outage/Malfunction",
    "date_created": "2022-02-03T12:41:55.000",
    "date_modified": "2022-02-03T12:41:55.000",
    "request_status": "Pending",
    "responsible_agency": "Department of Public Works",
    "final_address": "1024 Montegut St",
    "address_councildis": "C",
    "status": "Pending",
    "contractor": "Royal Engineering",
    "rowid": "858629",
    "final_x": "3688350.37404",
    "final_y": "535922.985351",
    "longitude": "-90.04628320393978",
    "latitude": "29.96739259252819",
    "geocoded_column": {
      "latitude": "29.96739259252819",
      "longitude": "-90.04628320393978"
    }
  },
  {
    "service_request": "2022-858628",
    "request_type": "Abandoned Vehicles",
    "request_reason": "Abandoned/Junk Vehicles",
    "date_created": "2022-02-03T12:32:44.000",
    "date_modified": "2022-02-03T12:35:50.000",
    "request_status": "Pending",
    "responsible_agency": "Department of Public Works",
    "final_address": "1130 Ursulines Ave",
    "address_councildis": "C",
    "status": "Pending",
    "rowid": "858628",
    "final_x": "3682028.27189",
    "final_y": "534694.908358",
    "longitude": "-90.06629137426005",
    "latitude": "29.964209547329883",
    "geocoded_column": {
      "latitude": "29.964209547329883",
      "longitude": "-90.06629137426005"
    }
  },
  {
    "service_request": "2022-858627",
    "request_type": "Mayor's Request",
    "request_reason": "Requests to the Mayor",
    "date_created": "2022-02-03T12:29:53.000",
    "date_modified": "2022-02-03T14:24:10.000",
    "request_status": "Pending",
    "responsible_agency": "Department of Code Enforcement",
    "final_address": "1600 Newton St",
    "address_councildis": "C",
    "status": "Pending",
    "rowid": "858627",
    "final_x": "3690275.31068",
    "final_y": "527917.667135",
    "longitude": "-90.04048948559577",
    "latitude": "29.945321151665812",
    "geocoded_column": {
      "latitude": "29.945321151665812",
      "longitude": "-90.04048948559577"
    }
  },
  {
    "service_request": "2022-858626",
    "request_type": "Roads/Drainage",
    "request_reason": "Pothole",
    "date_created": "2022-02-03T12:29:16.000",
    "date_modified": "2022-02-03T12:29:17.000",
    "request_status": "Pending",
    "responsible_agency": "Department of Public Works",
    "final_address": "2816 S Claiborne Ave",
    "address_councildis": "B",
    "status": "Pending",
    "rowid": "858626",
    "final_x": "3673072.71425",
    "final_y": "526497.865982",
    "longitude": "-90.09485210716934",
    "latitude": "29.941939651422995",
    "geocoded_column": {
      "latitude": "29.941939651422995",
      "longitude": "-90.09485210716934"
    }
  },
  {
    "service_request": "2022-858625",
    "request_type": "Trash/Recycling",
    "request_reason": "Replace Trash Cart",
    "date_created": "2022-02-03T12:26:36.000",
    "date_modified": "2022-02-03T12:26:37.000",
    "request_status": "Pending",
    "responsible_agency": "Department of Sanitation",
    "final_address": "3235 Iberville St",
    "address_councildis": "B",
    "status": "Assigned to Contractor",
    "contractor": "Richards Disposal",
    "rowid": "858625",
    "final_x": "3673923.71649",
    "final_y": "536832.260936",
    "longitude": "-90.09181178526207",
    "latitude": "29.970330476423847",
    "geocoded_column": {
      "latitude": "29.970330476423847",
      "longitude": "-90.09181178526207"
    }
  },
  {
    "service_request": "2022-858624",
    "request_type": "Mayor's Request",
    "request_reason": "Requests to the Mayor",
    "date_created": "2022-02-03T12:25:18.000",
    "date_modified": "2022-02-03T12:29:38.000",
    "request_status": "Pending",
    "responsible_agency": "Department of Code Enforcement",
    "final_address": "601 Opelousas Ave",
    "address_councildis": "C",
    "status": "Pending",
    "rowid": "858624",
    "final_x": "3687118.65526",
    "final_y": "529041.506368",
    "longitude": "-90.05041629846355",
    "latitude": "29.948508882244177",
    "geocoded_column": {
      "latitude": "29.948508882244177",
      "longitude": "-90.05041629846355"
    }
  },
  {
    "service_request": "2022-858623",
    "request_type": "Trash/Recycling",
    "request_reason": "Request a Large Item Pick Up",
    "date_created": "2022-02-03T12:25:09.000",
    "date_modified": "2022-02-03T12:25:10.000",
    "request_status": "Pending",
    "responsible_agency": "Department of Sanitation",
    "final_address": "5614 St Charles Ave",
    "address_councildis": "A",
    "status": "Assigned to Contractor",
    "contractor": "Richards Disposal",
    "rowid": "858623",
    "final_x": "3666616.4722",
    "final_y": "521864.574522",
    "longitude": "-90.1153913903475",
    "latitude": "29.929389879307138",
    "geocoded_column": {
      "latitude": "29.929389879307138",
      "longitude": "-90.1153913903475"
    }
  },
  {
    "service_request": "2022-858622",
    "request_type": "Trash/Recycling",
    "request_reason": "Illegal Dumping",
    "date_created": "2022-02-03T12:23:07.000",
    "date_modified": "2022-02-03T12:38:08.000",
    "request_status": "Pending",
    "responsible_agency": "Department of Code Enforcement",
    "final_address": "10400 Dwyer Rd",
    "address_councildis": "E",
    "status": "Pending",
    "rowid": "858622",
    "final_x": "3713831.71243",
    "final_y": "558044.032795",
    "longitude": "-89.9649793566166",
    "latitude": "30.02740538208144",
    "geocoded_column": {
      "latitude": "30.02740538208144",
      "longitude": "-89.9649793566166"
    }
  },
  {
    "service_request": "2022-858621",
    "request_type": "Trash/Recycling",
    "request_reason": "Request a Large Item Pick Up",
    "date_created": "2022-02-03T12:21:58.000",
    "date_modified": "2022-02-03T12:21:59.000",
    "request_status": "Pending",
    "responsible_agency": "Department of Sanitation",
    "final_address": "609 Lesseps St",
    "address_councildis": "C",
    "status": "Assigned to Contractor",
    "contractor": "Metro Disposal",
    "rowid": "858621",
    "final_x": "3692297.00317",
    "final_y": "533308.426116",
    "longitude": "-90.0339133694437",
    "latitude": "29.960080991030235",
    "geocoded_column": {
      "latitude": "29.960080991030235",
      "longitude": "-90.0339133694437"
    }
  },
  {
    "service_request": "2022-858620",
    "request_type": "Roads/Drainage",
    "request_reason": "Street Flooding / Drainage",
    "date_created": "2022-02-03T12:20:08.000",
    "date_modified": "2022-02-03T12:20:08.000",
    "request_status": "Pending",
    "responsible_agency": "Department of Public Works",
    "final_address": "305 Royal St",
    "address_councildis": "C",
    "status": "Pending",
    "rowid": "858620",
    "final_x": "3681673.2717",
    "final_y": "531355.993538",
    "longitude": "-90.06752891324048",
    "latitude": "29.95503945856816",
    "geocoded_column": {
      "latitude": "29.95503945856816",
      "longitude": "-90.06752891324048"
    }
  },
  {
    "service_request": "2022-858619",
    "request_type": "Trash/Recycling",
    "request_reason": "Missed Trash Pick-Up",
    "date_created": "2022-02-03T12:18:25.000",
    "date_modified": "2022-02-03T12:18:27.000",
    "request_status": "Pending",
    "responsible_agency": "Department of Sanitation",
    "final_address": "1801 Marengo St",
    "address_councildis": "B",
    "status": "Assigned to Contractor",
    "contractor": "Richards Disposal",
    "rowid": "858619",
    "final_x": "3671932.39387",
    "final_y": "521748.512122",
    "longitude": "-90.09861392528393",
    "latitude": "29.928914306334566",
    "geocoded_column": {
      "latitude": "29.928914306334566",
      "longitude": "-90.09861392528393"
    }
  },
  {
    "service_request": "2022-858618",
    "request_type": "Traffic Signals/Signs/Striping/Streetlights",
    "request_reason": "Traffic Sign Missing/Damaged",
    "date_created": "2022-02-03T12:14:57.000",
    "date_modified": "2022-02-03T12:14:57.000",
    "request_status": "Pending",
    "responsible_agency": "Department of Public Works",
    "final_address": "3501 St Bernard Ave",
    "address_councildis": "D",
    "status": "Pending",
    "rowid": "858618",
    "final_x": "3678471.85371",
    "final_y": "545288.768399",
    "longitude": "-90.07715548514437",
    "latitude": "29.9934466531464",
    "geocoded_column": {
      "latitude": "29.9934466531464",
      "longitude": "-90.07715548514437"
    }
  },
  {
    "service_request": "2022-858617",
    "request_type": "Trash/Recycling",
    "request_reason": "Missed Trash Pick-Up",
    "date_created": "2022-02-03T12:14:20.000",
    "date_modified": "2022-02-03T12:14:21.000",
    "request_status": "Pending",
    "responsible_agency": "Department of Sanitation",
    "final_address": "918 Adams St",
    "address_councildis": "A",
    "status": "Assigned to Contractor",
    "contractor": "Richards Disposal",
    "rowid": "858617",
    "final_x": "3662423.56602",
    "final_y": "526745.989694",
    "longitude": "-90.12846564561201",
    "latitude": "29.942934107239786",
    "geocoded_column": {
      "latitude": "29.942934107239786",
      "longitude": "-90.12846564561201"
    }
  },
  {
    "service_request": "2022-858616",
    "request_type": "Trash/Recycling",
    "request_reason": "Repair Trash Cart",
    "date_created": "2022-02-03T12:12:41.000",
    "date_modified": "2022-02-03T12:12:41.000",
    "request_status": "Pending",
    "responsible_agency": "Department of Sanitation",
    "final_address": "3653 Annunciation St",
    "address_councildis": "B",
    "status": "Assigned to Contractor",
    "contractor": "Richards Disposal",
    "rowid": "858616",
    "final_x": "3674042.84033",
    "final_y": "518183.284022",
    "longitude": "-90.09207357891316",
    "latitude": "29.91904837400861",
    "geocoded_column": {
      "latitude": "29.91904837400861",
      "longitude": "-90.09207357891316"
    }
  },
  {
    "service_request": "2022-858615",
    "request_type": "Trash/Recycling",
    "request_reason": "Repair Trash Cart",
    "date_created": "2022-02-03T12:12:18.000",
    "date_modified": "2022-02-03T12:12:19.000",
    "request_status": "Pending",
    "responsible_agency": "Department of Sanitation",
    "final_address": "3651 Annunciation St",
    "address_councildis": "B",
    "status": "Assigned to Contractor",
    "contractor": "Richards Disposal",
    "rowid": "858615",
    "final_x": "3674056.98363",
    "final_y": "518188.767926",
    "longitude": "-90.09202874817994",
    "latitude": "29.919063031704702",
    "geocoded_column": {
      "latitude": "29.919063031704702",
      "longitude": "-90.09202874817994"
    }
  },
  {
    "service_request": "2022-858614",
    "request_type": "Abandoned Vehicles",
    "request_reason": "Abandoned/Junk Vehicles",
    "date_created": "2022-02-03T12:09:47.000",
    "date_modified": "2022-02-03T12:09:47.000",
    "request_status": "Pending",
    "responsible_agency": "Department of Public Works",
    "final_address": "2424 Short St",
    "address_councildis": "A",
    "status": "Pending",
    "rowid": "858614",
    "final_x": "3665330.73709",
    "final_y": "531454.212291",
    "longitude": "-90.11912944484438",
    "latitude": "29.955795820590712",
    "geocoded_column": {
      "latitude": "29.955795820590712",
      "longitude": "-90.11912944484438"
    }
  },
  {
    "service_request": "2022-858613",
    "request_type": "Traffic Signals/Signs/Striping/Streetlights",
    "request_reason": "Street Light Outage/Malfunction",
    "date_created": "2022-02-03T11:58:50.000",
    "date_modified": "2022-02-03T11:58:51.000",
    "request_status": "Pending",
    "responsible_agency": "Department of Public Works",
    "final_address": "3700 BLK Loyola Ave",
    "address_councildis": "B",
    "status": "Pending",
    "contractor": "Royal Engineering",
    "rowid": "858613",
    "final_x": "3672500.43941",
    "final_y": "523229.032398",
    "longitude": "-90.09677027854305",
    "latitude": "29.93296841648585",
    "geocoded_column": {
      "latitude": "29.93296841648585",
      "longitude": "-90.09677027854305"
    }
  },