[
  {
    "service_request": "2023-1042864",
    "request_type": "Roads/Drainage",
    "request_reason": "Pothole",
    "date_created": "2023-10-12T22:58:57.000",
    "date_modified": "2023-10-12T22:58:57.000",
    "request_status": "Pending",
    "responsible_agency": "Department of Public Works",
    "final_address": "3827 Cadillac St",
    "address_councildis": "D",
    "status": "Pending",
    "rowid": "1042864",
    "final_x": "3677019.71451",
    "final_y": "546274.260752",
    "longitude": "-90.0817085611614",
    "latitude": "29.996200104814204",
    "geocoded_column": {
      "latitude": "29.996200104814204",
      "longitude": "-90.0817085611614"
    }
  },
  {
    "service_request": "2023-1042863",
    "request_type": "Abandoned Vehicles",
    "request_reason": "Abandoned/Junk Vehicles",
    "date_created": "2023-10-12T21:53:48.000",
    "date_modified": "2023-10-12T21:53:48.000",
    "request_status": "Pending",
    "responsible_agency": "Department of Public Works",
    "final_address": "2600 Annette St",
    "address_councildis": "D",
    "status": "Pending",
    "rowid": "1042863",
    "final_x": "3682666.15631",
    "final_y": "541706.477964",
    "longitude": "-90.0640317145369",
    "latitude": "29.983469518730207",
    "geocoded_column": {
      "latitude": "29.983469518730207",
      "longitude": "-90.0640317145369"
    }
  },
  {
    "service_request": "2023-1042862",
    "request_type": "Roads/Drainage",
    "request_reason": "Pothole",
    "date_created": "2023-10-12T21:32:18.000",
    "date_modified": "2023-10-12T21:32:18.000",
    "request_status": "Pending",
    "responsible_agency": "Department of Public Works",
    "final_address": "4200 BLK Perrier St",
    "address_councildis": "B",
    "status": "Pending",
    "rowid": "1042862",
    "final_x": "3671500.64253",
    "final_y": "520125.882108",
    "longitude": "-90.1000320136845",
    "latitude": "29.924465378806524",
    "geocoded_column": {
      "latitude": "29.924465378806524",
      "longitude": "-90.1000320136845"
    }
  },
  {
    "service_request": "2023-1042861",
    "request_type": "Roads/Drainage",
    "request_reason": "Pothole",
    "date_created": "2023-10-12T21:22:54.000",
    "date_modified": "2023-10-12T21:22:54.000",
    "request_status": "Pending",
    "responsible_agency": "Department of Public Works",
    "final_address": "1312 Milan St",
    "address_councildis": "B",
    "status": "Pending",
    "rowid": "1042861",
    "final_x": "3671625.82823",
    "final_y": "520286.919608",
    "longitude": "-90.09963137110304",
    "latitude": "29.92490447494246",
    "geocoded_column": {
      "latitude": "29.92490447494246",
      "longitude": "-90.09963137110304"
    }
  },
  {
    "service_request": "2023-1042860",
    "request_type": "Trash/Recycling",
    "request_reason": "Replace Trash Cart",
    "date_created": "2023-10-12T20:36:51.000",
    "date_modified": "2023-10-12T20:36:52.000",
    "request_status": "Pending",
    "responsible_agency": "Department of Sanitation",
    "final_address": "1228 Tennessee St",
    "address_councildis": "E",
    "status": "Assigned to Contractor",
    "contractor": "Waste Pro",
    "rowid": "1042860",
    "final_x": "3695717.08829",
    "final_y": "534799.54151",
    "longitude": "-90.02305968789332",
    "latitude": "29.964073942687087",
    "geocoded_column": {
      "latitude": "29.964073942687087",
      "longitude": "-90.02305968789332"
    }
  },
  {
    "service_request": "2023-1042859",
    "request_type": "Abandoned Vehicles",
    "request_reason": "Abandoned/Junk Vehicles",
    "date_created": "2023-10-12T20:12:43.000",
    "date_modified": "2023-10-12T20:12:43.000",
    "request_status": "Pending",
    "responsible_agency": "Department of Public Works",
    "final_address": "ZIMPLE ST & LEONIDAS ST",
    "address_councildis": "A",
    "status": "Pending",
    "rowid": "1042859",
    "final_x": "3660413.7",
    "final_y": "529311.08",
    "longitude": "-90.13472659947307",
    "latitude": "29.950045247229852",
    "geocoded_column": {
      "latitude": "29.950045247229852",
      "longitude": "-90.13472659947307"
    }
  },
  {
    "service_request": "2023-1042858",
    "request_type": "Traffic Signals/Signs/Striping/Streetlights",
    "request_reason": "Street Light Outage/Malfunction",
    "date_created": "2023-10-12T19:54:21.000",
    "date_modified": "2023-10-12T19:54:22.000",
    "request_status": "Pending",
    "responsible_agency": "Department of Public Works",
    "final_address": "5571 St Anthony Ave",
    "address_councildis": "D",
    "status": "Assigned to Contractor",
    "contractor": "Legacy Professional Services",
    "rowid": "1042858",
    "final_x": "3682236.4205",
    "final_y": "553633.683991",
    "longitude": "-90.0649720391604",
    "latitude": "30.016278152831383",
    "geocoded_column": {
      "latitude": "30.016278152831383",
      "longitude": "-90.0649720391604"
    }
  },
  {
    "service_request": "2023-1042857",
    "request_type": "Trash/Recycling",
    "request_reason": "Replace Trash Cart",
    "date_created": "2023-10-12T19:49:04.000",
    "date_modified": "2023-10-12T19:49:05.000",
    "request_status": "Pending",
    "responsible_agency": "Department of Sanitation",
    "final_address": "1701 Deslonde St",
    "address_councildis": "E",
    "status": "Assigned to Contractor",
    "contractor": "Waste Pro",
    "rowid": "1042857",
    "final_x": "3696061.26794",
    "final_y": "536675.572167",
    "longitude": "-90.02190500008277",
    "latitude": "29.9692215331428",
    "geocoded_column": {
      "latitude": "29.9692215331428",
      "longitude": "-90.02190500008277"
    }
  },
  {
    "service_request": "2023-1042856",
    "request_type": "Trash/Recycling",
    "request_reason": "Request a Large Item Pick Up",
    "date_created": "2023-10-12T19:27:14.000",
    "date_modified": "2023-10-12T19:27:15.000",
    "request_status": "Pending",
    "responsible_agency": "Department of Sanitation",
    "final_address": "3522 Laurel St",
    "address_councildis": "B",
    "status": "Assigned to Contractor",
    "contractor": "Richards Disposal",
    "rowid": "1042856",
    "final_x": "3674525.41537",
    "final_y": "518598.281911",
    "longitude": "-90.09053612710854",
    "latitude": "29.92017510229997",
    "geocoded_column": {
      "latitude": "29.92017510229997",
      "longitude": "-90.09053612710854"
    }
  },
  {
    "service_request": "2023-1042855",
    "request_type": "Traffic Signals/Signs/Striping/Streetlights",
    "request_reason": "Street Light Outage/Malfunction",
    "date_created": "2023-10-12T19:26:55.000",
    "date_modified": "2023-10-12T19:26:56.000",
    "request_status": "Pending",
    "responsible_agency": "Department of Public Works",
    "final_address": "8600 BLK Stroelitz St",
    "address_councildis": "A",
    "status": "Assigned to Contractor",
    "contractor": "Legacy Professional Services",
    "rowid": "1042855",
    "final_x": "3666510.60198",
    "final_y": "536265.49681",
    "longitude": "-90.11524232797963",
    "latitude": "29.968990837342105",
    "geocoded_column": {
      "latitude": "29.968990837342105",
      "longitude": "-90.11524232797963"
    }
  },
  {
    "service_request": "2023-1042854",
    "request_type": "Trash/Recycling",
    "request_reason": "MIssed Recycling Pick-Up",
    "date_created": "2023-10-12T19:25:19.000",
    "date_modified": "2023-10-12T19:25:20.000",
    "request_status": "Pending",
    "responsible_agency": "Department of Sanitation",
    "final_address": "1309 Leontine St",
    "address_councildis": "B",
    "status": "Assigned to Contractor",
    "contractor": "Richards Disposal",
    "rowid": "1042854",
    "final_x": "3667402.1929",
    "final_y": "520074.555768",
    "longitude": "-90.11297119012383",
    "latitude": "29.92444490734079",
    "geocoded_column": {
      "latitude": "29.92444490734079",
      "longitude": "-90.11297119012383"
    }
  },
  {
    "service_request": "2023-1042853",
    "request_type": "Property Maintenance",
    "request_reason": "Property Maintenance",
    "date_created": "2023-10-12T19:21:33.000",
    "date_modified": "2023-10-12T19:21:33.000",
    "request_status": "Pending",
    "responsible_agency": "Department of Code Enforcement",
    "final_address": "4136 Constance St",
    "address_councildis": "B",
    "status": "Pending",
    "rowid": "1042853",
    "final_x": "3671889.21947",
    "final_y": "518464.622902",
    "longitude": "-90.0988619029197",
    "latitude": "29.919885939788873",
    "geocoded_column": {
      "latitude": "29.919885939788873",
      "longitude": "-90.0988619029197"
    }
  },
  {
    "service_request": "2023-1042852",
    "request_type": "Trash/Recycling",
    "request_reason": "Replace Trash Cart",
    "date_created": "2023-10-12T19:02:42.000",
    "date_modified": "2023-10-12T19:02:43.000",
    "request_status": "Pending",
    "responsible_agency": "Department of Sanitation",
    "final_address": "2810 S Saratoga St",
    "address_councildis": "B",
    "status": "Assigned to Contractor",
    "contractor": "Richards Disposal",
    "rowid": "1042852",
    "final_x": "3674859.61237",
    "final_y": "523934.5751",
    "longitude": "-90.08929834911596",
    "latitude": "29.934838212836475",
    "geocoded_column": {
      "latitude": "29.934838212836475",
      "longitude": "-90.08929834911596"
    }
  },
  {
    "service_request": "2023-1042851",
    "request_type": "Trash/Recycling",
    "request_reason": "Start Trash Service",
    "date_created": "2023-10-12T18:27:31.000",
    "date_modified": "2023-10-12T18:27:31.000",
    "request_status": "Pending",
    "responsible_agency": "Department of Sanitation",
    "final_address": "2810 S Saratoga St",
    "address_councildis": "B",
    "status": "Assigned to Contractor",
    "contractor": "Richards Disposal",
    "rowid": "1042851",
    "final_x": "3674859.61237",
    "final_y": "523934.5751",
    "longitude": "-90.08929834911596",
    "latitude": "29.934838212836475",
    "geocoded_column": {
      "latitude": "29.934838212836475",
      "longitude": "-90.08929834911596"
    }
  },
  {
    "service_request": "2023-1042850",
    "request_type": "Trash/Recycling",
    "request_reason": "Request a Large Item Pick Up",
    "date_created": "2023-10-12T18:14:52.000",
    "date_modified": "2023-10-12T18:14:53.000",
    "request_status": "Pending",
    "responsible_agency": "Department of Sanitation",
    "status": "Assigned to Contractor",
    "rowid": "1042850",
    "longitude": "0.0",
    "latitude": "0.0",
    "geocoded_column": {
      "latitude": "0.0",
      "longitude": "0.0"
    }
  },
  {
    "service_request": "2023-1042849",
    "request_type": "Trash/Recycling",
    "request_reason": "Missed Trash Pick-Up",
    "date_created": "2023-10-12T18:13:34.000",
    "date_modified": "2023-10-12T18:13:35.000",
    "request_status": "Pending",
    "responsible_agency": "Department of Sanitation",
    "final_address": "207 River Oaks Dr",
    "address_councildis": "C",
    "status": "Assigned to Contractor",
    "contractor": "Richards Disposal",
    "rowid": "1042849",
    "final_x": "3701542.86692",
    "final_y": "523224.971067",
    "longitude": "-90.00508622249473",
    "latitude": "29.932063502452092",
    "geocoded_column": {
      "latitude": "29.932063502452092",
      "longitude": "-90.00508622249473"
    }
  },
  {
    "service_request": "2023-1042848",
    "request_type": "Abandoned Vehicles",
    "request_reason": "Abandoned/Junk Vehicles",
    "date_created": "2023-10-12T17:56:23.000",
    "date_modified": "2023-10-12T17:56:23.000",
    "request_status": "Pending",
    "responsible_agency": "Department of Public Works",
    "final_address": "3935 Dauphine St",
    "address_councildis": "C",
    "status": "Pending",
    "rowid": "1042848",
    "final_x": "3691472.83068",
    "final_y": "534204.763653",
    "longitude": "-90.03648388456797",
    "latitude": "29.96257127934263",
    "geocoded_column": {
      "latitude": "29.96257127934263",
      "longitude": "-90.03648388456797"
    }
  },
  {
    "service_request": "2023-1042847",
    "request_type": "Property Maintenance",
    "request_reason": "Property Maintenance",
    "date_created": "2023-10-12T17:52:41.000",
    "date_modified": "2023-10-12T17:52:41.000",
    "request_status": "Pending",
    "responsible_agency": "Department of Code Enforcement",
    "final_address": "2100 St Claude Ave",
    "address_councildis": "C",
    "status": "Pending",
    "rowid": "1042847",
    "final_x": "3684658.44489",
    "final_y": "536222.456519",
    "longitude": "-90.057931830602",
    "latitude": "29.968329543766842",
    "geocoded_column": {
      "latitude": "29.968329543766842",
      "longitude": "-90.057931830602"
    }
  },
  {
    "service_request": "2023-1042846",
    "request_type": "Trash/Recycling",
    "request_reason": "Replace Trash Cart",
    "date_created": "2023-10-12T17:49:42.000",
    "date_modified": "2023-10-12T17:49:43.000",
    "request_status": "Pending",
    "responsible_agency": "Department of Sanitation",
    "final_address": "200 BLK Audubon Blvd",
    "address_councildis": "A",
    "status": "Assigned to Contractor",
    "contractor": "Richards Disposal",
    "rowid": "1042846",
    "final_x": "3667182.38574",
    "final_y": "529930.053117",
    "longitude": "-90.11333380911329",
    "latitude": "29.95155079895436",
    "geocoded_column": {
      "latitude": "29.95155079895436",
      "longitude": "-90.11333380911329"
    }
  },
  {
    "service_request": "2023-1042845",
    "request_type": "Trash/Recycling",
    "request_reason": "Missed Trash Pick-Up",
    "date_created": "2023-10-12T17:33:05.000",
    "date_modified": "2023-10-12T17:33:06.000",
    "request_status": "Pending",
    "responsible_agency": "Department of Sanitation",
    "final_address": "1719 Toledano St",
    "address_councildis": "B",
    "status": "Assigned to Contractor",
    "contractor": "Richards Disposal",
    "rowid": "1042845",
    "final_x": "3674403.64788",
    "final_y": "522246.697082",
    "longitude": "-90.09079560780958",
    "latitude": "29.930210700280217",
    "geocoded_column": {
      "latitude": "29.930210700280217",
      "longitude": "-90.09079560780958"
    }
  },
  {
    "service_request": "2023-1042844",
    "request_type": "Trash/Recycling",
    "request_reason": "MIssed Recycling Pick-Up",
    "date_created": "2023-10-12T17:32:14.000",
    "date_modified": "2023-10-12T17:32:15.000",
    "request_status": "Pending",
    "responsible_agency": "Department of Sanitation",
    "final_address": "1719 Toledano St",
    "address_councildis": "B",
    "status": "Assigned to Contractor",
    "contractor": "Richards Disposal",
    "rowid": "1042844",
    "final_x": "3674403.64788",
    "final_y": "522246.697082",
    "longitude": "-90.09079560780958",
    "latitude": "29.930210700280217",
    "geocoded_column": {
      "latitude": "29.930210700280217",
      "longitude": "-90.09079560780958"
    }
  },
  {
    "service_request": "2023-1042843",
    "request_type": "Roads/Drainage",
    "request_reason": "Pothole",
    "date_created": "2023-10-12T17:11:51.000",
    "date_modified": "2023-10-12T17:11:51.000",
    "request_status": "Pending",
    "responsible_agency": "Department of Public Works",
    "final_address": "4917 Crowder Blvd",
    "address_councildis": "E",
    "status": "Pending",
    "rowid": "1042843",
    "final_x": "3706451.13547",
    "final_y": "556530.57065",
    "longitude": "-89.9883573026716",
    "latitude": "30.02348423270194",
    "geocoded_column": {
      "latitude": "30.02348423270194",
      "longitude": "-89.9883573026716"
    }
  },
  {
    "service_request": "2023-1042842",
    "request_type": "Trash/Recycling",
    "request_reason": "Replace Trash Cart",
    "date_created": "2023-10-12T17:06:42.000",
    "date_modified": "2023-10-12T17:06:42.000",
    "request_status": "Pending",
    "responsible_agency": "Department of Sanitation",
    "final_address": "2034 Chippewa St",
    "address_councildis": "B",
    "status": "Assigned to Contractor",
    "contractor": "Richards Disposal",
    "rowid": "1042842",
    "final_x": "3680266.50728",
    "final_y": "521252.376185",
    "longitude": "-90.07232204829299",
    "latitude": "29.92730052817962",
    "geocoded_column": {
      "latitude": "29.92730052817962",
      "longitude": "-90.07232204829299"
    }
  },
  {
    "service_request": "2023-1042841",
    "request_type": "Trash/Recycling",
    "request_reason": "MIssed Recycling Pick-Up",
    "date_created": "2023-10-12T17:00:06.000",
    "date_modified": "2023-10-12T17:00:17.000",
    "request_status": "Pending",
    "responsible_agency": "Department of Sanitation",
    "final_address": "3715 DHemecourt St",
    "address_councildis": "B",
    "status": "Assigned to Contractor",
    "contractor": "Richards Disposal",
    "rowid": "1042841",
    "final_x": "3671060.62471",
    "final_y": "535964.173767",
    "longitude": "-90.10088325167906",
    "latitude": "29.968028516645784",
    "geocoded_column": {
      "latitude": "29.968028516645784",
      "longitude": "-90.10088325167906"
    }
  },
  {
    "service_request": "2023-1042840",
    "request_type": "Parks & Parkways",
    "request_reason": "Request Tree Service (Right of Way/Public Property)",
    "date_created": "2023-10-12T16:59:02.000",
    "date_modified": "2023-10-12T16:59:02.000",
    "request_status": "Pending",
    "responsible_agency": "Department of Parks & Parkway",
    "final_address": "5067 Press Dr",
    "address_councildis": "D",
    "status": "Pending",
    "rowid": "1042840",
    "final_x": "3689511.84438",
    "final_y": "552066.548886",
    "longitude": "-90.04204074190416",
    "latitude": "30.01174566590096",
    "geocoded_column": {
      "latitude": "30.01174566590096",
      "longitude": "-90.04204074190416"
    }
  },
  {
    "service_request": "2023-1042839",
    "request_type": "Trash/Recycling",
    "request_reason": "Request a Large Item Pick Up",
    "date_created": "2023-10-12T16:57:36.000",
    "date_modified": "2023-10-12T16:57:37.000",
    "request_status": "Pending",
    "responsible_agency": "Department of Sanitation",
    "final_address": "10401 Willow Dr",
    "address_councildis": "C",
    "status": "Assigned to Contractor",
    "contractor": "Richards Disposal",
    "rowid": "1042839",
    "final_x": "3722998.67046",
    "final_y": "516647.720437",
    "longitude": "-89.93760628353701",
    "latitude": "29.913277137751813",
    "geocoded_column": {
      "latitude": "29.913277137751813",
      "longitude": "-89.93760628353701"
    }
  },
  {
    "service_request": "2023-1042838",
    "request_type": "Traffic Signals/Signs/Striping/Streetlights",
    "request_reason": "Street Light Outage/Malfunction",
    "date_created": "2023-10-12T16:53:42.000",
    "date_modified": "2023-10-12T16:54:21.000",
    "request_status": "Pending",
    "responsible_agency": "Department of Public Works",
    "final_address": "NORMAN C FRANCIS OVERPASS & S NORMAN C FRANCIS PKWY",
    "address_councildis": "B",
    "status": "Assigned to Contractor",
    "contractor": "Legacy Professional Services",
    "rowid": "1042838",
    "final_x": "3671621.9",
    "final_y": "534798.08",
    "longitude": "-90.09915038468583",
    "latitude": "29.964805537968495",
    "geocoded_column": {
      "latitude": "29.964805537968495",
      "longitude": "-90.09915038468583"
    }
  },
  {
    "service_request": "2023-1042837",
    "request_type": "Roads/Drainage",
    "request_reason": "Pothole",
    "date_created": "2023-10-12T16:44:02.000",
    "date_modified": "2023-10-12T16:44:03.000",
    "request_status": "Pending",
    "responsible_agency": "Department of Public Works",
    "final_address": "900 BLK Felicity St",
    "address_councildis": "B",
    "status": "Pending",
    "rowid": "1042837",
    "final_x": "3680453.94089",
    "final_y": "522580.148853",
    "longitude": "-90.07168421717077",
    "latitude": "29.930945793823682",
    "geocoded_column": {
      "latitude": "29.930945793823682",
      "longitude": "-90.07168421717077"
    }
  },
  {
    "service_request": "2023-1042836",
    "request_type": "Abandoned Vehicles",
    "request_reason": "Abandoned/Junk Vehicles",
    "date_created": "2023-10-12T16:38:54.000",
    "date_modified": "2023-10-12T16:38:55.000",
    "request_status": "Pending",
    "responsible_agency": "Department of Public Works",
    "final_address": "4300 BLK Wellington Ave",
    "address_councildis": "D",
    "status": "Pending",
    "rowid": "1042836",
    "final_x": "3677228.30266",
    "final_y": "548460.855622",
    "longitude": "-90.08097415166026",
    "latitude": "30.002206202085432",
    "geocoded_column": {
      "latitude": "30.002206202085432",
      "longitude": "-90.08097415166026"
    }
  },
  {
    "service_request": "2023-1042835",
    "request_type": "Parks & Parkways",
    "request_reason": "Request Tree Service (Right of Way/Public Property)",
    "date_created": "2023-10-12T16:38:29.000",
    "date_modified": "2023-10-12T16:39:04.000",
    "request_status": "Pending",
    "responsible_agency": "Department of Parks & Parkway",
    "final_address": "4318 St Ann St",
    "address_councildis": "A",
    "status": "Pending",
    "rowid": "1042835",
    "final_x": "3671709.44603",
    "final_y": "541116.551116",
    "longitude": "-90.09865891682728",
    "latitude": "29.982176604609013",
    "geocoded_column": {
      "latitude": "29.982176604609013",
      "longitude": "-90.09865891682728"
    }
  },
  {
    "service_request": "2023-1042834",
    "request_type": "Trash/Recycling",
    "request_reason": "MIssed Recycling Pick-Up",
    "date_created": "2023-10-12T16:35:27.000",
    "date_modified": "2023-10-12T16:35:28.000",
    "request_status": "Pending",
    "responsible_agency": "Department of Sanitation",
    "final_address": "7330 Hickory St",
    "address_councildis": "A",
    "status": "Assigned to Contractor",
    "contractor": "Richards Disposal",
    "rowid": "1042834",
    "final_x": "3664855.39437",
    "final_y": "528503.436544",
    "longitude": "-90.1207290211724",
    "latitude": "29.94769598497485",
    "geocoded_column": {
      "latitude": "29.94769598497485",
      "longitude": "-90.1207290211724"
    }
  },
  {
    "service_request": "2023-1042833",
    "request_type": "Parks & Parkways",
    "request_reason": "Request Tree Service (Right of Way/Public Property)",
    "date_created": "2023-10-12T16:21:40.000",
    "date_modified": "2023-10-12T16:21:43.000",
    "request_status": "Pending",
    "responsible_agency": "Department of Parks & Parkway",
    "final_address": "S CARROLLTON AVE & BIRCH ST",
    "address_councildis": "A",
    "status": "Pending",
    "rowid": "1042833",
    "final_x": "3663000.1",
    "final_y": "529332.38",
    "longitude": "-90.12655937811599",
    "latitude": "29.950029169509577",
    "geocoded_column": {
      "latitude": "29.950029169509577",
      "longitude": "-90.12655937811599"
    }
  },
  {
    "service_request": "2023-1042832",
    "request_type": "Traffic Signals/Signs/Striping/Streetlights",
    "request_reason": "Request for Stop Sign",
    "date_created": "2023-10-12T16:15:35.000",
    "date_modified": "2023-10-12T16:15:36.000",
    "request_status": "Pending",
    "responsible_agency": "Department of Public Works",
    "final_address": "N ROBERTSON ST & GALLIER ST",
    "address_councildis": "D",
    "status": "Pending",
    "rowid": "1042832",
    "final_x": "3690832.8",
    "final_y": "537131.18",
    "longitude": "-90.03840057060617",
    "latitude": "29.970637798680798",
    "geocoded_column": {
      "latitude": "29.970637798680798",
      "longitude": "-90.03840057060617"
    }
  },
  {
    "service_request": "2023-1042831",
    "request_type": "Abandoned Vehicles",
    "request_reason": "Abandoned/Junk Vehicles",
    "date_created": "2023-10-12T16:12:06.000",
    "date_modified": "2023-10-12T16:15:51.000",
    "request_status": "Pending",
    "responsible_agency": "Department of Public Works",
    "final_address": "TERPSICHORE ST & COLISEUM ST",
    "address_councildis": "B",
    "status": "Pending",
    "rowid": "1042831",
    "final_x": "3679781.6",
    "final_y": "524771.38",
    "longitude": "-90.07373066310265",
    "latitude": "29.936991295774085",
    "geocoded_column": {
      "latitude": "29.936991295774085",
      "longitude": "-90.07373066310265"
    }
  },
  {
    "service_request": "2023-1042830",
    "request_type": "Trash/Recycling",
    "request_reason": "Request a Large Item Pick Up",
    "date_created": "2023-10-12T16:12:04.000",
    "date_modified": "2023-10-12T16:12:05.000",
    "request_status": "Pending",
    "responsible_agency": "Department of Sanitation",
    "final_address": "4911 Gawain Dr",
    "address_councildis": "E",
    "status": "Assigned to Contractor",
    "contractor": "Waste Pro",
    "rowid": "1042830",
    "final_x": "3706945.23755",
    "final_y": "556487.572698",
    "longitude": "-89.98679765275841",
    "latitude": "30.02335004873773",
    "geocoded_column": {
      "latitude": "30.02335004873773",
      "longitude": "-89.98679765275841"
    }
  },
  {
    "service_request": "2023-1042829",
    "request_type": "Trash/Recycling",
    "request_reason": "Request a Large Item Pick Up",
    "date_created": "2023-10-12T16:11:46.000",
    "date_modified": "2023-10-12T16:11:47.000",
    "request_status": "Pending",
    "responsible_agency": "Department of Sanitation",
    "final_address": "1317 Lesseps St",
    "address_councildis": "D",
    "status": "Assigned to Contractor",
    "contractor": "IV Waste",
    "rowid": "1042829",
    "final_x": "3692952.13059",
    "final_y": "535968.260871",
    "longitude": "-90.03174921870644",
    "latitude": "29.967374155943745",
    "geocoded_column": {
      "latitude": "29.967374155943745",
      "longitude": "-90.03174921870644"
    }
  },
  {
    "service_request": "2023-1042827",
    "request_type": "Trash/Recycling",
    "request_reason": "Request a Large Item Pick Up",
    "date_created": "2023-10-12T16:00:07.000",
    "date_modified": "2023-10-12T16:00:07.000",
    "request_status": "Pending",
    "responsible_agency": "Department of Sanitation",
    "final_address": "1514 Gallier St",
    "address_councildis": "D",
    "status": "Assigned to Contractor",
    "contractor": "IV Waste",
    "rowid": "1042827",
    "final_x": "3690811.65404",
    "final_y": "537265.12052",
    "longitude": "-90.03846257167017",
    "latitude": "29.97100674491652",
    "geocoded_column": {
      "latitude": "29.97100674491652",
      "longitude": "-90.03846257167017"
    }
  },
  {
    "service_request": "2023-1042826",
    "request_type": "Abandoned Vehicles",
    "request_reason": "Abandoned/Junk Vehicles",
    "date_created": "2023-10-12T15:59:15.000",
    "date_modified": "2023-10-12T15:59:15.000",
    "request_status": "Pending",
    "responsible_agency": "Department of Public Works",
    "final_address": "3025 Iberville St",
    "address_councildis": "B",
    "status": "Pending",
    "rowid": "1042826",
    "final_x": "3674476.64884",
    "final_y": "536364.205831",
    "longitude": "-90.09008160027939",
    "latitude": "29.96902699855416",
    "geocoded_column": {
      "latitude": "29.96902699855416",
      "longitude": "-90.09008160027939"
    }
  },
  {
    "service_request": "2023-1042825",
    "request_type": "Trash/Recycling",
    "request_reason": "Illegal Dumping",
    "date_created": "2023-10-12T15:55:41.000",
    "date_modified": "2023-10-12T15:55:41.000",
    "request_status": "Pending",
    "responsible_agency": "Department of Sanitation",
    "final_address": "1000 BLK N Rampart St",
    "address_councildis": "C",
    "status": "Pending",
    "rowid": "1042825",
    "final_x": "3682141.18489",
    "final_y": "534405.198366",
    "longitude": "-90.0659449241249",
    "latitude": "29.96340951056629",
    "geocoded_column": {
      "latitude": "29.96340951056629",
      "longitude": "-90.0659449241249"
    }
  },
  {
    "service_request": "2023-1042824",
    "request_type": "Parks & Parkways",
    "request_reason": "Request Tree Service (Right of Way/Public Property)",
    "date_created": "2023-10-12T15:54:05.000",
    "date_modified": "2023-10-12T15:54:05.000",
    "request_status": "Pending",
    "responsible_agency": "Department of Parks & Parkway",
    "final_address": "60 N Lark St",
    "address_councildis": "D",
    "status": "Pending",
    "rowid": "1042824",
    "final_x": "3675018.40718",
    "final_y": "556713.679898",
    "longitude": "-90.08767205297468",
    "latitude": "30.024964747090234",
    "geocoded_column": {
      "latitude": "30.024964747090234",
      "longitude": "-90.08767205297468"
    }
  },
  {
    "service_request": "2023-1042823",
    "request_type": "Abandoned Vehicles",
    "request_reason": "Abandoned/Junk Vehicles",
    "date_created": "2023-10-12T15:53:37.000",
    "date_modified": "2023-10-12T15:53:37.000",
    "request_status": "Pending",
    "responsible_agency": "Department of Public Works",
    "final_address": "224 S White St",
    "address_councildis": "B",
    "status": "Pending",
    "rowid": "1042823",
    "final_x": "3674519.94702",
    "final_y": "534922.492934",
    "longitude": "-90.0899942659163",
    "latitude": "29.96506148322261",
    "geocoded_column": {
      "latitude": "29.96506148322261",
      "longitude": "-90.0899942659163"
    }
  },
  {
    "service_request": "2023-1042822",
    "request_type": "Trash/Recycling",
    "request_reason": "Order Trash Cart",
    "date_created": "2023-10-12T15:48:36.000",
    "date_modified": "2023-10-12T15:48:36.000",
    "request_status": "Pending",
    "responsible_agency": "Department of Sanitation",
    "final_address": "1223 Andry St",
    "address_councildis": "E",
    "status": "Assigned to Contractor",
    "contractor": "Waste Pro",
    "rowid": "1042822",
    "final_x": "3697360.61872",
    "final_y": "534531.970309",
    "longitude": "-90.01787929406082",
    "latitude": "29.963286438153606",
    "geocoded_column": {
      "latitude": "29.963286438153606",
      "longitude": "-90.01787929406082"
    }
  },
  {
    "service_request": "2023-1042821",
    "request_type": "Trash/Recycling",
    "request_reason": "Request a Large Item Pick Up",
    "date_created": "2023-10-12T15:41:38.000",
    "date_modified": "2023-10-12T15:41:39.000",
    "request_status": "Pending",
    "responsible_agency": "Department of Sanitation",
    "final_address": "4322 DHemecourt St",
    "address_councildis": "A",
    "status": "Assigned to Contractor",
    "contractor": "Richards Disposal",
    "rowid": "1042821",
    "final_x": "3668887.61082",
    "final_y": "537473.951112",
    "longitude": "-90.10769473015509",
    "latitude": "29.97224398735593",
    "geocoded_column": {
      "latitude": "29.97224398735593",
      "longitude": "-90.10769473015509"
    }
  },
  {
    "service_request": "2023-1042820",
    "request_type": "Trash/Recycling",
    "request_reason": "Replace Recycling Cart",
    "date_created": "2023-10-12T15:37:04.000",
    "date_modified": "2023-10-12T15:37:05.000",
    "request_status": "Pending",
    "responsible_agency": "Department of Sanitation",
    "final_address": "5286 Warrington Dr",
    "address_councildis": "D",
    "status": "Pending",
    "rowid": "1042820",
    "final_x": "3680892.5924",
    "final_y": "551879.259606",
    "longitude": "-90.06927909928092",
    "latitude": "30.0114949544891",
    "geocoded_column": {
      "latitude": "30.0114949544891",
      "longitude": "-90.06927909928092"
    }
  },
  {
    "service_request": "2023-1042819",
    "request_type": "Trash/Recycling",
    "request_reason": "Request a Large Item Pick Up",
    "date_created": "2023-10-12T15:36:59.000",
    "date_modified": "2023-10-12T15:37:00.000",
    "request_status": "Pending",
    "responsible_agency": "Department of Sanitation",
    "final_address": "805 Exposition Blvd",
    "address_councildis": "A",
    "status": "Assigned to Contractor",
    "contractor": "Richards Disposal",
    "rowid": "1042819",
    "final_x": "3663234.1209",
    "final_y": "519908.529208",
    "longitude": "-90.12613395065918",
    "latitude": "29.92410979052288",
    "geocoded_column": {
      "latitude": "29.92410979052288",
      "longitude": "-90.12613395065918"
    }
  },
  {
    "service_request": "2023-1042818",
    "request_type": "Trash/Recycling",
    "request_reason": "Missed Trash Pick-Up",
    "date_created": "2023-10-12T15:35:08.000",
    "date_modified": "2023-10-12T15:35:08.000",
    "request_status": "Pending",
    "responsible_agency": "Department of Sanitation",
    "final_address": "2738 Calhoun St",
    "address_councildis": "A",
    "status": "Assigned to Contractor",
    "contractor": "Richards Disposal",
    "rowid": "1042818",
    "final_x": "3666521.49684",
    "final_y": "526914.290366",
    "longitude": "-90.11552178801261",
    "latitude": "29.943277759466053",
    "geocoded_column": {
      "latitude": "29.943277759466053",
      "longitude": "-90.11552178801261"
    }
  },
  {
    "service_request": "2023-1042817",
    "request_type": "Trash/Recycling",
    "request_reason": "Repair Trash Cart",
    "date_created": "2023-10-12T15:34:05.000",
    "date_modified": "2023-10-12T15:34:06.000",
    "request_status": "Pending",
    "responsible_agency": "Department of Sanitation",
    "final_address": "1208 Eighth St",
    "address_councildis": "B",
    "status": "Assigned to Contractor",
    "contractor": "Richards Disposal",
    "rowid": "1042817",
    "final_x": "3675823.98542",
    "final_y": "520558.899448",
    "longitude": "-90.08636980804022",
    "latitude": "29.925527376924194",
    "geocoded_column": {
      "latitude": "29.925527376924194",
      "longitude": "-90.08636980804022"
    }
  },
  {
    "service_request": "2023-1042816",
    "request_type": "Trash/Recycling",
    "request_reason": "Request a Large Item Pick Up",
    "date_created": "2023-10-12T15:33:39.000",
    "date_modified": "2023-10-12T15:33:40.000",
    "request_status": "Pending",
    "responsible_agency": "Department of Sanitation",
    "final_address": "6931 Whitmore Pl",
    "address_councildis": "E",
    "status": "Assigned to Contractor",
    "contractor": "Waste Pro",
    "rowid": "1042816",
    "final_x": "3719436.18495",
    "final_y": "568812.527909",
    "longitude": "-89.94685818287266",
    "latitude": "30.0568291241553",
    "geocoded_column": {
      "latitude": "30.0568291241553",
      "longitude": "-89.94685818287266"
    }
  },
  {
    "service_request": "2023-1042815",
    "request_type": "Property Maintenance",
    "request_reason": "Property Maintenance",
    "date_created": "2023-10-12T15:30:56.000",
    "date_modified": "2023-10-12T15:30:57.000",
    "request_status": "Pending",
    "responsible_agency": "Department of Code Enforcement",
    "final_address": "1019 N Broad St",
    "address_councildis": "A",
    "status": "Pending",
    "rowid": "1042815",
    "final_x": "3677430.90414",
    "final_y": "538050.204745",
    "longitude": "-90.08069364812353",
    "latitude": "29.973574450825208",
    "geocoded_column": {
      "latitude": "29.973574450825208",
      "longitude": "-90.08069364812353"
    }
  },
  {
    "service_request": "2023-1042814",
    "request_type": "Property Maintenance",
    "request_reason": "Property Maintenance",
    "date_created": "2023-10-12T15:28:06.000",
    "date_modified": "2023-10-12T15:28:06.000",
    "request_status": "Pending",
    "responsible_agency": "Department of Code Enforcement",
    "final_address": "3024 St Claude Ave",
    "address_councildis": "C",
    "status": "Pending",
    "rowid": "1042814",
    "final_x": "3688638.71945",
    "final_y": "536061.467719",
    "longitude": "-90.04536769130732",
    "latitude": "29.967764461859574",
    "geocoded_column": {
      "latitude": "29.967764461859574",
      "longitude": "-90.04536769130732"
    }
  },
  {
    "service_request": "2023-1042813",
    "request_type": "Trash/Recycling",
    "request_reason": "MIssed Recycling Pick-Up",
    "date_created": "2023-10-12T15:21:09.000",
    "date_modified": "2023-10-12T15:21:10.000",
    "request_status": "Pending",
    "responsible_agency": "Department of Sanitation",
    "final_address": "3216 Prytania St Apt A",
    "address_councildis": "B",
    "status": "Assigned to Contractor",
    "contractor": "Richards Disposal",
    "rowid": "1042813",
    "final_x": "3674988.88411",
    "final_y": "521246.490361",
    "longitude": "-90.08898239779184",
    "latitude": "29.927442992554052",
    "geocoded_column": {
      "latitude": "29.927442992554052",
      "longitude": "-90.08898239779184"
    }
  },
  {
    "service_request": "2023-1042812",
    "request_type": "Traffic Signals/Signs/Striping/Streetlights",
    "request_reason": "Street Name Sign Damaged or Missing",
    "date_created": "2023-10-12T15:20:23.000",
    "date_modified": "2023-10-12T15:20:24.000",
    "request_status": "Pending",
    "responsible_agency": "Department of Public Works",
    "final_address": "N ROBERTSON ST & GALLIER ST",
    "address_councildis": "D",
    "status": "Pending",
    "rowid": "1042812",
    "final_x": "3690832.8",
    "final_y": "537131.18",
    "longitude": "-90.03840057060617",
    "latitude": "29.970637798680798",
    "geocoded_column": {
      "latitude": "29.970637798680798",
      "longitude": "-90.03840057060617"
    }
  },
  {
    "service_request": "2023-1042811",
    "request_type": "Trash/Recycling",
    "request_reason": "Replace Trash Cart",
    "date_created": "2023-10-12T15:19:08.000",
    "date_modified": "2023-10-12T17:53:24.000",
    "case_close_date": "2023-10-12T12:53:24.000",
    "request_status": "Closed",
    "responsible_agency": "Department of Sanitation",
    "final_address": "1439 Charbonnet St",
    "address_councildis": "E",
    "status": "Duplicate Request",
    "contractor": "Waste Pro",
    "contractor_action": "duplicate",
    "rowid": "1042811",
    "final_x": "3699040.55133",
    "final_y": "535012.20679",
    "longitude": "-90.01255680972996",
    "latitude": "29.9645537799578",
    "geocoded_column": {
      "latitude": "29.9645537799578",
      "longitude": "-90.01255680972996"
    }
  },
  {
    "service_request": "2023-1042810",
    "request_type": "Graffiti Removal",
    "request_reason": "Graffiti Removal",
    "date_created": "2023-10-12T15:18:56.000",
    "date_modified": "2023-10-12T15:18:56.000",
    "request_status": "Pending",
    "responsible_agency": "Department of Code Enforcement",
    "final_address": "1000 N Rampart St",
    "address_councildis": "C",
    "status": "Pending",
    "rowid": "1042810",
    "final_x": "3682127.03426",
    "final_y": "534247.985029",
    "longitude": "-90.06599510126377",
    "latitude": "29.962977658108578",
    "geocoded_column": {
      "latitude": "29.962977658108578",
      "longitude": "-90.06599510126377"
    }
  },
  {
    "service_request": "2023-1042809",
    "request_type": "Trash/Recycling",
    "request_reason": "Replace Trash Cart",
    "date_created": "2023-10-12T15:18:20.000",
    "date_modified": "2023-10-12T15:18:21.000",
    "request_status": "Pending",
    "responsible_agency": "Department of Sanitation",
    "final_address": "1439 Charbonnet St",
    "address_councildis": "E",
    "status": "Assigned to Contractor",
    "contractor": "Waste Pro",
    "rowid": "1042809",
    "final_x": "3699040.55133",
    "final_y": "535012.20679",
    "longitude": "-90.01255680972996",
    "latitude": "29.9645537799578",
    "geocoded_column": {
      "latitude": "29.9645537799578",
      "longitude": "-90.01255680972996"
    }
  },
  {
    "service_request": "2023-1042808",
    "request_type": "Trash/Recycling",
    "request_reason": "Missed Trash Pick-Up",
    "date_created": "2023-10-12T15:16:59.000",
    "date_modified": "2023-10-12T15:17:00.000",
    "request_status": "Pending",
    "responsible_agency": "Department of Sanitation",
    "final_address": "10100 BLK Hammond St",
    "address_councildis": "E",
    "status": "Assigned to Contractor",
    "contractor": "Waste Pro",
    "rowid": "1042808",
    "final_x": "3713106.66332",
    "final_y": "556423.444027",
    "longitude": "-89.96733147537128",
    "latitude": "30.022973191333243",
    "geocoded_column": {
      "latitude": "30.022973191333243",
      "longitude": "-89.96733147537128"
    }
  },
  {
    "service_request": "2023-1042807",
    "request_type": "Trash/Recycling",
    "request_reason": "Replace Trash Cart",
    "date_created": "2023-10-12T15:14:40.000",
    "date_modified": "2023-10-12T15:14:41.000",
    "request_status": "Pending",
    "responsible_agency": "Department of Sanitation",
    "final_address": "3317 Baudin St",
    "address_councildis": "B",
    "status": "Assigned to Contractor",
    "contractor": "Richards Disposal",
    "rowid": "1042807",
    "final_x": "3672512.07278",
    "final_y": "535287.609734",
    "longitude": "-90.09632258265061",
    "latitude": "29.966125186621657",
    "geocoded_column": {
      "latitude": "29.966125186621657",
      "longitude": "-90.09632258265061"
    }
  },
  {
    "service_request": "2023-1042806",
    "request_type": "Trash/Recycling",
    "request_reason": "Replace Trash Cart",
    "date_created": "2023-10-12T15:08:09.000",
    "date_modified": "2023-10-12T15:08:09.000",
    "request_status": "Pending",
    "responsible_agency": "Department of Sanitation",
    "final_address": "4935 Sandalwood St",
    "address_councildis": "E",
    "status": "Assigned to Contractor",
    "contractor": "Waste Pro",
    "rowid": "1042806",
    "final_x": "3712187.38507",
    "final_y": "557327.370459",
    "longitude": "-89.97020218058597",
    "latitude": "30.02548873409783",
    "geocoded_column": {
      "latitude": "30.02548873409783",
      "longitude": "-89.97020218058597"
    }
  },
  {
    "service_request": "2023-1042805",
    "request_type": "Roads/Drainage",
    "request_reason": "Accessibility Ramps, Curbs and Sidewalk Repair",
    "date_created": "2023-10-12T15:06:16.000",
    "date_modified": "2023-10-12T15:06:16.000",
    "request_status": "Pending",
    "responsible_agency": "Department of Public Works",
    "final_address": "901 Toulouse St",
    "address_councildis": "C",
    "status": "Pending",
    "rowid": "1042805",
    "final_x": "3681736.00284",
    "final_y": "532627.178692",
    "longitude": "-90.06728648181434",
    "latitude": "29.958532880194035",
    "geocoded_column": {
      "latitude": "29.958532880194035",
      "longitude": "-90.06728648181434"
    }
  },
  {
    "service_request": "2023-1042804",
    "request_type": "Roads/Drainage",
    "request_reason": "Pothole",
    "date_created": "2023-10-12T15:04:55.000",
    "date_modified": "2023-10-12T15:04:55.000",
    "request_status": "Pending",
    "responsible_agency": "Department of Public Works",
    "final_address": "800 Navarre St",
    "address_councildis": "A",
    "status": "Pending",
    "rowid": "1042804",
    "final_x": "3668709.93882",
    "final_y": "543766.400718",
    "longitude": "-90.10804334464802",
    "latitude": "29.98955131778802",
    "geocoded_column": {
      "latitude": "29.98955131778802",
      "longitude": "-90.10804334464802"
    }
  },
  {
    "service_request": "2023-1042803",
    "request_type": "Roads/Drainage",
    "request_reason": "Catch Basin - Clogged",
    "date_created": "2023-10-12T15:02:26.000",
    "date_modified": "2023-10-12T15:02:26.000",
    "request_status": "Pending",
    "responsible_agency": "Department of Public Works",
    "final_address": "1315 Jackson Ave",
    "address_councildis": "B",
    "status": "Pending",
    "rowid": "1042803",
    "final_x": "3678416.22683",
    "final_y": "522880.170235",
    "longitude": "-90.0781066280203",
    "latitude": "29.93183229045679",
    "geocoded_column": {
      "latitude": "29.93183229045679",
      "longitude": "-90.0781066280203"
    }
  },
  {
    "service_request": "2023-1042802",
    "request_type": "Traffic Signals/Signs/Striping/Streetlights",
    "request_reason": "Additional signage",
    "date_created": "2023-10-12T15:02:08.000",
    "date_modified": "2023-10-12T15:02:08.000",
    "request_status": "Pending",
    "responsible_agency": "Department of Public Works",
    "final_address": "141 N Carrollton Ave",
    "address_councildis": "A",
    "status": "Pending",
    "rowid": "1042802",
    "final_x": "3671330.76455",
    "final_y": "538669.852105",
    "longitude": "-90.09993816278549",
    "latitude": "29.975460228077974",
    "geocoded_column": {
      "latitude": "29.975460228077974",
      "longitude": "-90.09993816278549"
    }
  },
  {
    "service_request": "2023-1042801",
    "request_type": "Roads/Drainage",
    "request_reason": "Catch Basin - Clogged",
    "date_created": "2023-10-12T15:01:36.000",
    "date_modified": "2023-10-12T15:01:36.000",
    "request_status": "Pending",
    "responsible_agency": "Department of Public Works",
    "final_address": "1315 Jackson Ave",
    "address_councildis": "B",
    "status": "Pending",
    "rowid": "1042801",
    "final_x": "3678416.22683",
    "final_y": "522880.170235",
    "longitude": "-90.0781066280203",
    "latitude": "29.93183229045679",
    "geocoded_column": {
      "latitude": "29.93183229045679",
      "longitude": "-90.0781066280203"
    }
  },
  {
    "service_request": "2023-1042800",
    "request_type": "Traffic Signals/Signs/Striping/Streetlights",
    "request_reason": "Traffic Sign Missing/Damaged",
    "date_created": "2023-10-12T14:58:44.000",
    "date_modified": "2023-10-12T14:58:45.000",
    "request_status": "Pending",
    "responsible_agency": "Department of Public Works",
    "final_address": "RIVER RD & STANTON RD",
    "address_councildis": "C",
    "status": "Pending",
    "rowid": "1042800",
    "final_x": "3722129.7",
    "final_y": "518480.28",
    "longitude": "-89.94027866146554",
    "latitude": "29.918345092373784",
    "geocoded_column": {
      "latitude": "29.918345092373784",
      "longitude": "-89.94027866146554"
    }
  },
  {
    "service_request": "2023-1042799",
    "request_type": "Trash/Recycling",
    "request_reason": "Order Recycling Cart",
    "date_created": "2023-10-12T14:48:25.000",
    "date_modified": "2023-10-12T14:48:26.000",
    "request_status": "Pending",
    "responsible_agency": "Department of Sanitation",
    "final_address": "3014 Prytania St",
    "address_councildis": "B",
    "status": "Pending",
    "rowid": "1042799",
    "final_x": "3675452.97896",
    "final_y": "521517.906745",
    "longitude": "-90.08750804796831",
    "latitude": "29.928175433378367",
    "geocoded_column": {
      "latitude": "29.928175433378367",
      "longitude": "-90.08750804796831"
    }
  },
  {
    "service_request": "2023-1042798",
    "request_type": "Trash/Recycling",
    "request_reason": "Repair Trash Cart",
    "date_created": "2023-10-12T14:47:02.000",
    "date_modified": "2023-10-12T14:47:02.000",
    "request_status": "Pending",
    "responsible_agency": "Department of Sanitation",
    "final_address": "10 St Claude Ct",
    "address_councildis": "E",
    "status": "Assigned to Contractor",
    "contractor": "Waste Pro",
    "rowid": "1042798",
    "final_x": "3697462.22749",
    "final_y": "533752.286341",
    "longitude": "-90.01758669929993",
    "latitude": "29.961139376414035",
    "geocoded_column": {
      "latitude": "29.961139376414035",
      "longitude": "-90.01758669929993"
    }
  },
  {
    "service_request": "2023-1042797",
    "request_type": "Abandoned Vehicles",
    "request_reason": "Abandoned/Junk Vehicles",
    "date_created": "2023-10-12T14:46:54.000",
    "date_modified": "2023-10-12T14:49:04.000",
    "request_status": "Pending",
    "responsible_agency": "Department of Public Works",
    "final_address": "6123 Clara St",
    "address_councildis": "A",
    "status": "Pending",
    "rowid": "1042797",
    "final_x": "3666523.83098",
    "final_y": "525597.248125",
    "longitude": "-90.11555861141107",
    "latitude": "29.939656248512065",
    "geocoded_column": {
      "latitude": "29.939656248512065",
      "longitude": "-90.11555861141107"
    }
  },
  {
    "service_request": "2023-1042796",
    "request_type": "Trash/Recycling",
    "request_reason": "Illegal Dumping",
    "date_created": "2023-10-12T14:46:39.000",
    "date_modified": "2023-10-12T14:46:39.000",
    "request_status": "Pending",
    "responsible_agency": "Department of Sanitation",
    "final_address": "7000 Bisson St",
    "address_councildis": "C",
    "status": "Pending",
    "rowid": "1042796",
    "final_x": "3714802.02603",
    "final_y": "517232.170805",
    "longitude": "-89.96345504581436",
    "latitude": "29.91515615729703",
    "geocoded_column": {
      "latitude": "29.91515615729703",
      "longitude": "-89.96345504581436"
    }
  },
  {
    "service_request": "2023-1042795",
    "request_type": "Roads/Drainage",
    "request_reason": "Catch Basin - Clogged",
    "date_created": "2023-10-12T14:43:02.000",
    "date_modified": "2023-10-12T14:43:02.000",
    "request_status": "Pending",
    "responsible_agency": "Department of Public Works",
    "final_address": "1315 Jackson Ave",
    "address_councildis": "B",
    "status": "Pending",
    "rowid": "1042795",
    "final_x": "3678416.22683",
    "final_y": "522880.170235",
    "longitude": "-90.0781066280203",
    "latitude": "29.93183229045679",
    "geocoded_column": {
      "latitude": "29.93183229045679",
      "longitude": "-90.0781066280203"
    }
  },
  {
    "service_request": "2023-1042794",
    "request_type": "Trash/Recycling",
    "request_reason": "Request a Large Item Pick Up",
    "date_created": "2023-10-12T14:42:43.000",
    "date_modified": "2023-10-12T14:42:44.000",
    "request_status": "Pending",
    "responsible_agency": "Department of Sanitation",
    "final_address": "2425 Freret St",
    "address_councildis": "B",
    "status": "Assigned to Contractor",
    "contractor": "Richards Disposal",
    "rowid": "1042794",
    "final_x": "3674936.25877",
    "final_y": "525871.541821",
    "longitude": "-90.08898997058132",
    "latitude": "29.94016194981684",
    "geocoded_column": {
      "latitude": "29.94016194981684",
      "longitude": "-90.08898997058132"
    }
  },
  {
    "service_request": "2023-1042793",
    "request_type": "Traffic Signals/Signs/Striping/Streetlights",
    "request_reason": "Street Name Sign Damaged or Missing",
    "date_created": "2023-10-12T14:41:38.000",
    "date_modified": "2023-10-12T14:41:39.000",
    "request_status": "Pending",
    "responsible_agency": "Department of Public Works",
    "final_address": "FRANCE RD & HAYNE BLVD",
    "address_councildis": "D",
    "status": "Pending",
    "rowid": "1042793",
    "final_x": "3690868.34",
    "final_y": "558794.79",
    "longitude": "-90.03751462024054",
    "latitude": "30.03020370998618",
    "geocoded_column": {
      "latitude": "30.03020370998618",
      "longitude": "-90.03751462024054"
    }
  },
  {
    "service_request": "2023-1042792",
    "request_type": "Roads/Drainage",
    "request_reason": "Catch Basin - Clogged",
    "date_created": "2023-10-12T14:41:31.000",
    "date_modified": "2023-10-12T14:41:31.000",
    "request_status": "Pending",
    "responsible_agency": "Department of Public Works",
    "final_address": "1315 Jackson Ave",
    "address_councildis": "B",
    "status": "Pending",
    "rowid": "1042792",
    "final_x": "3678416.22683",
    "final_y": "522880.170235",
    "longitude": "-90.0781066280203",
    "latitude": "29.93183229045679",
    "geocoded_column": {
      "latitude": "29.93183229045679",
      "longitude": "-90.0781066280203"
    }
  },
  {
    "service_request": "2023-1042791",
    "request_type": "Traffic Signals/Signs/Striping/Streetlights",
    "request_reason": "Additional signage",
    "date_created": "2023-10-12T14:39:47.000",
    "date_modified": "2023-10-12T14:39:47.000",
    "request_status": "Pending",
    "responsible_agency": "Department of Public Works",
    "final_address": "3RD ST & DANNEEL ST",
    "address_councildis": "B",
    "status": "Pending",
    "rowid": "1042791",
    "final_x": "3675646.8",
    "final_y": "524078.88",
    "longitude": "-90.08680824980817",
    "latitude": "29.93521148073475",
    "geocoded_column": {
      "latitude": "29.93521148073475",
      "longitude": "-90.08680824980817"
    }
  },
  {
    "service_request": "2023-1042790",
    "request_type": "Abandoned Vehicles",
    "request_reason": "Abandoned/Junk Vehicles",
    "date_created": "2023-10-12T14:38:18.000",
    "date_modified": "2023-10-12T14:38:18.000",
    "request_status": "Pending",
    "responsible_agency": "Department of Public Works",
    "final_address": "800 Brooks St",
    "address_councildis": "A",
    "status": "Pending",
    "rowid": "1042790",
    "final_x": "3669152.71726",
    "final_y": "546536.967889",
    "longitude": "-90.10655103181718",
    "latitude": "29.997156397929164",
    "geocoded_column": {
      "latitude": "29.997156397929164",
      "longitude": "-90.10655103181718"
    }
  },
  {
    "service_request": "2023-1042789",
    "request_type": "Trash/Recycling",
    "request_reason": "Repair Trash Cart",
    "date_created": "2023-10-12T14:35:38.000",
    "date_modified": "2023-10-12T14:35:39.000",
    "request_status": "Pending",
    "responsible_agency": "Department of Sanitation",
    "final_address": "1717 Kerlerec St",
    "address_councildis": "D",
    "status": "Assigned to Contractor",
    "contractor": "IV Waste",
    "rowid": "1042789",
    "final_x": "3681115.45205",
    "final_y": "537242.631432",
    "longitude": "-90.06908521171943",
    "latitude": "29.971242633354112",
    "geocoded_column": {
      "latitude": "29.971242633354112",
      "longitude": "-90.06908521171943"
    }
  },
  {
    "service_request": "2023-1042788",
    "request_type": "Parks & Parkways",
    "request_reason": "Request Tree Service (Right of Way/Public Property)",
    "date_created": "2023-10-12T14:32:59.000",
    "date_modified": "2023-10-12T14:32:59.000",
    "request_status": "Pending",
    "responsible_agency": "Department of Parks & Parkway",
    "final_address": "W KENILWORTH ST & FLEUR DE LIS DR",
    "address_councildis": "A",
    "status": "Pending",
    "rowid": "1042788",
    "final_x": "3665052.5",
    "final_y": "546327.38",
    "longitude": "-90.11951051676101",
    "latitude": "29.996700171386145",
    "geocoded_column": {
      "latitude": "29.996700171386145",
      "longitude": "-90.11951051676101"
    }
  },
  {
    "service_request": "2023-1042787",
    "request_type": "Trash/Recycling",
    "request_reason": "Return Trash Cart",
    "date_created": "2023-10-12T14:29:31.000",
    "date_modified": "2023-10-12T14:29:32.000",
    "request_status": "Pending",
    "responsible_agency": "Department of Sanitation",
    "final_address": "6006 Wilton Dr",
    "address_councildis": "D",
    "status": "Assigned to Contractor",
    "contractor": "IV Waste",
    "rowid": "1042787",
    "final_x": "3681666.41263",
    "final_y": "554723.343128",
    "longitude": "-90.06673495750324",
    "latitude": "30.01929165473597",
    "geocoded_column": {
      "latitude": "30.01929165473597",
      "longitude": "-90.06673495750324"
    }
  },
  {
    "service_request": "2023-1042786",
    "request_type": "Property Maintenance",
    "request_reason": "Property Maintenance",
    "date_created": "2023-10-12T14:29:10.000",
    "date_modified": "2023-10-12T14:29:10.000",
    "request_status": "Pending",
    "responsible_agency": "Department of Code Enforcement",
    "final_address": "0 BLK Audubon Blvd",
    "address_councildis": "A",
    "status": "Pending",
    "rowid": "1042786",
    "final_x": "3665721.60225",
    "final_y": "527591.816651",
    "longitude": "-90.11802457989006",
    "latitude": "29.945164090388623",
    "geocoded_column": {
      "latitude": "29.945164090388623",
      "longitude": "-90.11802457989006"
    }
  },
  {
    "service_request": "2023-1042785",
    "request_type": "Property Maintenance",
    "request_reason": "Property Maintenance",
    "date_created": "2023-10-12T14:27:41.000",
    "date_modified": "2023-10-12T14:27:41.000",
    "request_status": "Pending",
    "responsible_agency": "Department of Code Enforcement",
    "final_address": "1125 Tennessee St",
    "address_councildis": "E",
    "status": "Pending",
    "rowid": "1042785",
    "final_x": "3695816.29373",
    "final_y": "534584.537541",
    "longitude": "-90.02275417329021",
    "latitude": "29.96347963835423",
    "geocoded_column": {
      "latitude": "29.96347963835423",
      "longitude": "-90.02275417329021"
    }
  },
  {
    "service_request": "2023-1042784",
    "request_type": "Trash/Recycling",
    "request_reason": "Order Recycling Cart",
    "date_created": "2023-10-12T14:27:33.000",
    "date_modified": "2023-10-12T14:27:34.000",
    "request_status": "Pending",
    "responsible_agency": "Department of Sanitation",
    "final_address": "2 Pinehurst Dr",
    "address_councildis": "C",
    "status": "Pending",
    "rowid": "1042784",
    "final_x": "3715251.0613",
    "final_y": "515754.939636",
    "longitude": "-89.96209354175353",
    "latitude": "29.911079524320968",
    "geocoded_column": {
      "latitude": "29.911079524320968",
      "longitude": "-89.96209354175353"
    }
  },
  {
    "service_request": "2023-1042783",
    "request_type": "Trash/Recycling",
    "request_reason": "Request a Large Item Pick Up",
    "date_created": "2023-10-12T14:22:06.000",
    "date_modified": "2023-10-12T14:24:34.000",
    "request_status": "Pending",
    "responsible_agency": "Department of Sanitation",
    "final_address": "12990 N Lake Carmel Dr",
    "address_councildis": "E",
    "contractor": "Waste Pro",
    "rowid": "1042783",
    "final_x": "3716566.7148",
    "final_y": "568639.318821",
    "longitude": "-89.9559346198289",
    "latitude": "30.056448027004883",
    "geocoded_column": {
      "latitude": "30.056448027004883",
      "longitude": "-89.9559346198289"
    }
  },
  {
    "service_request": "2023-1042782",
    "request_type": "Trash/Recycling",
    "request_reason": "Return Recycling Cart",
    "date_created": "2023-10-12T14:15:45.000",
    "date_modified": "2023-10-12T14:15:45.000",
    "request_status": "Pending",
    "responsible_agency": "Department of Sanitation",
    "final_address": "1418 Dearmas St",
    "address_councildis": "C",
    "status": "Pending",
    "rowid": "1042782",
    "final_x": "3689873.46396",
    "final_y": "527133.411391",
    "longitude": "-90.04178614945064",
    "latitude": "29.943177177392194",
    "geocoded_column": {
      "latitude": "29.943177177392194",
      "longitude": "-90.04178614945064"
    }
  },
  {
    "service_request": "2023-1042781",
    "request_type": "Trash/Recycling",
    "request_reason": "Request a Large Item Pick Up",
    "date_created": "2023-10-12T14:12:44.000",
    "date_modified": "2023-10-12T14:12:45.000",
    "request_status": "Pending",
    "responsible_agency": "Department of Sanitation",
    "final_address": "8716 Plum St",
    "address_councildis": "A",
    "status": "Assigned to Contractor",
    "contractor": "Richards Disposal",
    "rowid": "1042781",
    "final_x": "3660482.24378",
    "final_y": "530141.408705",
    "longitude": "-90.134482743217",
    "latitude": "29.952326413505688",
    "geocoded_column": {
      "latitude": "29.952326413505688",
      "longitude": "-90.134482743217"
    }
  },
  {
    "service_request": "2023-1042780",
    "request_type": "Trash/Recycling",
    "request_reason": "Missed Trash Pick-Up",
    "date_created": "2023-10-12T14:11:35.000",
    "date_modified": "2023-10-12T15:19:22.000",
    "case_close_date": "2023-10-12T10:19:22.000",
    "request_status": "Closed",
    "responsible_agency": "Department of Sanitation",
    "final_address": "5387 Stillwater Dr",
    "address_councildis": "E",
    "status": "Invalid Request",
    "contractor": "Waste Pro",
    "contractor_action": "Invalid Pick-Up",
    "rowid": "1042780",
    "final_x": "3717080.96332",
    "final_y": "560259.386013",
    "longitude": "-89.9546278879654",
    "latitude": "30.03338962250313",
    "geocoded_column": {
      "latitude": "30.03338962250313",
      "longitude": "-89.9546278879654"
    }
  },
  {
    "service_request": "2023-1042779",
    "request_type": "Trash/Recycling",
    "request_reason": "MIssed Recycling Pick-Up",
    "date_created": "2023-10-12T14:04:31.000",
    "date_modified": "2023-10-12T14:04:32.000",
    "request_status": "Pending",
    "responsible_agency": "Department of Sanitation",
    "final_address": "7920 Forshey St",
    "address_councildis": "B",
    "status": "Assigned to Contractor",
    "contractor": "Richards Disposal",
    "rowid": "1042779",
    "final_x": "3667434.12033",
    "final_y": "533486.52986",
    "longitude": "-90.11241929667231",
    "latitude": "29.96132257164784",
    "geocoded_column": {
      "latitude": "29.96132257164784",
      "longitude": "-90.11241929667231"
    }
  },
  {
    "service_request": "2023-1042778",
    "request_type": "Trash/Recycling",
    "request_reason": "Request a Large Item Pick Up",
    "date_created": "2023-10-12T14:04:08.000",
    "date_modified": "2023-10-12T14:04:09.000",
    "request_status": "Pending",
    "responsible_agency": "Department of Sanitation",
    "final_address": "1751 N Rocheblave St",
    "address_councildis": "D",
    "status": "Assigned to Contractor",
    "contractor": "IV Waste",
    "rowid": "1042778",
    "final_x": "3680643.22491",
    "final_y": "540487.875147",
    "longitude": "-90.0704636127322",
    "latitude": "29.980180247739323",
    "geocoded_column": {
      "latitude": "29.980180247739323",
      "longitude": "-90.0704636127322"
    }
  },
  {
    "service_request": "2023-1042777",
    "request_type": "Property Maintenance",
    "request_reason": "Property Maintenance",
    "date_created": "2023-10-12T14:02:57.000",
    "date_modified": "2023-10-12T14:02:57.000",
    "request_status": "Pending",
    "responsible_agency": "Department of Code Enforcement",
    "final_address": "2033 Charbonnet St",
    "address_councildis": "E",
    "status": "Pending",
    "rowid": "1042777",
    "final_x": "3699654.50615",
    "final_y": "537115.446856",
    "longitude": "-90.01054132220261",
    "latitude": "29.970317461302116",
    "geocoded_column": {
      "latitude": "29.970317461302116",
      "longitude": "-90.01054132220261"
    }
  },
  {
    "service_request": "2023-1042776",
    "request_type": "Property Maintenance",
    "request_reason": "Property Maintenance",
    "date_created": "2023-10-12T14:02:40.000",
    "date_modified": "2023-10-12T14:02:41.000",
    "request_status": "Pending",
    "responsible_agency": "Department of Code Enforcement",
    "final_address": "2017 Charbonnet St",
    "address_councildis": "E",
    "status": "Pending",
    "rowid": "1042776",
    "final_x": "3699638.28944",
    "final_y": "537056.88276",
    "longitude": "-90.01059467106218",
    "latitude": "29.97015694589517",
    "geocoded_column": {
      "latitude": "29.97015694589517",
      "longitude": "-90.01059467106218"
    }
  },
  {
    "service_request": "2023-1042775",
    "request_type": "Property Maintenance",
    "request_reason": "Property Maintenance",
    "date_created": "2023-10-12T14:01:54.000",
    "date_modified": "2023-10-12T15:10:30.000",
    "request_status": "Pending",
    "responsible_agency": "Department of Code Enforcement",
    "final_address": "7801 Bass St",
    "address_councildis": "E",
    "rowid": "1042775",
    "final_x": "3720082.01599",
    "final_y": "573745.982698",
    "longitude": "-89.9446278446755",
    "latitude": "30.070372553100313",
    "geocoded_column": {
      "latitude": "30.070372553100313",
      "longitude": "-89.9446278446755"
    }
  },
  {
    "service_request": "2023-1042774",
    "request_type": "Parks & Parkways",
    "request_reason": "Request Tree Service (Right of Way/Public Property)",
    "date_created": "2023-10-12T13:59:41.000",
    "date_modified": "2023-10-12T13:59:41.000",
    "request_status": "Pending",
    "responsible_agency": "Department of Parks & Parkway",
    "final_address": "100 English Turn Dr",
    "address_councildis": "C",
    "status": "Pending",
    "rowid": "1042774",
    "final_x": "3721854.94444",
    "final_y": "511656.90488",
    "longitude": "-89.94140753755177",
    "latitude": "29.89959243285704",
    "geocoded_column": {
      "latitude": "29.89959243285704",
      "longitude": "-89.94140753755177"
    }
  },
  {
    "service_request": "2023-1042773",
    "request_type": "Trash/Recycling",
    "request_reason": "Request a Large Item Pick Up",
    "date_created": "2023-10-12T13:57:45.000",
    "date_modified": "2023-10-12T13:57:46.000",
    "request_status": "Pending",
    "responsible_agency": "Department of Sanitation",
    "final_address": "216 Maumus Ave",
    "address_councildis": "C",
    "status": "Assigned to Contractor",
    "contractor": "Richards Disposal",
    "rowid": "1042773",
    "final_x": "3706585.17431",
    "final_y": "516832.821749",
    "longitude": "-89.9894049831792",
    "latitude": "29.91432564039068",
    "geocoded_column": {
      "latitude": "29.91432564039068",
      "longitude": "-89.9894049831792"
    }
  },
  {
    "service_request": "2023-1042772",
    "request_type": "Trash/Recycling",
    "request_reason": "Request a Large Item Pick Up",
    "date_created": "2023-10-12T13:56:36.000",
    "date_modified": "2023-10-12T13:56:37.000",
    "request_status": "Pending",
    "responsible_agency": "Department of Sanitation",
    "final_address": "3210 Second St",
    "address_councildis": "B",
    "status": "Assigned to Contractor",
    "contractor": "Richards Disposal",
    "rowid": "1042772",
    "final_x": "3673447.73",
    "final_y": "527903.957375",
    "longitude": "-90.09362007105325",
    "latitude": "29.945794790821747",
    "geocoded_column": {
      "latitude": "29.945794790821747",
      "longitude": "-90.09362007105325"
    }
  },
  {
    "service_request": "2023-1042771",
    "request_type": "Trash/Recycling",
    "request_reason": "Illegal Dumping",
    "date_created": "2023-10-12T13:56:27.000",
    "date_modified": "2023-10-12T13:56:28.000",
    "request_status": "Pending",
    "responsible_agency": "Department of Sanitation",
    "final_address": "3032 Fern St",
    "address_councildis": "B",
    "status": "Pending",
    "rowid": "1042771",
    "final_x": "3667008.30017",
    "final_y": "532875.532868",
    "longitude": "-90.11378450217582",
    "latitude": "29.95965499988123",
    "geocoded_column": {
      "latitude": "29.95965499988123",
      "longitude": "-90.11378450217582"
    }
  },
  {
    "service_request": "2023-1042770",
    "request_type": "Property Maintenance",
    "request_reason": "Property Maintenance",
    "date_created": "2023-10-12T13:53:30.000",
    "date_modified": "2023-10-12T13:53:30.000",
    "request_status": "Pending",
    "responsible_agency": "Department of Code Enforcement",
    "final_address": " & FOREST ISLE DR",
    "address_councildis": "C",
    "status": "Pending",
    "rowid": "1042770",
    "final_x": "3705932.1",
    "final_y": "512829.92",
    "longitude": "-89.99161423218112",
    "latitude": "29.90334007988865",
    "geocoded_column": {
      "latitude": "29.90334007988865",
      "longitude": "-89.99161423218112"
    }
  },
  {
    "service_request": "2023-1042769",
    "request_type": "Trash/Recycling",
    "request_reason": "Replace Trash Cart",
    "date_created": "2023-10-12T13:51:50.000",
    "date_modified": "2023-10-12T13:51:50.000",
    "request_status": "Pending",
    "responsible_agency": "Department of Sanitation",
    "final_address": "2900 Donner Dr",
    "address_councildis": "C",
    "status": "Assigned to Contractor",
    "contractor": "Richards Disposal",
    "rowid": "1042769",
    "final_x": "3692780.05757",
    "final_y": "519251.330679",
    "longitude": "-90.0328917776489",
    "latitude": "29.921413730676637",
    "geocoded_column": {
      "latitude": "29.921413730676637",
      "longitude": "-90.0328917776489"
    }
  },
  {
    "service_request": "2023-1042768",
    "request_type": "Trash/Recycling",
    "request_reason": "Missed Trash Pick-Up",
    "date_created": "2023-10-12T13:49:21.000",
    "date_modified": "2023-10-12T13:49:22.000",
    "request_status": "Pending",
    "responsible_agency": "Department of Sanitation",
    "final_address": "10115 Hammond St",
    "address_councildis": "E",
    "status": "Assigned to Contractor",
    "contractor": "Waste Pro",
    "rowid": "1042768",
    "final_x": "3712920.9564",
    "final_y": "556483.862042",
    "longitude": "-89.96791598656874",
    "latitude": "30.02314540310356",
    "geocoded_column": {
      "latitude": "30.02314540310356",
      "longitude": "-89.96791598656874"
    }
  },
  {
    "service_request": "2023-1042767",
    "request_type": "Property Maintenance",
    "request_reason": "Property Maintenance",
    "date_created": "2023-10-12T13:48:03.000",
    "date_modified": "2023-10-12T13:48:03.000",
    "request_status": "Pending",
    "responsible_agency": "Department of Code Enforcement",
    "final_address": "1115 Tennessee St",
    "address_councildis": "E",
    "status": "Pending",
    "rowid": "1042767",
    "final_x": "3695794.04534",
    "final_y": "534547.032837",
    "longitude": "-90.02282578551339",
    "latitude": "29.96337721339479",
    "geocoded_column": {
      "latitude": "29.96337721339479",
      "longitude": "-90.02282578551339"
    }
  },
  {
    "service_request": "2023-1042766",
    "request_type": "Trash/Recycling",
    "request_reason": "Request a Large Item Pick Up",
    "date_created": "2023-10-12T13:48:01.000",
    "date_modified": "2023-10-12T13:48:01.000",
    "request_status": "Pending",
    "responsible_agency": "Department of Sanitation",
    "final_address": "4754 Babylon St",
    "address_councildis": "D",
    "status": "Assigned to Contractor",
    "contractor": "Waste Pro",
    "rowid": "1042766",
    "final_x": "3696593.47517",
    "final_y": "554305.14332",
    "longitude": "-90.01958592080078",
    "latitude": "30.017679621061568",
    "geocoded_column": {
      "latitude": "30.017679621061568",
      "longitude": "-90.01958592080078"
    }
  },
  {
    "service_request": "2023-1042765",
    "request_type": "Traffic Signals/Signs/Striping/Streetlights",
    "request_reason": "Street Light Outage/Malfunction",
    "date_created": "2023-10-12T13:46:45.000",
    "date_modified": "2023-10-12T13:46:46.000",
    "request_status": "Pending",
    "responsible_agency": "Department of Public Works",
    "final_address": "2925 Danbury Dr",
    "address_councildis": "C",
    "status": "Assigned to Contractor",
    "contractor": "Legacy Professional Services",
    "rowid": "1042765",
    "final_x": "3703701.66878",
    "final_y": "519966.409272",
    "longitude": "-89.99839100184039",
    "latitude": "29.923034604905887",
    "geocoded_column": {
      "latitude": "29.923034604905887",
      "longitude": "-89.99839100184039"
    }
  },
  {
    "service_request": "2023-1042764",
    "request_type": "Roads/Drainage",
    "request_reason": "Catch Basin - Broken/Damage",
    "date_created": "2023-10-12T13:46:16.000",
    "date_modified": "2023-10-12T13:46:16.000",
    "request_status": "Pending",
    "responsible_agency": "Department of Public Works",
    "final_address": "7703 Nelson St",
    "address_councildis": "A",
    "status": "Pending",
    "rowid": "1042764",
    "final_x": "3666203.71885",
    "final_y": "530904.836354",
    "longitude": "-90.1163912876698",
    "latitude": "29.9542597509511",
    "geocoded_column": {
      "latitude": "29.9542597509511",
      "longitude": "-90.1163912876698"
    }
  },
  {
    "service_request": "2023-1042763",
    "request_type": "Trash/Recycling",
    "request_reason": "Missed Trash Pick-Up",
    "date_created": "2023-10-12T13:44:42.000",
    "date_modified": "2023-10-12T15:22:16.000",
    "case_close_date": "2023-10-12T10:22:16.000",
    "request_status": "Closed",
    "responsible_agency": "Department of Sanitation",
    "final_address": "4800 Bright Dr",
    "address_councildis": "E",
    "status": "Invalid Request",
    "contractor": "Waste Pro",
    "contractor_action": "Invalid Pick-Up",
    "rowid": "1042763",
    "final_x": "3715796.07244",
    "final_y": "557069.584218",
    "longitude": "-89.95880915122451",
    "latitude": "30.024661388879",
    "geocoded_column": {
      "latitude": "30.024661388879",
      "longitude": "-89.95880915122451"
    }
  },
  {
    "service_request": "2023-1042762",
    "request_type": "Traffic Signals/Signs/Striping/Streetlights",
    "request_reason": "Street Light Outage/Malfunction",
    "date_created": "2023-10-12T13:44:32.000",
    "date_modified": "2023-10-12T13:44:35.000",
    "request_status": "Pending",
    "responsible_agency": "Department of Public Works",
    "final_address": "5463 Royal St",
    "address_councildis": "E",
    "status": "Assigned to Contractor",
    "contractor": "Legacy Professional Services",
    "rowid": "1042762",
    "final_x": "3697189.43978",
    "final_y": "532422.027779",
    "longitude": "-90.01849631115263",
    "latitude": "29.957490246316308",
    "geocoded_column": {
      "latitude": "29.957490246316308",
      "longitude": "-90.01849631115263"
    }
  },
  {
    "service_request": "2023-1042761",
    "request_type": "Trash/Recycling",
    "request_reason": "Request a Large Item Pick Up",
    "date_created": "2023-10-12T13:42:52.000",
    "date_modified": "2023-10-12T13:42:53.000",
    "request_status": "Pending",
    "responsible_agency": "Department of Sanitation",
    "final_address": "3924 Annunciation St",
    "address_councildis": "B",
    "status": "Assigned to Contractor",
    "contractor": "Richards Disposal",
    "rowid": "1042761",
    "final_x": "3673135.48065",
    "final_y": "517907.166518",
    "longitude": "-90.09494707279981",
    "latitude": "29.91831613479092",
    "geocoded_column": {
      "latitude": "29.91831613479092",
      "longitude": "-90.09494707279981"
    }
  },
  {
    "service_request": "2023-1042760",
    "request_type": "Roads/Drainage",
    "request_reason": "Catch Basin - Broken/Damage",
    "date_created": "2023-10-12T13:39:47.000",
    "date_modified": "2023-10-12T13:39:47.000",
    "request_status": "Pending",
    "responsible_agency": "Department of Public Works",
    "final_address": "7703 Nelson St",
    "address_councildis": "A",
    "status": "Pending",
    "rowid": "1042760",
    "final_x": "3666203.71885",
    "final_y": "530904.836354",
    "longitude": "-90.1163912876698",
    "latitude": "29.9542597509511",
    "geocoded_column": {
      "latitude": "29.9542597509511",
      "longitude": "-90.1163912876698"
    }
  },
  {
    "service_request": "2023-1042759",
    "request_type": "Trash/Recycling",
    "request_reason": "Replace Trash Cart",
    "date_created": "2023-10-12T13:35:55.000",
    "date_modified": "2023-10-12T13:35:56.000",
    "request_status": "Pending",
    "responsible_agency": "Department of Sanitation",
    "status": "Assigned to Contractor",
    "rowid": "1042759",
    "longitude": "0.0",
    "latitude": "0.0",
    "geocoded_column": {
      "latitude": "0.0",
      "longitude": "0.0"
    }
  },
  {
    "service_request": "2023-1042758",
    "request_type": "Trash/Recycling",
    "request_reason": "MIssed Recycling Pick-Up",
    "date_created": "2023-10-12T13:28:51.000",
    "date_modified": "2023-10-12T16:04:53.000",
    "case_close_date": "2023-10-12T11:04:53.000",
    "request_status": "Closed",
    "responsible_agency": "Department of Sanitation",
    "final_address": "3414 Clematis St",
    "address_councildis": "D",
    "status": "Assigned to Contractor",
    "contractor": "IV Waste",
    "contractor_action": "Completed",
    "rowid": "1042758",
    "final_x": "3686639.73922",
    "final_y": "545503.749136",
    "longitude": "-90.05134689275005",
    "latitude": "29.993789030097638",
    "geocoded_column": {
      "latitude": "29.993789030097638",
      "longitude": "-90.05134689275005"
    }
  },
  {
    "service_request": "2023-1042757",
    "request_type": "Property Maintenance",
    "request_reason": "Property Maintenance",
    "date_created": "2023-10-12T13:26:45.000",
    "date_modified": "2023-10-12T13:26:45.000",
    "request_status": "Pending",
    "responsible_agency": "Department of Code Enforcement",
    "final_address": "2624 N Dorgenois St",
    "address_councildis": "D",
    "status": "Pending",
    "rowid": "1042757",
    "final_x": "3686632.0671",
    "final_y": "541591.451468",
    "longitude": "-90.05150937776938",
    "latitude": "29.983031842187007",
    "geocoded_column": {
      "latitude": "29.983031842187007",
      "longitude": "-90.05150937776938"
    }
  },
  {
    "service_request": "2023-1042756",
    "request_type": "Graffiti Removal",
    "request_reason": "Graffiti Removal",
    "date_created": "2023-10-12T13:23:01.000",
    "date_modified": "2023-10-12T13:23:02.000",
    "request_status": "Pending",
    "responsible_agency": "Department of Code Enforcement",
    "final_address": "450 Mandeville St",
    "address_councildis": "C",
    "status": "Pending",
    "rowid": "1042756",
    "final_x": "3685780.39638",
    "final_y": "534056.104645",
    "longitude": "-90.05446502023045",
    "latitude": "29.962338441013145",
    "geocoded_column": {
      "latitude": "29.962338441013145",
      "longitude": "-90.05446502023045"
    }
  },
  {
    "service_request": "2023-1042755",
    "request_type": "Abandoned Vehicles",
    "request_reason": "Abandoned/Junk Vehicles",
    "date_created": "2023-10-12T13:22:19.000",
    "date_modified": "2023-10-12T13:23:59.000",
    "request_status": "Pending",
    "responsible_agency": "Department of Public Works",
    "final_address": "4300 BLK S Derbigny St",
    "address_councildis": "B",
    "status": "Pending",
    "rowid": "1042755",
    "final_x": "3670531.42596",
    "final_y": "526271.337337",
    "longitude": "-90.1028831915297",
    "latitude": "29.94139205315674",
    "geocoded_column": {
      "latitude": "29.94139205315674",
      "longitude": "-90.1028831915297"
    }
  },
  {
    "service_request": "2023-1042754",
    "request_type": "Trash/Recycling",
    "request_reason": "Missed Trash Pick-Up",
    "date_created": "2023-10-12T13:19:49.000",
    "date_modified": "2023-10-12T14:09:42.000",
    "case_close_date": "2023-10-12T09:09:42.000",
    "request_status": "Closed",
    "responsible_agency": "Department of Sanitation",
    "final_address": "2005 N Robertson St",
    "address_councildis": "C",
    "status": "Invalid Request",
    "contractor": "IV Waste",
    "contractor_action": "Invalid Pick-Up",
    "rowid": "1042754",
    "final_x": "3684193.4589",
    "final_y": "537750.363592",
    "longitude": "-90.05934662722953",
    "latitude": "29.972544980771097",
    "geocoded_column": {
      "latitude": "29.972544980771097",
      "longitude": "-90.05934662722953"
    }
  },
  {
    "service_request": "2023-1042753",
    "request_type": "Trash/Recycling",
    "request_reason": "Return Trash Cart",
    "date_created": "2023-10-12T13:17:57.000",
    "date_modified": "2023-10-12T13:17:57.000",
    "request_status": "Pending",
    "responsible_agency": "Department of Sanitation",
    "final_address": "4600 Majestic Oaks Dr",
    "address_councildis": "D",
    "status": "Assigned to Contractor",
    "contractor": "Waste Pro",
    "rowid": "1042753",
    "final_x": "3697715.71984",
    "final_y": "553487.022167",
    "longitude": "-90.01606980367265",
    "latitude": "30.015394669955775",
    "geocoded_column": {
      "latitude": "30.015394669955775",
      "longitude": "-90.01606980367265"
    }
  },
  {
    "service_request": "2023-1042751",
    "request_type": "Trash/Recycling",
    "request_reason": "Request a Large Item Pick Up",
    "date_created": "2023-10-12T13:10:51.000",
    "date_modified": "2023-10-12T13:10:51.000",
    "request_status": "Pending",
    "responsible_agency": "Department of Sanitation",
    "final_address": "826 Homer St",
    "address_councildis": "C",
    "status": "Assigned to Contractor",
    "contractor": "Richards Disposal",
    "rowid": "1042751",
    "final_x": "3688029.81283",
    "final_y": "528380.91424",
    "longitude": "-90.0475628049154",
    "latitude": "29.946664397146662",
    "geocoded_column": {
      "latitude": "29.946664397146662",
      "longitude": "-90.0475628049154"
    }
  },
  {
    "service_request": "2023-1042750",
    "request_type": "Trash/Recycling",
    "request_reason": "Order Recycling Cart",
    "date_created": "2023-10-12T13:08:36.000",
    "date_modified": "2023-10-12T13:08:36.000",
    "request_status": "Pending",
    "responsible_agency": "Department of Sanitation",
    "final_address": "2831 Chickasaw St",
    "address_councildis": "D",
    "status": "Pending",
    "rowid": "1042750",
    "final_x": "3688899.4543",
    "final_y": "547289.724817",
    "longitude": "-90.04414533437415",
    "latitude": "29.99863010706137",
    "geocoded_column": {
      "latitude": "29.99863010706137",
      "longitude": "-90.04414533437415"
    }
  },
  {
    "service_request": "2023-1042749",
    "request_type": "Abandoned Vehicles",
    "request_reason": "Abandoned/Junk Vehicles",
    "date_created": "2023-10-12T13:04:52.000",
    "date_modified": "2023-10-12T13:04:52.000",
    "request_status": "Pending",
    "responsible_agency": "Department of Public Works",
    "final_address": "6622 Fleur-De-Lis Dr",
    "address_councildis": "A",
    "status": "Pending",
    "rowid": "1042749",
    "final_x": "3665297.17248",
    "final_y": "552107.346838",
    "longitude": "-90.11854403389536",
    "latitude": "30.01258595332779",
    "geocoded_column": {
      "latitude": "30.01258595332779",
      "longitude": "-90.11854403389536"
    }
  },
  {
    "service_request": "2023-1042748",
    "request_type": "Trash/Recycling",
    "request_reason": "Request a Large Item Pick Up",
    "date_created": "2023-10-12T13:04:00.000",
    "date_modified": "2023-10-12T13:04:02.000",
    "request_status": "Pending",
    "responsible_agency": "Department of Sanitation",
    "final_address": "2427 Tricou St",
    "address_councildis": "E",
    "status": "Assigned to Contractor",
    "contractor": "Waste Pro",
    "rowid": "1042748",
    "final_x": "3702132.76733",
    "final_y": "537881.597065",
    "longitude": "-90.00268666107597",
    "latitude": "29.97234519667301",
    "geocoded_column": {
      "latitude": "29.97234519667301",
      "longitude": "-90.00268666107597"
    }
  },
  {
    "service_request": "2023-1042747",
    "request_type": "Parks & Parkways",
    "request_reason": "Request Tree Service (Right of Way/Public Property)",
    "date_created": "2023-10-12T12:58:07.000",
    "date_modified": "2023-10-12T12:58:07.000",
    "request_status": "Pending",
    "responsible_agency": "Department of Parks & Parkway",
    "final_address": "4409 Iberville St",
    "address_councildis": "A",
    "status": "Pending",
    "rowid": "1042747",
    "final_x": "3670219.43342",
    "final_y": "539614.462986",
    "longitude": "-90.1034160354519",
    "latitude": "29.97809043455089",
    "geocoded_column": {
      "latitude": "29.97809043455089",
      "longitude": "-90.1034160354519"
    }
  },
  {
    "service_request": "2023-1042746",
    "request_type": "Trash/Recycling",
    "request_reason": "Return Trash Cart",
    "date_created": "2023-10-12T12:56:37.000",
    "date_modified": "2023-10-12T12:56:38.000",
    "request_status": "Pending",
    "responsible_agency": "Department of Sanitation",
    "final_address": "3903 Packard St",
    "address_councildis": "D",
    "status": "Assigned to Contractor",
    "contractor": "IV Waste",
    "rowid": "1042746",
    "final_x": "3688742.96387",
    "final_y": "547538.475602",
    "longitude": "-90.04463084925464",
    "latitude": "29.999318921814737",
    "geocoded_column": {
      "latitude": "29.999318921814737",
      "longitude": "-90.04463084925464"
    }
  },
  {
    "service_request": "2023-1042745",
    "request_type": "Trash/Recycling",
    "request_reason": "Request a Large Item Pick Up",
    "date_created": "2023-10-12T12:52:31.000",
    "date_modified": "2023-10-12T12:52:31.000",
    "request_status": "Pending",
    "responsible_agency": "Department of Sanitation",
    "final_address": "2 Stilt St",
    "address_councildis": "D",
    "status": "Assigned to Contractor",
    "contractor": "IV Waste",
    "rowid": "1042745",
    "final_x": "3672453.96385",
    "final_y": "557367.958043",
    "longitude": "-90.09575296938816",
    "latitude": "30.02684018231564",
    "geocoded_column": {
      "latitude": "30.02684018231564",
      "longitude": "-90.09575296938816"
    }
  },
  {
    "service_request": "2023-1042744",
    "request_type": "Property Maintenance",
    "request_reason": "Property Maintenance",
    "date_created": "2023-10-12T12:51:07.000",
    "date_modified": "2023-10-12T12:51:08.000",
    "request_status": "Pending",
    "responsible_agency": "Department of Code Enforcement",
    "final_address": "9020 Oleander St",
    "address_councildis": "A",
    "status": "Pending",
    "rowid": "1042744",
    "final_x": "3664266.04346",
    "final_y": "535891.780551",
    "longitude": "-90.12234329881737",
    "latitude": "29.968028659417094",
    "geocoded_column": {
      "latitude": "29.968028659417094",
      "longitude": "-90.12234329881737"
    }
  },
  {
    "service_request": "2023-1042743",
    "request_type": "Trash/Recycling",
    "request_reason": "Repair Trash Cart",
    "date_created": "2023-10-12T12:47:37.000",
    "date_modified": "2023-10-12T12:47:37.000",
    "request_status": "Pending",
    "responsible_agency": "Department of Sanitation",
    "final_address": "1701 S Norman C Francis Prkwy",
    "address_councildis": "B",
    "status": "Assigned to Contractor",
    "contractor": "Richards Disposal",
    "rowid": "1042743",
    "final_x": "3669201.82145",
    "final_y": "530950.872194",
    "longitude": "-90.10692289236934",
    "latitude": "29.95429844059759",
    "geocoded_column": {
      "latitude": "29.95429844059759",
      "longitude": "-90.10692289236934"
    }
  },
  {
    "service_request": "2023-1042742",
    "request_type": "Trash/Recycling",
    "request_reason": "Request a Large Item Pick Up",
    "date_created": "2023-10-12T12:43:00.000",
    "date_modified": "2023-10-12T12:43:01.000",
    "request_status": "Pending",
    "responsible_agency": "Department of Sanitation",
    "final_address": "5445 N Claiborne Ave",
    "address_councildis": "E",
    "status": "Assigned to Contractor",
    "contractor": "Waste Pro",
    "rowid": "1042742",
    "final_x": "3698017.73616",
    "final_y": "535781.160199",
    "longitude": "-90.01575884369755",
    "latitude": "29.966700505146264",
    "geocoded_column": {
      "latitude": "29.966700505146264",
      "longitude": "-90.01575884369755"
    }
  },
  {
    "service_request": "2023-1042741",
    "request_type": "Trash/Recycling",
    "request_reason": "Missed Trash Pick-Up",
    "date_created": "2023-10-12T12:42:16.000",
    "date_modified": "2023-10-12T12:42:17.000",
    "request_status": "Pending",
    "responsible_agency": "Department of Sanitation",
    "final_address": "5445 N Claiborne Ave",
    "address_councildis": "E",
    "status": "Assigned to Contractor",
    "contractor": "Waste Pro",
    "rowid": "1042741",
    "final_x": "3698017.73616",
    "final_y": "535781.160199",
    "longitude": "-90.01575884369755",
    "latitude": "29.966700505146264",
    "geocoded_column": {
      "latitude": "29.966700505146264",
      "longitude": "-90.01575884369755"
    }
  },
  {
    "service_request": "2023-1042740",
    "request_type": "Mosquito, Termite & Rodent Control",
    "request_reason": "Rodent Complaint (Rats)",
    "date_created": "2023-10-12T12:42:04.000",
    "date_modified": "2023-10-12T12:42:05.000",
    "request_status": "Pending",
    "responsible_agency": "Mosquito, Termite & Rodent Control Board",
    "final_address": "4965 Elysian Fields Ave",
    "address_councildis": "D",
    "status": "Pending",
    "rowid": "1042740",
    "final_x": "3683938.96783",
    "final_y": "551215.825109",
    "longitude": "-90.05967765437826",
    "latitude": "30.009577992855764",
    "geocoded_column": {
      "latitude": "30.009577992855764",
      "longitude": "-90.05967765437826"
    }
  },
  {
    "service_request": "2023-1042739",
    "request_type": "Trash/Recycling",
    "request_reason": "Repair Trash Cart",
    "date_created": "2023-10-12T12:39:49.000",
    "date_modified": "2023-10-12T12:39:50.000",
    "request_status": "Pending",
    "responsible_agency": "Department of Sanitation",
    "final_address": "1212 Seventh St",
    "address_councildis": "B",
    "status": "Assigned to Contractor",
    "contractor": "Richards Disposal",
    "rowid": "1042739",
    "final_x": "3676056.92334",
    "final_y": "520746.229689",
    "longitude": "-90.0856280549417",
    "latitude": "29.92603550212813",
    "geocoded_column": {
      "latitude": "29.92603550212813",
      "longitude": "-90.0856280549417"
    }
  },
  {
    "service_request": "2023-1042738",
    "request_type": "Trash/Recycling",
    "request_reason": "Replace Trash Cart",
    "date_created": "2023-10-12T12:37:27.000",
    "date_modified": "2023-10-12T12:37:28.000",
    "request_status": "Pending",
    "responsible_agency": "Department of Sanitation",
    "final_address": "514 Fourth St",
    "address_councildis": "B",
    "status": "Assigned to Contractor",
    "contractor": "Richards Disposal",
    "rowid": "1042738",
    "final_x": "3678459.50882",
    "final_y": "519213.063863",
    "longitude": "-90.07809681052233",
    "latitude": "29.92174763923653",
    "geocoded_column": {
      "latitude": "29.92174763923653",
      "longitude": "-90.07809681052233"
    }
  },
  {
    "service_request": "2023-1042737",
    "request_type": "Trash/Recycling",
    "request_reason": "Order Recycling Cart",
    "date_created": "2023-10-12T12:36:09.000",
    "date_modified": "2023-10-12T12:36:10.000",
    "request_status": "Pending",
    "responsible_agency": "Department of Sanitation",
    "final_address": "4921 Dodt Ave",
    "address_councildis": "E",
    "status": "Pending",
    "rowid": "1042737",
    "final_x": "3705417.6307",
    "final_y": "556291.953818",
    "longitude": "-89.99163176518996",
    "latitude": "30.02286144461547",
    "geocoded_column": {
      "latitude": "30.02286144461547",
      "longitude": "-89.99163176518996"
    }
  },
  {
    "service_request": "2023-1042736",
    "request_type": "Trash/Recycling",
    "request_reason": "Repair Trash Cart",
    "date_created": "2023-10-12T12:35:12.000",
    "date_modified": "2023-10-12T12:35:12.000",
    "request_status": "Pending",
    "responsible_agency": "Department of Sanitation",
    "final_address": "4921 Dodt Ave",
    "address_councildis": "E",
    "status": "Assigned to Contractor",
    "contractor": "Waste Pro",
    "rowid": "1042736",
    "final_x": "3705417.6307",
    "final_y": "556291.953818",
    "longitude": "-89.99163176518996",
    "latitude": "30.02286144461547",
    "geocoded_column": {
      "latitude": "30.02286144461547",
      "longitude": "-89.99163176518996"
    }
  },
  {
    "service_request": "2023-1042735",
    "request_type": "Trash/Recycling",
    "request_reason": "Repair Trash Cart",
    "date_created": "2023-10-12T12:34:44.000",
    "date_modified": "2023-10-12T12:34:45.000",
    "request_status": "Pending",
    "responsible_agency": "Department of Sanitation",
    "final_address": "13 Shepard Ct",
    "address_councildis": "C",
    "status": "Assigned to Contractor",
    "contractor": "Richards Disposal",
    "rowid": "1042735",
    "final_x": "3692388.22889",
    "final_y": "524587.41542",
    "longitude": "-90.03393759514431",
    "latitude": "29.936098379977242",
    "geocoded_column": {
      "latitude": "29.936098379977242",
      "longitude": "-90.03393759514431"
    }
  },
  {
    "service_request": "2023-1042734",
    "request_type": "Trash/Recycling",
    "request_reason": "Request a Large Item Pick Up",
    "date_created": "2023-10-12T12:31:31.000",
    "date_modified": "2023-10-12T12:31:31.000",
    "request_status": "Pending",
    "responsible_agency": "Department of Sanitation",
    "final_address": "364 28Th St",
    "address_councildis": "A",
    "status": "Assigned to Contractor",
    "contractor": "IV Waste",
    "rowid": "1042734",
    "final_x": "3664867.245",
    "final_y": "550199.57378",
    "longitude": "-90.11996620024091",
    "latitude": "30.007352766297952",
    "geocoded_column": {
      "latitude": "30.007352766297952",
      "longitude": "-90.11996620024091"
    }
  },
  {
    "service_request": "2023-1042733",
    "request_type": "Trash/Recycling",
    "request_reason": "Repair Trash Cart",
    "date_created": "2023-10-12T12:28:38.000",
    "date_modified": "2023-10-12T12:28:39.000",
    "request_status": "Pending",
    "responsible_agency": "Department of Sanitation",
    "final_address": "4543 Downman Rd",
    "address_councildis": "D",
    "status": "Assigned to Contractor",
    "contractor": "Waste Pro",
    "rowid": "1042733",
    "final_x": "3696103.8961",
    "final_y": "553666.993943",
    "longitude": "-90.02115588097693",
    "latitude": "30.01594037576969",
    "geocoded_column": {
      "latitude": "30.01594037576969",
      "longitude": "-90.02115588097693"
    }
  },
  {
    "service_request": "2023-1042732",
    "request_type": "Trash/Recycling",
    "request_reason": "Request a Large Item Pick Up",
    "date_created": "2023-10-12T12:28:31.000",
    "date_modified": "2023-10-12T12:28:31.000",
    "request_status": "Pending",
    "responsible_agency": "Department of Sanitation",
    "final_address": "7711 Wave Dr",
    "address_councildis": "E",
    "status": "Assigned to Contractor",
    "contractor": "Waste Pro",
    "rowid": "1042732",
    "final_x": "3714726.06066",
    "final_y": "569223.832038",
    "longitude": "-89.96173044720013",
    "latitude": "30.058115907881348",
    "geocoded_column": {
      "latitude": "30.058115907881348",
      "longitude": "-89.96173044720013"
    }
  },
  {
    "service_request": "2023-1042731",
    "request_type": "Trash/Recycling",
    "request_reason": "Request a Large Item Pick Up",
    "date_created": "2023-10-12T12:23:24.000",
    "date_modified": "2023-10-12T12:23:24.000",
    "request_status": "Pending",
    "responsible_agency": "Department of Sanitation",
    "final_address": "7802 Keats St",
    "address_councildis": "E",
    "status": "Assigned to Contractor",
    "contractor": "Waste Pro",
    "rowid": "1042731",
    "final_x": "3696073.3544",
    "final_y": "559524.478557",
    "longitude": "-90.02104042404594",
    "latitude": "30.03204719573629",
    "geocoded_column": {
      "latitude": "30.03204719573629",
      "longitude": "-90.02104042404594"
    }
  },
  {
    "service_request": "2023-1042730",
    "request_type": "Trash/Recycling",
    "request_reason": "MIssed Recycling Pick-Up",
    "date_created": "2023-10-12T12:19:54.000",
    "date_modified": "2023-10-12T12:20:03.000",
    "request_status": "Pending",
    "responsible_agency": "Department of Sanitation",
    "final_address": "2100 Robert St",
    "address_councildis": "B",
    "status": "Assigned to Contractor",
    "contractor": "Richards Disposal",
    "rowid": "1042730",
    "final_x": "3668754.141",
    "final_y": "523245.536571",
    "longitude": "-90.10859655018596",
    "latitude": "29.933124432990965",
    "geocoded_column": {
      "latitude": "29.933124432990965",
      "longitude": "-90.10859655018596"
    }
  },
  {
    "service_request": "2023-1042729",
    "request_type": "Trash/Recycling",
    "request_reason": "Replace Trash Cart",
    "date_created": "2023-10-12T12:17:49.000",
    "date_modified": "2023-10-12T12:17:50.000",
    "request_status": "Pending",
    "responsible_agency": "Department of Sanitation",
    "final_address": "4017 Hamilton St",
    "address_councildis": "A",
    "status": "Assigned to Contractor",
    "contractor": "Richards Disposal",
    "rowid": "1042729",
    "final_x": "3666176.72858",
    "final_y": "538183.876745",
    "longitude": "-90.11623237507303",
    "latitude": "29.97427549876059",
    "geocoded_column": {
      "latitude": "29.97427549876059",
      "longitude": "-90.11623237507303"
    }
  },
  {
    "service_request": "2023-1042728",
    "request_type": "Trash/Recycling",
    "request_reason": "Repair Trash Cart",
    "date_created": "2023-10-12T12:17:39.000",
    "date_modified": "2023-10-12T12:17:40.000",
    "request_status": "Pending",
    "responsible_agency": "Department of Sanitation",
    "final_address": "1929 Upperline St",
    "address_councildis": "B",
    "status": "Assigned to Contractor",
    "contractor": "Richards Disposal",
    "rowid": "1042728",
    "final_x": "3669139.84071",
    "final_y": "522030.830394",
    "longitude": "-90.10741994594748",
    "latitude": "29.92977303826869",
    "geocoded_column": {
      "latitude": "29.92977303826869",
      "longitude": "-90.10741994594748"
    }
  },
  {
    "service_request": "2023-1042727",
    "request_type": "Trash/Recycling",
    "request_reason": "Request a Large Item Pick Up",
    "date_created": "2023-10-12T12:16:24.000",
    "date_modified": "2023-10-12T12:16:25.000",
    "request_status": "Pending",
    "responsible_agency": "Department of Sanitation",
    "final_address": "1231 Tita St",
    "address_councildis": "C",
    "status": "Assigned to Contractor",
    "contractor": "Richards Disposal",
    "rowid": "1042727",
    "final_x": "3695621.29904",
    "final_y": "526706.92563",
    "longitude": "-90.02365427851363",
    "latitude": "29.941825094146886",
    "geocoded_column": {
      "latitude": "29.941825094146886",
      "longitude": "-90.02365427851363"
    }
  },
  {
    "service_request": "2023-1042726",
    "request_type": "Traffic Signals/Signs/Striping/Streetlights",
    "request_reason": "Street Light Outage/Malfunction",
    "date_created": "2023-10-12T12:14:10.000",
    "date_modified": "2023-10-12T12:14:11.000",
    "request_status": "Pending",
    "responsible_agency": "Department of Public Works",
    "final_address": "2011 Shalett St",
    "address_councildis": "C",
    "status": "Assigned to Contractor",
    "contractor": "Legacy Professional Services",
    "rowid": "1042726",
    "final_x": "3694186.15958",
    "final_y": "523119.914235",
    "longitude": "-90.02831427222895",
    "latitude": "29.932007068695494",
    "geocoded_column": {
      "latitude": "29.932007068695494",
      "longitude": "-90.02831427222895"
    }
  },
  {
    "service_request": "2023-1042724",
    "request_type": "Roads/Drainage",
    "request_reason": "Debris in Roadway",
    "date_created": "2023-10-12T12:13:22.000",
    "date_modified": "2023-10-12T15:41:46.000",
    "case_close_date": "2023-10-12T10:41:46.000",
    "request_status": "Closed",
    "responsible_agency": "Department of Public Works",
    "final_address": "1614 S Norman C Francis Prkwy",
    "address_councildis": "B",
    "status": "Captured by Project",
    "rowid": "1042724",
    "final_x": "3669501.46222",
    "final_y": "531132.316098",
    "longitude": "-90.10597060642637",
    "latitude": "29.954788529813065",
    "geocoded_column": {
      "latitude": "29.954788529813065",
      "longitude": "-90.10597060642637"
    }
  },