[
  {
    "service_request": "2025-1210267",
    "request_type": "Property Maintenance",
    "request_reason": "Property Maintenance",
    "date_created": "2025-07-16T22:49:09.000",
    "date_modified": "2025-07-16T22:49:11.000",
    "request_status": "Pending",
    "responsible_agency": "Department of Code Enforcement",
    "final_address": "3138 Burgundy St",
    "address_councildis": "C",
    "status": "Pending",
    "rowid": "1210267",
    "final_x": "3689097.77603",
    "final_y": "535103.625478",
    "longitude": "-90.04395202030977",
    "latitude": "29.96511653459863",
    "geocoded_column": {
      "latitude": "29.96511653459863",
      "longitude": "-90.04395202030977"
    }
  },
  {
    "service_request": "2025-1210266",
    "request_type": "Trash/Recycling",
    "request_reason": "Missed Trash Pick-Up",
    "date_created": "2025-07-16T22:05:10.000",
    "date_modified": "2025-07-16T22:05:11.000",
    "request_status": "Pending",
    "responsible_agency": "Department of Sanitation",
    "final_address": "3982 Peach Tree Ct",
    "address_councildis": "C",
    "status": "Assigned to Contractor",
    "contractor": "Richards Disposal",
    "rowid": "1210266",
    "final_x": "3703874.78686",
    "final_y": "512872.250225",
    "longitude": "-89.99810548626856",
    "latitude": "29.90352255317402",
    "geocoded_column": {
      "latitude": "29.90352255317402",
      "longitude": "-89.99810548626856"
    }
  },
  {
    "service_request": "2025-1210265",
    "request_type": "General Services",
    "request_reason": "General Service Request",
    "date_created": "2025-07-16T21:25:18.000",
    "date_modified": "2025-07-16T21:25:20.000",
    "request_status": "Pending",
    "responsible_agency": "Orleans Parish Communication District",
    "final_address": "2045 Easter Ln",
    "address_councildis": "C",
    "status": "Pending",
    "rowid": "1210265",
    "final_x": "3699446.67152",
    "final_y": "523847.146619",
    "longitude": "-90.01168100229744",
    "latitude": "29.933840917328713",
    "geocoded_column": {
      "latitude": "29.933840917328713",
      "longitude": "-90.01168100229744"
    }
  },
  {
    "service_request": "2025-1210264",
    "request_type": "Trash/Recycling",
    "request_reason": "Request a Large Item Pick Up",
    "date_created": "2025-07-16T20:49:18.000",
    "date_modified": "2025-07-16T20:49:20.000",
    "request_status": "Pending",
    "responsible_agency": "Department of Sanitation",
    "final_address": "13260 Lincoln Beach Blvd",
    "address_councildis": "E",
    "status": "Assigned to Contractor",
    "contractor": "Waste Pro",
    "rowid": "1210264",
    "final_x": "3715771.86322",
    "final_y": "571486.55844",
    "longitude": "-89.95833899286151",
    "latitude": "30.06430300554398",
    "geocoded_column": {
      "latitude": "30.06430300554398",
      "longitude": "-89.95833899286151"
    }
  },
  {
    "service_request": "2025-1210263",
    "request_type": "Streetlights",
    "request_reason": "Streetlight Outage/Malfunction",
    "date_created": "2025-07-16T20:41:02.000",
    "date_modified": "2025-07-16T20:41:28.000",
    "request_status": "Pending",
    "responsible_agency": "Department of Public Works",
    "final_address": "4751 Eunice Dr",
    "address_councildis": "E",
    "status": "Pending",
    "contractor": "Legacy Professional Services",
    "rowid": "1210263",
    "final_x": "3710610.93969",
    "final_y": "555841.200089",
    "longitude": "-89.97523913155496",
    "latitude": "30.021453820771434",
    "geocoded_column": {
      "latitude": "30.021453820771434",
      "longitude": "-89.97523913155496"
    }
  },
  {
    "service_request": "2025-1210262",
    "request_type": "Streetlights",
    "request_reason": "Streetlight Outage/Malfunction",
    "date_created": "2025-07-16T20:39:21.000",
    "date_modified": "2025-07-16T20:39:24.000",
    "request_status": "Pending",
    "responsible_agency": "Department of Public Works",
    "final_address": "4751 Eunice Dr",
    "address_councildis": "E",
    "status": "Pending",
    "contractor": "Legacy Professional Services",
    "rowid": "1210262",
    "final_x": "3710610.93969",
    "final_y": "555841.200089",
    "longitude": "-89.97523913155496",
    "latitude": "30.021453820771434",
    "geocoded_column": {
      "latitude": "30.021453820771434",
      "longitude": "-89.97523913155496"
    }
  },
  {
    "service_request": "2025-1210261",
    "request_type": "Trash/Recycling",
    "request_reason": "Request a Large Item Pick Up",
    "date_created": "2025-07-16T20:34:39.000",
    "date_modified": "2025-07-16T20:34:40.000",
    "request_status": "Pending",
    "responsible_agency": "Department of Sanitation",
    "final_address": "7311 Malvern Dr",
    "address_councildis": "E",
    "status": "Assigned to Contractor",
    "contractor": "Waste Pro",
    "rowid": "1210261",
    "final_x": "3702913.17751",
    "final_y": "560718.447198",
    "longitude": "-89.99938238132644",
    "latitude": "30.03511298036947",
    "geocoded_column": {
      "latitude": "30.03511298036947",
      "longitude": "-89.99938238132644"
    }
  },
  {
    "service_request": "2025-1210260",
    "request_type": "Property Maintenance",
    "request_reason": "Property Maintenance",
    "date_created": "2025-07-16T20:33:15.000",
    "date_modified": "2025-07-16T20:33:17.000",
    "request_status": "Pending",
    "responsible_agency": "Department of Code Enforcement",
    "final_address": "309 Hay Pl",
    "address_councildis": "A",
    "status": "Pending",
    "rowid": "1210260",
    "final_x": "3665370.75213",
    "final_y": "554326.650584",
    "longitude": "-90.1182372060909",
    "latitude": "30.018686115834758",
    "geocoded_column": {
      "latitude": "30.018686115834758",
      "longitude": "-90.1182372060909"
    }
  },
  {
    "service_request": "2025-1210259",
    "request_type": "Property Maintenance",
    "request_reason": "Property Maintenance",
    "date_created": "2025-07-16T20:02:01.000",
    "date_modified": "2025-07-16T20:02:02.000",
    "request_status": "Pending",
    "responsible_agency": "Department of Code Enforcement",
    "final_address": "1400 Esplanade Ave",
    "address_councildis": "C",
    "status": "Pending",
    "rowid": "1210259",
    "final_x": "3681749.01077",
    "final_y": "536113.979271",
    "longitude": "-90.06712373602709",
    "latitude": "29.968119992982643",
    "geocoded_column": {
      "latitude": "29.968119992982643",
      "longitude": "-90.06712373602709"
    }
  },
  {
    "service_request": "2025-1210258",
    "request_type": "Trash/Recycling",
    "request_reason": "Repair Trash Cart",
    "date_created": "2025-07-16T19:56:02.000",
    "date_modified": "2025-07-16T19:56:03.000",
    "request_status": "Pending",
    "responsible_agency": "Department of Sanitation",
    "final_address": "155 Danny Dr",
    "address_councildis": "C",
    "status": "Assigned to Contractor",
    "contractor": "Richards Disposal",
    "rowid": "1210258",
    "final_x": "3701898.62282",
    "final_y": "523896.020796",
    "longitude": "-90.00393856723927",
    "latitude": "29.933897311470268",
    "geocoded_column": {
      "latitude": "29.933897311470268",
      "longitude": "-90.00393856723927"
    }
  },
  {
    "service_request": "2025-1210257",
    "request_type": "Trash/Recycling",
    "request_reason": "Replace Trash Cart",
    "date_created": "2025-07-16T19:54:51.000",
    "date_modified": "2025-07-16T19:54:53.000",
    "request_status": "Pending",
    "responsible_agency": "Department of Sanitation",
    "final_address": "2413 Marengo St",
    "address_councildis": "B",
    "status": "Assigned to Contractor",
    "contractor": "IV Waste",
    "rowid": "1210257",
    "final_x": "3671709.66324",
    "final_y": "523925.422716",
    "longitude": "-90.09924302925505",
    "latitude": "29.93490670662304",
    "geocoded_column": {
      "latitude": "29.93490670662304",
      "longitude": "-90.09924302925505"
    }
  },
  {
    "service_request": "2025-1210256",
    "request_type": "Drainage",
    "request_reason": "Catch Basin Clogged",
    "date_created": "2025-07-16T19:50:13.000",
    "date_modified": "2025-07-16T19:50:15.000",
    "request_status": "Pending",
    "responsible_agency": "Sewerage & Water Board",
    "final_address": "8700 BLK Apricot St",
    "address_councildis": "A",
    "status": "Pending",
    "rowid": "1210256",
    "final_x": "3664123.95846",
    "final_y": "534169.780858",
    "longitude": "-90.12284945987588",
    "latitude": "29.963297854673606",
    "geocoded_column": {
      "latitude": "29.963297854673606",
      "longitude": "-90.12284945987588"
    }
  },
  {
    "service_request": "2025-1210255",
    "request_type": "Graffiti Removal",
    "request_reason": "Graffiti Removal",
    "date_created": "2025-07-16T19:44:35.000",
    "date_modified": "2025-07-16T19:44:37.000",
    "request_status": "Pending",
    "responsible_agency": "Department of Code Enforcement",
    "final_address": "601 S Solomon St",
    "address_councildis": "A",
    "status": "Pending",
    "rowid": "1210255",
    "final_x": "3669332.89358",
    "final_y": "537137.257032",
    "longitude": "-90.10629983423412",
    "latitude": "29.971305087617004",
    "geocoded_column": {
      "latitude": "29.971305087617004",
      "longitude": "-90.10629983423412"
    }
  },
  {
    "service_request": "2025-1210254",
    "request_type": "Streetlights",
    "request_reason": "Streetlight Outage/Malfunction",
    "date_created": "2025-07-16T19:26:03.000",
    "date_modified": "2025-07-16T19:26:05.000",
    "request_status": "Pending",
    "responsible_agency": "Department of Public Works",
    "final_address": "4540 General Early Dr",
    "address_councildis": "D",
    "status": "Pending",
    "contractor": "Legacy Professional Services",
    "rowid": "1210254",
    "final_x": "3691130.92003",
    "final_y": "550797.577877",
    "longitude": "-90.03697077821109",
    "latitude": "30.00820619509401",
    "geocoded_column": {
      "latitude": "30.00820619509401",
      "longitude": "-90.03697077821109"
    }
  },
  {
    "service_request": "2025-1210253",
    "request_type": "Roads and Streets",
    "request_reason": "Pothole",
    "date_created": "2025-07-16T18:58:16.000",
    "date_modified": "2025-07-16T18:58:18.000",
    "request_status": "Pending",
    "responsible_agency": "Department of Public Works",
    "final_address": "2400 BLK Rousseau St",
    "address_councildis": "B",
    "status": "Pending",
    "rowid": "1210253",
    "final_x": "3679192.51067",
    "final_y": "519535.814063",
    "longitude": "-90.07577185590608",
    "latitude": "29.92261299765883",
    "geocoded_column": {
      "latitude": "29.92261299765883",
      "longitude": "-90.07577185590608"
    }
  },
  {
    "service_request": "2025-1210252",
    "request_type": "Trash/Recycling",
    "request_reason": "Request a Large Item Pick Up",
    "date_created": "2025-07-16T18:46:32.000",
    "date_modified": "2025-07-16T18:46:35.000",
    "request_status": "Pending",
    "responsible_agency": "Department of Sanitation",
    "final_address": "2618 Cupid St",
    "address_councildis": "C",
    "status": "Assigned to Contractor",
    "contractor": "Richards Disposal",
    "rowid": "1210252",
    "final_x": "3700410.05136",
    "final_y": "521423.851385",
    "longitude": "-90.00872811303307",
    "latitude": "29.927147104449098",
    "geocoded_column": {
      "latitude": "29.927147104449098",
      "longitude": "-90.00872811303307"
    }
  },
  {
    "service_request": "2025-1210251",
    "request_type": "Abandoned Vehicles",
    "request_reason": "Abandoned/Junk Vehicles",
    "date_created": "2025-07-16T18:26:06.000",
    "date_modified": "2025-07-16T18:26:07.000",
    "request_status": "Pending",
    "responsible_agency": "Department of Public Works",
    "final_address": "915 Sixth St",
    "address_councildis": "B",
    "status": "Pending",
    "rowid": "1210251",
    "final_x": "3676994.15125",
    "final_y": "520069.34828",
    "longitude": "-90.0826928195403",
    "latitude": "29.924146202614033",
    "geocoded_column": {
      "latitude": "29.924146202614033",
      "longitude": "-90.0826928195403"
    }
  },
  {
    "service_request": "2025-1210250",
    "request_type": "Abandoned Vehicles",
    "request_reason": "Abandoned/Junk Vehicles",
    "date_created": "2025-07-16T18:24:10.000",
    "date_modified": "2025-07-16T18:24:12.000",
    "request_status": "Pending",
    "responsible_agency": "Department of Public Works",
    "final_address": "915 Sixth St",
    "address_councildis": "B",
    "status": "Pending",
    "rowid": "1210250",
    "final_x": "3676994.15125",
    "final_y": "520069.34828",
    "longitude": "-90.0826928195403",
    "latitude": "29.924146202614033",
    "geocoded_column": {
      "latitude": "29.924146202614033",
      "longitude": "-90.0826928195403"
    }
  },
  {
    "service_request": "2025-1210249",
    "request_type": "Trash/Recycling",
    "request_reason": "Order Trash Cart",
    "date_created": "2025-07-16T18:18:58.000",
    "date_modified": "2025-07-16T18:18:59.000",
    "request_status": "Pending",
    "responsible_agency": "Department of Sanitation",
    "final_address": "2515 Bienville Ave",
    "address_councildis": "B",
    "status": "Assigned to Contractor",
    "contractor": "IV Waste",
    "rowid": "1210249",
    "final_x": "3676540.37384",
    "final_y": "535265.76103",
    "longitude": "-90.08360204578946",
    "latitude": "29.965944917517763",
    "geocoded_column": {
      "latitude": "29.965944917517763",
      "longitude": "-90.08360204578946"
    }
  },
  {
    "service_request": "2025-1210248",
    "request_type": "Trash/Recycling",
    "request_reason": "Replace Trash Cart",
    "date_created": "2025-07-16T18:15:17.000",
    "date_modified": "2025-07-16T18:15:20.000",
    "request_status": "Pending",
    "responsible_agency": "Department of Sanitation",
    "final_address": "6368 Argonne Blvd",
    "address_councildis": "A",
    "status": "Assigned to Contractor",
    "contractor": "IV Waste",
    "rowid": "1210248",
    "final_x": "3670302.6411",
    "final_y": "549692.325012",
    "longitude": "-90.10281141736444",
    "latitude": "30.005798628341264",
    "geocoded_column": {
      "latitude": "30.005798628341264",
      "longitude": "-90.10281141736444"
    }
  },
  {
    "service_request": "2025-1210247",
    "request_type": "Drainage",
    "request_reason": "Catch Basin Damaged",
    "date_created": "2025-07-16T18:12:01.000",
    "date_modified": "2025-07-16T18:12:02.000",
    "request_status": "Pending",
    "responsible_agency": "Sewerage & Water Board",
    "final_address": "5702 Willow St",
    "address_councildis": "A",
    "status": "Pending",
    "rowid": "1210247",
    "final_x": "3667499.39009",
    "final_y": "525420.037949",
    "longitude": "-90.11248458616129",
    "latitude": "29.939140432758677",
    "geocoded_column": {
      "latitude": "29.939140432758677",
      "longitude": "-90.11248458616129"
    }
  },
  {
    "service_request": "2025-1210246",
    "request_type": "Trash/Recycling",
    "request_reason": "Request a Large Item Pick Up",
    "date_created": "2025-07-16T18:09:56.000",
    "date_modified": "2025-07-16T18:09:58.000",
    "request_status": "Pending",
    "responsible_agency": "Department of Sanitation",
    "final_address": "921 Washington Ave",
    "address_councildis": "B",
    "status": "Assigned to Contractor",
    "contractor": "IV Waste",
    "rowid": "1210246",
    "final_x": "3677387.54446",
    "final_y": "520394.939384",
    "longitude": "-90.08143978583527",
    "latitude": "29.925029660352816",
    "geocoded_column": {
      "latitude": "29.925029660352816",
      "longitude": "-90.08143978583527"
    }
  },
  {
    "service_request": "2025-1210245",
    "request_type": "Trash/Recycling",
    "request_reason": "Order Recycling Cart",
    "date_created": "2025-07-16T18:04:51.000",
    "date_modified": "2025-07-16T18:04:52.000",
    "request_status": "Pending",
    "responsible_agency": "Department of Sanitation",
    "final_address": "8315 Nelson St",
    "address_councildis": "A",
    "status": "Pending",
    "rowid": "1210245",
    "final_x": "3664507.14458",
    "final_y": "532454.888196",
    "longitude": "-90.12169666029291",
    "latitude": "29.95857132475643",
    "geocoded_column": {
      "latitude": "29.95857132475643",
      "longitude": "-90.12169666029291"
    }
  },
  {
    "service_request": "2025-1210244",
    "request_type": "Trash/Recycling",
    "request_reason": "Request a Large Item Pick Up",
    "date_created": "2025-07-16T17:56:58.000",
    "date_modified": "2025-07-16T17:57:00.000",
    "request_status": "Pending",
    "responsible_agency": "Department of Sanitation",
    "final_address": "2107 Bienville Ave",
    "address_councildis": "B",
    "status": "Assigned to Contractor",
    "contractor": "IV Waste",
    "rowid": "1210244",
    "final_x": "3677708.28872",
    "final_y": "534377.525957",
    "longitude": "-90.07994448629448",
    "latitude": "29.963467495565293",
    "geocoded_column": {
      "latitude": "29.963467495565293",
      "longitude": "-90.07994448629448"
    }
  },
  {
    "service_request": "2025-1210243",
    "request_type": "Trash/Recycling",
    "request_reason": "Damaged Caused By Contractor",
    "date_created": "2025-07-16T17:48:35.000",
    "date_modified": "2025-07-16T17:48:37.000",
    "request_status": "Pending",
    "responsible_agency": "Department of Sanitation",
    "final_address": "3611 Pittari Pl",
    "address_councildis": "C",
    "status": "Assigned to Contractor",
    "contractor": "Richards Disposal",
    "rowid": "1210243",
    "final_x": "3709520.69502",
    "final_y": "517493.064886",
    "longitude": "-89.98011496540879",
    "latitude": "29.916046081406332",
    "geocoded_column": {
      "latitude": "29.916046081406332",
      "longitude": "-89.98011496540879"
    }
  },
  {
    "service_request": "2025-1210241",
    "request_type": "Drainage",
    "request_reason": "Catch Basin Clogged",
    "date_created": "2025-07-16T17:47:00.000",
    "date_modified": "2025-07-16T17:47:01.000",
    "request_status": "Pending",
    "responsible_agency": "Sewerage & Water Board",
    "final_address": "1010 N Galvez St Apt 101-A",
    "address_councildis": "D",
    "status": "Pending",
    "rowid": "1210241",
    "final_x": "3679198.26587",
    "final_y": "536683.225863",
    "longitude": "-90.07515934950028",
    "latitude": "29.969762484194256",
    "geocoded_column": {
      "latitude": "29.969762484194256",
      "longitude": "-90.07515934950028"
    }
  },
  {
    "service_request": "2025-1210242",
    "request_type": "Drainage",
    "request_reason": "Catch Basin Clogged",
    "date_created": "2025-07-16T17:47:00.000",
    "date_modified": "2025-07-16T17:47:02.000",
    "request_status": "Pending",
    "responsible_agency": "Sewerage & Water Board",
    "final_address": "1010 N Galvez St Apt 101-A",
    "address_councildis": "D",
    "status": "Pending",
    "rowid": "1210242",
    "final_x": "3679198.26587",
    "final_y": "536683.225863",
    "longitude": "-90.07515934950028",
    "latitude": "29.969762484194256",
    "geocoded_column": {
      "latitude": "29.969762484194256",
      "longitude": "-90.07515934950028"
    }
  },
  {
    "service_request": "2025-1210240",
    "request_type": "Drainage",
    "request_reason": "Catch Basin Clogged",
    "date_created": "2025-07-16T17:39:42.000",
    "date_modified": "2025-07-16T17:39:44.000",
    "request_status": "Pending",
    "responsible_agency": "Sewerage & Water Board",
    "final_address": "3400 Touro St",
    "address_councildis": "D",
    "status": "Pending",
    "rowid": "1210240",
    "final_x": "3683473.27362",
    "final_y": "545123.721295",
    "longitude": "-90.06136260194431",
    "latitude": "29.992841120388324",
    "geocoded_column": {
      "latitude": "29.992841120388324",
      "longitude": "-90.06136260194431"
    }
  },
  {
    "service_request": "2025-1210239",
    "request_type": "Safety & Permits",
    "request_reason": "Construction permit",
    "date_created": "2025-07-16T17:38:52.000",
    "date_modified": "2025-07-16T17:38:54.000",
    "request_status": "Pending",
    "responsible_agency": "Safety and Permits",
    "final_address": "514 Jackson Ave",
    "address_councildis": "B",
    "status": "Pending",
    "rowid": "1210239",
    "final_x": "3680097.2573",
    "final_y": "520368.93676",
    "longitude": "-90.07288700497071",
    "latitude": "29.924876479151365",
    "geocoded_column": {
      "latitude": "29.924876479151365",
      "longitude": "-90.07288700497071"
    }
  },
  {
    "service_request": "2025-1210238",
    "request_type": "Drainage",
    "request_reason": "Catch Basin Clogged",
    "date_created": "2025-07-16T17:38:30.000",
    "date_modified": "2025-07-16T17:38:32.000",
    "request_status": "Pending",
    "responsible_agency": "Sewerage & Water Board",
    "final_address": "1601 Third St",
    "address_councildis": "B",
    "status": "Pending",
    "rowid": "1210238",
    "final_x": "3676435.53275",
    "final_y": "523032.171259",
    "longitude": "-90.08435423880668",
    "latitude": "29.932309756894757",
    "geocoded_column": {
      "latitude": "29.932309756894757",
      "longitude": "-90.08435423880668"
    }
  },
  {
    "service_request": "2025-1210237",
    "request_type": "Traffic Signals",
    "request_reason": "Traffic Signal Malfunctioning or Damaged",
    "date_created": "2025-07-16T17:27:30.000",
    "date_modified": "2025-07-16T17:27:31.000",
    "request_status": "Pending",
    "responsible_agency": "Department of Public Works",
    "final_address": "2400 Filmore Ave",
    "address_councildis": "D",
    "status": "Pending",
    "rowid": "1210237",
    "final_x": "3685234.46364",
    "final_y": "552467.72591",
    "longitude": "-90.05554062793307",
    "latitude": "30.012980604678486",
    "geocoded_column": {
      "latitude": "30.012980604678486",
      "longitude": "-90.05554062793307"
    }
  },
  {
    "service_request": "2025-1210236",
    "request_type": "Trash/Recycling",
    "request_reason": "Replace Trash Cart",
    "date_created": "2025-07-16T17:26:06.000",
    "date_modified": "2025-07-16T17:26:07.000",
    "request_status": "Pending",
    "responsible_agency": "Department of Sanitation",
    "final_address": "5330 Annunciation St",
    "address_councildis": "B",
    "status": "Assigned to Contractor",
    "contractor": "IV Waste",
    "rowid": "1210236",
    "final_x": "3667071.79284",
    "final_y": "517486.199862",
    "longitude": "-90.11410109273139",
    "latitude": "29.91733741423889",
    "geocoded_column": {
      "latitude": "29.91733741423889",
      "longitude": "-90.11410109273139"
    }
  },
  {
    "service_request": "2025-1210235",
    "request_type": "Street and Traffic Signs",
    "request_reason": "Traffic or Parking Sign Damaged or Missing",
    "date_created": "2025-07-16T17:26:03.000",
    "date_modified": "2025-07-16T17:26:04.000",
    "request_status": "Pending",
    "responsible_agency": "Department of Public Works",
    "final_address": "1300 BLK Broadway St",
    "address_councildis": "A",
    "status": "Pending",
    "rowid": "1210235",
    "final_x": "3664449.2649",
    "final_y": "526937.765466",
    "longitude": "-90.12206359444275",
    "latitude": "29.943402704285564",
    "geocoded_column": {
      "latitude": "29.943402704285564",
      "longitude": "-90.12206359444275"
    }
  },
  {
    "service_request": "2025-1210234",
    "request_type": "Street and Traffic Signs",
    "request_reason": "Additional Signage Request",
    "date_created": "2025-07-16T17:20:55.000",
    "date_modified": "2025-07-16T17:20:57.000",
    "request_status": "Pending",
    "responsible_agency": "Department of Public Works",
    "final_address": "1704 Audubon St",
    "address_councildis": "A",
    "status": "Pending",
    "rowid": "1210234",
    "final_x": "3665421.11879",
    "final_y": "527897.179455",
    "longitude": "-90.11896308622855",
    "latitude": "29.94601249952727",
    "geocoded_column": {
      "latitude": "29.94601249952727",
      "longitude": "-90.11896308622855"
    }
  },
  {
    "service_request": "2025-1210233",
    "request_type": "Trash/Recycling",
    "request_reason": "Replace Trash Cart",
    "date_created": "2025-07-16T17:19:17.000",
    "date_modified": "2025-07-16T17:19:19.000",
    "request_status": "Pending",
    "responsible_agency": "Department of Sanitation",
    "final_address": "931 Picheloup Pl",
    "address_councildis": "A",
    "status": "Assigned to Contractor",
    "contractor": "IV Waste",
    "rowid": "1210233",
    "final_x": "3673579.4427",
    "final_y": "540509.125707",
    "longitude": "-90.09277332301102",
    "latitude": "29.98045085558954",
    "geocoded_column": {
      "latitude": "29.98045085558954",
      "longitude": "-90.09277332301102"
    }
  },
  {
    "service_request": "2025-1210232",
    "request_type": "Street and Traffic Signs",
    "request_reason": "Traffic or Parking Sign Damaged or Missing",
    "date_created": "2025-07-16T17:17:32.000",
    "date_modified": "2025-07-16T17:17:34.000",
    "request_status": "Pending",
    "responsible_agency": "Department of Public Works",
    "final_address": "6300 BLK Freret St",
    "address_councildis": "A",
    "status": "Pending",
    "rowid": "1210232",
    "final_x": "3665524.35002",
    "final_y": "524793.809452",
    "longitude": "-90.1187410120579",
    "latitude": "29.93747621887767",
    "geocoded_column": {
      "latitude": "29.93747621887767",
      "longitude": "-90.1187410120579"
    }
  },
  {
    "service_request": "2025-1210231",
    "request_type": "Drainage",
    "request_reason": "Catch Basin Clogged",
    "date_created": "2025-07-16T17:10:18.000",
    "date_modified": "2025-07-16T17:10:20.000",
    "request_status": "Pending",
    "responsible_agency": "Sewerage & Water Board",
    "final_address": "1504 Audubon St",
    "address_councildis": "A",
    "status": "Pending",
    "rowid": "1210231",
    "final_x": "3664993.24967",
    "final_y": "527269.065215",
    "longitude": "-90.12033501423724",
    "latitude": "29.94429784908256",
    "geocoded_column": {
      "latitude": "29.94429784908256",
      "longitude": "-90.12033501423724"
    }
  },
  {
    "service_request": "2025-1210230",
    "request_type": "Trash/Recycling",
    "request_reason": "Order Trash Cart",
    "date_created": "2025-07-16T17:09:25.000",
    "date_modified": "2025-07-16T17:09:27.000",
    "request_status": "Pending",
    "responsible_agency": "Department of Sanitation",
    "final_address": "2627 S Johnson St",
    "address_councildis": "B",
    "status": "Assigned to Contractor",
    "contractor": "IV Waste",
    "rowid": "1210230",
    "final_x": "3672700.41652",
    "final_y": "528103.918015",
    "longitude": "-90.09597277546634",
    "latitude": "29.946366827875917",
    "geocoded_column": {
      "latitude": "29.946366827875917",
      "longitude": "-90.09597277546634"
    }
  },
  {
    "service_request": "2025-1210229",
    "request_type": "Trash/Recycling",
    "request_reason": "Order Trash Cart",
    "date_created": "2025-07-16T17:07:45.000",
    "date_modified": "2025-07-16T17:07:47.000",
    "request_status": "Pending",
    "responsible_agency": "Department of Sanitation",
    "final_address": "2623 S Johnson St",
    "address_councildis": "B",
    "status": "Assigned to Contractor",
    "contractor": "IV Waste",
    "rowid": "1210229",
    "final_x": "3672729.34676",
    "final_y": "528118.420479",
    "longitude": "-90.0958809378609",
    "latitude": "29.946405845835823",
    "geocoded_column": {
      "latitude": "29.946405845835823",
      "longitude": "-90.0958809378609"
    }
  },
  {
    "service_request": "2025-1210228",
    "request_type": "Property Maintenance",
    "request_reason": "Property Maintenance",
    "date_created": "2025-07-16T17:04:39.000",
    "date_modified": "2025-07-16T17:04:41.000",
    "request_status": "Pending",
    "responsible_agency": "Department of Code Enforcement",
    "final_address": "3100 Rue Parc Fontaine",
    "address_councildis": "C",
    "status": "Pending",
    "rowid": "1210228",
    "final_x": "3700160.46519",
    "final_y": "519568.934263",
    "longitude": "-90.00958363372835",
    "latitude": "29.922054650844935",
    "geocoded_column": {
      "latitude": "29.922054650844935",
      "longitude": "-90.00958363372835"
    }
  },
  {
    "service_request": "2025-1210227",
    "request_type": "Trash/Recycling",
    "request_reason": "Request a Large Item Pick Up",
    "date_created": "2025-07-16T16:48:35.000",
    "date_modified": "2025-07-16T16:48:37.000",
    "request_status": "Pending",
    "responsible_agency": "Department of Sanitation",
    "final_address": "7811 Trapier Ave",
    "address_councildis": "E",
    "status": "Assigned to Contractor",
    "contractor": "Waste Pro",
    "rowid": "1210227",
    "final_x": "3706370.94903",
    "final_y": "564095.981409",
    "longitude": "-89.98833007212848",
    "latitude": "30.044288725203383",
    "geocoded_column": {
      "latitude": "30.044288725203383",
      "longitude": "-89.98833007212848"
    }
  },
  {
    "service_request": "2025-1210226",
    "request_type": "Trash/Recycling",
    "request_reason": "Illegal Dumping",
    "date_created": "2025-07-16T16:46:19.000",
    "date_modified": "2025-07-16T16:46:20.000",
    "request_status": "Pending",
    "responsible_agency": "Department of Sanitation",
    "final_address": "2100 BLK de Armas St",
    "address_councildis": "C",
    "status": "Pending",
    "rowid": "1210226",
    "final_x": "3692043.21201",
    "final_y": "526944.372408",
    "longitude": "-90.03494250208213",
    "latitude": "29.942589959397885",
    "geocoded_column": {
      "latitude": "29.942589959397885",
      "longitude": "-90.03494250208213"
    }
  },
  {
    "service_request": "2025-1210225",
    "request_type": "Property Maintenance",
    "request_reason": "Property Maintenance",
    "date_created": "2025-07-16T16:45:01.000",
    "date_modified": "2025-07-16T16:45:03.000",
    "request_status": "Pending",
    "responsible_agency": "Department of Code Enforcement",
    "final_address": "2840 Upperline St",
    "address_councildis": "B",
    "status": "Pending",
    "rowid": "1210225",
    "final_x": "3669167.16276",
    "final_y": "525275.172157",
    "longitude": "-90.10722410175507",
    "latitude": "29.93869313298901",
    "geocoded_column": {
      "latitude": "29.93869313298901",
      "longitude": "-90.10722410175507"
    }
  },
  {
    "service_request": "2025-1210224",
    "request_type": "Roads and Streets",
    "request_reason": "Street Subsidence (Sinking)",
    "date_created": "2025-07-16T16:43:39.000",
    "date_modified": "2025-07-16T16:43:40.000",
    "request_status": "Pending",
    "responsible_agency": "Department of Public Works",
    "final_address": "2541 Athis St",
    "address_councildis": "D",
    "status": "Pending",
    "rowid": "1210224",
    "final_x": "3686174.05999",
    "final_y": "554473.256408",
    "longitude": "-90.05250118853742",
    "latitude": "30.01846623215238",
    "geocoded_column": {
      "latitude": "30.01846623215238",
      "longitude": "-90.05250118853742"
    }
  },
  {
    "service_request": "2025-1210223",
    "request_type": "Property Maintenance",
    "request_reason": "Property Maintenance",
    "date_created": "2025-07-16T16:43:37.000",
    "date_modified": "2025-07-16T16:43:39.000",
    "request_status": "Pending",
    "responsible_agency": "Department of Code Enforcement",
    "final_address": "2800 Upperline St",
    "address_councildis": "B",
    "status": "Pending",
    "rowid": "1210223",
    "final_x": "3669167.51578",
    "final_y": "524989.592701",
    "longitude": "-90.10723263481977",
    "latitude": "29.937907871185672",
    "geocoded_column": {
      "latitude": "29.937907871185672",
      "longitude": "-90.10723263481977"
    }
  },
  {
    "service_request": "2025-1210222",
    "request_type": "Abandoned Vehicles",
    "request_reason": "Abandoned/Junk Vehicles",
    "date_created": "2025-07-16T16:42:48.000",
    "date_modified": "2025-07-16T16:43:42.000",
    "request_status": "Pending",
    "responsible_agency": "Department of Public Works",
    "final_address": "8018 Read Blvd",
    "address_councildis": "E",
    "status": "Pending",
    "rowid": "1210222",
    "final_x": "3707745.80548",
    "final_y": "565746.704163",
    "longitude": "-89.9839235047022",
    "latitude": "30.048783106497957",
    "geocoded_column": {
      "latitude": "30.048783106497957",
      "longitude": "-89.9839235047022"
    }
  },
  {
    "service_request": "2025-1210221",
    "request_type": "Trash/Recycling",
    "request_reason": "Replace Trash Cart",
    "date_created": "2025-07-16T16:39:38.000",
    "date_modified": "2025-07-16T16:39:40.000",
    "request_status": "Pending",
    "responsible_agency": "Department of Sanitation",
    "final_address": "1558 Camp St",
    "address_councildis": "B",
    "status": "Assigned to Contractor",
    "contractor": "IV Waste",
    "rowid": "1210221",
    "final_x": "3679739.57269",
    "final_y": "523444.613435",
    "longitude": "-90.07390938442909",
    "latitude": "29.933344395825817",
    "geocoded_column": {
      "latitude": "29.933344395825817",
      "longitude": "-90.07390938442909"
    }
  },
  {
    "service_request": "2025-1210220",
    "request_type": "Drainage",
    "request_reason": "Catch Basin Clogged",
    "date_created": "2025-07-16T16:37:03.000",
    "date_modified": "2025-07-16T16:37:05.000",
    "request_status": "Pending",
    "responsible_agency": "Sewerage & Water Board",
    "final_address": "2757 Palmyra St",
    "address_councildis": "B",
    "status": "Pending",
    "rowid": "1210220",
    "final_x": "3674482.8859",
    "final_y": "534806.167238",
    "longitude": "-90.09011528865992",
    "latitude": "29.964742732462422",
    "geocoded_column": {
      "latitude": "29.964742732462422",
      "longitude": "-90.09011528865992"
    }
  },
  {
    "service_request": "2025-1210219",
    "request_type": "Trash/Recycling",
    "request_reason": "Missed Trash Pick-Up",
    "date_created": "2025-07-16T16:33:57.000",
    "date_modified": "2025-07-16T16:33:58.000",
    "request_status": "Pending",
    "responsible_agency": "Department of Sanitation",
    "final_address": "4664 Perelli Dr",
    "address_councildis": "E",
    "status": "Assigned to Contractor",
    "contractor": "Waste Pro",
    "rowid": "1210219",
    "final_x": "3711669.39192",
    "final_y": "555634.726169",
    "longitude": "-89.97190249582772",
    "latitude": "30.02085156144511",
    "geocoded_column": {
      "latitude": "30.02085156144511",
      "longitude": "-89.97190249582772"
    }
  },
  {
    "service_request": "2025-1210218",
    "request_type": "Trash/Recycling",
    "request_reason": "Replace Trash Cart",
    "date_created": "2025-07-16T16:31:40.000",
    "date_modified": "2025-07-16T16:31:42.000",
    "request_status": "Pending",
    "responsible_agency": "Department of Sanitation",
    "final_address": "2113 Selma St",
    "address_councildis": "D",
    "status": "Assigned to Contractor",
    "contractor": "IV Waste",
    "rowid": "1210218",
    "final_x": "3683140.72181",
    "final_y": "551478.431445",
    "longitude": "-90.06219038763302",
    "latitude": "30.010324438135097",
    "geocoded_column": {
      "latitude": "30.010324438135097",
      "longitude": "-90.06219038763302"
    }
  },
  {
    "service_request": "2025-1210217",
    "request_type": "Trash/Recycling",
    "request_reason": "Return Trash Cart",
    "date_created": "2025-07-16T16:29:25.000",
    "date_modified": "2025-07-16T16:29:33.000",
    "request_status": "Pending",
    "responsible_agency": "Department of Sanitation",
    "final_address": "331 22Nd St",
    "address_councildis": "A",
    "status": "Assigned to Contractor",
    "contractor": "IV Waste",
    "rowid": "1210217",
    "final_x": "3664950.86164",
    "final_y": "549388.849555",
    "longitude": "-90.11972915843778",
    "latitude": "30.005121120297495",
    "geocoded_column": {
      "latitude": "30.005121120297495",
      "longitude": "-90.11972915843778"
    }
  },
  {
    "service_request": "2025-1210216",
    "request_type": "General Services",
    "request_reason": "General Service Request",
    "date_created": "2025-07-16T16:25:57.000",
    "date_modified": "2025-07-16T16:25:59.000",
    "request_status": "Pending",
    "responsible_agency": "Orleans Parish Communication District",
    "final_address": "34 Forest Oaks Dr",
    "address_councildis": "C",
    "status": "Pending",
    "rowid": "1210216",
    "final_x": "3722473.32908",
    "final_y": "510212.559023",
    "longitude": "-89.93951146782884",
    "latitude": "29.895600323710255",
    "geocoded_column": {
      "latitude": "29.895600323710255",
      "longitude": "-89.93951146782884"
    }
  },
  {
    "service_request": "2025-1210215",
    "request_type": "Abandoned Vehicles",
    "request_reason": "Abandoned/Junk Vehicles",
    "date_created": "2025-07-16T16:24:53.000",
    "date_modified": "2025-07-16T16:24:54.000",
    "request_status": "Pending",
    "responsible_agency": "Department of Public Works",
    "final_address": "2510 Dumaine St",
    "address_councildis": "D",
    "status": "Pending",
    "rowid": "1210215",
    "final_x": "3677855.29461",
    "final_y": "536942.021768",
    "longitude": "-90.07939163311904",
    "latitude": "29.970514563439806",
    "geocoded_column": {
      "latitude": "29.970514563439806",
      "longitude": "-90.07939163311904"
    }
  },
  {
    "service_request": "2025-1210214",
    "request_type": "Trash/Recycling",
    "request_reason": "Request a Large Item Pick Up",
    "date_created": "2025-07-16T16:22:36.000",
    "date_modified": "2025-07-16T16:22:38.000",
    "request_status": "Pending",
    "responsible_agency": "Department of Sanitation",
    "final_address": "2027 Socrates St",
    "address_councildis": "C",
    "status": "Assigned to Contractor",
    "contractor": "Richards Disposal",
    "rowid": "1210214",
    "final_x": "3691615.88502",
    "final_y": "526200.907134",
    "longitude": "-90.03631823696804",
    "latitude": "29.940558991928366",
    "geocoded_column": {
      "latitude": "29.940558991928366",
      "longitude": "-90.03631823696804"
    }
  },
  {
    "service_request": "2025-1210213",
    "request_type": "Healthy Homes",
    "request_reason": "Healthy Homes",
    "date_created": "2025-07-16T16:20:02.000",
    "date_modified": "2025-07-16T16:20:04.000",
    "request_status": "Pending",
    "responsible_agency": "Department of Code Enforcement",
    "final_address": "13707 Chef Menteur Hwy",
    "address_councildis": "E",
    "status": "Pending",
    "rowid": "1210213",
    "final_x": "3727076.07494",
    "final_y": "560358.459357",
    "longitude": "-89.92303890282076",
    "latitude": "30.033327566017253",
    "geocoded_column": {
      "latitude": "30.033327566017253",
      "longitude": "-89.92303890282076"
    }
  },
  {
    "service_request": "2025-1210212",
    "request_type": "Trash/Recycling",
    "request_reason": "Replace Trash Cart",
    "date_created": "2025-07-16T16:18:43.000",
    "date_modified": "2025-07-16T16:18:45.000",
    "request_status": "Pending",
    "responsible_agency": "Department of Sanitation",
    "final_address": "1558 Camp St",
    "address_councildis": "B",
    "status": "Assigned to Contractor",
    "contractor": "IV Waste",
    "rowid": "1210212",
    "final_x": "3679739.57269",
    "final_y": "523444.613435",
    "longitude": "-90.07390938442909",
    "latitude": "29.933344395825817",
    "geocoded_column": {
      "latitude": "29.933344395825817",
      "longitude": "-90.07390938442909"
    }
  },
  {
    "service_request": "2025-1210211",
    "request_type": "Drainage",
    "request_reason": "Catch Basin Clogged",
    "date_created": "2025-07-16T16:17:30.000",
    "date_modified": "2025-07-16T16:17:32.000",
    "request_status": "Pending",
    "responsible_agency": "Sewerage & Water Board",
    "final_address": "914 Jena St",
    "address_councildis": "B",
    "status": "Pending",
    "rowid": "1210211",
    "final_x": "3670610.75035",
    "final_y": "518888.807223",
    "longitude": "-90.10288304028485",
    "latitude": "29.921090123150293",
    "geocoded_column": {
      "latitude": "29.921090123150293",
      "longitude": "-90.10288304028485"
    }
  },
  {
    "service_request": "2025-1210210",
    "request_type": "Trash/Recycling",
    "request_reason": "Missed Trash Pick-Up",
    "date_created": "2025-07-16T16:15:10.000",
    "date_modified": "2025-07-16T16:15:11.000",
    "request_status": "Pending",
    "responsible_agency": "Department of Sanitation",
    "final_address": "7835 Saint Charles Ave, New Orleans, Louisiana, 70118",
    "status": "Assigned to Contractor",
    "rowid": "1210210",
    "longitude": "0.0",
    "latitude": "0.0",
    "geocoded_column": {
      "latitude": "0.0",
      "longitude": "0.0"
    }
  },
  {
    "service_request": "2025-1210209",
    "request_type": "Trash/Recycling",
    "request_reason": "Request a Large Item Pick Up",
    "date_created": "2025-07-16T16:14:10.000",
    "date_modified": "2025-07-16T16:14:12.000",
    "request_status": "Pending",
    "responsible_agency": "Department of Sanitation",
    "final_address": "2539 N Rampart St",
    "address_councildis": "C",
    "status": "Assigned to Contractor",
    "contractor": "IV Waste",
    "rowid": "1210209",
    "final_x": "3686836.00809",
    "final_y": "536119.204487",
    "longitude": "-90.05105865080486",
    "latitude": "29.96797881132173",
    "geocoded_column": {
      "latitude": "29.96797881132173",
      "longitude": "-90.05105865080486"
    }
  },
  {
    "service_request": "2025-1210208",
    "request_type": "Roads and Streets",
    "request_reason": "Street Subsidence (Sinking)",
    "date_created": "2025-07-16T16:11:46.000",
    "date_modified": "2025-07-16T16:11:47.000",
    "request_status": "Pending",
    "responsible_agency": "Department of Public Works",
    "final_address": "6013 Benjamin St",
    "address_councildis": "A",
    "status": "Pending",
    "rowid": "1210208",
    "final_x": "3665399.81447",
    "final_y": "522260.31225",
    "longitude": "-90.11921893129065",
    "latitude": "29.930513536021515",
    "geocoded_column": {
      "latitude": "29.930513536021515",
      "longitude": "-90.11921893129065"
    }
  },
  {
    "service_request": "2025-1210207",
    "request_type": "Trash/Recycling",
    "request_reason": "Repair Recycling Cart",
    "date_created": "2025-07-16T16:08:24.000",
    "date_modified": "2025-07-16T16:08:25.000",
    "request_status": "Pending",
    "responsible_agency": "Department of Sanitation",
    "final_address": "3119 Royal St",
    "address_councildis": "C",
    "status": "Pending",
    "rowid": "1210207",
    "final_x": "3688783.8822",
    "final_y": "534495.246917",
    "longitude": "-90.04496487864512",
    "latitude": "29.963453414143036",
    "geocoded_column": {
      "latitude": "29.963453414143036",
      "longitude": "-90.04496487864512"
    }
  },
  {
    "service_request": "2025-1210206",
    "request_type": "Trash/Recycling",
    "request_reason": "Replace Trash Cart",
    "date_created": "2025-07-16T16:07:30.000",
    "date_modified": "2025-07-16T16:07:31.000",
    "request_status": "Pending",
    "responsible_agency": "Department of Sanitation",
    "final_address": "6544 Canal Blvd",
    "address_councildis": "A",
    "status": "Assigned to Contractor",
    "contractor": "IV Waste",
    "rowid": "1210206",
    "final_x": "3668657.7506",
    "final_y": "551073.755605",
    "longitude": "-90.10796135316879",
    "latitude": "30.009645548068715",
    "geocoded_column": {
      "latitude": "30.009645548068715",
      "longitude": "-90.10796135316879"
    }
  },
  {
    "service_request": "2025-1210205",
    "request_type": "Trash/Recycling",
    "request_reason": "Request a Large Item Pick Up",
    "date_created": "2025-07-16T16:03:19.000",
    "date_modified": "2025-07-16T16:03:21.000",
    "request_status": "Pending",
    "responsible_agency": "Department of Sanitation",
    "final_address": "2466 N Rampart St",
    "address_councildis": "C",
    "status": "Assigned to Contractor",
    "contractor": "IV Waste",
    "rowid": "1210205",
    "final_x": "3686379.615",
    "final_y": "536024.462215",
    "longitude": "-90.05250329744165",
    "latitude": "29.967732338617495",
    "geocoded_column": {
      "latitude": "29.967732338617495",
      "longitude": "-90.05250329744165"
    }
  },
  {
    "service_request": "2025-1210204",
    "request_type": "Parks & Parkways",
    "request_reason": "Request Grass Cutting Service (City Owned Property)",
    "date_created": "2025-07-16T16:01:25.000",
    "date_modified": "2025-07-16T16:01:27.000",
    "request_status": "Pending",
    "responsible_agency": "Department of Parks & Parkway",
    "final_address": "7070 Boston Dr",
    "address_councildis": "E",
    "status": "Pending",
    "rowid": "1210204",
    "final_x": "3706282.94391",
    "final_y": "560849.44547",
    "longitude": "-89.98872860910454",
    "latitude": "30.035364876495724",
    "geocoded_column": {
      "latitude": "30.035364876495724",
      "longitude": "-89.98872860910454"
    }
  },
  {
    "service_request": "2025-1210203",
    "request_type": "Drainage",
    "request_reason": "Drainage Manhole Cover Missing or Damaged",
    "date_created": "2025-07-16T15:52:45.000",
    "date_modified": "2025-07-16T15:52:47.000",
    "request_status": "Pending",
    "responsible_agency": "Sewerage & Water Board",
    "final_address": "300 Baronne St",
    "address_councildis": "B",
    "status": "Pending",
    "rowid": "1210203",
    "final_x": "530338.80941",
    "final_y": "530338.80941",
    "longitude": "-100.00259656007336",
    "latitude": "29.672083447576462",
    "geocoded_column": {
      "latitude": "29.672083447576462",
      "longitude": "-100.00259656007336"
    }
  },
  {
    "service_request": "2025-1210202",
    "request_type": "Drainage",
    "request_reason": "Catch Basin Clogged",
    "date_created": "2025-07-16T15:49:52.000",
    "date_modified": "2025-07-16T15:49:53.000",
    "request_status": "Pending",
    "responsible_agency": "Sewerage & Water Board",
    "final_address": "1927 Aubry St",
    "address_councildis": "D",
    "status": "Pending",
    "rowid": "1210202",
    "final_x": "3681833.12616",
    "final_y": "539498.157002",
    "longitude": "-90.06673996014915",
    "latitude": "29.977422754329346",
    "geocoded_column": {
      "latitude": "29.977422754329346",
      "longitude": "-90.06673996014915"
    }
  },
  {
    "service_request": "2025-1210201",
    "request_type": "Trash/Recycling",
    "request_reason": "Request a Large Item Pick Up",
    "date_created": "2025-07-16T15:46:04.000",
    "date_modified": "2025-07-16T15:46:06.000",
    "request_status": "Pending",
    "responsible_agency": "Department of Sanitation",
    "final_address": "2731 Ursulines Ave",
    "address_councildis": "A",
    "status": "Assigned to Contractor",
    "contractor": "IV Waste",
    "rowid": "1210201",
    "final_x": "3677270.00699",
    "final_y": "538522.638601",
    "longitude": "-90.0811854909971",
    "latitude": "29.974878317430278",
    "geocoded_column": {
      "latitude": "29.974878317430278",
      "longitude": "-90.0811854909971"
    }
  },
  {
    "service_request": "2025-1210200",
    "request_type": "Property Maintenance",
    "request_reason": "Property Maintenance",
    "date_created": "2025-07-16T15:45:38.000",
    "date_modified": "2025-07-16T15:45:40.000",
    "request_status": "Pending",
    "responsible_agency": "Department of Code Enforcement",
    "final_address": "616 Lizardi St",
    "address_councildis": "E",
    "status": "Pending",
    "rowid": "1210200",
    "final_x": "3696020.60842",
    "final_y": "532453.2281",
    "longitude": "-90.0221859869385",
    "latitude": "29.957612863365963",
    "geocoded_column": {
      "latitude": "29.957612863365963",
      "longitude": "-90.0221859869385"
    }
  },
  {
    "service_request": "2025-1210199",
    "request_type": "Trash/Recycling",
    "request_reason": "Missed Trash Pick-Up",
    "date_created": "2025-07-16T15:43:58.000",
    "date_modified": "2025-07-16T15:59:12.000",
    "case_close_date": "2025-07-16T10:59:11.000",
    "request_status": "Closed",
    "responsible_agency": "Department of Sanitation",
    "final_address": "4029 Hollygrove St",
    "address_councildis": "A",
    "status": "Invalid Request",
    "contractor": "IV Waste",
    "contractor_action": "Invalid",
    "rowid": "1210199",
    "final_x": "3666500.23802",
    "final_y": "538027.152009",
    "longitude": "-90.11521591457807",
    "latitude": "29.973835105502133",
    "geocoded_column": {
      "latitude": "29.973835105502133",
      "longitude": "-90.11521591457807"
    }
  },
  {
    "service_request": "2025-1210198",
    "request_type": "Trash/Recycling",
    "request_reason": "Order Recycling Cart",
    "date_created": "2025-07-16T15:42:32.000",
    "date_modified": "2025-07-16T15:42:33.000",
    "request_status": "Pending",
    "responsible_agency": "Department of Sanitation",
    "final_address": "5721 Pasteur Blvd",
    "address_councildis": "D",
    "status": "Pending",
    "rowid": "1210198",
    "final_x": "3682922.00149",
    "final_y": "554135.597784",
    "longitude": "-90.06278832021019",
    "latitude": "30.01763734787505",
    "geocoded_column": {
      "latitude": "30.01763734787505",
      "longitude": "-90.06278832021019"
    }
  },
  {
    "service_request": "2025-1210197",
    "request_type": "Trash/Recycling",
    "request_reason": "Order Trash Cart",
    "date_created": "2025-07-16T15:40:58.000",
    "date_modified": "2025-07-16T15:41:00.000",
    "request_status": "Pending",
    "responsible_agency": "Department of Sanitation",
    "final_address": "3840 Bienville Ave",
    "address_councildis": "A",
    "status": "Assigned to Contractor",
    "contractor": "IV Waste",
    "rowid": "1210197",
    "final_x": "3672239.09422",
    "final_y": "538381.065801",
    "longitude": "-90.0970792452059",
    "latitude": "29.974639248008753",
    "geocoded_column": {
      "latitude": "29.974639248008753",
      "longitude": "-90.0970792452059"
    }
  },
  {
    "service_request": "2025-1210196",
    "request_type": "Drainage",
    "request_reason": "Catch Basin Clogged",
    "date_created": "2025-07-16T15:38:30.000",
    "date_modified": "2025-07-16T15:38:32.000",
    "request_status": "Pending",
    "responsible_agency": "Sewerage & Water Board",
    "final_address": "736 Dumaine St",
    "address_councildis": "C",
    "status": "Pending",
    "rowid": "1210196",
    "final_x": "3682741.19861",
    "final_y": "533204.841412",
    "longitude": "-90.06409213683787",
    "latitude": "29.960090678029484",
    "geocoded_column": {
      "latitude": "29.960090678029484",
      "longitude": "-90.06409213683787"
    }
  },
  {
    "service_request": "2025-1210195",
    "request_type": "Abandoned Vehicles",
    "request_reason": "Abandoned/Junk Vehicles",
    "date_created": "2025-07-16T15:37:41.000",
    "date_modified": "2025-07-16T15:37:43.000",
    "request_status": "Pending",
    "responsible_agency": "Department of Public Works",
    "final_address": "2454 Prentiss Ave",
    "address_councildis": "D",
    "status": "Pending",
    "rowid": "1210195",
    "final_x": "3685557.5238",
    "final_y": "553892.069975",
    "longitude": "-90.05446970843366",
    "latitude": "30.016887118577944",
    "geocoded_column": {
      "latitude": "30.016887118577944",
      "longitude": "-90.05446970843366"
    }
  },
  {
    "service_request": "2025-1210194",
    "request_type": "Property Maintenance",
    "request_reason": "Property Maintenance",
    "date_created": "2025-07-16T15:37:15.000",
    "date_modified": "2025-07-16T15:37:17.000",
    "request_status": "Pending",
    "responsible_agency": "Department of Code Enforcement",
    "final_address": "5871 W Deer Park Blvd",
    "address_councildis": "E",
    "status": "Pending",
    "rowid": "1210194",
    "final_x": "3712135.6069",
    "final_y": "561104.266142",
    "longitude": "-89.97022381691185",
    "latitude": "30.03587539163358",
    "geocoded_column": {
      "latitude": "30.03587539163358",
      "longitude": "-89.97022381691185"
    }
  },
  {
    "service_request": "2025-1210193",
    "request_type": "Streetlights",
    "request_reason": "Streetlight Outage/Malfunction",
    "date_created": "2025-07-16T15:35:16.000",
    "date_modified": "2025-07-16T15:35:18.000",
    "request_status": "Pending",
    "responsible_agency": "Department of Public Works",
    "final_address": "8423 Pritchard Pl",
    "address_councildis": "A",
    "status": "Pending",
    "contractor": "Legacy Professional Services",
    "rowid": "1210193",
    "final_x": "3665158.7328",
    "final_y": "533762.228101",
    "longitude": "-90.11959537870347",
    "latitude": "29.962147119888524",
    "geocoded_column": {
      "latitude": "29.962147119888524",
      "longitude": "-90.11959537870347"
    }
  },
  {
    "service_request": "2025-1210192",
    "request_type": "Trash/Recycling",
    "request_reason": "Request a Large Item Pick Up",
    "date_created": "2025-07-16T15:30:57.000",
    "date_modified": "2025-07-16T15:31:00.000",
    "request_status": "Pending",
    "responsible_agency": "Department of Sanitation",
    "final_address": "4710 Coronado Dr",
    "address_councildis": "E",
    "status": "Assigned to Contractor",
    "contractor": "Waste Pro",
    "rowid": "1210192",
    "final_x": "3714076.47493",
    "final_y": "556287.308954",
    "longitude": "-89.96427226083689",
    "latitude": "30.022567048205087",
    "geocoded_column": {
      "latitude": "30.022567048205087",
      "longitude": "-89.96427226083689"
    }
  },
  {
    "service_request": "2025-1210191",
    "request_type": "Trash/Recycling",
    "request_reason": "Missed Trash Pick-Up",
    "date_created": "2025-07-16T15:30:31.000",
    "date_modified": "2025-07-16T15:30:33.000",
    "request_status": "Pending",
    "responsible_agency": "Department of Sanitation",
    "final_address": "11308 Will Stutley Dr",
    "address_councildis": "E",
    "status": "Assigned to Contractor",
    "contractor": "Waste Pro",
    "rowid": "1210191",
    "final_x": "3716953.59775",
    "final_y": "558190.720283",
    "longitude": "-89.95510900151461",
    "latitude": "30.027705834949188",
    "geocoded_column": {
      "latitude": "30.027705834949188",
      "longitude": "-89.95510900151461"
    }
  },
  {
    "service_request": "2025-1210190",
    "request_type": "Trash/Recycling",
    "request_reason": "Request a Large Item Pick Up",
    "date_created": "2025-07-16T15:29:19.000",
    "date_modified": "2025-07-16T15:29:21.000",
    "request_status": "Pending",
    "responsible_agency": "Department of Sanitation",
    "final_address": "1708 Independence St",
    "address_councildis": "D",
    "status": "Assigned to Contractor",
    "contractor": "IV Waste",
    "rowid": "1210190",
    "final_x": "3691489.62172",
    "final_y": "537845.456073",
    "longitude": "-90.0363007231169",
    "latitude": "29.97258137854249",
    "geocoded_column": {
      "latitude": "29.97258137854249",
      "longitude": "-90.0363007231169"
    }
  },
  {
    "service_request": "2025-1210189",
    "request_type": "Trash/Recycling",
    "request_reason": "Change Size of Trash Cart",
    "date_created": "2025-07-16T15:28:15.000",
    "date_modified": "2025-07-16T15:28:17.000",
    "request_status": "Pending",
    "responsible_agency": "Department of Sanitation",
    "final_address": "4670 Painters St",
    "address_councildis": "D",
    "status": "Assigned to Contractor",
    "contractor": "IV Waste",
    "rowid": "1210189",
    "final_x": "3686158.20156",
    "final_y": "550145.834196",
    "longitude": "-90.05270410990099",
    "latitude": "30.006567893323123",
    "geocoded_column": {
      "latitude": "30.006567893323123",
      "longitude": "-90.05270410990099"
    }
  },
  {
    "service_request": "2025-1210188",
    "request_type": "Trash/Recycling",
    "request_reason": "Request a Large Item Pick Up",
    "date_created": "2025-07-16T15:26:13.000",
    "date_modified": "2025-07-16T15:26:15.000",
    "request_status": "Pending",
    "responsible_agency": "Department of Sanitation",
    "final_address": "1856 N Rocheblave St",
    "address_councildis": "D",
    "status": "Assigned to Contractor",
    "contractor": "IV Waste",
    "rowid": "1210188",
    "final_x": "3681275.40821",
    "final_y": "540788.520075",
    "longitude": "-90.06845643079623",
    "latitude": "29.98098774306597",
    "geocoded_column": {
      "latitude": "29.98098774306597",
      "longitude": "-90.06845643079623"
    }
  },
  {
    "service_request": "2025-1210187",
    "request_type": "Trash/Recycling",
    "request_reason": "Request a Large Item Pick Up",
    "date_created": "2025-07-16T15:25:37.000",
    "date_modified": "2025-07-16T15:25:41.000",
    "request_status": "Pending",
    "responsible_agency": "Department of Sanitation",
    "final_address": "1702 Independence St",
    "address_councildis": "D",
    "status": "Assigned to Contractor",
    "contractor": "IV Waste",
    "rowid": "1210187",
    "final_x": "3691477.51267",
    "final_y": "537811.049608",
    "longitude": "-90.0363401954967",
    "latitude": "29.972487149834638",
    "geocoded_column": {
      "latitude": "29.972487149834638",
      "longitude": "-90.0363401954967"
    }
  },
  {
    "service_request": "2025-1210186",
    "request_type": "Trash/Recycling",
    "request_reason": "Request a Large Item Pick Up",
    "date_created": "2025-07-16T15:24:12.000",
    "date_modified": "2025-07-16T15:24:13.000",
    "request_status": "Pending",
    "responsible_agency": "Department of Sanitation",
    "final_address": "1852 N Dorgenois St",
    "address_councildis": "D",
    "status": "Assigned to Contractor",
    "contractor": "IV Waste",
    "rowid": "1210186",
    "final_x": "3681002.96251",
    "final_y": "541136.197708",
    "longitude": "-90.06930482167851",
    "latitude": "29.981952001986564",
    "geocoded_column": {
      "latitude": "29.981952001986564",
      "longitude": "-90.06930482167851"
    }
  },
  {
    "service_request": "2025-1210185",
    "request_type": "Property Maintenance",
    "request_reason": "Property Maintenance",
    "date_created": "2025-07-16T15:23:10.000",
    "date_modified": "2025-07-16T15:23:11.000",
    "request_status": "Pending",
    "responsible_agency": "Department of Code Enforcement",
    "final_address": "145 N Telemachus St",
    "address_councildis": "B",
    "status": "Pending",
    "rowid": "1210185",
    "final_x": "3672498.97895",
    "final_y": "537753.334408",
    "longitude": "-90.09627986718958",
    "latitude": "29.972905486981844",
    "geocoded_column": {
      "latitude": "29.972905486981844",
      "longitude": "-90.09627986718958"
    }
  },
  {
    "service_request": "2025-1210184",
    "request_type": "Property Maintenance",
    "request_reason": "Property Maintenance",
    "date_created": "2025-07-16T15:23:09.000",
    "date_modified": "2025-07-16T15:23:11.000",
    "request_status": "Pending",
    "responsible_agency": "Department of Code Enforcement",
    "final_address": "145 N Telemachus St",
    "address_councildis": "B",
    "status": "Pending",
    "rowid": "1210184",
    "final_x": "3672498.97895",
    "final_y": "537753.334408",
    "longitude": "-90.09627986718958",
    "latitude": "29.972905486981844",
    "geocoded_column": {
      "latitude": "29.972905486981844",
      "longitude": "-90.09627986718958"
    }
  },
  {
    "service_request": "2025-1210183",
    "request_type": "Streetlights",
    "request_reason": "Streetlight Outage/Malfunction",
    "date_created": "2025-07-16T15:21:16.000",
    "date_modified": "2025-07-16T15:21:18.000",
    "request_status": "Pending",
    "responsible_agency": "Department of Public Works",
    "final_address": "4670 Painters St",
    "address_councildis": "D",
    "status": "Pending",
    "contractor": "Legacy Professional Services",
    "rowid": "1210183",
    "final_x": "3686158.20156",
    "final_y": "550145.834196",
    "longitude": "-90.05270410990099",
    "latitude": "30.006567893323123",
    "geocoded_column": {
      "latitude": "30.006567893323123",
      "longitude": "-90.05270410990099"
    }
  },
  {
    "service_request": "2025-1210182",
    "request_type": "Property Maintenance",
    "request_reason": "Property Maintenance",
    "date_created": "2025-07-16T15:20:31.000",
    "date_modified": "2025-07-16T15:20:34.000",
    "request_status": "Pending",
    "responsible_agency": "Department of Code Enforcement",
    "final_address": "3026 Castiglione St",
    "address_councildis": "D",
    "status": "Pending",
    "rowid": "1210182",
    "final_x": "3678904.05102",
    "final_y": "542603.592077",
    "longitude": "-90.0758833246699",
    "latitude": "29.986050324177498",
    "geocoded_column": {
      "latitude": "29.986050324177498",
      "longitude": "-90.0758833246699"
    }
  },
  {
    "service_request": "2025-1210181",
    "request_type": "Drainage",
    "request_reason": "Catch Basin Clogged",
    "date_created": "2025-07-16T15:19:50.000",
    "date_modified": "2025-07-16T15:19:51.000",
    "request_status": "Pending",
    "responsible_agency": "Sewerage & Water Board",
    "final_address": "1535 Gentilly Blvd",
    "address_councildis": "A",
    "status": "Pending",
    "rowid": "1210181",
    "final_x": "3678214.16226",
    "final_y": "540106.702731",
    "longitude": "-90.07814880575711",
    "latitude": "29.97920554424044",
    "geocoded_column": {
      "latitude": "29.97920554424044",
      "longitude": "-90.07814880575711"
    }
  },
  {
    "service_request": "2025-1210180",
    "request_type": "Mosquito, Termite & Rodent Control",
    "request_reason": "Rodent Complaint (Mice & Rats)",
    "date_created": "2025-07-16T15:19:46.000",
    "date_modified": "2025-07-16T15:19:47.000",
    "request_status": "Pending",
    "responsible_agency": "Mosquito, Termite & Rodent Control Board",
    "final_address": "1912 Foucher St",
    "address_councildis": "B",
    "status": "Pending",
    "rowid": "1210180",
    "final_x": "3673054.33377",
    "final_y": "522410.486842",
    "longitude": "-90.09504959677437",
    "latitude": "29.93070123303622",
    "geocoded_column": {
      "latitude": "29.93070123303622",
      "longitude": "-90.09504959677437"
    }
  },
  {
    "service_request": "2025-1210179",
    "request_type": "Parks & Parkways",
    "request_reason": "Request Tree Service (Right of Way/Public Property)",
    "date_created": "2025-07-16T15:19:34.000",
    "date_modified": "2025-07-16T15:19:36.000",
    "request_status": "Pending",
    "responsible_agency": "Department of Parks & Parkway",
    "final_address": "8 Chatham Dr",
    "address_councildis": "D",
    "status": "Pending",
    "rowid": "1210179",
    "final_x": "3680244.58395",
    "final_y": "550991.399701",
    "longitude": "-90.07135731907728",
    "latitude": "30.009073299855203",
    "geocoded_column": {
      "latitude": "30.009073299855203",
      "longitude": "-90.07135731907728"
    }
  },
  {
    "service_request": "2025-1210178",
    "request_type": "Trash/Recycling",
    "request_reason": "Request a Large Item Pick Up",
    "date_created": "2025-07-16T15:19:28.000",
    "date_modified": "2025-07-16T15:19:31.000",
    "request_status": "Pending",
    "responsible_agency": "Department of Sanitation",
    "final_address": "27 Neron Pl",
    "address_councildis": "A",
    "status": "Assigned to Contractor",
    "contractor": "IV Waste",
    "rowid": "1210178",
    "final_x": "3665127.87943",
    "final_y": "530776.048898",
    "longitude": "-90.11979268016171",
    "latitude": "29.953937001089827",
    "geocoded_column": {
      "latitude": "29.953937001089827",
      "longitude": "-90.11979268016171"
    }
  },
  {
    "service_request": "2025-1210177",
    "request_type": "Property Maintenance",
    "request_reason": "Property Maintenance",
    "date_created": "2025-07-16T15:15:28.000",
    "date_modified": "2025-07-16T15:15:29.000",
    "request_status": "Pending",
    "responsible_agency": "Department of Code Enforcement",
    "final_address": "3505 Constance St",
    "address_councildis": "B",
    "status": "Pending",
    "rowid": "1210177",
    "final_x": "3674494.77934",
    "final_y": "519070.214455",
    "longitude": "-90.0906166744525",
    "latitude": "29.92147367918116",
    "geocoded_column": {
      "latitude": "29.92147367918116",
      "longitude": "-90.0906166744525"
    }
  },
  {
    "service_request": "2025-1210176",
    "request_type": "Trash/Recycling",
    "request_reason": "Repair Trash Cart",
    "date_created": "2025-07-16T15:15:22.000",
    "date_modified": "2025-07-16T15:15:24.000",
    "request_status": "Pending",
    "responsible_agency": "Department of Sanitation",
    "final_address": "4703 Shalimar Dr",
    "address_councildis": "D",
    "status": "Assigned to Contractor",
    "contractor": "Waste Pro",
    "rowid": "1210176",
    "final_x": "3697267.72618",
    "final_y": "553988.412248",
    "longitude": "-90.01746705576014",
    "latitude": "30.01678745692489",
    "geocoded_column": {
      "latitude": "30.01678745692489",
      "longitude": "-90.01746705576014"
    }
  },
  {
    "service_request": "2025-1210175",
    "request_type": "Parks & Parkways",
    "request_reason": "Request Tree Service (Right of Way/Public Property)",
    "date_created": "2025-07-16T15:14:44.000",
    "date_modified": "2025-07-16T15:14:45.000",
    "request_status": "Pending",
    "responsible_agency": "Department of Parks & Parkway",
    "final_address": "5765 Wingate Dr",
    "address_councildis": "D",
    "status": "Pending",
    "rowid": "1210175",
    "final_x": "3681298.91644",
    "final_y": "554450.852248",
    "longitude": "-90.06790562805116",
    "latitude": "30.0185535688667",
    "geocoded_column": {
      "latitude": "30.0185535688667",
      "longitude": "-90.06790562805116"
    }
  },
  {
    "service_request": "2025-1210174",
    "request_type": "Roads and Streets",
    "request_reason": "Pothole",
    "date_created": "2025-07-16T15:11:39.000",
    "date_modified": "2025-07-16T15:11:41.000",
    "request_status": "Pending",
    "responsible_agency": "Department of Public Works",
    "final_address": "2464 Pressburg St",
    "address_councildis": "D",
    "status": "Pending",
    "rowid": "1210174",
    "final_x": "3685638.31618",
    "final_y": "554714.508696",
    "longitude": "-90.05418542985853",
    "latitude": "30.0191460426198",
    "geocoded_column": {
      "latitude": "30.0191460426198",
      "longitude": "-90.05418542985853"
    }
  },
  {
    "service_request": "2025-1210173",
    "request_type": "Trash/Recycling",
    "request_reason": "Request a Large Item Pick Up",
    "date_created": "2025-07-16T15:10:14.000",
    "date_modified": "2025-07-16T15:10:17.000",
    "request_status": "Pending",
    "responsible_agency": "Department of Sanitation",
    "final_address": "7431 Dartmoor Dr",
    "address_councildis": "E",
    "status": "Assigned to Contractor",
    "contractor": "Waste Pro",
    "rowid": "1210173",
    "final_x": "3704973.47313",
    "final_y": "562159.900127",
    "longitude": "-89.99281827648744",
    "latitude": "30.03901029740254",
    "geocoded_column": {
      "latitude": "30.03901029740254",
      "longitude": "-89.99281827648744"
    }
  },
  {
    "service_request": "2025-1210172",
    "request_type": "General Services",
    "request_reason": "General Service Request",
    "date_created": "2025-07-16T15:10:11.000",
    "date_modified": "2025-07-16T15:27:26.000",
    "case_close_date": "2025-07-16T10:27:25.000",
    "request_status": "Closed",
    "responsible_agency": "Orleans Parish Communication District",
    "final_address": "4816 Cleveland Ave",
    "address_councildis": "A",
    "status": "Question Answered.",
    "rowid": "1210172",
    "final_x": "3668395.19412",
    "final_y": "539779.634058",
    "longitude": "-90.10917207607325",
    "latitude": "29.978598314046234",
    "geocoded_column": {
      "latitude": "29.978598314046234",
      "longitude": "-90.10917207607325"
    }
  },
  {
    "service_request": "2025-1210171",
    "request_type": "Property Maintenance",
    "request_reason": "Property Maintenance",
    "date_created": "2025-07-16T15:01:52.000",
    "date_modified": "2025-07-16T15:03:54.000",
    "request_status": "Pending",
    "responsible_agency": "Department of Code Enforcement",
    "final_address": "1813 Gentilly Blvd",
    "address_councildis": "A",
    "status": "Pending",
    "rowid": "1210171",
    "final_x": "3678679.72859",
    "final_y": "542429.018957",
    "longitude": "-90.07659791891088",
    "latitude": "29.985577075950562",
    "geocoded_column": {
      "latitude": "29.985577075950562",
      "longitude": "-90.07659791891088"
    }
  },
  {
    "service_request": "2025-1210170",
    "request_type": "Roads and Streets",
    "request_reason": "Sidewalk Damaged or Missing",
    "date_created": "2025-07-16T14:58:57.000",
    "date_modified": "2025-07-16T14:58:59.000",
    "request_status": "Pending",
    "responsible_agency": "Department of Public Works",
    "final_address": "3300 BLK S Saratoga St",
    "address_councildis": "B",
    "status": "Pending",
    "rowid": "1210170",
    "final_x": "3673683.03416",
    "final_y": "523275.37909",
    "longitude": "-90.09303532298316",
    "latitude": "29.933060709811063",
    "geocoded_column": {
      "latitude": "29.933060709811063",
      "longitude": "-90.09303532298316"
    }
  },
  {
    "service_request": "2025-1210169",
    "request_type": "Trash/Recycling",
    "request_reason": "Request a Large Item Pick Up",
    "date_created": "2025-07-16T14:57:30.000",
    "date_modified": "2025-07-16T14:57:32.000",
    "request_status": "Pending",
    "responsible_agency": "Department of Sanitation",
    "final_address": "1815 Fats Domino Ave",
    "address_councildis": "E",
    "status": "Assigned to Contractor",
    "contractor": "Waste Pro",
    "rowid": "1210169",
    "final_x": "3698818.51984",
    "final_y": "536491.274567",
    "longitude": "-90.01320415230347",
    "latitude": "29.968627721846893",
    "geocoded_column": {
      "latitude": "29.968627721846893",
      "longitude": "-90.01320415230347"
    }
  },
  {
    "service_request": "2025-1210168",
    "request_type": "Trash/Recycling",
    "request_reason": "Request a Large Item Pick Up",
    "date_created": "2025-07-16T14:55:15.000",
    "date_modified": "2025-07-16T14:55:17.000",
    "request_status": "Pending",
    "responsible_agency": "Department of Sanitation",
    "final_address": "2338 Charbonnet St",
    "address_councildis": "E",
    "status": "Assigned to Contractor",
    "contractor": "Waste Pro",
    "rowid": "1210168",
    "final_x": "3699868.07684",
    "final_y": "538430.014089",
    "longitude": "-90.00981889427665",
    "latitude": "29.97392526518838",
    "geocoded_column": {
      "latitude": "29.97392526518838",
      "longitude": "-90.00981889427665"
    }
  },
  {
    "service_request": "2025-1210167",
    "request_type": "Trash/Recycling",
    "request_reason": "Order Trash Cart",
    "date_created": "2025-07-16T14:51:04.000",
    "date_modified": "2025-07-16T14:51:06.000",
    "request_status": "Pending",
    "responsible_agency": "Department of Sanitation",
    "final_address": "3920 Erato St",
    "address_councildis": "B",
    "status": "Assigned to Contractor",
    "contractor": "IV Waste",
    "rowid": "1210167",
    "final_x": "3672516.95015",
    "final_y": "530419.255682",
    "longitude": "-90.09647313401825",
    "latitude": "29.95273869018302",
    "geocoded_column": {
      "latitude": "29.95273869018302",
      "longitude": "-90.09647313401825"
    }
  },
  {
    "service_request": "2025-1210166",
    "request_type": "Trash/Recycling",
    "request_reason": "Request a Large Item Pick Up",
    "date_created": "2025-07-16T14:45:44.000",
    "date_modified": "2025-07-16T14:45:46.000",
    "request_status": "Pending",
    "responsible_agency": "Department of Sanitation",
    "final_address": "5530 New England Dr",
    "address_councildis": "E",
    "status": "Assigned to Contractor",
    "contractor": "Waste Pro",
    "rowid": "1210166",
    "final_x": "3723625.88582",
    "final_y": "563753.894689",
    "longitude": "-89.93381065186179",
    "latitude": "30.042779928847647",
    "geocoded_column": {
      "latitude": "30.042779928847647",
      "longitude": "-89.93381065186179"
    }
  },
  {
    "service_request": "2025-1210165",
    "request_type": "Roads and Streets",
    "request_reason": "Pothole",
    "date_created": "2025-07-16T14:45:30.000",
    "date_modified": "2025-07-16T14:45:32.000",
    "request_status": "Pending",
    "responsible_agency": "Department of Public Works",
    "final_address": "ALVAR ST & HIGGINS BLVD",
    "address_councildis": "D",
    "status": "Pending",
    "rowid": "1210165",
    "final_x": "3693452.5",
    "final_y": "546192.08",
    "longitude": "-90.02980174841532",
    "latitude": "29.995470345307673",
    "geocoded_column": {
      "latitude": "29.995470345307673",
      "longitude": "-90.02980174841532"
    }
  },
  {
    "service_request": "2025-1210164",
    "request_type": "Trash/Recycling",
    "request_reason": "Request a Large Item Pick Up",
    "date_created": "2025-07-16T14:45:25.000",
    "date_modified": "2025-07-16T14:45:26.000",
    "request_status": "Pending",
    "responsible_agency": "Department of Sanitation",
    "final_address": "7219 Freret St",
    "address_councildis": "A",
    "status": "Assigned to Contractor",
    "contractor": "IV Waste",
    "rowid": "1210164",
    "final_x": "3663648.90195",
    "final_y": "526031.868734",
    "longitude": "-90.12462072878321",
    "latitude": "29.94093501740255",
    "geocoded_column": {
      "latitude": "29.94093501740255",
      "longitude": "-90.12462072878321"
    }
  },
  {
    "service_request": "2025-1210163",
    "request_type": "General Services",
    "request_reason": "General Service Request",
    "date_created": "2025-07-16T14:45:09.000",
    "date_modified": "2025-07-16T14:54:33.000",
    "case_close_date": "2025-07-16T09:54:31.000",
    "request_status": "Closed",
    "responsible_agency": "Orleans Parish Communication District",
    "final_address": "ALVAR ST & HIGGINS BLVD",
    "address_councildis": "D",
    "status": "Referred to Risk Management",
    "rowid": "1210163",
    "final_x": "3693452.5",
    "final_y": "546192.08",
    "longitude": "-90.02980174841532",
    "latitude": "29.995470345307673",
    "geocoded_column": {
      "latitude": "29.995470345307673",
      "longitude": "-90.02980174841532"
    }
  },
  {
    "service_request": "2025-1210162",
    "request_type": "Trash/Recycling",
    "request_reason": "Order Second Trash Cart",
    "date_created": "2025-07-16T14:40:27.000",
    "date_modified": "2025-07-16T14:40:29.000",
    "request_status": "Pending",
    "responsible_agency": "Department of Sanitation",
    "final_address": "5714 Elysian Fields Ave",
    "address_councildis": "D",
    "status": "Assigned to Contractor",
    "contractor": "IV Waste",
    "rowid": "1210162",
    "final_x": "3683415.63817",
    "final_y": "554011.055704",
    "longitude": "-90.06123299275899",
    "latitude": "30.017279843086673",
    "geocoded_column": {
      "latitude": "30.017279843086673",
      "longitude": "-90.06123299275899"
    }
  },
  {
    "service_request": "2025-1210161",
    "request_type": "Trash/Recycling",
    "request_reason": "Repair Trash Cart",
    "date_created": "2025-07-16T14:39:32.000",
    "date_modified": "2025-07-16T14:39:33.000",
    "request_status": "Pending",
    "responsible_agency": "Department of Sanitation",
    "final_address": "3127 N Galvez St",
    "address_councildis": "D",
    "status": "Assigned to Contractor",
    "contractor": "IV Waste",
    "rowid": "1210161",
    "final_x": "3690246.75721",
    "final_y": "539722.887946",
    "longitude": "-90.04015898382465",
    "latitude": "29.97778227640921",
    "geocoded_column": {
      "latitude": "29.97778227640921",
      "longitude": "-90.04015898382465"
    }
  },
  {
    "service_request": "2025-1210160",
    "request_type": "Drainage",
    "request_reason": "Catch Basin Clogged",
    "date_created": "2025-07-16T14:33:20.000",
    "date_modified": "2025-07-16T14:33:22.000",
    "request_status": "Pending",
    "responsible_agency": "Sewerage & Water Board",
    "final_address": "1921 Foucher St",
    "address_councildis": "B",
    "status": "Pending",
    "rowid": "1210160",
    "final_x": "3673111.97019",
    "final_y": "522499.321786",
    "longitude": "-90.09486461549204",
    "latitude": "29.93094378764621",
    "geocoded_column": {
      "latitude": "29.93094378764621",
      "longitude": "-90.09486461549204"
    }
  },
  {
    "service_request": "2025-1210159",
    "request_type": "Abandoned Vehicles",
    "request_reason": "Abandoned/Junk Vehicles",
    "date_created": "2025-07-16T14:31:29.000",
    "date_modified": "2025-07-16T14:37:39.000",
    "request_status": "Pending",
    "responsible_agency": "Department of Public Works",
    "final_address": "1736 Duels St",
    "address_councildis": "D",
    "status": "Pending",
    "rowid": "1210159",
    "final_x": "3681060.02651",
    "final_y": "542245.507597",
    "longitude": "-90.06908592851647",
    "latitude": "29.985000485156473",
    "geocoded_column": {
      "latitude": "29.985000485156473",
      "longitude": "-90.06908592851647"
    }
  },
  {
    "service_request": "2025-1210158",
    "request_type": "Trash/Recycling",
    "request_reason": "Request a Large Item Pick Up",
    "date_created": "2025-07-16T14:30:40.000",
    "date_modified": "2025-07-16T14:30:42.000",
    "request_status": "Pending",
    "responsible_agency": "Department of Sanitation",
    "final_address": "2005 Bodenger Blvd",
    "address_councildis": "C",
    "status": "Assigned to Contractor",
    "contractor": "Richards Disposal",
    "rowid": "1210158",
    "final_x": "3688366.40419",
    "final_y": "524507.694076",
    "longitude": "-90.04663739202104",
    "latitude": "29.936003967125657",
    "geocoded_column": {
      "latitude": "29.936003967125657",
      "longitude": "-90.04663739202104"
    }
  },
  {
    "service_request": "2025-1210157",
    "request_type": "Abandoned Vehicles",
    "request_reason": "Abandoned/Junk Vehicles",
    "date_created": "2025-07-16T14:29:27.000",
    "date_modified": "2025-07-16T14:31:06.000",
    "request_status": "Pending",
    "responsible_agency": "Department of Public Works",
    "final_address": "1744 Duels St",
    "address_councildis": "D",
    "status": "Pending",
    "rowid": "1210157",
    "final_x": "3681133.80725",
    "final_y": "542260.624461",
    "longitude": "-90.0688523598294",
    "latitude": "29.985039812676053",
    "geocoded_column": {
      "latitude": "29.985039812676053",
      "longitude": "-90.0688523598294"
    }
  },
  {
    "service_request": "2025-1210156",
    "request_type": "Drainage",
    "request_reason": "Catch Basin Clogged",
    "date_created": "2025-07-16T14:29:10.000",
    "date_modified": "2025-07-16T14:29:11.000",
    "request_status": "Pending",
    "responsible_agency": "Sewerage & Water Board",
    "final_address": "7500 BLK Oak St",
    "address_councildis": "A",
    "status": "Pending",
    "rowid": "1210156",
    "final_x": "3663415.92018",
    "final_y": "527049.442408",
    "longitude": "-90.12532242764746",
    "latitude": "29.943739775757308",
    "geocoded_column": {
      "latitude": "29.943739775757308",
      "longitude": "-90.12532242764746"
    }
  },
  {
    "service_request": "2025-1210155",
    "request_type": "Trash/Recycling",
    "request_reason": "Request a Large Item Pick Up",
    "date_created": "2025-07-16T14:23:00.000",
    "date_modified": "2025-07-16T14:27:28.000",
    "request_status": "Pending",
    "responsible_agency": "Department of Sanitation",
    "final_address": "4413 S Liberty St",
    "address_councildis": "B",
    "status": "Assigned to Contractor",
    "contractor": "IV Waste",
    "rowid": "1210155",
    "final_x": "3670369.16654",
    "final_y": "523380.721211",
    "longitude": "-90.10349343001779",
    "latitude": "29.93344858285657",
    "geocoded_column": {
      "latitude": "29.93344858285657",
      "longitude": "-90.10349343001779"
    }
  },
  {
    "service_request": "2025-1210154",
    "request_type": "Trash/Recycling",
    "request_reason": "Missed Trash Pick-Up",
    "date_created": "2025-07-16T14:22:58.000",
    "date_modified": "2025-07-16T15:13:05.000",
    "case_close_date": "2025-07-16T10:13:04.000",
    "request_status": "Closed",
    "responsible_agency": "Department of Sanitation",
    "final_address": "4035 Ulloa St",
    "address_councildis": "A",
    "status": "Invalid Request",
    "contractor": "IV Waste",
    "contractor_action": "Invalid",
    "rowid": "1210154",
    "final_x": "3669832.00436",
    "final_y": "536390.406343",
    "longitude": "-90.10474885785096",
    "latitude": "29.969236792830337",
    "geocoded_column": {
      "latitude": "29.969236792830337",
      "longitude": "-90.10474885785096"
    }
  },
  {
    "service_request": "2025-1210153",
    "request_type": "Trash/Recycling",
    "request_reason": "Missed Trash Pick-Up",
    "date_created": "2025-07-16T14:22:29.000",
    "date_modified": "2025-07-16T14:22:36.000",
    "request_status": "Pending",
    "responsible_agency": "Department of Sanitation",
    "final_address": "7454 Kenyon Rd",
    "address_councildis": "E",
    "status": "Assigned to Contractor",
    "contractor": "Waste Pro",
    "rowid": "1210153",
    "final_x": "3704280.61284",
    "final_y": "562004.651551",
    "longitude": "-89.99501362549263",
    "latitude": "30.038605694456592",
    "geocoded_column": {
      "latitude": "30.038605694456592",
      "longitude": "-89.99501362549263"
    }
  },
  {
    "service_request": "2025-1210152",
    "request_type": "Streetlights",
    "request_reason": "Streetlight Outage/Malfunction",
    "date_created": "2025-07-16T14:21:35.000",
    "date_modified": "2025-07-16T14:21:37.000",
    "request_status": "Pending",
    "responsible_agency": "Department of Public Works",
    "final_address": "1308 Royal St",
    "address_councildis": "C",
    "status": "Pending",
    "contractor": "Legacy Professional Services",
    "rowid": "1210152",
    "final_x": "3683952.85167",
    "final_y": "534246.660037",
    "longitude": "-90.06022944990345",
    "latitude": "29.96291836148461",
    "geocoded_column": {
      "latitude": "29.96291836148461",
      "longitude": "-90.06022944990345"
    }
  },
  {
    "service_request": "2025-1210151",
    "request_type": "Trash/Recycling",
    "request_reason": "MIssed Recycling Pick-Up",
    "date_created": "2025-07-16T14:21:30.000",
    "date_modified": "2025-07-16T14:38:42.000",
    "case_close_date": "2025-07-16T09:38:40.000",
    "request_status": "Closed",
    "responsible_agency": "Department of Sanitation",
    "final_address": "49 Neron Pl",
    "address_councildis": "A",
    "status": "Invalid Request",
    "contractor": "IV Waste",
    "contractor_action": "Invalid",
    "rowid": "1210151",
    "final_x": "3665579.13959",
    "final_y": "530368.025986",
    "longitude": "-90.11838144034581",
    "latitude": "29.952801921790673",
    "geocoded_column": {
      "latitude": "29.952801921790673",
      "longitude": "-90.11838144034581"
    }
  },
  {
    "service_request": "2025-1210150",
    "request_type": "Trash/Recycling",
    "request_reason": "Request a Large Item Pick Up",
    "date_created": "2025-07-16T14:18:55.000",
    "date_modified": "2025-07-16T14:18:56.000",
    "request_status": "Pending",
    "responsible_agency": "Department of Sanitation",
    "final_address": "6235 Marshal Foch St",
    "address_councildis": "A",
    "status": "Assigned to Contractor",
    "contractor": "IV Waste",
    "rowid": "1210150",
    "final_x": "3670056.40551",
    "final_y": "548762.268627",
    "longitude": "-90.10362086833072",
    "latitude": "30.003248566954493",
    "geocoded_column": {
      "latitude": "30.003248566954493",
      "longitude": "-90.10362086833072"
    }
  },
  {
    "service_request": "2025-1210149",
    "request_type": "Roads and Streets",
    "request_reason": "Street Subsidence (Sinking)",
    "date_created": "2025-07-16T14:16:42.000",
    "date_modified": "2025-07-16T14:16:44.000",
    "request_status": "Pending",
    "responsible_agency": "Department of Public Works",
    "final_address": "4441 Old Gentilly Rd",
    "address_councildis": "D",
    "status": "Pending",
    "rowid": "1210149",
    "final_x": "3690791.19715",
    "final_y": "548955.839443",
    "longitude": "-90.03810983566684",
    "latitude": "30.003152654643404",
    "geocoded_column": {
      "latitude": "30.003152654643404",
      "longitude": "-90.03810983566684"
    }
  },
  {
    "service_request": "2025-1210148",
    "request_type": "Drainage",
    "request_reason": "Catch Basin Clogged",
    "date_created": "2025-07-16T14:14:49.000",
    "date_modified": "2025-07-16T14:14:51.000",
    "request_status": "Pending",
    "responsible_agency": "Sewerage & Water Board",
    "final_address": "1918 Foucher St",
    "address_councildis": "B",
    "status": "Pending",
    "rowid": "1210148",
    "final_x": "3673036.07432",
    "final_y": "522455.127994",
    "longitude": "-90.09510571644404",
    "latitude": "29.9308245243603",
    "geocoded_column": {
      "latitude": "29.9308245243603",
      "longitude": "-90.09510571644404"
    }
  },
  {
    "service_request": "2025-1210147",
    "request_type": "Traffic Signals",
    "request_reason": "Traffic Signal Malfunctioning or Damaged",
    "date_created": "2025-07-16T14:13:29.000",
    "date_modified": "2025-07-16T14:13:31.000",
    "request_status": "Pending",
    "responsible_agency": "Department of Public Works",
    "final_address": "ELYSIAN FIELDS AVE & GENTILLY BLVD",
    "address_councildis": "D",
    "status": "Pending",
    "rowid": "1210147",
    "final_x": "3684059.79",
    "final_y": "547584.11",
    "longitude": "-90.05942349799389",
    "latitude": "29.99958839427118",
    "geocoded_column": {
      "latitude": "29.99958839427118",
      "longitude": "-90.05942349799389"
    }
  },
  {
    "service_request": "2025-1210146",
    "request_type": "Property Maintenance",
    "request_reason": "Property Maintenance",
    "date_created": "2025-07-16T14:12:34.000",
    "date_modified": "2025-07-16T14:12:37.000",
    "request_status": "Pending",
    "responsible_agency": "Department of Code Enforcement",
    "final_address": "4500 Stephen Girard Ave",
    "address_councildis": "D",
    "status": "Pending",
    "rowid": "1210146",
    "final_x": "3690892.97065",
    "final_y": "550200.693012",
    "longitude": "-90.03774385291085",
    "latitude": "30.006572381488997",
    "geocoded_column": {
      "latitude": "30.006572381488997",
      "longitude": "-90.03774385291085"
    }
  },
  {
    "service_request": "2025-1210145",
    "request_type": "Trash/Recycling",
    "request_reason": "Request a Large Item Pick Up",
    "date_created": "2025-07-16T14:09:27.000",
    "date_modified": "2025-07-16T14:09:28.000",
    "request_status": "Pending",
    "responsible_agency": "Department of Sanitation",
    "final_address": "1122 Napoleon Ave",
    "address_councildis": "B",
    "status": "Assigned to Contractor",
    "contractor": "IV Waste",
    "rowid": "1210145",
    "final_x": "3670871.38414",
    "final_y": "519705.61836",
    "longitude": "-90.10203262814967",
    "latitude": "29.92332839566599",
    "geocoded_column": {
      "latitude": "29.92332839566599",
      "longitude": "-90.10203262814967"
    }
  },
  {
    "service_request": "2025-1210144",
    "request_type": "Trash/Recycling",
    "request_reason": "Request a Large Item Pick Up",
    "date_created": "2025-07-16T14:06:18.000",
    "date_modified": "2025-07-16T14:20:55.000",
    "request_status": "Pending",
    "responsible_agency": "Department of Sanitation",
    "final_address": "2123 Forstall St",
    "address_councildis": "E",
    "status": "Assigned to Contractor",
    "contractor": "Waste Pro",
    "rowid": "1210144",
    "final_x": "3697432.74224",
    "final_y": "538103.127433",
    "longitude": "-90.01752203617131",
    "latitude": "29.973103566227216",
    "geocoded_column": {
      "latitude": "29.973103566227216",
      "longitude": "-90.01752203617131"
    }
  },
  {
    "service_request": "2025-1210143",
    "request_type": "Roads and Streets",
    "request_reason": "Debris in Driving Lanes",
    "date_created": "2025-07-16T14:03:55.000",
    "date_modified": "2025-07-16T14:03:57.000",
    "request_status": "Pending",
    "responsible_agency": "Department of Public Works",
    "final_address": "WOODLAND DR & WARWICK CT",
    "address_councildis": "C",
    "status": "Pending",
    "rowid": "1210143",
    "final_x": "3705410.6",
    "final_y": "515879.38",
    "longitude": "-89.99314750406485",
    "latitude": "29.9117418317394",
    "geocoded_column": {
      "latitude": "29.9117418317394",
      "longitude": "-89.99314750406485"
    }
  },
  {
    "service_request": "2025-1210142",
    "request_type": "Roads and Streets",
    "request_reason": "ADA Ramps Damaged or Missing",
    "date_created": "2025-07-16T14:01:05.000",
    "date_modified": "2025-07-16T14:01:06.000",
    "request_status": "Pending",
    "responsible_agency": "Department of Public Works",
    "final_address": "1132 Peniston St",
    "address_councildis": "B",
    "status": "Pending",
    "rowid": "1210142",
    "final_x": "3673063.21588",
    "final_y": "520016.96076",
    "longitude": "-90.09510320984542",
    "latitude": "29.924119542299888",
    "geocoded_column": {
      "latitude": "29.924119542299888",
      "longitude": "-90.09510320984542"
    }
  },
  {
    "service_request": "2025-1210141",
    "request_type": "Property Maintenance",
    "request_reason": "Property Maintenance",
    "date_created": "2025-07-16T14:01:04.000",
    "date_modified": "2025-07-16T14:56:17.000",
    "case_close_date": "2025-07-16T09:56:16.000",
    "request_status": "Closed",
    "responsible_agency": "Department of Code Enforcement",
    "final_address": "847 Taft Pl",
    "address_councildis": "A",
    "status": "Referred to Code Enforcement",
    "rowid": "1210141",
    "final_x": "3673766.35182",
    "final_y": "539753.864202",
    "longitude": "-90.09220882079283",
    "latitude": "29.978368579288254",
    "geocoded_column": {
      "latitude": "29.978368579288254",
      "longitude": "-90.09220882079283"
    }
  },
  {
    "service_request": "2025-1210140",
    "request_type": "Drainage",
    "request_reason": "Street Flooding",
    "date_created": "2025-07-16T14:00:16.000",
    "date_modified": "2025-07-16T14:00:17.000",
    "request_status": "Pending",
    "responsible_agency": "Sewerage & Water Board",
    "final_address": "3500 Upperline St",
    "address_councildis": "B",
    "status": "Pending",
    "rowid": "1210140",
    "final_x": "3669243.4201",
    "final_y": "527751.661503",
    "longitude": "-90.10689966361467",
    "latitude": "29.94550043255526",
    "geocoded_column": {
      "latitude": "29.94550043255526",
      "longitude": "-90.10689966361467"
    }
  },
  {
    "service_request": "2025-1210139",
    "request_type": "Parks & Parkways",
    "request_reason": "Request Tree Service (Right of Way/Public Property)",
    "date_created": "2025-07-16T13:59:58.000",
    "date_modified": "2025-07-16T14:00:00.000",
    "request_status": "Pending",
    "responsible_agency": "Department of Parks & Parkway",
    "final_address": "8515 Oleander St",
    "address_councildis": "A",
    "status": "Pending",
    "rowid": "1210139",
    "final_x": "3665651.41063",
    "final_y": "534732.60263",
    "longitude": "-90.11800706830165",
    "latitude": "29.96480097151604",
    "geocoded_column": {
      "latitude": "29.96480097151604",
      "longitude": "-90.11800706830165"
    }
  },
  {
    "service_request": "2025-1210138",
    "request_type": "Trash/Recycling",
    "request_reason": "Request a Large Item Pick Up",
    "date_created": "2025-07-16T13:59:05.000",
    "date_modified": "2025-07-16T13:59:07.000",
    "request_status": "Pending",
    "responsible_agency": "Department of Sanitation",
    "final_address": "3032 Marais St",
    "address_councildis": "C",
    "status": "Assigned to Contractor",
    "contractor": "IV Waste",
    "rowid": "1210138",
    "final_x": "3688774.57468",
    "final_y": "536397.610055",
    "longitude": "-90.04492672168405",
    "latitude": "29.968684535984448",
    "geocoded_column": {
      "latitude": "29.968684535984448",
      "longitude": "-90.04492672168405"
    }
  },
  {
    "service_request": "2025-1210137",
    "request_type": "Trash/Recycling",
    "request_reason": "Request a Large Item Pick Up",
    "date_created": "2025-07-16T13:57:33.000",
    "date_modified": "2025-07-16T14:19:27.000",
    "request_status": "Pending",
    "responsible_agency": "Department of Sanitation",
    "final_address": "202 Fairfax Pl",
    "address_councildis": "C",
    "contractor": "Richards Disposal",
    "rowid": "1210137",
    "final_x": "3706147.04196",
    "final_y": "517505.955702",
    "longitude": "-89.99076297110616",
    "latitude": "29.916190648726104",
    "geocoded_column": {
      "latitude": "29.916190648726104",
      "longitude": "-89.99076297110616"
    }
  },
  {
    "service_request": "2025-1210136",
    "request_type": "Trash/Recycling",
    "request_reason": "Order Recycling Cart",
    "date_created": "2025-07-16T13:56:58.000",
    "date_modified": "2025-07-16T13:56:59.000",
    "request_status": "Pending",
    "responsible_agency": "Department of Sanitation",
    "final_address": "3222 Dumaine St",
    "address_councildis": "A",
    "status": "Pending",
    "rowid": "1210136",
    "final_x": "3675230.33569",
    "final_y": "538948.563658",
    "longitude": "-90.08761267297743",
    "latitude": "29.976110595374372",
    "geocoded_column": {
      "latitude": "29.976110595374372",
      "longitude": "-90.08761267297743"
    }
  },
  {
    "service_request": "2025-1210135",
    "request_type": "General Services",
    "request_reason": "General Service Request",
    "date_created": "2025-07-16T13:55:45.000",
    "date_modified": "2025-07-16T13:55:47.000",
    "request_status": "Pending",
    "responsible_agency": "Orleans Parish Communication District",
    "final_address": "2500 BLK Sixth St",
    "address_councildis": "B",
    "status": "Pending",
    "rowid": "1210135",
    "final_x": "3673575.91758",
    "final_y": "525151.500994",
    "longitude": "-90.09330938693313",
    "latitude": "29.938222622884027",
    "geocoded_column": {
      "latitude": "29.938222622884027",
      "longitude": "-90.09330938693313"
    }
  },
  {
    "service_request": "2025-1210134",
    "request_type": "Trash/Recycling",
    "request_reason": "Request a Large Item Pick Up",
    "date_created": "2025-07-16T13:54:57.000",
    "date_modified": "2025-07-16T13:54:59.000",
    "request_status": "Pending",
    "responsible_agency": "Department of Sanitation",
    "final_address": "4851 Savoie Ct",
    "address_councildis": "E",
    "status": "Assigned to Contractor",
    "contractor": "Waste Pro",
    "rowid": "1210134",
    "final_x": "3725371.24934",
    "final_y": "561185.143262",
    "longitude": "-89.92839421903295",
    "latitude": "30.035658191920007",
    "geocoded_column": {
      "latitude": "30.035658191920007",
      "longitude": "-89.92839421903295"
    }
  },
  {
    "service_request": "2025-1210133",
    "request_type": "Streetlights",
    "request_reason": "Streetlight Outage/Malfunction",
    "date_created": "2025-07-16T13:54:38.000",
    "date_modified": "2025-07-16T13:54:40.000",
    "request_status": "Pending",
    "responsible_agency": "Department of Public Works",
    "final_address": "5515 West End Blvd",
    "address_councildis": "A",
    "status": "Pending",
    "contractor": "Legacy Professional Services",
    "rowid": "1210133",
    "final_x": "3666332.59066",
    "final_y": "544154.805326",
    "longitude": "-90.1155397064298",
    "latitude": "29.990688985355575",
    "geocoded_column": {
      "latitude": "29.990688985355575",
      "longitude": "-90.1155397064298"
    }
  },
  {
    "service_request": "2025-1210132",
    "request_type": "Trash/Recycling",
    "request_reason": "Request a Large Item Pick Up",
    "date_created": "2025-07-16T13:52:55.000",
    "date_modified": "2025-07-16T13:52:57.000",
    "request_status": "Pending",
    "responsible_agency": "Department of Sanitation",
    "final_address": "7801 Weaver Ave",
    "address_councildis": "E",
    "status": "Assigned to Contractor",
    "contractor": "Waste Pro",
    "rowid": "1210132",
    "final_x": "3707189.60484",
    "final_y": "564873.237346",
    "longitude": "-89.9857138820135",
    "latitude": "30.04639942095281",
    "geocoded_column": {
      "latitude": "30.04639942095281",
      "longitude": "-89.9857138820135"
    }
  },
  {
    "service_request": "2025-1210131",
    "request_type": "Property Maintenance",
    "request_reason": "Property Maintenance",
    "date_created": "2025-07-16T13:48:54.000",
    "date_modified": "2025-07-16T13:48:56.000",
    "request_status": "Pending",
    "responsible_agency": "Department of Code Enforcement",
    "final_address": "4818 Ken Ct",
    "address_councildis": "C",
    "status": "Pending",
    "rowid": "1210131",
    "final_x": "3701914.03165",
    "final_y": "518578.584759",
    "longitude": "-90.0040846611289",
    "latitude": "29.919275709929032",
    "geocoded_column": {
      "latitude": "29.919275709929032",
      "longitude": "-90.0040846611289"
    }
  },
  {
    "service_request": "2025-1210130",
    "request_type": "Streetlights",
    "request_reason": "Streetlight Outage/Malfunction",
    "date_created": "2025-07-16T13:47:28.000",
    "date_modified": "2025-07-16T13:47:30.000",
    "request_status": "Pending",
    "responsible_agency": "Department of Public Works",
    "final_address": "1401 Elizardi Blvd",
    "address_councildis": "C",
    "status": "Pending",
    "contractor": "Legacy Professional Services",
    "rowid": "1210130",
    "final_x": "3694660.12886",
    "final_y": "526070.509566",
    "longitude": "-90.02671178999915",
    "latitude": "29.94010534230981",
    "geocoded_column": {
      "latitude": "29.94010534230981",
      "longitude": "-90.02671178999915"
    }
  },
  {
    "service_request": "2025-1210129",
    "request_type": "Health Related Request",
    "request_reason": "Noise Ordinance Complaint",
    "date_created": "2025-07-16T13:47:24.000",
    "date_modified": "2025-07-16T14:06:53.000",
    "case_close_date": "2025-07-16T09:06:52.000",
    "request_status": "Closed",
    "responsible_agency": "Health Department",
    "final_address": "1710 Clouet St",
    "address_councildis": "D",
    "status": "Unfounded",
    "rowid": "1210129",
    "final_x": "3689549.61897",
    "final_y": "538356.801737",
    "longitude": "-90.04240938875976",
    "latitude": "29.97404763799743",
    "geocoded_column": {
      "latitude": "29.97404763799743",
      "longitude": "-90.04240938875976"
    }
  },