[
  {
    "service_request": "2022-951779",
    "request_type": "Health Related Request",
    "request_reason": "Noise Ordinance Complaint",
    "date_created": "2022-12-10T02:04:26.000",
    "date_modified": "2022-12-10T02:04:26.000",
    "request_status": "Pending",
    "responsible_agency": "Health Department",
    "final_address": "1200 St Bernard Ave",
    "address_councildis": "C",
    "status": "Pending",
    "rowid": "951779",
    "final_x": "3683033.3165",
    "final_y": "536132.891847",
    "longitude": "-90.06306719052876",
    "latitude": "29.96813290984115",
    "geocoded_column": {
      "latitude": "29.96813290984115",
      "longitude": "-90.06306719052876"
    }
  },
  {
    "service_request": "2022-951777",
    "request_type": "Health Related Request",
    "request_reason": "Noise Ordinance Complaint",
    "date_created": "2022-12-10T01:00:15.000",
    "date_modified": "2022-12-10T01:00:15.000",
    "request_status": "Pending",
    "responsible_agency": "Health Department",
    "final_address": "1200 St Bernard Ave ",
    "address_councildis": "C",
    "status": "Pending",
    "rowid": "951777",
    "final_x": "3683033.3165",
    "final_y": "536132.891847",
    "longitude": "-90.06306719052876",
    "latitude": "29.96813290984115",
    "geocoded_column": {
      "latitude": "29.96813290984115",
      "longitude": "-90.06306719052876"
    }
  },
  {
    "service_request": "2022-951776",
    "request_type": "Traffic Signals/Signs/Striping/Streetlights",
    "request_reason": "Request for Traffic Calming due to Speeding",
    "date_created": "2022-12-10T00:44:15.000",
    "date_modified": "2022-12-10T00:44:15.000",
    "request_status": "Pending",
    "responsible_agency": "Department of Public Works",
    "final_address": "2824 Baronne St",
    "address_councildis": "B",
    "status": "Pending",
    "rowid": "951776",
    "final_x": "3675349.40712",
    "final_y": "523000.205691",
    "longitude": "-90.08778413672246",
    "latitude": "29.932254370372988",
    "geocoded_column": {
      "latitude": "29.932254370372988",
      "longitude": "-90.08778413672246"
    }
  },
  {
    "service_request": "2022-951775",
    "request_type": "Health Related Request",
    "request_reason": "Noise Ordinance Complaint",
    "date_created": "2022-12-10T00:09:04.000",
    "date_modified": "2022-12-10T00:09:04.000",
    "request_status": "Pending",
    "responsible_agency": "Health Department",
    "final_address": "1200 St Bernard Ave",
    "address_councildis": "C",
    "status": "Pending",
    "rowid": "951775",
    "final_x": "3683033.3165",
    "final_y": "536132.891847",
    "longitude": "-90.06306719052876",
    "latitude": "29.96813290984115",
    "geocoded_column": {
      "latitude": "29.96813290984115",
      "longitude": "-90.06306719052876"
    }
  },
  {
    "service_request": "2022-951774",
    "request_type": "Abandoned Vehicles",
    "request_reason": "Vehicle Blocking Your Driveway",
    "date_created": "2022-12-10T00:07:23.000",
    "date_modified": "2022-12-10T00:07:23.000",
    "request_status": "Pending",
    "responsible_agency": "Department of Public Works",
    "final_address": "2031 Burgundy St, New Orleans, Louisiana, 70116",
    "address_councildis": "C",
    "status": "Pending",
    "rowid": "951774",
    "final_x": "3684542.99605",
    "final_y": "535573.207494",
    "longitude": "-90.05831923775494",
    "latitude": "29.966547866645648",
    "geocoded_column": {
      "latitude": "29.966547866645648",
      "longitude": "-90.05831923775494"
    }
  },
  {
    "service_request": "2022-951772",
    "request_type": "Roads/Drainage",
    "request_reason": "Pothole",
    "date_created": "2022-12-10T00:06:17.000",
    "date_modified": "2022-12-10T00:06:17.000",
    "request_status": "Pending",
    "responsible_agency": "Department of Public Works",
    "final_address": "4108 Magnolia St",
    "address_councildis": "B",
    "status": "Pending",
    "rowid": "951772",
    "final_x": "3671433.40199",
    "final_y": "524789.073916",
    "longitude": "-90.10008583964422",
    "latitude": "29.937289646473847",
    "geocoded_column": {
      "latitude": "29.937289646473847",
      "longitude": "-90.10008583964422"
    }
  },
  {
    "service_request": "2022-951770",
    "request_type": "Abandoned Vehicles",
    "request_reason": "Vehicle Blocking Your Driveway",
    "date_created": "2022-12-09T23:53:06.000",
    "date_modified": "2022-12-09T23:53:06.000",
    "request_status": "Pending",
    "responsible_agency": "Department of Public Works",
    "final_address": "2031 Burgundy St, New Orleans, Louisiana, 70116",
    "address_councildis": "C",
    "status": "Pending",
    "rowid": "951770",
    "final_x": "3684542.99605",
    "final_y": "535573.207494",
    "longitude": "-90.05831923775494",
    "latitude": "29.966547866645648",
    "geocoded_column": {
      "latitude": "29.966547866645648",
      "longitude": "-90.05831923775494"
    }
  },
  {
    "service_request": "2022-951769",
    "request_type": "Health Related Request",
    "request_reason": "Noise Ordinance Complaint",
    "date_created": "2022-12-09T23:51:13.000",
    "date_modified": "2022-12-09T23:51:13.000",
    "request_status": "Pending",
    "responsible_agency": "Health Department",
    "final_address": "2040 Burgundy St, New Orleans, Louisiana, 70116",
    "address_councildis": "C",
    "status": "Pending",
    "rowid": "951769",
    "final_x": "3684608.2358",
    "final_y": "535515.768774",
    "longitude": "-90.05811523035665",
    "latitude": "29.966387933778154",
    "geocoded_column": {
      "latitude": "29.966387933778154",
      "longitude": "-90.05811523035665"
    }
  },
  {
    "service_request": "2022-951767",
    "request_type": "Health Related Request",
    "request_reason": "Noise Ordinance Complaint",
    "date_created": "2022-12-09T22:57:17.000",
    "date_modified": "2022-12-09T22:57:17.000",
    "request_status": "Pending",
    "responsible_agency": "Health Department",
    "final_address": "1200 St Bernard Ave",
    "address_councildis": "C",
    "status": "Pending",
    "rowid": "951767",
    "final_x": "3683033.3165",
    "final_y": "536132.891847",
    "longitude": "-90.06306719052876",
    "latitude": "29.96813290984115",
    "geocoded_column": {
      "latitude": "29.96813290984115",
      "longitude": "-90.06306719052876"
    }
  },
  {
    "service_request": "2022-951766",
    "request_type": "Trash/Recycling",
    "request_reason": "MIssed Recycling Pick-Up",
    "date_created": "2022-12-09T22:51:26.000",
    "date_modified": "2022-12-09T22:51:27.000",
    "request_status": "Pending",
    "responsible_agency": "Department of Sanitation",
    "final_address": "8506 Apricot St",
    "address_councildis": "A",
    "status": "Assigned to Contractor",
    "contractor": "Richards Disposal",
    "rowid": "951766",
    "final_x": "3664686.92685",
    "final_y": "533611.932741",
    "longitude": "-90.12109029887758",
    "latitude": "29.961747590287853",
    "geocoded_column": {
      "latitude": "29.961747590287853",
      "longitude": "-90.12109029887758"
    }
  },
  {
    "service_request": "2022-951765",
    "request_type": "Roads/Drainage",
    "request_reason": "Man hole cover issue",
    "date_created": "2022-12-09T22:27:39.000",
    "date_modified": "2022-12-09T22:27:39.000",
    "request_status": "Pending",
    "responsible_agency": "Department of Public Works",
    "final_address": "601 Congress St",
    "address_councildis": "C",
    "status": "Pending",
    "rowid": "951765",
    "final_x": "3690301.23337",
    "final_y": "533745.181701",
    "longitude": "-90.04019999524186",
    "latitude": "29.96134399784388",
    "geocoded_column": {
      "latitude": "29.96134399784388",
      "longitude": "-90.04019999524186"
    }
  },
  {
    "service_request": "2022-951764",
    "request_type": "Safety & Permits",
    "request_reason": "Construction permit",
    "date_created": "2022-12-09T22:27:34.000",
    "date_modified": "2022-12-09T22:27:34.000",
    "request_status": "Pending",
    "responsible_agency": "Department of Code Enforcement",
    "status": "Pending",
    "rowid": "951764",
    "longitude": "0.0",
    "latitude": "0.0",
    "geocoded_column": {
      "latitude": "0.0",
      "longitude": "0.0"
    }
  },
  {
    "service_request": "2022-951763",
    "request_type": "Trash/Recycling",
    "request_reason": "MIssed Recycling Pick-Up",
    "date_created": "2022-12-09T22:26:55.000",
    "date_modified": "2022-12-09T22:26:55.000",
    "request_status": "Pending",
    "responsible_agency": "Department of Sanitation",
    "final_address": "1828 S Dupre St",
    "address_councildis": "B",
    "status": "Assigned to Contractor",
    "contractor": "Richards Disposal",
    "rowid": "951763",
    "final_x": "3670481.95579",
    "final_y": "529606.636289",
    "longitude": "-90.10292630529895",
    "latitude": "29.9505644973034",
    "geocoded_column": {
      "latitude": "29.9505644973034",
      "longitude": "-90.10292630529895"
    }
  },
  {
    "service_request": "2022-951762",
    "request_type": "Trash/Recycling",
    "request_reason": "Replace Trash Cart",
    "date_created": "2022-12-09T22:24:12.000",
    "date_modified": "2022-12-09T22:24:13.000",
    "request_status": "Pending",
    "responsible_agency": "Department of Sanitation",
    "final_address": "2909 Orleans Ave",
    "address_councildis": "A",
    "status": "Assigned to Contractor",
    "contractor": "Richards Disposal",
    "rowid": "951762",
    "final_x": "3676008.74728",
    "final_y": "537665.37012",
    "longitude": "-90.08519836430597",
    "latitude": "29.972558959539615",
    "geocoded_column": {
      "latitude": "29.972558959539615",
      "longitude": "-90.08519836430597"
    }
  },
  {
    "service_request": "2022-951761",
    "request_type": "Trash/Recycling",
    "request_reason": "Missed Trash Pick-Up",
    "date_created": "2022-12-09T22:23:41.000",
    "date_modified": "2022-12-09T22:23:42.000",
    "request_status": "Pending",
    "responsible_agency": "Department of Sanitation",
    "final_address": "6300 Laurel St",
    "address_councildis": "A",
    "status": "Assigned to Contractor",
    "contractor": "Richards Disposal",
    "rowid": "951761",
    "final_x": "3662937.88295",
    "final_y": "518747.005495",
    "longitude": "-90.12710767134647",
    "latitude": "29.920924540863524",
    "geocoded_column": {
      "latitude": "29.920924540863524",
      "longitude": "-90.12710767134647"
    }
  },
  {
    "service_request": "2022-951760",
    "request_type": "Traffic Signals/Signs/Striping/Streetlights",
    "request_reason": "Street Light Outage/Malfunction",
    "date_created": "2022-12-09T21:43:25.000",
    "date_modified": "2022-12-09T21:43:25.000",
    "request_status": "Pending",
    "responsible_agency": "Department of Public Works",
    "final_address": "8215 Pritchard Pl",
    "address_councildis": "A",
    "status": "Pending",
    "contractor": "Legacy Professional Services",
    "rowid": "951760",
    "final_x": "3665730.98394",
    "final_y": "533236.504516",
    "longitude": "-90.11780589923066",
    "latitude": "29.96068487291276",
    "geocoded_column": {
      "latitude": "29.96068487291276",
      "longitude": "-90.11780589923066"
    }
  },
  {
    "service_request": "2022-951759",
    "request_type": "Trash/Recycling",
    "request_reason": "MIssed Recycling Pick-Up",
    "date_created": "2022-12-09T21:35:37.000",
    "date_modified": "2022-12-09T21:35:37.000",
    "request_status": "Pending",
    "responsible_agency": "Department of Sanitation",
    "final_address": "2520 Short St",
    "address_councildis": "A",
    "status": "Assigned to Contractor",
    "contractor": "Richards Disposal",
    "rowid": "951759",
    "final_x": "3665518.3154",
    "final_y": "531693.499907",
    "longitude": "-90.11852912526307",
    "latitude": "29.956448316640127",
    "geocoded_column": {
      "latitude": "29.956448316640127",
      "longitude": "-90.11852912526307"
    }
  },
  {
    "service_request": "2022-951758",
    "request_type": "Trash/Recycling",
    "request_reason": "Missed Trash Pick-Up",
    "date_created": "2022-12-09T21:07:32.000",
    "date_modified": "2022-12-09T21:07:33.000",
    "request_status": "Pending",
    "responsible_agency": "Department of Sanitation",
    "final_address": "2329 General Meyer Ave",
    "address_councildis": "C",
    "status": "Assigned to Contractor",
    "contractor": "Richards Disposal",
    "rowid": "951758",
    "final_x": "3692652.05296",
    "final_y": "527621.965631",
    "longitude": "-90.03299598049206",
    "latitude": "29.944434123735533",
    "geocoded_column": {
      "latitude": "29.944434123735533",
      "longitude": "-90.03299598049206"
    }
  },
  {
    "service_request": "2022-951757",
    "request_type": "Trash/Recycling",
    "request_reason": "Order Recycling Cart",
    "date_created": "2022-12-09T20:39:33.000",
    "date_modified": "2022-12-09T20:39:33.000",
    "request_status": "Pending",
    "responsible_agency": "Department of Sanitation",
    "final_address": "1662 Lafreniere St",
    "address_councildis": "D",
    "status": "Pending",
    "rowid": "951757",
    "final_x": "3680338.61602",
    "final_y": "545150.688911",
    "longitude": "-90.0712634856669",
    "latitude": "29.993010579149757",
    "geocoded_column": {
      "latitude": "29.993010579149757",
      "longitude": "-90.0712634856669"
    }
  },
  {
    "service_request": "2022-951755",
    "request_type": "Traffic Signals/Signs/Striping/Streetlights",
    "request_reason": "Street Light Outage/Malfunction",
    "date_created": "2022-12-09T20:09:05.000",
    "date_modified": "2022-12-09T20:09:06.000",
    "request_status": "Pending",
    "responsible_agency": "Department of Public Works",
    "final_address": "2060 Mirabeau Ave",
    "address_councildis": "D",
    "status": "Pending",
    "contractor": "Legacy Professional Services",
    "rowid": "951755",
    "final_x": "3682928.00898",
    "final_y": "550549.8253",
    "longitude": "-90.06289495497816",
    "latitude": "30.00777759411963",
    "geocoded_column": {
      "latitude": "30.00777759411963",
      "longitude": "-90.06289495497816"
    }
  },
  {
    "service_request": "2022-951754",
    "request_type": "Trash/Recycling",
    "request_reason": "Order Recycling Cart",
    "date_created": "2022-12-09T19:42:59.000",
    "date_modified": "2022-12-09T19:42:59.000",
    "request_status": "Pending",
    "responsible_agency": "Department of Sanitation",
    "final_address": "825 Filmore Ave",
    "address_councildis": "A",
    "status": "Pending",
    "rowid": "951754",
    "final_x": "3669848.6779",
    "final_y": "551991.850454",
    "longitude": "-90.10416766627587",
    "latitude": "30.012134912852837",
    "geocoded_column": {
      "latitude": "30.012134912852837",
      "longitude": "-90.10416766627587"
    }
  },
  {
    "service_request": "2022-951753",
    "request_type": "Trash/Recycling",
    "request_reason": "MIssed Recycling Pick-Up",
    "date_created": "2022-12-09T19:31:27.000",
    "date_modified": "2022-12-09T19:31:28.000",
    "request_status": "Pending",
    "responsible_agency": "Department of Sanitation",
    "final_address": "4133 General Pershing St",
    "address_councildis": "B",
    "status": "Assigned to Contractor",
    "contractor": "Richards Disposal",
    "rowid": "951753",
    "final_x": "3670028.04846",
    "final_y": "529492.805889",
    "longitude": "-90.10436336924452",
    "latitude": "29.95026489527118",
    "geocoded_column": {
      "latitude": "29.95026489527118",
      "longitude": "-90.10436336924452"
    }
  },
  {
    "service_request": "2022-951752",
    "request_type": "Mosquito, Termite & Rodent Control",
    "request_reason": "Rodent Complaint (Rats)",
    "date_created": "2022-12-09T19:08:18.000",
    "date_modified": "2022-12-09T19:08:18.000",
    "request_status": "Pending",
    "responsible_agency": "Mosquito, Termite & Rodent Control Board",
    "final_address": "3836 Banks St",
    "address_councildis": "B",
    "status": "Pending",
    "rowid": "951752",
    "final_x": "3671055.83758",
    "final_y": "536769.909576",
    "longitude": "-90.1008710006008",
    "latitude": "29.97024416116531",
    "geocoded_column": {
      "latitude": "29.97024416116531",
      "longitude": "-90.1008710006008"
    }
  },
  {
    "service_request": "2022-951751",
    "request_type": "Trash/Recycling",
    "request_reason": "Missed Trash Pick-Up",
    "date_created": "2022-12-09T19:03:50.000",
    "date_modified": "2022-12-09T19:03:51.000",
    "request_status": "Pending",
    "responsible_agency": "Department of Sanitation",
    "final_address": "4660 Viola St",
    "address_councildis": "E",
    "status": "Assigned to Contractor",
    "contractor": "Waste Pro",
    "rowid": "951751",
    "final_x": "3703968.42391",
    "final_y": "554733.858584",
    "longitude": "-89.99626834239776",
    "latitude": "30.018623862412877",
    "geocoded_column": {
      "latitude": "30.018623862412877",
      "longitude": "-89.99626834239776"
    }
  },
  {
    "service_request": "2022-951750",
    "request_type": "Traffic Signals/Signs/Striping/Streetlights",
    "request_reason": "Street Light Outage/Malfunction",
    "date_created": "2022-12-09T18:54:08.000",
    "date_modified": "2022-12-09T18:54:08.000",
    "request_status": "Pending",
    "responsible_agency": "Department of Public Works",
    "final_address": "1701 Clouet St",
    "address_councildis": "D",
    "status": "Pending",
    "contractor": "Legacy Professional Services",
    "rowid": "951750",
    "final_x": "3689602.69756",
    "final_y": "538269.005513",
    "longitude": "-90.04224487934174",
    "latitude": "29.973804585006658",
    "geocoded_column": {
      "latitude": "29.973804585006658",
      "longitude": "-90.04224487934174"
    }
  },
  {
    "service_request": "2022-951749",
    "request_type": "Traffic Signals/Signs/Striping/Streetlights",
    "request_reason": "Street Light Outage/Malfunction",
    "date_created": "2022-12-09T18:49:44.000",
    "date_modified": "2022-12-09T18:49:45.000",
    "request_status": "Pending",
    "responsible_agency": "Department of Public Works",
    "final_address": "200 Country Club Dr",
    "address_councildis": "A",
    "status": "Pending",
    "contractor": "Legacy Professional Services",
    "rowid": "951749",
    "final_x": "3665091.2633",
    "final_y": "544253.071246",
    "longitude": "-90.11945748218459",
    "latitude": "29.990995400378",
    "geocoded_column": {
      "latitude": "29.990995400378",
      "longitude": "-90.11945748218459"
    }
  },
  {
    "service_request": "2022-951748",
    "request_type": "Trash/Recycling",
    "request_reason": "MIssed Recycling Pick-Up",
    "date_created": "2022-12-09T18:40:56.000",
    "date_modified": "2022-12-09T18:40:56.000",
    "request_status": "Pending",
    "responsible_agency": "Department of Sanitation",
    "final_address": "7719 Pearl St",
    "address_councildis": "A",
    "status": "Assigned to Contractor",
    "contractor": "Richards Disposal",
    "rowid": "951748",
    "final_x": "3661322.75584",
    "final_y": "525685.491069",
    "longitude": "-90.1319762934953",
    "latitude": "29.940049854606897",
    "geocoded_column": {
      "latitude": "29.940049854606897",
      "longitude": "-90.1319762934953"
    }
  },
  {
    "service_request": "2022-951747",
    "request_type": "Trash/Recycling",
    "request_reason": "Missed Trash Pick-Up",
    "date_created": "2022-12-09T18:21:24.000",
    "date_modified": "2022-12-09T18:21:24.000",
    "request_status": "Pending",
    "responsible_agency": "Department of Sanitation",
    "final_address": "607 Webster St",
    "address_councildis": "A",
    "status": "Assigned to Contractor",
    "contractor": "Richards Disposal",
    "rowid": "951747",
    "final_x": "3663956.76691",
    "final_y": "518835.797303",
    "longitude": "-90.12388854395607",
    "latitude": "29.921139158835498",
    "geocoded_column": {
      "latitude": "29.921139158835498",
      "longitude": "-90.12388854395607"
    }
  },
  {
    "service_request": "2022-951746",
    "request_type": "Trash/Recycling",
    "request_reason": "MIssed Recycling Pick-Up",
    "date_created": "2022-12-09T18:03:41.000",
    "date_modified": "2022-12-09T18:03:41.000",
    "request_status": "Pending",
    "responsible_agency": "Department of Sanitation",
    "final_address": "1728 S Rendon St",
    "address_councildis": "B",
    "status": "Assigned to Contractor",
    "contractor": "Richards Disposal",
    "rowid": "951746",
    "final_x": "3669580.17735",
    "final_y": "530560.783554",
    "longitude": "-90.10574138784025",
    "latitude": "29.953214684543667",
    "geocoded_column": {
      "latitude": "29.953214684543667",
      "longitude": "-90.10574138784025"
    }
  },
  {
    "service_request": "2022-951745",
    "request_type": "Trash/Recycling",
    "request_reason": "MIssed Recycling Pick-Up",
    "date_created": "2022-12-09T17:53:18.000",
    "date_modified": "2022-12-09T17:53:19.000",
    "request_status": "Pending",
    "responsible_agency": "Department of Sanitation",
    "final_address": "537 Broadway St",
    "address_councildis": "A",
    "status": "Assigned to Contractor",
    "contractor": "Richards Disposal",
    "rowid": "951745",
    "final_x": "3662638.87603",
    "final_y": "524093.094332",
    "longitude": "-90.1278739728474",
    "latitude": "29.935633260426673",
    "geocoded_column": {
      "latitude": "29.935633260426673",
      "longitude": "-90.1278739728474"
    }
  },
  {
    "service_request": "2022-951744",
    "request_type": "Roads/Drainage",
    "request_reason": "Pothole",
    "date_created": "2022-12-09T17:45:23.000",
    "date_modified": "2022-12-09T17:45:23.000",
    "request_status": "Pending",
    "responsible_agency": "Department of Public Works",
    "final_address": "2230 Burgundy St",
    "address_councildis": "C",
    "status": "Pending",
    "rowid": "951744",
    "final_x": "3685378.87849",
    "final_y": "535577.252678",
    "longitude": "-90.05567939219415",
    "latitude": "29.966533388089655",
    "geocoded_column": {
      "latitude": "29.966533388089655",
      "longitude": "-90.05567939219415"
    }
  },
  {
    "service_request": "2022-951743",
    "request_type": "Trash/Recycling",
    "request_reason": "Order Recycling Cart",
    "date_created": "2022-12-09T17:42:39.000",
    "date_modified": "2022-12-09T17:42:40.000",
    "request_status": "Pending",
    "responsible_agency": "Department of Sanitation",
    "final_address": "4558 Good Dr",
    "address_councildis": "E",
    "status": "Pending",
    "rowid": "951743",
    "final_x": "3714798.86277",
    "final_y": "555966.710873",
    "longitude": "-89.96200183539906",
    "latitude": "30.021661778055638",
    "geocoded_column": {
      "latitude": "30.021661778055638",
      "longitude": "-89.96200183539906"
    }
  },
  {
    "service_request": "2022-951742",
    "request_type": "Roads/Drainage",
    "request_reason": "Pothole",
    "date_created": "2022-12-09T17:39:12.000",
    "date_modified": "2022-12-09T17:39:12.000",
    "request_status": "Pending",
    "responsible_agency": "Department of Public Works",
    "final_address": "2121 Dublin St",
    "address_councildis": "A",
    "status": "Pending",
    "rowid": "951742",
    "final_x": "3663995.27674",
    "final_y": "531063.76077",
    "longitude": "-90.12335939863422",
    "latitude": "29.954761049657165",
    "geocoded_column": {
      "latitude": "29.954761049657165",
      "longitude": "-90.12335939863422"
    }
  },
  {
    "service_request": "2022-951741",
    "request_type": "Traffic Signals/Signs/Striping/Streetlights",
    "request_reason": "Street Light Outage/Malfunction",
    "date_created": "2022-12-09T17:35:52.000",
    "date_modified": "2022-12-09T17:35:53.000",
    "request_status": "Pending",
    "responsible_agency": "Department of Public Works",
    "final_address": "8211 Spruce St",
    "address_councildis": "A",
    "status": "Pending",
    "contractor": "Legacy Professional Services",
    "rowid": "951741",
    "final_x": "3663540.47405",
    "final_y": "530792.477634",
    "longitude": "-90.12480453259907",
    "latitude": "29.954028306590008",
    "geocoded_column": {
      "latitude": "29.954028306590008",
      "longitude": "-90.12480453259907"
    }
  },
  {
    "service_request": "2022-951740",
    "request_type": "Roads/Drainage",
    "request_reason": "Debris in Roadway",
    "date_created": "2022-12-09T17:34:01.000",
    "date_modified": "2022-12-09T17:34:01.000",
    "request_status": "Pending",
    "responsible_agency": "Department of Public Works",
    "final_address": "5960 Magazine St",
    "address_councildis": "A",
    "status": "Pending",
    "rowid": "951740",
    "final_x": "3664769.96378",
    "final_y": "519156.708471",
    "longitude": "-90.12131091895179",
    "latitude": "29.9219979375981",
    "geocoded_column": {
      "latitude": "29.9219979375981",
      "longitude": "-90.12131091895179"
    }
  },
  {
    "service_request": "2022-951739",
    "request_type": "Trash/Recycling",
    "request_reason": "Order Recycling Cart",
    "date_created": "2022-12-09T17:24:48.000",
    "date_modified": "2022-12-09T17:24:49.000",
    "request_status": "Pending",
    "responsible_agency": "Department of Sanitation",
    "final_address": "2420 Clara St",
    "address_councildis": "B",
    "status": "Pending",
    "rowid": "951739",
    "final_x": "3674514.83777",
    "final_y": "526595.335486",
    "longitude": "-90.09029567410421",
    "latitude": "29.942164722175605",
    "geocoded_column": {
      "latitude": "29.942164722175605",
      "longitude": "-90.09029567410421"
    }
  },
  {
    "service_request": "2022-951738",
    "request_type": "Roads/Drainage",
    "request_reason": "Pothole",
    "date_created": "2022-12-09T17:24:25.000",
    "date_modified": "2022-12-09T17:24:25.000",
    "request_status": "Pending",
    "responsible_agency": "Department of Public Works",
    "final_address": "829 Nashville Ave",
    "address_councildis": "A",
    "status": "Pending",
    "rowid": "951738",
    "final_x": "3665630.14445",
    "final_y": "519222.413111",
    "longitude": "-90.11859347985998",
    "latitude": "29.922153558399792",
    "geocoded_column": {
      "latitude": "29.922153558399792",
      "longitude": "-90.11859347985998"
    }
  },
  {
    "service_request": "2022-951737",
    "request_type": "Property Maintenance",
    "request_reason": "Property Maintenance",
    "date_created": "2022-12-09T17:22:19.000",
    "date_modified": "2022-12-09T17:22:19.000",
    "request_status": "Pending",
    "responsible_agency": "Department of Code Enforcement",
    "final_address": "4037 Ulloa St",
    "address_councildis": "A",
    "status": "Pending",
    "rowid": "951737",
    "final_x": "3669819.61492",
    "final_y": "536399.998919",
    "longitude": "-90.1047876599315",
    "latitude": "29.96926353446488",
    "geocoded_column": {
      "latitude": "29.96926353446488",
      "longitude": "-90.1047876599315"
    }
  },
  {
    "service_request": "2022-951736",
    "request_type": "Property Maintenance",
    "request_reason": "Property Maintenance",
    "date_created": "2022-12-09T17:21:07.000",
    "date_modified": "2022-12-09T17:21:07.000",
    "request_status": "Pending",
    "responsible_agency": "Department of Code Enforcement",
    "final_address": "4043 Ulloa St",
    "address_councildis": "A",
    "status": "Pending",
    "rowid": "951736",
    "final_x": "3669781.59879",
    "final_y": "536429.295431",
    "longitude": "-90.10490672619122",
    "latitude": "29.969345210773678",
    "geocoded_column": {
      "latitude": "29.969345210773678",
      "longitude": "-90.10490672619122"
    }
  },
  {
    "service_request": "2022-951735",
    "request_type": "Trash/Recycling",
    "request_reason": "Missed Trash Pick-Up",
    "date_created": "2022-12-09T17:20:18.000",
    "date_modified": "2022-12-09T17:20:19.000",
    "request_status": "Pending",
    "responsible_agency": "Department of Sanitation",
    "final_address": "609 Eleonore St",
    "address_councildis": "A",
    "status": "Assigned to Contractor",
    "contractor": "Richards Disposal",
    "rowid": "951735",
    "final_x": "3665134.981",
    "final_y": "518484.693558",
    "longitude": "-90.12018116679658",
    "latitude": "29.920139485356092",
    "geocoded_column": {
      "latitude": "29.920139485356092",
      "longitude": "-90.12018116679658"
    }
  },
  {
    "service_request": "2022-951734",
    "request_type": "Abandoned Vehicles",
    "request_reason": "Abandoned/Junk Vehicles",
    "date_created": "2022-12-09T17:17:46.000",
    "date_modified": "2022-12-09T17:17:46.000",
    "request_status": "Pending",
    "responsible_agency": "Department of Public Works",
    "final_address": "2200 BLK Felicity St",
    "address_councildis": "B",
    "status": "Pending",
    "rowid": "951734",
    "final_x": "3676501.39598",
    "final_y": "526559.830526",
    "longitude": "-90.08402489353927",
    "latitude": "29.942007688454765",
    "geocoded_column": {
      "latitude": "29.942007688454765",
      "longitude": "-90.08402489353927"
    }
  },
  {
    "service_request": "2022-951733",
    "request_type": "Abandoned Vehicles",
    "request_reason": "Abandoned/Junk Vehicles",
    "date_created": "2022-12-09T17:13:20.000",
    "date_modified": "2022-12-09T17:13:20.000",
    "request_status": "Pending",
    "responsible_agency": "Department of Public Works",
    "final_address": "29 Pinewood Ct",
    "address_councildis": "C",
    "status": "Pending",
    "rowid": "951733",
    "final_x": "3695802.21603",
    "final_y": "522860.658683",
    "longitude": "-90.02322193257014",
    "latitude": "29.931243496573146",
    "geocoded_column": {
      "latitude": "29.931243496573146",
      "longitude": "-90.02322193257014"
    }
  },
  {
    "service_request": "2022-951732",
    "request_type": "Trash/Recycling",
    "request_reason": "Order Trash Cart",
    "date_created": "2022-12-09T17:10:28.000",
    "date_modified": "2022-12-09T17:10:29.000",
    "request_status": "Pending",
    "responsible_agency": "Department of Sanitation",
    "final_address": "3028 Ursula Spencer Way",
    "address_councildis": "D",
    "status": "Assigned to Contractor",
    "contractor": "IV Waste",
    "rowid": "951732",
    "final_x": "3693203.66691",
    "final_y": "543178.815245",
    "longitude": "-90.03069599649706",
    "latitude": "29.98719274323657",
    "geocoded_column": {
      "latitude": "29.98719274323657",
      "longitude": "-90.03069599649706"
    }
  },
  {
    "service_request": "2022-951731",
    "request_type": "Trash/Recycling",
    "request_reason": "MIssed Recycling Pick-Up",
    "date_created": "2022-12-09T17:09:39.000",
    "date_modified": "2022-12-09T17:09:40.000",
    "request_status": "Pending",
    "responsible_agency": "Department of Sanitation",
    "final_address": "237 Adams St",
    "address_councildis": "A",
    "status": "Assigned to Contractor",
    "contractor": "Richards Disposal",
    "rowid": "951731",
    "final_x": "3660917.43552",
    "final_y": "524980.091837",
    "longitude": "-90.13327928222685",
    "latitude": "29.938121908461333",
    "geocoded_column": {
      "latitude": "29.938121908461333",
      "longitude": "-90.13327928222685"
    }
  },
  {
    "service_request": "2022-951730",
    "request_type": "Trash/Recycling",
    "request_reason": "Request a Large Item Pick Up",
    "date_created": "2022-12-09T17:07:23.000",
    "date_modified": "2022-12-09T17:07:24.000",
    "request_status": "Pending",
    "responsible_agency": "Department of Sanitation",
    "final_address": "4883 Redwood St",
    "address_councildis": "E",
    "status": "Assigned to Contractor",
    "contractor": "Waste Pro",
    "rowid": "951730",
    "final_x": "3712473.55531",
    "final_y": "557047.99721",
    "longitude": "-89.96930844198974",
    "latitude": "30.02471120407597",
    "geocoded_column": {
      "latitude": "30.02471120407597",
      "longitude": "-89.96930844198974"
    }
  },
  {
    "service_request": "2022-951729",
    "request_type": "Abandoned Vehicles",
    "request_reason": "Abandoned/Junk Vehicles",
    "date_created": "2022-12-09T17:04:56.000",
    "date_modified": "2022-12-09T17:07:47.000",
    "request_status": "Pending",
    "responsible_agency": "Department of Public Works",
    "final_address": "4958 Maid Marion Dr",
    "address_councildis": "E",
    "status": "Pending",
    "rowid": "951729",
    "final_x": "3716788.32607",
    "final_y": "558018.759323",
    "longitude": "-89.95563777495244",
    "latitude": "30.02723847597956",
    "geocoded_column": {
      "latitude": "30.02723847597956",
      "longitude": "-89.95563777495244"
    }
  },
  {
    "service_request": "2022-951728",
    "request_type": "Trash/Recycling",
    "request_reason": "Missed Trash Pick-Up",
    "date_created": "2022-12-09T17:04:08.000",
    "date_modified": "2022-12-09T17:04:09.000",
    "request_status": "Pending",
    "responsible_agency": "Department of Sanitation",
    "final_address": "2418 Somerset Dr",
    "address_councildis": "C",
    "status": "Assigned to Contractor",
    "contractor": "Richards Disposal",
    "rowid": "951728",
    "final_x": "3702953.12164",
    "final_y": "522120.909946",
    "longitude": "-90.00067476078239",
    "latitude": "29.928982693213577",
    "geocoded_column": {
      "latitude": "29.928982693213577",
      "longitude": "-90.00067476078239"
    }
  },
  {
    "service_request": "2022-951727",
    "request_type": "Trash/Recycling",
    "request_reason": "Repair Trash Cart",
    "date_created": "2022-12-09T16:53:10.000",
    "date_modified": "2022-12-09T16:53:10.000",
    "request_status": "Pending",
    "responsible_agency": "Department of Sanitation",
    "final_address": "2331 Jefferson Ave",
    "address_councildis": "B",
    "status": "Assigned to Contractor",
    "contractor": "Richards Disposal",
    "rowid": "951727",
    "final_x": "3668069.99706",
    "final_y": "524225.857724",
    "longitude": "-90.1107233318086",
    "latitude": "29.935840091561793",
    "geocoded_column": {
      "latitude": "29.935840091561793",
      "longitude": "-90.1107233318086"
    }
  },
  {
    "service_request": "2022-951726",
    "request_type": "Trash/Recycling",
    "request_reason": "MIssed Recycling Pick-Up",
    "date_created": "2022-12-09T16:50:56.000",
    "date_modified": "2022-12-09T16:50:56.000",
    "request_status": "Pending",
    "responsible_agency": "Department of Sanitation",
    "final_address": "727 St Roch Ave",
    "address_councildis": "C",
    "status": "Assigned to Contractor",
    "contractor": "IV Waste",
    "rowid": "951726",
    "final_x": "3686621.02287",
    "final_y": "535227.47111",
    "longitude": "-90.05176907700674",
    "latitude": "29.965533468110937",
    "geocoded_column": {
      "latitude": "29.965533468110937",
      "longitude": "-90.05176907700674"
    }
  },
  {
    "service_request": "2022-951725",
    "request_type": "Trash/Recycling",
    "request_reason": "MIssed Recycling Pick-Up",
    "date_created": "2022-12-09T16:49:52.000",
    "date_modified": "2022-12-09T16:49:53.000",
    "request_status": "Pending",
    "responsible_agency": "Department of Sanitation",
    "final_address": "8803 Pritchard Pl",
    "address_councildis": "A",
    "status": "Assigned to Contractor",
    "contractor": "Richards Disposal",
    "rowid": "951725",
    "final_x": "3664224.0066",
    "final_y": "534607.766918",
    "longitude": "-90.1225189023639",
    "latitude": "29.964499266032774",
    "geocoded_column": {
      "latitude": "29.964499266032774",
      "longitude": "-90.1225189023639"
    }
  },
  {
    "service_request": "2022-951724",
    "request_type": "Trash/Recycling",
    "request_reason": "Request a Large Item Pick Up",
    "date_created": "2022-12-09T16:47:28.000",
    "date_modified": "2022-12-09T16:47:28.000",
    "request_status": "Pending",
    "responsible_agency": "Department of Sanitation",
    "final_address": "209 Hay Pl",
    "address_councildis": "A",
    "status": "Assigned to Contractor",
    "contractor": "IV Waste",
    "rowid": "951724",
    "final_x": "3665803.42432",
    "final_y": "554313.92092",
    "longitude": "-90.11687053902047",
    "latitude": "30.018638490650886",
    "geocoded_column": {
      "latitude": "30.018638490650886",
      "longitude": "-90.11687053902047"
    }
  },
  {
    "service_request": "2022-951723",
    "request_type": "Trash/Recycling",
    "request_reason": "Repair Recycling Cart",
    "date_created": "2022-12-09T16:46:02.000",
    "date_modified": "2022-12-09T16:46:02.000",
    "request_status": "Pending",
    "responsible_agency": "Department of Sanitation",
    "final_address": "2032 Magazine St",
    "address_councildis": "B",
    "status": "Pending",
    "rowid": "951723",
    "final_x": "3679330.57621",
    "final_y": "522393.30649",
    "longitude": "-90.07523700198738",
    "latitude": "29.930466001554052",
    "geocoded_column": {
      "latitude": "29.930466001554052",
      "longitude": "-90.07523700198738"
    }
  },
  {
    "service_request": "2022-951722",
    "request_type": "Trash/Recycling",
    "request_reason": "Repair Trash Cart",
    "date_created": "2022-12-09T16:43:47.000",
    "date_modified": "2022-12-09T16:43:48.000",
    "request_status": "Pending",
    "responsible_agency": "Department of Sanitation",
    "final_address": "2032 Magazine St",
    "address_councildis": "B",
    "status": "Assigned to Contractor",
    "contractor": "Richards Disposal",
    "rowid": "951722",
    "final_x": "3679330.57621",
    "final_y": "522393.30649",
    "longitude": "-90.07523700198738",
    "latitude": "29.930466001554052",
    "geocoded_column": {
      "latitude": "29.930466001554052",
      "longitude": "-90.07523700198738"
    }
  },
  {
    "service_request": "2022-951721",
    "request_type": "Abandoned Vehicles",
    "request_reason": "Abandoned/Junk Vehicles",
    "date_created": "2022-12-09T16:39:22.000",
    "date_modified": "2022-12-09T16:39:22.000",
    "request_status": "Pending",
    "responsible_agency": "Department of Public Works",
    "final_address": "2315 St Andrew St",
    "address_councildis": "B",
    "status": "Pending",
    "rowid": "951721",
    "final_x": "3676463.59617",
    "final_y": "526367.93107",
    "longitude": "-90.08415084079799",
    "latitude": "29.94148116139002",
    "geocoded_column": {
      "latitude": "29.94148116139002",
      "longitude": "-90.08415084079799"
    }
  },
  {
    "service_request": "2022-951720",
    "request_type": "Trash/Recycling",
    "request_reason": "Missed Trash Pick-Up",
    "date_created": "2022-12-09T16:34:28.000",
    "date_modified": "2022-12-09T16:34:29.000",
    "request_status": "Pending",
    "responsible_agency": "Department of Sanitation",
    "final_address": "6262 Prytania St",
    "address_councildis": "A",
    "status": "Assigned to Contractor",
    "contractor": "Richards Disposal",
    "rowid": "951720",
    "final_x": "3664176.20084",
    "final_y": "521217.300857",
    "longitude": "-90.12311648901333",
    "latitude": "29.92768117676421",
    "geocoded_column": {
      "latitude": "29.92768117676421",
      "longitude": "-90.12311648901333"
    }
  },
  {
    "service_request": "2022-951719",
    "request_type": "Trash/Recycling",
    "request_reason": "Request a Large Item Pick Up",
    "date_created": "2022-12-09T16:28:29.000",
    "date_modified": "2022-12-09T16:28:30.000",
    "request_status": "Pending",
    "responsible_agency": "Department of Sanitation",
    "final_address": "1817 Gordon St",
    "address_councildis": "E",
    "status": "Assigned to Contractor",
    "contractor": "Waste Pro",
    "rowid": "951719",
    "final_x": "3700267.79069",
    "final_y": "536069.700935",
    "longitude": "-90.00864269606625",
    "latitude": "29.967422555248962",
    "geocoded_column": {
      "latitude": "29.967422555248962",
      "longitude": "-90.00864269606625"
    }
  },
  {
    "service_request": "2022-951718",
    "request_type": "Trash/Recycling",
    "request_reason": "MIssed Recycling Pick-Up",
    "date_created": "2022-12-09T16:27:52.000",
    "date_modified": "2022-12-09T16:27:53.000",
    "request_status": "Pending",
    "responsible_agency": "Department of Sanitation",
    "final_address": "5400 BLK Freret St",
    "address_councildis": "A",
    "status": "Assigned to Contractor",
    "contractor": "Richards Disposal",
    "rowid": "951718",
    "final_x": "3667742.48338",
    "final_y": "524032.887746",
    "longitude": "-90.11176379669168",
    "latitude": "29.935319090783143",
    "geocoded_column": {
      "latitude": "29.935319090783143",
      "longitude": "-90.11176379669168"
    }
  },
  {
    "service_request": "2022-951717",
    "request_type": "Trash/Recycling",
    "request_reason": "Replace Trash Cart",
    "date_created": "2022-12-09T16:26:34.000",
    "date_modified": "2022-12-09T16:26:34.000",
    "request_status": "Pending",
    "responsible_agency": "Department of Sanitation",
    "final_address": "523 Belleville St",
    "address_councildis": "C",
    "status": "Assigned to Contractor",
    "contractor": "Richards Disposal",
    "rowid": "951717",
    "final_x": "3687799.57443",
    "final_y": "529722.237441",
    "longitude": "-90.048242251543",
    "latitude": "29.950359679455346",
    "geocoded_column": {
      "latitude": "29.950359679455346",
      "longitude": "-90.048242251543"
    }
  },
  {
    "service_request": "2022-951716",
    "request_type": "Trash/Recycling",
    "request_reason": "MIssed Recycling Pick-Up",
    "date_created": "2022-12-09T16:25:06.000",
    "date_modified": "2022-12-09T16:50:26.000",
    "request_status": "Pending",
    "responsible_agency": "Department of Sanitation",
    "final_address": "New Orleans,LA",
    "address_councildis": "A",
    "status": "Assigned to Contractor",
    "contractor": "Richards Disposal",
    "rowid": "951716",
    "final_x": "3662950.28947",
    "final_y": "523780.358715",
    "longitude": "-90.12690122748427",
    "latitude": "29.934764324342282",
    "geocoded_column": {
      "latitude": "29.934764324342282",
      "longitude": "-90.12690122748427"
    }
  },
  {
    "service_request": "2022-951715",
    "request_type": "Trash/Recycling",
    "request_reason": "Request a Large Item Pick Up",
    "date_created": "2022-12-09T16:24:22.000",
    "date_modified": "2022-12-09T16:24:23.000",
    "request_status": "Pending",
    "responsible_agency": "Department of Sanitation",
    "final_address": "2000 Octavia St",
    "address_councildis": "A",
    "status": "Assigned to Contractor",
    "contractor": "Richards Disposal",
    "rowid": "951715",
    "final_x": "3667329.70285",
    "final_y": "523113.220923",
    "longitude": "-90.11309786909997",
    "latitude": "29.932802394576196",
    "geocoded_column": {
      "latitude": "29.932802394576196",
      "longitude": "-90.11309786909997"
    }
  },
  {
    "service_request": "2022-951714",
    "request_type": "Trash/Recycling",
    "request_reason": "Order Trash Cart",
    "date_created": "2022-12-09T16:21:26.000",
    "date_modified": "2022-12-09T16:21:26.000",
    "request_status": "Pending",
    "responsible_agency": "Department of Sanitation",
    "final_address": "2216 Jena St",
    "address_councildis": "B",
    "status": "Assigned to Contractor",
    "contractor": "Richards Disposal",
    "rowid": "951714",
    "final_x": "3670186.01492",
    "final_y": "523107.795707",
    "longitude": "-90.10408087402607",
    "latitude": "29.932703529417164",
    "geocoded_column": {
      "latitude": "29.932703529417164",
      "longitude": "-90.10408087402607"
    }
  },
  {
    "service_request": "2022-951713",
    "request_type": "Trash/Recycling",
    "request_reason": "Order Trash Cart",
    "date_created": "2022-12-09T16:21:05.000",
    "date_modified": "2022-12-09T16:21:06.000",
    "request_status": "Pending",
    "responsible_agency": "Department of Sanitation",
    "final_address": "1700 Odeon St",
    "address_councildis": "C",
    "status": "Assigned to Contractor",
    "contractor": "Richards Disposal",
    "rowid": "951713",
    "final_x": "3695975.25744",
    "final_y": "525074.151229",
    "longitude": "-90.02259573272111",
    "latitude": "29.93732439948479",
    "geocoded_column": {
      "latitude": "29.93732439948479",
      "longitude": "-90.02259573272111"
    }
  },
  {
    "service_request": "2022-951712",
    "request_type": "Trash/Recycling",
    "request_reason": "Order Recycling Cart",
    "date_created": "2022-12-09T16:14:17.000",
    "date_modified": "2022-12-09T16:14:18.000",
    "request_status": "Pending",
    "responsible_agency": "Department of Sanitation",
    "final_address": "7725 Sandy Cove Dr",
    "address_councildis": "E",
    "status": "Pending",
    "rowid": "951712",
    "final_x": "3715285.99557",
    "final_y": "569863.500262",
    "longitude": "-89.95993634010013",
    "latitude": "30.059856290106435",
    "geocoded_column": {
      "latitude": "30.059856290106435",
      "longitude": "-89.95993634010013"
    }
  },
  {
    "service_request": "2022-951711",
    "request_type": "Trash/Recycling",
    "request_reason": "Repair Recycling Cart",
    "date_created": "2022-12-09T16:12:58.000",
    "date_modified": "2022-12-09T16:12:59.000",
    "request_status": "Pending",
    "responsible_agency": "Department of Sanitation",
    "final_address": "10711 Harrow Rd",
    "address_councildis": "E",
    "status": "Pending",
    "rowid": "951711",
    "final_x": "3711201.48766",
    "final_y": "563575.01008",
    "longitude": "-89.97308308683837",
    "latitude": "30.042699471093773",
    "geocoded_column": {
      "latitude": "30.042699471093773",
      "longitude": "-89.97308308683837"
    }
  },
  {
    "service_request": "2022-951710",
    "request_type": "Trash/Recycling",
    "request_reason": "Request a Large Item Pick Up",
    "date_created": "2022-12-09T16:12:50.000",
    "date_modified": "2022-12-09T16:12:50.000",
    "request_status": "Pending",
    "responsible_agency": "Department of Sanitation",
    "final_address": "1784 Pratt Dr",
    "address_councildis": "D",
    "status": "Assigned to Contractor",
    "contractor": "IV Waste",
    "rowid": "951710",
    "final_x": "3680709.20655",
    "final_y": "549554.355731",
    "longitude": "-90.06993947959963",
    "latitude": "30.005107866803417",
    "geocoded_column": {
      "latitude": "30.005107866803417",
      "longitude": "-90.06993947959963"
    }
  },
  {
    "service_request": "2022-951709",
    "request_type": "Trash/Recycling",
    "request_reason": "Request a Large Item Pick Up",
    "date_created": "2022-12-09T16:11:54.000",
    "date_modified": "2022-12-09T16:11:55.000",
    "request_status": "Pending",
    "responsible_agency": "Department of Sanitation",
    "final_address": "827 St Peter St",
    "address_councildis": "C",
    "status": "Assigned to Contractor",
    "contractor": "Empire Services",
    "rowid": "951709",
    "final_x": "3682093.91138",
    "final_y": "532811.245892",
    "longitude": "-90.06614987424817",
    "latitude": "29.959028123716305",
    "geocoded_column": {
      "latitude": "29.959028123716305",
      "longitude": "-90.06614987424817"
    }
  },
  {
    "service_request": "2022-951707",
    "request_type": "Trash/Recycling",
    "request_reason": "Request a Large Item Pick Up",
    "date_created": "2022-12-09T16:10:37.000",
    "date_modified": "2022-12-09T16:10:38.000",
    "request_status": "Pending",
    "responsible_agency": "Department of Sanitation",
    "final_address": "1426 Milan St",
    "address_councildis": "B",
    "status": "Assigned to Contractor",
    "contractor": "Richards Disposal",
    "rowid": "951707",
    "final_x": "3671573.04615",
    "final_y": "520604.071992",
    "longitude": "-90.09978720943855",
    "latitude": "29.925778105119285",
    "geocoded_column": {
      "latitude": "29.925778105119285",
      "longitude": "-90.09978720943855"
    }
  },
  {
    "service_request": "2022-951706",
    "request_type": "Trash/Recycling",
    "request_reason": "Order Trash Cart",
    "date_created": "2022-12-09T16:00:26.000",
    "date_modified": "2022-12-09T16:00:26.000",
    "request_status": "Pending",
    "responsible_agency": "Department of Sanitation",
    "final_address": "4907 Mandeville St",
    "address_councildis": "D",
    "status": "Assigned to Contractor",
    "contractor": "IV Waste",
    "rowid": "951706",
    "final_x": "3684707.39113",
    "final_y": "550867.927637",
    "longitude": "-90.05726217923134",
    "latitude": "30.008597893156868",
    "geocoded_column": {
      "latitude": "30.008597893156868",
      "longitude": "-90.05726217923134"
    }
  },
  {
    "service_request": "2022-951705",
    "request_type": "Trash/Recycling",
    "request_reason": "Missed Trash Pick-Up",
    "date_created": "2022-12-09T16:00:15.000",
    "date_modified": "2022-12-09T16:00:15.000",
    "request_status": "Pending",
    "responsible_agency": "Department of Sanitation",
    "final_address": "3143 Yupon St",
    "address_councildis": "D",
    "status": "Assigned to Contractor",
    "contractor": "IV Waste",
    "rowid": "951705",
    "final_x": "3675637.86293",
    "final_y": "544055.971086",
    "longitude": "-90.0861500079001",
    "latitude": "29.99014201445666",
    "geocoded_column": {
      "latitude": "29.99014201445666",
      "longitude": "-90.0861500079001"
    }
  },
  {
    "service_request": "2022-951704",
    "request_type": "Trash/Recycling",
    "request_reason": "Missed Trash Pick-Up",
    "date_created": "2022-12-09T15:59:35.000",
    "date_modified": "2022-12-09T15:59:36.000",
    "request_status": "Pending",
    "responsible_agency": "Department of Sanitation",
    "final_address": "3151 Yupon St",
    "address_councildis": "D",
    "status": "Assigned to Contractor",
    "contractor": "IV Waste",
    "rowid": "951704",
    "final_x": "3675640.67669",
    "final_y": "544107.871822",
    "longitude": "-90.08613933554462",
    "latitude": "29.99028463920635",
    "geocoded_column": {
      "latitude": "29.99028463920635",
      "longitude": "-90.08613933554462"
    }
  },
  {
    "service_request": "2022-951703",
    "request_type": "Trash/Recycling",
    "request_reason": "Order Trash Cart",
    "date_created": "2022-12-09T15:56:52.000",
    "date_modified": "2022-12-09T15:56:52.000",
    "request_status": "Pending",
    "responsible_agency": "Department of Sanitation",
    "final_address": "4327 Paris Ave",
    "address_councildis": "D",
    "status": "Assigned to Contractor",
    "contractor": "IV Waste",
    "rowid": "951703",
    "final_x": "3679579.76738",
    "final_y": "548180.78933",
    "longitude": "-90.07355532402073",
    "latitude": "30.001365242425802",
    "geocoded_column": {
      "latitude": "30.001365242425802",
      "longitude": "-90.07355532402073"
    }
  },
  {
    "service_request": "2022-951702",
    "request_type": "Trash/Recycling",
    "request_reason": "Missed Trash Pick-Up",
    "date_created": "2022-12-09T15:56:14.000",
    "date_modified": "2022-12-09T15:56:15.000",
    "request_status": "Pending",
    "responsible_agency": "Department of Sanitation",
    "final_address": "1628 Piety St",
    "address_councildis": "D",
    "status": "Assigned to Contractor",
    "contractor": "IV Waste",
    "rowid": "951702",
    "final_x": "3690324.78812",
    "final_y": "537917.871177",
    "longitude": "-90.03997688401952",
    "latitude": "29.972816698130895",
    "geocoded_column": {
      "latitude": "29.972816698130895",
      "longitude": "-90.03997688401952"
    }
  },
  {
    "service_request": "2022-951701",
    "request_type": "Trash/Recycling",
    "request_reason": "Order Trash Cart",
    "date_created": "2022-12-09T15:54:50.000",
    "date_modified": "2022-12-09T15:55:27.000",
    "request_status": "Pending",
    "responsible_agency": "Department of Sanitation",
    "final_address": "1569 Athis St",
    "address_councildis": "D",
    "status": "Assigned to Contractor",
    "contractor": "IV Waste",
    "rowid": "951701",
    "final_x": "3678916.07899",
    "final_y": "553855.734487",
    "longitude": "-90.07545517078597",
    "latitude": "30.0169893528633",
    "geocoded_column": {
      "latitude": "30.0169893528633",
      "longitude": "-90.07545517078597"
    }
  },
  {
    "service_request": "2022-951700",
    "request_type": "Trash/Recycling",
    "request_reason": "Order Recycling Cart",
    "date_created": "2022-12-09T15:54:19.000",
    "date_modified": "2022-12-09T15:54:19.000",
    "request_status": "Pending",
    "responsible_agency": "Department of Sanitation",
    "final_address": "3017 Grand Route St John St",
    "address_councildis": "A",
    "status": "Pending",
    "rowid": "951700",
    "final_x": "3677008.56334",
    "final_y": "540341.763595",
    "longitude": "-90.08194845221338",
    "latitude": "29.979888138667764",
    "geocoded_column": {
      "latitude": "29.979888138667764",
      "longitude": "-90.08194845221338"
    }
  },
  {
    "service_request": "2022-951699",
    "request_type": "Trash/Recycling",
    "request_reason": "Replace Trash Cart",
    "date_created": "2022-12-09T15:52:44.000",
    "date_modified": "2022-12-09T15:52:45.000",
    "request_status": "Pending",
    "responsible_agency": "Department of Sanitation",
    "final_address": "3017 Grand Route St John St",
    "address_councildis": "A",
    "status": "Assigned to Contractor",
    "contractor": "IV Waste",
    "rowid": "951699",
    "final_x": "3677008.56334",
    "final_y": "540341.763595",
    "longitude": "-90.08194845221338",
    "latitude": "29.979888138667764",
    "geocoded_column": {
      "latitude": "29.979888138667764",
      "longitude": "-90.08194845221338"
    }
  },
  {
    "service_request": "2022-951698",
    "request_type": "Trash/Recycling",
    "request_reason": "Order Trash Cart",
    "date_created": "2022-12-09T15:50:45.000",
    "date_modified": "2022-12-09T15:50:46.000",
    "request_status": "Pending",
    "responsible_agency": "Department of Sanitation",
    "final_address": "3327 Pleasure St",
    "address_councildis": "D",
    "status": "Assigned to Contractor",
    "contractor": "IV Waste",
    "rowid": "951698",
    "final_x": "3692412.95446",
    "final_y": "544815.578703",
    "longitude": "-90.0331349008338",
    "latitude": "29.991717943734656",
    "geocoded_column": {
      "latitude": "29.991717943734656",
      "longitude": "-90.0331349008338"
    }
  },
  {
    "service_request": "2022-951697",
    "request_type": "Trash/Recycling",
    "request_reason": "Illegal Dumping",
    "date_created": "2022-12-09T15:48:19.000",
    "date_modified": "2022-12-09T15:48:19.000",
    "request_status": "Pending",
    "responsible_agency": "Department of Sanitation",
    "final_address": "DOUGLASS ST & LIZARDI ST",
    "address_councildis": "E",
    "status": "Pending",
    "rowid": "951697",
    "final_x": "3695927.8",
    "final_y": "531995.78",
    "longitude": "-90.02249557206842",
    "latitude": "29.95635796183109",
    "geocoded_column": {
      "latitude": "29.95635796183109",
      "longitude": "-90.02249557206842"
    }
  },
  {
    "service_request": "2022-951696",
    "request_type": "Trash/Recycling",
    "request_reason": "Order Trash Cart",
    "date_created": "2022-12-09T15:47:43.000",
    "date_modified": "2022-12-09T15:47:43.000",
    "request_status": "Pending",
    "responsible_agency": "Department of Sanitation",
    "final_address": "2620 Clover St",
    "address_councildis": "D",
    "status": "Assigned to Contractor",
    "contractor": "IV Waste",
    "rowid": "951696",
    "final_x": "3687301.87599",
    "final_y": "546617.391697",
    "longitude": "-90.04921588235345",
    "latitude": "29.996830760071987",
    "geocoded_column": {
      "latitude": "29.996830760071987",
      "longitude": "-90.04921588235345"
    }
  },
  {
    "service_request": "2022-951695",
    "request_type": "Abandoned Vehicles",
    "request_reason": "Abandoned/Junk Vehicles",
    "date_created": "2022-12-09T15:47:28.000",
    "date_modified": "2022-12-09T15:47:28.000",
    "request_status": "Pending",
    "responsible_agency": "Department of Public Works",
    "final_address": "5670 Woodlawn Pl",
    "address_councildis": "A",
    "status": "Pending",
    "rowid": "951695",
    "final_x": "3667441.57517",
    "final_y": "545248.704911",
    "longitude": "-90.11199985487272",
    "latitude": "29.99366438030162",
    "geocoded_column": {
      "latitude": "29.99366438030162",
      "longitude": "-90.11199985487272"
    }
  },
  {
    "service_request": "2022-951694",
    "request_type": "Trash/Recycling",
    "request_reason": "Illegal Dumping",
    "date_created": "2022-12-09T15:45:38.000",
    "date_modified": "2022-12-09T15:45:38.000",
    "request_status": "Pending",
    "responsible_agency": "Department of Sanitation",
    "final_address": "LAMANCHE ST & N ROCHEBLAVE ST",
    "address_councildis": "E",
    "status": "Pending",
    "rowid": "951694",
    "final_x": "3699677.2",
    "final_y": "538547.88",
    "longitude": "-90.0104174243775",
    "latitude": "29.97425541467381",
    "geocoded_column": {
      "latitude": "29.97425541467381",
      "longitude": "-90.0104174243775"
    }
  },
  {
    "service_request": "2022-951693",
    "request_type": "Trash/Recycling",
    "request_reason": "Illegal Dumping",
    "date_created": "2022-12-09T15:43:56.000",
    "date_modified": "2022-12-09T15:43:56.000",
    "request_status": "Pending",
    "responsible_agency": "Department of Sanitation",
    "final_address": "6100 BLK N Miro St",
    "address_councildis": "E",
    "status": "Pending",
    "rowid": "951693",
    "final_x": "3701246.55023",
    "final_y": "537160.842133",
    "longitude": "-90.00551184669852",
    "latitude": "29.97039164994043",
    "geocoded_column": {
      "latitude": "29.97039164994043",
      "longitude": "-90.00551184669852"
    }
  },
  {
    "service_request": "2022-951692",
    "request_type": "Trash/Recycling",
    "request_reason": "Missed Trash Pick-Up",
    "date_created": "2022-12-09T15:41:50.000",
    "date_modified": "2022-12-09T15:41:50.000",
    "request_status": "Pending",
    "responsible_agency": "Department of Sanitation",
    "final_address": "1519 Clio St",
    "address_councildis": "B",
    "status": "Assigned to Contractor",
    "contractor": "Richards Disposal",
    "rowid": "951692",
    "final_x": "3680029.01269",
    "final_y": "526205.63603",
    "longitude": "-90.07289975933006",
    "latitude": "29.940927543440537",
    "geocoded_column": {
      "latitude": "29.940927543440537",
      "longitude": "-90.07289975933006"
    }
  },
  {
    "service_request": "2022-951691",
    "request_type": "Trash/Recycling",
    "request_reason": "Missed Trash Pick-Up",
    "date_created": "2022-12-09T15:39:52.000",
    "date_modified": "2022-12-09T15:39:53.000",
    "request_status": "Pending",
    "responsible_agency": "Department of Sanitation",
    "final_address": "6301 Magnolia St",
    "address_councildis": "A",
    "status": "Assigned to Contractor",
    "contractor": "Richards Disposal",
    "rowid": "951691",
    "final_x": "3665835.48167",
    "final_y": "525464.389245",
    "longitude": "-90.11773628427116",
    "latitude": "29.939311026768458",
    "geocoded_column": {
      "latitude": "29.939311026768458",
      "longitude": "-90.11773628427116"
    }
  },
  {
    "service_request": "2022-951688",
    "request_type": "Trash/Recycling",
    "request_reason": "Replace Trash Cart",
    "date_created": "2022-12-09T15:29:10.000",
    "date_modified": "2022-12-09T15:29:11.000",
    "request_status": "Pending",
    "responsible_agency": "Department of Sanitation",
    "final_address": "2119 Robert St",
    "address_councildis": "B",
    "status": "Assigned to Contractor",
    "contractor": "Richards Disposal",
    "rowid": "951688",
    "final_x": "3668849.87098",
    "final_y": "523384.444987",
    "longitude": "-90.10828964782682",
    "latitude": "29.93350357277975",
    "geocoded_column": {
      "latitude": "29.93350357277975",
      "longitude": "-90.10828964782682"
    }
  },
  {
    "service_request": "2022-951687",
    "request_type": "Trash/Recycling",
    "request_reason": "MIssed Recycling Pick-Up",
    "date_created": "2022-12-09T15:25:28.000",
    "date_modified": "2022-12-09T15:25:29.000",
    "request_status": "Pending",
    "responsible_agency": "Department of Sanitation",
    "final_address": "1643 S Norman C Francis Prkwy",
    "address_councildis": "B",
    "status": "Assigned to Contractor",
    "contractor": "Richards Disposal",
    "rowid": "951687",
    "final_x": "3669269.23252",
    "final_y": "531015.587394",
    "longitude": "-90.1067078468871",
    "latitude": "29.954474402047378",
    "geocoded_column": {
      "latitude": "29.954474402047378",
      "longitude": "-90.1067078468871"
    }
  },
  {
    "service_request": "2022-951686",
    "request_type": "Roads/Drainage",
    "request_reason": "Catch Basin - Broken/Damage",
    "date_created": "2022-12-09T15:24:18.000",
    "date_modified": "2022-12-09T15:24:19.000",
    "request_status": "Pending",
    "responsible_agency": "Department of Public Works",
    "final_address": "MOSS ST & ORLEANS AVE",
    "address_councildis": "A",
    "status": "Pending",
    "rowid": "951686",
    "final_x": "3674424.0",
    "final_y": "538813.88",
    "longitude": "-90.09016393547608",
    "latitude": "29.975764340725075",
    "geocoded_column": {
      "latitude": "29.975764340725075",
      "longitude": "-90.09016393547608"
    }
  },
  {
    "service_request": "2022-951685",
    "request_type": "Trash/Recycling",
    "request_reason": "MIssed Recycling Pick-Up",
    "date_created": "2022-12-09T15:23:16.000",
    "date_modified": "2022-12-09T15:23:16.000",
    "request_status": "Pending",
    "responsible_agency": "Department of Sanitation",
    "final_address": "2439 Joliet St",
    "address_councildis": "A",
    "status": "Assigned to Contractor",
    "contractor": "Richards Disposal",
    "rowid": "951685",
    "final_x": "3664062.04576",
    "final_y": "532748.798788",
    "longitude": "-90.1230923691593",
    "latitude": "29.959392417018712",
    "geocoded_column": {
      "latitude": "29.959392417018712",
      "longitude": "-90.1230923691593"
    }
  },
  {
    "service_request": "2022-951684",
    "request_type": "Trash/Recycling",
    "request_reason": "Request a Large Item Pick Up",
    "date_created": "2022-12-09T15:15:24.000",
    "date_modified": "2022-12-09T15:15:25.000",
    "request_status": "Pending",
    "responsible_agency": "Department of Sanitation",
    "final_address": "8608 Marks St",
    "address_councildis": "A",
    "status": "Assigned to Contractor",
    "contractor": "Richards Disposal",
    "rowid": "951684",
    "final_x": "3667466.20359",
    "final_y": "537236.656456",
    "longitude": "-90.11219177811225",
    "latitude": "29.97163323545828",
    "geocoded_column": {
      "latitude": "29.97163323545828",
      "longitude": "-90.11219177811225"
    }
  },
  {
    "service_request": "2022-951683",
    "request_type": "Trash/Recycling",
    "request_reason": "Missed Trash Pick-Up",
    "date_created": "2022-12-09T15:12:30.000",
    "date_modified": "2022-12-09T15:12:31.000",
    "request_status": "Pending",
    "responsible_agency": "Department of Sanitation",
    "final_address": "2423 Andry St",
    "address_councildis": "E",
    "status": "Assigned to Contractor",
    "contractor": "Waste Pro",
    "rowid": "951683",
    "final_x": "3698596.93264",
    "final_y": "539008.08257",
    "longitude": "-90.01381240325686",
    "latitude": "29.97555505513653",
    "geocoded_column": {
      "latitude": "29.97555505513653",
      "longitude": "-90.01381240325686"
    }
  },
  {
    "service_request": "2022-951682",
    "request_type": "Trash/Recycling",
    "request_reason": "Request a Large Item Pick Up",
    "date_created": "2022-12-09T15:12:07.000",
    "date_modified": "2022-12-09T15:12:07.000",
    "request_status": "Pending",
    "responsible_agency": "Department of Sanitation",
    "final_address": "1555 Abundance St",
    "address_councildis": "D",
    "status": "Assigned to Contractor",
    "contractor": "IV Waste",
    "rowid": "951682",
    "final_x": "3679697.34875",
    "final_y": "543329.504334",
    "longitude": "-90.07335239659027",
    "latitude": "29.988022367324636",
    "geocoded_column": {
      "latitude": "29.988022367324636",
      "longitude": "-90.07335239659027"
    }
  },
  {
    "service_request": "2022-951681",
    "request_type": "Trash/Recycling",
    "request_reason": "Illegal Dumping",
    "date_created": "2022-12-09T15:07:19.000",
    "date_modified": "2022-12-09T15:07:20.000",
    "request_status": "Pending",
    "responsible_agency": "Department of Code Enforcement",
    "final_address": "1810 Orleans Ave",
    "address_councildis": "D",
    "status": "Pending",
    "rowid": "951681",
    "final_x": "3679317.67106",
    "final_y": "535023.48583",
    "longitude": "-90.07483982639361",
    "latitude": "29.96519516094099",
    "geocoded_column": {
      "latitude": "29.96519516094099",
      "longitude": "-90.07483982639361"
    }
  },
  {
    "service_request": "2022-951680",
    "request_type": "Trash/Recycling",
    "request_reason": "Order Trash Cart",
    "date_created": "2022-12-09T15:05:14.000",
    "date_modified": "2022-12-09T15:05:16.000",
    "request_status": "Pending",
    "responsible_agency": "Department of Sanitation",
    "final_address": "4422 Cleveland Ave",
    "address_councildis": "A",
    "status": "Assigned to Contractor",
    "contractor": "Richards Disposal",
    "rowid": "951680",
    "final_x": "3669490.27719",
    "final_y": "538998.749002",
    "longitude": "-90.10573981027383",
    "latitude": "29.976418929309187",
    "geocoded_column": {
      "latitude": "29.976418929309187",
      "longitude": "-90.10573981027383"
    }
  },
  {
    "service_request": "2022-951679",
    "request_type": "Abandoned Vehicles",
    "request_reason": "Abandoned/Junk Vehicles",
    "date_created": "2022-12-09T15:05:12.000",
    "date_modified": "2022-12-09T15:05:12.000",
    "request_status": "Pending",
    "responsible_agency": "Department of Public Works",
    "final_address": "936 Jackson Ave",
    "address_councildis": "B",
    "status": "Pending",
    "rowid": "951679",
    "final_x": "3679076.79925",
    "final_y": "521692.383865",
    "longitude": "-90.07606241621347",
    "latitude": "29.92854635302765",
    "geocoded_column": {
      "latitude": "29.92854635302765",
      "longitude": "-90.07606241621347"
    }
  },
  {
    "service_request": "2022-951678",
    "request_type": "Trash/Recycling",
    "request_reason": "Illegal Dumping",
    "date_created": "2022-12-09T15:04:33.000",
    "date_modified": "2022-12-09T15:04:33.000",
    "request_status": "Pending",
    "responsible_agency": "Department of Sanitation",
    "final_address": "1722 Laharpe St",
    "address_councildis": "D",
    "status": "Pending",
    "rowid": "951678",
    "final_x": "3681499.23592",
    "final_y": "537780.364488",
    "longitude": "-90.06785441455803",
    "latitude": "29.97270956466114",
    "geocoded_column": {
      "latitude": "29.97270956466114",
      "longitude": "-90.06785441455803"
    }
  },
  {
    "service_request": "2022-951677",
    "request_type": "Trash/Recycling",
    "request_reason": "MIssed Recycling Pick-Up",
    "date_created": "2022-12-09T15:02:17.000",
    "date_modified": "2022-12-09T15:02:18.000",
    "request_status": "Pending",
    "responsible_agency": "Department of Sanitation",
    "final_address": "FRERET ST & OCTAVIA ST",
    "address_councildis": "A",
    "status": "Assigned to Contractor",
    "contractor": "Richards Disposal",
    "rowid": "951677",
    "final_x": "3667588.2",
    "final_y": "524069.58",
    "longitude": "-90.11224963681607",
    "latitude": "29.93542450449843",
    "geocoded_column": {
      "latitude": "29.93542450449843",
      "longitude": "-90.11224963681607"
    }
  },
  {
    "service_request": "2022-951676",
    "request_type": "Trash/Recycling",
    "request_reason": "Missed Trash Pick-Up",
    "date_created": "2022-12-09T15:01:51.000",
    "date_modified": "2022-12-09T15:01:51.000",
    "request_status": "Pending",
    "responsible_agency": "Department of Sanitation",
    "final_address": "4228 Marigny St",
    "address_councildis": "D",
    "status": "Assigned to Contractor",
    "contractor": "IV Waste",
    "rowid": "951676",
    "final_x": "3684361.1981",
    "final_y": "548375.189394",
    "longitude": "-90.05844353555663",
    "latitude": "30.00175436069361",
    "geocoded_column": {
      "latitude": "30.00175436069361",
      "longitude": "-90.05844353555663"
    }
  },
  {
    "service_request": "2022-951675",
    "request_type": "Trash/Recycling",
    "request_reason": "MIssed Recycling Pick-Up",
    "date_created": "2022-12-09T15:00:17.000",
    "date_modified": "2022-12-09T15:00:18.000",
    "request_status": "Pending",
    "responsible_agency": "Department of Sanitation",
    "final_address": "427 Fern St",
    "address_councildis": "A",
    "status": "Assigned to Contractor",
    "contractor": "Richards Disposal",
    "rowid": "951675",
    "final_x": "3660830.78586",
    "final_y": "525928.722621",
    "longitude": "-90.13352148465962",
    "latitude": "29.940732838198116",
    "geocoded_column": {
      "latitude": "29.940732838198116",
      "longitude": "-90.13352148465962"
    }
  },
  {
    "service_request": "2022-951674",
    "request_type": "Trash/Recycling",
    "request_reason": "Return Recycling Cart",
    "date_created": "2022-12-09T14:58:16.000",
    "date_modified": "2022-12-09T14:58:17.000",
    "request_status": "Pending",
    "responsible_agency": "Department of Sanitation",
    "final_address": "3615 Cadiz St",
    "address_councildis": "B",
    "status": "Pending",
    "rowid": "951674",
    "final_x": "3669432.71342",
    "final_y": "527912.500735",
    "longitude": "-90.10629656351773",
    "latitude": "29.945937115711835",
    "geocoded_column": {
      "latitude": "29.945937115711835",
      "longitude": "-90.10629656351773"
    }
  },
  {
    "service_request": "2022-951673",
    "request_type": "Trash/Recycling",
    "request_reason": "Order Recycling Cart",
    "date_created": "2022-12-09T14:56:59.000",
    "date_modified": "2022-12-09T14:56:59.000",
    "request_status": "Pending",
    "responsible_agency": "Department of Sanitation",
    "final_address": "2842 Fortin St",
    "address_councildis": "A",
    "status": "Pending",
    "rowid": "951673",
    "final_x": "3678051.96322",
    "final_y": "540875.575755",
    "longitude": "-90.07863450273692",
    "latitude": "29.98132456356883",
    "geocoded_column": {
      "latitude": "29.98132456356883",
      "longitude": "-90.07863450273692"
    }
  },
  {
    "service_request": "2022-951672",
    "request_type": "Trash/Recycling",
    "request_reason": "Repair Recycling Cart",
    "date_created": "2022-12-09T14:56:51.000",
    "date_modified": "2022-12-09T14:56:52.000",
    "request_status": "Pending",
    "responsible_agency": "Department of Sanitation",
    "final_address": "6757 Deanne St",
    "address_councildis": "D",
    "status": "Pending",
    "rowid": "951672",
    "final_x": "3695975.38294",
    "final_y": "555687.789593",
    "longitude": "-90.02148882506809",
    "latitude": "30.02150084725312",
    "geocoded_column": {
      "latitude": "30.02150084725312",
      "longitude": "-90.02148882506809"
    }
  },
  {
    "service_request": "2022-951671",
    "request_type": "Trash/Recycling",
    "request_reason": "Request a Large Item Pick Up",
    "date_created": "2022-12-09T14:55:41.000",
    "date_modified": "2022-12-09T14:55:41.000",
    "request_status": "Pending",
    "responsible_agency": "Department of Sanitation",
    "final_address": "2203 Palmer Ave",
    "address_councildis": "A",
    "status": "Assigned to Contractor",
    "contractor": "Richards Disposal",
    "rowid": "951671",
    "final_x": "3666154.34241",
    "final_y": "524950.004285",
    "longitude": "-90.11674683871095",
    "latitude": "29.93788732756657",
    "geocoded_column": {
      "latitude": "29.93788732756657",
      "longitude": "-90.11674683871095"
    }
  },
  {
    "service_request": "2022-951670",
    "request_type": "Trash/Recycling",
    "request_reason": "Order Trash Cart",
    "date_created": "2022-12-09T14:52:06.000",
    "date_modified": "2022-12-09T14:52:07.000",
    "request_status": "Pending",
    "responsible_agency": "Department of Sanitation",
    "final_address": "2335 Lawrence St",
    "address_councildis": "C",
    "status": "Assigned to Contractor",
    "contractor": "Richards Disposal",
    "rowid": "951670",
    "final_x": "3692601.41782",
    "final_y": "525365.717693",
    "longitude": "-90.03323667585501",
    "latitude": "29.938231796074795",
    "geocoded_column": {
      "latitude": "29.938231796074795",
      "longitude": "-90.03323667585501"
    }
  },
  {
    "service_request": "2022-951669",
    "request_type": "Trash/Recycling",
    "request_reason": "Missed Trash Pick-Up",
    "date_created": "2022-12-09T14:50:40.000",
    "date_modified": "2022-12-09T14:50:41.000",
    "request_status": "Pending",
    "responsible_agency": "Department of Sanitation",
    "final_address": "3615 Cadiz St",
    "address_councildis": "B",
    "status": "Assigned to Contractor",
    "contractor": "Richards Disposal",
    "rowid": "951669",
    "final_x": "3669432.71342",
    "final_y": "527912.500735",
    "longitude": "-90.10629656351773",
    "latitude": "29.945937115711835",
    "geocoded_column": {
      "latitude": "29.945937115711835",
      "longitude": "-90.10629656351773"
    }
  },
  {
    "service_request": "2022-951668",
    "request_type": "Trash/Recycling",
    "request_reason": "Missed Trash Pick-Up",
    "date_created": "2022-12-09T14:49:03.000",
    "date_modified": "2022-12-09T14:49:03.000",
    "request_status": "Pending",
    "responsible_agency": "Department of Sanitation",
    "final_address": "7830 Butterfield Rd",
    "address_councildis": "E",
    "status": "Assigned to Contractor",
    "contractor": "Waste Pro",
    "rowid": "951668",
    "final_x": "3699474.276",
    "final_y": "561017.443998",
    "longitude": "-90.01023888525636",
    "latitude": "30.036044737254745",
    "geocoded_column": {
      "latitude": "30.036044737254745",
      "longitude": "-90.01023888525636"
    }
  },
  {
    "service_request": "2022-951667",
    "request_type": "Trash/Recycling",
    "request_reason": "Missed Trash Pick-Up",
    "date_created": "2022-12-09T14:47:10.000",
    "date_modified": "2022-12-09T14:47:11.000",
    "request_status": "Pending",
    "responsible_agency": "Department of Sanitation",
    "final_address": "FRERET ST & OCTAVIA ST",
    "address_councildis": "A",
    "status": "Assigned to Contractor",
    "contractor": "Richards Disposal",
    "rowid": "951667",
    "final_x": "3667588.2",
    "final_y": "524069.58",
    "longitude": "-90.11224963681607",
    "latitude": "29.93542450449843",
    "geocoded_column": {
      "latitude": "29.93542450449843",
      "longitude": "-90.11224963681607"
    }
  },
  {
    "service_request": "2022-951666",
    "request_type": "Trash/Recycling",
    "request_reason": "Missed Trash Pick-Up",
    "date_created": "2022-12-09T14:44:57.000",
    "date_modified": "2022-12-09T14:44:58.000",
    "request_status": "Pending",
    "responsible_agency": "Department of Sanitation",
    "final_address": "4500 BLK America St",
    "address_councildis": "E",
    "status": "Assigned to Contractor",
    "contractor": "Waste Pro",
    "rowid": "951666",
    "final_x": "3699824.85491",
    "final_y": "553915.443466",
    "longitude": "-90.00939031746006",
    "latitude": "30.01650582775022",
    "geocoded_column": {
      "latitude": "30.01650582775022",
      "longitude": "-90.00939031746006"
    }
  },
  {
    "service_request": "2022-951665",
    "request_type": "Property Maintenance",
    "request_reason": "Property Maintenance",
    "date_created": "2022-12-09T14:43:07.000",
    "date_modified": "2022-12-09T14:43:07.000",
    "request_status": "Pending",
    "responsible_agency": "Department of Code Enforcement",
    "final_address": "4017 Royal St",
    "address_councildis": "C",
    "status": "Pending",
    "rowid": "951665",
    "final_x": "3691572.59222",
    "final_y": "533801.093125",
    "longitude": "-90.03618328306122",
    "latitude": "29.96145822174202",
    "geocoded_column": {
      "latitude": "29.96145822174202",
      "longitude": "-90.03618328306122"
    }
  },
  {
    "service_request": "2022-951664",
    "request_type": "Trash/Recycling",
    "request_reason": "Missed Trash Pick-Up",
    "date_created": "2022-12-09T14:42:57.000",
    "date_modified": "2022-12-09T14:42:57.000",
    "request_status": "Pending",
    "responsible_agency": "Department of Sanitation",
    "final_address": "2 Everett Pl",
    "address_councildis": "A",
    "status": "Assigned to Contractor",
    "contractor": "Richards Disposal",
    "rowid": "951664",
    "final_x": "3666190.11361",
    "final_y": "523065.506555",
    "longitude": "-90.11669707677609",
    "latitude": "29.932704515504",
    "geocoded_column": {
      "latitude": "29.932704515504",
      "longitude": "-90.11669707677609"
    }
  },
  {
    "service_request": "2022-951663",
    "request_type": "Trash/Recycling",
    "request_reason": "Order Recycling Cart",
    "date_created": "2022-12-09T14:42:20.000",
    "date_modified": "2022-12-09T14:42:20.000",
    "request_status": "Pending",
    "responsible_agency": "Department of Sanitation",
    "final_address": "3934 Iroquois St",
    "address_councildis": "D",
    "status": "Pending",
    "rowid": "951663",
    "final_x": "3689099.78934",
    "final_y": "547759.514322",
    "longitude": "-90.04349577116055",
    "latitude": "29.999915658478404",
    "geocoded_column": {
      "latitude": "29.999915658478404",
      "longitude": "-90.04349577116055"
    }
  },
  {
    "service_request": "2022-951662",
    "request_type": "Traffic Signals/Signs/Striping/Streetlights",
    "request_reason": "Street Light Outage/Malfunction",
    "date_created": "2022-12-09T14:41:23.000",
    "date_modified": "2022-12-09T14:49:34.000",
    "request_status": "Pending",
    "responsible_agency": "Department of Public Works",
    "final_address": "I 10 W ONRAMP & SUPERDOME EXIT & W PONTCHARTRAIN EXPRESSWAY",
    "address_councildis": "B",
    "status": "Pending",
    "contractor": "Legacy Professional Services",
    "rowid": "951662",
    "final_x": "3676152.5",
    "final_y": "529600.98",
    "longitude": "-90.08502183137841",
    "latitude": "29.95038029769489",
    "geocoded_column": {
      "latitude": "29.95038029769489",
      "longitude": "-90.08502183137841"
    }
  },
  {
    "service_request": "2022-951661",
    "request_type": "Trash/Recycling",
    "request_reason": "Replace Trash Cart",
    "date_created": "2022-12-09T14:40:58.000",
    "date_modified": "2022-12-09T14:40:58.000",
    "request_status": "Pending",
    "responsible_agency": "Department of Sanitation",
    "final_address": "2008 Cambronne St",
    "address_councildis": "A",
    "status": "Assigned to Contractor",
    "contractor": "Richards Disposal",
    "rowid": "951661",
    "final_x": "3663092.73178",
    "final_y": "531271.614658",
    "longitude": "-90.12620238894058",
    "latitude": "29.955358755676876",
    "geocoded_column": {
      "latitude": "29.955358755676876",
      "longitude": "-90.12620238894058"
    }
  },
  {
    "service_request": "2022-951660",
    "request_type": "Trash/Recycling",
    "request_reason": "Request a Large Item Pick Up",
    "date_created": "2022-12-09T14:40:22.000",
    "date_modified": "2022-12-09T14:40:22.000",
    "request_status": "Pending",
    "responsible_agency": "Department of Sanitation",
    "final_address": "4419 St Anthony Ave",
    "address_councildis": "D",
    "status": "Assigned to Contractor",
    "contractor": "IV Waste",
    "rowid": "951660",
    "final_x": "3682579.75042",
    "final_y": "548865.156435",
    "longitude": "-90.06405416269567",
    "latitude": "30.003155974079068",
    "geocoded_column": {
      "latitude": "30.003155974079068",
      "longitude": "-90.06405416269567"
    }
  },
  {
    "service_request": "2022-951659",
    "request_type": "Health Related Request",
    "request_reason": "Request Information on the Health Marketplace",
    "date_created": "2022-12-09T14:39:30.000",
    "date_modified": "2022-12-09T14:39:30.000",
    "request_status": "Pending",
    "responsible_agency": "Health Department",
    "final_address": "13527 N Nemours St",
    "address_councildis": "E",
    "status": "Pending",
    "rowid": "951659",
    "final_x": "3725710.12876",
    "final_y": "562884.148832",
    "longitude": "-89.92725743024339",
    "latitude": "30.040318326923884",
    "geocoded_column": {
      "latitude": "30.040318326923884",
      "longitude": "-89.92725743024339"
    }
  },
  {
    "service_request": "2022-951658",
    "request_type": "Trash/Recycling",
    "request_reason": "Order Recycling Cart",
    "date_created": "2022-12-09T14:39:28.000",
    "date_modified": "2022-12-09T14:39:29.000",
    "request_status": "Pending",
    "responsible_agency": "Department of Sanitation",
    "final_address": "2008 Cambronne St",
    "address_councildis": "A",
    "status": "Pending",
    "rowid": "951658",
    "final_x": "3663092.73178",
    "final_y": "531271.614658",
    "longitude": "-90.12620238894058",
    "latitude": "29.955358755676876",
    "geocoded_column": {
      "latitude": "29.955358755676876",
      "longitude": "-90.12620238894058"
    }
  },
  {
    "service_request": "2022-951657",
    "request_type": "Trash/Recycling",
    "request_reason": "Missed Trash Pick-Up",
    "date_created": "2022-12-09T14:38:21.000",
    "date_modified": "2022-12-09T14:38:22.000",
    "request_status": "Pending",
    "responsible_agency": "Department of Sanitation",
    "final_address": "4216 Dauphine St",
    "address_councildis": "C",
    "status": "Assigned to Contractor",
    "contractor": "IV Waste",
    "rowid": "951657",
    "final_x": "3692243.76713",
    "final_y": "533945.727557",
    "longitude": "-90.03405865736505",
    "latitude": "29.961835006645487",
    "geocoded_column": {
      "latitude": "29.961835006645487",
      "longitude": "-90.03405865736505"
    }
  },
  {
    "service_request": "2022-951656",
    "request_type": "Trash/Recycling",
    "request_reason": "Repair Trash Cart",
    "date_created": "2022-12-09T14:37:26.000",
    "date_modified": "2022-12-09T14:37:27.000",
    "request_status": "Pending",
    "responsible_agency": "Department of Sanitation",
    "final_address": "6024 Dauphine St",
    "address_councildis": "E",
    "status": "Assigned to Contractor",
    "contractor": "Waste Pro",
    "rowid": "951656",
    "final_x": "3698918.4106",
    "final_y": "532220.213507",
    "longitude": "-90.01304411104388",
    "latitude": "29.95688066297021",
    "geocoded_column": {
      "latitude": "29.95688066297021",
      "longitude": "-90.01304411104388"
    }
  },
  {
    "service_request": "2022-951655",
    "request_type": "Trash/Recycling",
    "request_reason": "MIssed Recycling Pick-Up",
    "date_created": "2022-12-09T14:34:24.000",
    "date_modified": "2022-12-09T14:34:24.000",
    "request_status": "Pending",
    "responsible_agency": "Department of Sanitation",
    "final_address": "13031 River Rd",
    "address_councildis": "C",
    "status": "Assigned to Contractor",
    "contractor": "Richards Disposal",
    "rowid": "951655",
    "final_x": "3731103.08339",
    "final_y": "509813.459566",
    "longitude": "-89.91229423012116",
    "latitude": "29.894211480879356",
    "geocoded_column": {
      "latitude": "29.894211480879356",
      "longitude": "-89.91229423012116"
    }
  },
  {
    "service_request": "2022-951654",
    "request_type": "Trash/Recycling",
    "request_reason": "Order Trash Cart",
    "date_created": "2022-12-09T14:33:24.000",
    "date_modified": "2022-12-09T14:33:25.000",
    "request_status": "Pending",
    "responsible_agency": "Department of Sanitation",
    "final_address": "5334 Marais St B",
    "address_councildis": "E",
    "status": "Assigned to Contractor",
    "contractor": "Waste Pro",
    "rowid": "951654",
    "final_x": "3697151.8856",
    "final_y": "534269.771205",
    "longitude": "-90.01854794663187",
    "latitude": "29.96257207115202",
    "geocoded_column": {
      "latitude": "29.96257207115202",
      "longitude": "-90.01854794663187"
    }
  },
  {
    "service_request": "2022-951652",
    "request_type": "Trash/Recycling",
    "request_reason": "Order Trash Cart",
    "date_created": "2022-12-09T14:31:34.000",
    "date_modified": "2022-12-09T15:00:45.000",
    "request_status": "Pending",
    "responsible_agency": "Department of Sanitation",
    "final_address": "5334 Marais St A",
    "address_councildis": "E",
    "status": "Assigned to Contractor",
    "contractor": "Waste Pro",
    "rowid": "951652",
    "final_x": "3697154.66339",
    "final_y": "534281.229509",
    "longitude": "-90.01853875960825",
    "latitude": "29.962603489776765",
    "geocoded_column": {
      "latitude": "29.962603489776765",
      "longitude": "-90.01853875960825"
    }
  },
  {
    "service_request": "2022-951651",
    "request_type": "Trash/Recycling",
    "request_reason": "Order Trash Cart",
    "date_created": "2022-12-09T14:30:17.000",
    "date_modified": "2022-12-09T14:30:18.000",
    "request_status": "Pending",
    "responsible_agency": "Department of Sanitation",
    "final_address": "536 S Miro St",
    "address_councildis": "B",
    "status": "Assigned to Contractor",
    "contractor": "Richards Disposal",
    "rowid": "951651",
    "final_x": "3675684.29813",
    "final_y": "532661.725764",
    "longitude": "-90.08639500086139",
    "latitude": "29.958810343515207",
    "geocoded_column": {
      "latitude": "29.958810343515207",
      "longitude": "-90.08639500086139"
    }
  },
  {
    "service_request": "2022-951650",
    "request_type": "Trash/Recycling",
    "request_reason": "Missed Trash Pick-Up",
    "date_created": "2022-12-09T14:30:01.000",
    "date_modified": "2022-12-09T14:30:02.000",
    "request_status": "Pending",
    "responsible_agency": "Department of Sanitation",
    "final_address": "1429 Prentiss Ave",
    "address_councildis": "D",
    "status": "Assigned to Contractor",
    "contractor": "IV Waste",
    "rowid": "951650",
    "final_x": "3677759.68162",
    "final_y": "553464.415959",
    "longitude": "-90.07912244370685",
    "latitude": "30.01594822319943",
    "geocoded_column": {
      "latitude": "30.01594822319943",
      "longitude": "-90.07912244370685"
    }
  },
  {
    "service_request": "2022-951649",
    "request_type": "Trash/Recycling",
    "request_reason": "Illegal Dumping",
    "date_created": "2022-12-09T14:25:30.000",
    "date_modified": "2022-12-09T14:25:31.000",
    "request_status": "Pending",
    "responsible_agency": "Department of Sanitation",
    "final_address": "8012 Lehigh St",
    "address_councildis": "E",
    "status": "Pending",
    "rowid": "951649",
    "final_x": "3709732.92888",
    "final_y": "566917.751524",
    "longitude": "-89.97759928224093",
    "latitude": "30.05193851898946",
    "geocoded_column": {
      "latitude": "30.05193851898946",
      "longitude": "-89.97759928224093"
    }
  },
  {
    "service_request": "2022-951647",
    "request_type": "Roads/Drainage",
    "request_reason": "Damaged Sidewalk",
    "date_created": "2022-12-09T14:21:08.000",
    "date_modified": "2022-12-09T14:21:08.000",
    "request_status": "Pending",
    "responsible_agency": "Department of Public Works",
    "final_address": "3134 Annunciation St",
    "address_councildis": "B",
    "status": "Pending",
    "rowid": "951647",
    "final_x": "3676454.16904",
    "final_y": "519073.587191",
    "longitude": "-90.08443161473289",
    "latitude": "29.921424375763966",
    "geocoded_column": {
      "latitude": "29.921424375763966",
      "longitude": "-90.08443161473289"
    }
  },
  {
    "service_request": "2022-951646",
    "request_type": "Trash/Recycling",
    "request_reason": "Request a Large Item Pick Up",
    "date_created": "2022-12-09T14:20:15.000",
    "date_modified": "2022-12-09T14:20:15.000",
    "request_status": "Pending",
    "responsible_agency": "Department of Sanitation",
    "final_address": "2200 Reynes St",
    "address_councildis": "E",
    "status": "Assigned to Contractor",
    "contractor": "Waste Pro",
    "rowid": "951646",
    "final_x": "3697094.48093",
    "final_y": "538432.965961",
    "longitude": "-90.01857837360748",
    "latitude": "29.974021179972706",
    "geocoded_column": {
      "latitude": "29.974021179972706",
      "longitude": "-90.01857837360748"
    }
  },
  {
    "service_request": "2022-951645",
    "request_type": "Trash/Recycling",
    "request_reason": "MIssed Recycling Pick-Up",
    "date_created": "2022-12-09T14:19:42.000",
    "date_modified": "2022-12-09T14:19:42.000",
    "request_status": "Pending",
    "responsible_agency": "Department of Sanitation",
    "final_address": "5521 S Claiborne Ave",
    "address_councildis": "A",
    "status": "Assigned to Contractor",
    "contractor": "Richards Disposal",
    "rowid": "951645",
    "final_x": "3668020.69805",
    "final_y": "526758.56755",
    "longitude": "-90.11079365983107",
    "latitude": "29.942805674570323",
    "geocoded_column": {
      "latitude": "29.942805674570323",
      "longitude": "-90.11079365983107"
    }
  },
  {
    "service_request": "2022-951644",
    "request_type": "Trash/Recycling",
    "request_reason": "Repair Trash Cart",
    "date_created": "2022-12-09T14:19:41.000",
    "date_modified": "2022-12-09T14:19:41.000",
    "request_status": "Pending",
    "responsible_agency": "Department of Sanitation",
    "final_address": "3010 Conti St",
    "address_councildis": "B",
    "status": "Assigned to Contractor",
    "contractor": "Richards Disposal",
    "rowid": "951644",
    "final_x": "3674935.65755",
    "final_y": "536832.337224",
    "longitude": "-90.08861595800234",
    "latitude": "29.970300499001166",
    "geocoded_column": {
      "latitude": "29.970300499001166",
      "longitude": "-90.08861595800234"
    }
  },
  {
    "service_request": "2022-951643",
    "request_type": "Trash/Recycling",
    "request_reason": "Order Trash Cart",
    "date_created": "2022-12-09T14:19:24.000",
    "date_modified": "2022-12-09T14:19:24.000",
    "request_status": "Pending",
    "responsible_agency": "Department of Sanitation",
    "final_address": "2200 Reynes St",
    "address_councildis": "E",
    "status": "Assigned to Contractor",
    "contractor": "Waste Pro",
    "rowid": "951643",
    "final_x": "3697094.48093",
    "final_y": "538432.965961",
    "longitude": "-90.01857837360748",
    "latitude": "29.974021179972706",
    "geocoded_column": {
      "latitude": "29.974021179972706",
      "longitude": "-90.01857837360748"
    }
  },
  {
    "service_request": "2022-951642",
    "request_type": "Trash/Recycling",
    "request_reason": "Order Trash Cart",
    "date_created": "2022-12-09T14:18:51.000",
    "date_modified": "2022-12-09T14:18:52.000",
    "request_status": "Pending",
    "responsible_agency": "Department of Sanitation",
    "final_address": "2200 Reynes St",
    "address_councildis": "E",
    "status": "Assigned to Contractor",
    "contractor": "Waste Pro",
    "rowid": "951642",
    "final_x": "3697094.48093",
    "final_y": "538432.965961",
    "longitude": "-90.01857837360748",
    "latitude": "29.974021179972706",
    "geocoded_column": {
      "latitude": "29.974021179972706",
      "longitude": "-90.01857837360748"
    }
  },
  {
    "service_request": "2022-951641",
    "request_type": "Abandoned Vehicles",
    "request_reason": "Abandoned/Junk Vehicles",
    "date_created": "2022-12-09T14:12:49.000",
    "date_modified": "2022-12-09T14:12:49.000",
    "request_status": "Pending",
    "responsible_agency": "Department of Public Works",
    "final_address": "S LIBERTY ST & DELACHAISE ST",
    "address_councildis": "B",
    "status": "Pending",
    "rowid": "951641",
    "final_x": "3672844.4",
    "final_y": "523678.08",
    "longitude": "-90.0956691057635",
    "latitude": "29.93419294092608",
    "geocoded_column": {
      "latitude": "29.93419294092608",
      "longitude": "-90.0956691057635"
    }
  },
  {
    "service_request": "2022-951640",
    "request_type": "Trash/Recycling",
    "request_reason": "Request a Large Item Pick Up",
    "date_created": "2022-12-09T14:12:03.000",
    "date_modified": "2022-12-09T14:12:04.000",
    "request_status": "Pending",
    "responsible_agency": "Department of Sanitation",
    "final_address": "9118 Apple St",
    "address_councildis": "A",
    "status": "Assigned to Contractor",
    "contractor": "Richards Disposal",
    "rowid": "951640",
    "final_x": "3662610.09984",
    "final_y": "534557.668229",
    "longitude": "-90.12761718838134",
    "latitude": "29.964408305703383",
    "geocoded_column": {
      "latitude": "29.964408305703383",
      "longitude": "-90.12761718838134"
    }
  },
  {
    "service_request": "2022-951639",
    "request_type": "Trash/Recycling",
    "request_reason": "Order Recycling Cart",
    "date_created": "2022-12-09T14:10:28.000",
    "date_modified": "2022-12-09T14:10:28.000",
    "request_status": "Pending",
    "responsible_agency": "Department of Sanitation",
    "final_address": "5610 Debore Dr",
    "address_councildis": "D",
    "status": "Pending",
    "rowid": "951639",
    "final_x": "3691648.26396",
    "final_y": "554578.610776",
    "longitude": "-90.03520100451757",
    "latitude": "30.018586527805656",
    "geocoded_column": {
      "latitude": "30.018586527805656",
      "longitude": "-90.03520100451757"
    }
  },
  {
    "service_request": "2022-951638",
    "request_type": "Trash/Recycling",
    "request_reason": "Replace Trash Cart",
    "date_created": "2022-12-09T14:09:39.000",
    "date_modified": "2022-12-09T14:09:40.000",
    "request_status": "Pending",
    "responsible_agency": "Department of Sanitation",
    "final_address": "5334 Marais St",
    "address_councildis": "E",
    "status": "Assigned to Contractor",
    "contractor": "Waste Pro",
    "rowid": "951638",
    "final_x": "3697158.77603",
    "final_y": "534294.902085",
    "longitude": "-90.0185252770904",
    "latitude": "29.962640954746156",
    "geocoded_column": {
      "latitude": "29.962640954746156",
      "longitude": "-90.0185252770904"
    }
  },
  {
    "service_request": "2022-951637",
    "request_type": "Trash/Recycling",
    "request_reason": "MIssed Recycling Pick-Up",
    "date_created": "2022-12-09T14:09:25.000",
    "date_modified": "2022-12-09T14:09:26.000",
    "request_status": "Pending",
    "responsible_agency": "Department of Sanitation",
    "final_address": "721 Burdette St",
    "address_councildis": "A",
    "status": "Assigned to Contractor",
    "contractor": "Richards Disposal",
    "rowid": "951637",
    "final_x": "3661777.30176",
    "final_y": "526443.457918",
    "longitude": "-90.13051609575066",
    "latitude": "29.94212091083317",
    "geocoded_column": {
      "latitude": "29.94212091083317",
      "longitude": "-90.13051609575066"
    }
  },
  {
    "service_request": "2022-951636",
    "request_type": "Trash/Recycling",
    "request_reason": "Order Recycling Cart",
    "date_created": "2022-12-09T14:08:52.000",
    "date_modified": "2022-12-09T14:08:53.000",
    "request_status": "Pending",
    "responsible_agency": "Department of Sanitation",
    "final_address": "4029 Clermont Dr",
    "address_councildis": "D",
    "status": "Pending",
    "rowid": "951636",
    "final_x": "3685064.44469",
    "final_y": "547304.224465",
    "longitude": "-90.0562596179841",
    "latitude": "29.998788059468836",
    "geocoded_column": {
      "latitude": "29.998788059468836",
      "longitude": "-90.0562596179841"
    }
  },
  {
    "service_request": "2022-951635",
    "request_type": "Traffic Signals/Signs/Striping/Streetlights",
    "request_reason": "Street Light Knocked Down/Leaning",
    "date_created": "2022-12-09T14:04:35.000",
    "date_modified": "2022-12-09T14:04:36.000",
    "request_status": "Pending",
    "responsible_agency": "Department of Public Works",
    "final_address": "300 S Diamond St",
    "address_councildis": "B",
    "status": "Pending",
    "contractor": "Legacy Professional Services",
    "rowid": "951635",
    "final_x": "3682227.31157",
    "final_y": "526710.144574",
    "longitude": "-90.06594172470393",
    "latitude": "29.94224809916686",
    "geocoded_column": {
      "latitude": "29.94224809916686",
      "longitude": "-90.06594172470393"
    }
  },
  {
    "service_request": "2022-951634",
    "request_type": "Trash/Recycling",
    "request_reason": "MIssed Recycling Pick-Up",
    "date_created": "2022-12-09T14:02:53.000",
    "date_modified": "2022-12-09T14:02:54.000",
    "request_status": "Pending",
    "responsible_agency": "Department of Sanitation",
    "final_address": "7903 Plum St",
    "address_councildis": "A",
    "status": "Assigned to Contractor",
    "contractor": "Richards Disposal",
    "rowid": "951634",
    "final_x": "3662757.28013",
    "final_y": "528177.268416",
    "longitude": "-90.1273644637923",
    "latitude": "29.946860013110612",
    "geocoded_column": {
      "latitude": "29.946860013110612",
      "longitude": "-90.1273644637923"
    }
  },
  {
    "service_request": "2022-951633",
    "request_type": "Trash/Recycling",
    "request_reason": "Order Trash Cart",
    "date_created": "2022-12-09T14:00:02.000",
    "date_modified": "2022-12-09T14:00:07.000",
    "request_status": "Pending",
    "responsible_agency": "Department of Sanitation",
    "final_address": "7733 Lady Gray St",
    "address_councildis": "E",
    "status": "Assigned to Contractor",
    "contractor": "Waste Pro",
    "rowid": "951633",
    "final_x": "3709639.07845",
    "final_y": "565921.084323",
    "longitude": "-89.97793317466503",
    "latitude": "30.049201139470412",
    "geocoded_column": {
      "latitude": "30.049201139470412",
      "longitude": "-89.97793317466503"
    }
  },
  {
    "service_request": "2022-951632",
    "request_type": "Trash/Recycling",
    "request_reason": "Request a Large Item Pick Up",
    "date_created": "2022-12-09T13:57:19.000",
    "date_modified": "2022-12-09T13:57:31.000",
    "request_status": "Pending",
    "responsible_agency": "Department of Sanitation",
    "final_address": "6718 Lake Willow Dr",
    "address_councildis": "E",
    "status": "Assigned to Contractor",
    "contractor": "Waste Pro",
    "rowid": "951632",
    "final_x": "3704093.68612",
    "final_y": "559481.657053",
    "longitude": "-89.99569743950792",
    "latitude": "30.03167444979784",
    "geocoded_column": {
      "latitude": "30.03167444979784",
      "longitude": "-89.99569743950792"
    }
  },