[
  {
    "service_request": "2025-1171192",
    "request_type": "Trash/Recycling",
    "request_reason": "Order Trash Cart",
    "date_created": "2025-02-24T23:50:31.000",
    "date_modified": "2025-02-24T23:50:32.000",
    "request_status": "Pending",
    "responsible_agency": "Department of Sanitation",
    "final_address": "8826 Pritchard Pl",
    "address_councildis": "A",
    "status": "Assigned to Contractor",
    "contractor": "IV Waste",
    "rowid": "1171192",
    "final_x": "3664046.44954",
    "final_y": "534678.07399",
    "longitude": "-90.12307727166892",
    "latitude": "29.96469774526731",
    "geocoded_column": {
      "latitude": "29.96469774526731",
      "longitude": "-90.12307727166892"
    }
  },
  {
    "service_request": "2025-1171191",
    "request_type": "Trash/Recycling",
    "request_reason": "Order Trash Cart",
    "date_created": "2025-02-24T23:42:57.000",
    "date_modified": "2025-02-24T23:43:00.000",
    "request_status": "Pending",
    "responsible_agency": "Department of Sanitation",
    "final_address": "8826 Pritchard Pl",
    "address_councildis": "A",
    "status": "Assigned to Contractor",
    "contractor": "IV Waste",
    "rowid": "1171191",
    "final_x": "3664046.44954",
    "final_y": "534678.07399",
    "longitude": "-90.12307727166892",
    "latitude": "29.96469774526731",
    "geocoded_column": {
      "latitude": "29.96469774526731",
      "longitude": "-90.12307727166892"
    }
  },
  {
    "service_request": "2025-1171190",
    "request_type": "Safety & Permits",
    "request_reason": "Zoning Enforcement",
    "date_created": "2025-02-24T23:23:10.000",
    "date_modified": "2025-02-24T23:23:12.000",
    "request_status": "Pending",
    "responsible_agency": "Safety and Permits",
    "final_address": "3128 Constance St",
    "address_councildis": "B",
    "status": "Pending",
    "rowid": "1171190",
    "final_x": "3676228.67624",
    "final_y": "519754.095032",
    "longitude": "-90.08511999761585",
    "latitude": "29.92330230896122",
    "geocoded_column": {
      "latitude": "29.92330230896122",
      "longitude": "-90.08511999761585"
    }
  },
  {
    "service_request": "2025-1171189",
    "request_type": "Utility Poles",
    "request_reason": "Wires Sagging/Hanging Low",
    "date_created": "2025-02-24T23:11:19.000",
    "date_modified": "2025-02-24T23:11:23.000",
    "request_status": "Pending",
    "responsible_agency": "Utility Company Collective",
    "final_address": "1308 Dante St",
    "address_councildis": "A",
    "status": "Pending",
    "rowid": "1171189",
    "final_x": "3661695.8087",
    "final_y": "529222.472577",
    "longitude": "-90.13068129847612",
    "latitude": "29.94976466576399",
    "geocoded_column": {
      "latitude": "29.94976466576399",
      "longitude": "-90.13068129847612"
    }
  },
  {
    "service_request": "2025-1171188",
    "request_type": "Drainage",
    "request_reason": "Catch Basin Clogged",
    "date_created": "2025-02-24T22:10:36.000",
    "date_modified": "2025-02-24T22:10:39.000",
    "request_status": "Pending",
    "responsible_agency": "Sewerage & Water Board ",
    "final_address": "7964 Edgelake Ct",
    "address_councildis": "E",
    "status": "Pending",
    "rowid": "1171188",
    "final_x": "3702719.27236",
    "final_y": "562192.548959",
    "longitude": "-89.99994093958142",
    "latitude": "30.039172388720967",
    "geocoded_column": {
      "latitude": "30.039172388720967",
      "longitude": "-89.99994093958142"
    }
  },
  {
    "service_request": "2025-1171186",
    "request_type": "General Services",
    "request_reason": "General Service Request",
    "date_created": "2025-02-24T21:39:34.000",
    "date_modified": "2025-02-24T21:39:36.000",
    "request_status": "Pending",
    "responsible_agency": "Orleans Parish Communication District",
    "final_address": "1119 Egania St",
    "address_councildis": "E",
    "status": "Pending",
    "rowid": "1171186",
    "final_x": "3696938.81155",
    "final_y": "534257.788997",
    "longitude": "-90.01922123572254",
    "latitude": "29.96254584524758",
    "geocoded_column": {
      "latitude": "29.96254584524758",
      "longitude": "-90.01922123572254"
    }
  },
  {
    "service_request": "2025-1171185",
    "request_type": "Trash/Recycling",
    "request_reason": "Replace Trash Cart",
    "date_created": "2025-02-24T21:32:34.000",
    "date_modified": "2025-02-24T21:32:36.000",
    "request_status": "Pending",
    "responsible_agency": "Department of Sanitation",
    "final_address": "328 22Nd St",
    "address_councildis": "A",
    "status": "Assigned to Contractor",
    "contractor": "IV Waste",
    "rowid": "1171185",
    "final_x": "3664991.93812",
    "final_y": "549279.155603",
    "longitude": "-90.11960305941957",
    "latitude": "30.00481830351505",
    "geocoded_column": {
      "latitude": "30.00481830351505",
      "longitude": "-90.11960305941957"
    }
  },
  {
    "service_request": "2025-1171184",
    "request_type": "Trash/Recycling",
    "request_reason": "Request a Large Item Pick Up",
    "date_created": "2025-02-24T21:12:35.000",
    "date_modified": "2025-02-24T21:12:37.000",
    "request_status": "Pending",
    "responsible_agency": "Department of Sanitation",
    "final_address": "8005 Lehigh St",
    "address_councildis": "E",
    "status": "Assigned to Contractor",
    "contractor": "Waste Pro",
    "rowid": "1171184",
    "final_x": "3709858.87217",
    "final_y": "566870.965796",
    "longitude": "-89.97720296796288",
    "latitude": "30.051805779269852",
    "geocoded_column": {
      "latitude": "30.051805779269852",
      "longitude": "-89.97720296796288"
    }
  },
  {
    "service_request": "2025-1171183",
    "request_type": "Trash/Recycling",
    "request_reason": "Repair Trash Cart",
    "date_created": "2025-02-24T21:10:53.000",
    "date_modified": "2025-02-24T21:10:55.000",
    "request_status": "Pending",
    "responsible_agency": "Department of Sanitation",
    "final_address": "1374 Laharpe St",
    "address_councildis": "C",
    "status": "Assigned to Contractor",
    "contractor": "IV Waste",
    "rowid": "1171183",
    "final_x": "3682509.88245",
    "final_y": "537004.060296",
    "longitude": "-90.0646897540683",
    "latitude": "29.970544267388398",
    "geocoded_column": {
      "latitude": "29.970544267388398",
      "longitude": "-90.0646897540683"
    }
  },
  {
    "service_request": "2025-1171182",
    "request_type": "Trash/Recycling",
    "request_reason": "Replace Trash Cart",
    "date_created": "2025-02-24T20:48:01.000",
    "date_modified": "2025-02-24T20:48:02.000",
    "request_status": "Pending",
    "responsible_agency": "Department of Sanitation",
    "final_address": "1031 Henriette Delille St",
    "address_councildis": "C",
    "status": "Assigned to Contractor",
    "contractor": "IV Waste",
    "rowid": "1171182",
    "final_x": "3681851.85519",
    "final_y": "534737.509574",
    "longitude": "-90.0668469959105",
    "latitude": "29.964332048849617",
    "geocoded_column": {
      "latitude": "29.964332048849617",
      "longitude": "-90.0668469959105"
    }
  },
  {
    "service_request": "2025-1171181",
    "request_type": "Trash/Recycling",
    "request_reason": "Request a Large Item Pick Up",
    "date_created": "2025-02-24T20:45:57.000",
    "date_modified": "2025-02-24T20:45:59.000",
    "request_status": "Pending",
    "responsible_agency": "Department of Sanitation",
    "final_address": "1031 Henriette Delille St",
    "address_councildis": "C",
    "status": "Assigned to Contractor",
    "contractor": "IV Waste",
    "rowid": "1171181",
    "final_x": "3681851.85519",
    "final_y": "534737.509574",
    "longitude": "-90.0668469959105",
    "latitude": "29.964332048849617",
    "geocoded_column": {
      "latitude": "29.964332048849617",
      "longitude": "-90.0668469959105"
    }
  },
  {
    "service_request": "2025-1171180",
    "request_type": "Trash/Recycling",
    "request_reason": "Repair Recycling Cart",
    "date_created": "2025-02-24T20:25:17.000",
    "date_modified": "2025-02-24T20:25:20.000",
    "request_status": "Pending",
    "responsible_agency": "Department of Sanitation",
    "final_address": "7641 Poitevent Ave",
    "address_councildis": "E",
    "status": "Pending",
    "rowid": "1171180",
    "final_x": "3706950.86257",
    "final_y": "564268.220705",
    "longitude": "-89.98649090079088",
    "latitude": "30.04474358493448",
    "geocoded_column": {
      "latitude": "30.04474358493448",
      "longitude": "-89.98649090079088"
    }
  },
  {
    "service_request": "2025-1171179",
    "request_type": "Trash/Recycling",
    "request_reason": "Request a Large Item Pick Up",
    "date_created": "2025-02-24T20:14:02.000",
    "date_modified": "2025-02-24T20:14:06.000",
    "request_status": "Pending",
    "responsible_agency": "Department of Sanitation",
    "final_address": "5264 Laurel St",
    "address_councildis": "B",
    "status": "Assigned to Contractor",
    "contractor": "IV Waste",
    "rowid": "1171179",
    "final_x": "3667445.89031",
    "final_y": "517846.126006",
    "longitude": "-90.1129081746618",
    "latitude": "29.91831614758881",
    "geocoded_column": {
      "latitude": "29.91831614758881",
      "longitude": "-90.1129081746618"
    }
  },
  {
    "service_request": "2025-1171178",
    "request_type": "Trash/Recycling",
    "request_reason": "Request a Large Item Pick Up",
    "date_created": "2025-02-24T20:13:52.000",
    "date_modified": "2025-02-24T20:13:55.000",
    "request_status": "Pending",
    "responsible_agency": "Department of Sanitation",
    "final_address": "3314 Aurora Dr",
    "address_councildis": "C",
    "status": "Assigned to Contractor",
    "contractor": "Richards Disposal",
    "rowid": "1171178",
    "final_x": "3706984.49726",
    "final_y": "518615.265271",
    "longitude": "-89.98807854518702",
    "latitude": "29.919213857538622",
    "geocoded_column": {
      "latitude": "29.919213857538622",
      "longitude": "-89.98807854518702"
    }
  },
  {
    "service_request": "2025-1171177",
    "request_type": "Trash/Recycling",
    "request_reason": "MIssed Recycling Pick-Up",
    "date_created": "2025-02-24T20:04:05.000",
    "date_modified": "2025-02-24T20:04:08.000",
    "request_status": "Pending",
    "responsible_agency": "Department of Sanitation",
    "final_address": "1829 Fourth St",
    "address_councildis": "B",
    "status": "Assigned to Contractor",
    "contractor": "IV Waste",
    "rowid": "1171177",
    "final_x": "3675667.23169",
    "final_y": "523553.791355",
    "longitude": "-90.08676178126679",
    "latitude": "29.933767047150177",
    "geocoded_column": {
      "latitude": "29.933767047150177",
      "longitude": "-90.08676178126679"
    }
  },
  {
    "service_request": "2025-1171176",
    "request_type": "General Services",
    "request_reason": "General Service Request",
    "date_created": "2025-02-24T19:51:26.000",
    "date_modified": "2025-02-24T19:51:28.000",
    "request_status": "Pending",
    "responsible_agency": "Orleans Parish Communication District",
    "final_address": "4400 Perrier St",
    "address_councildis": "B",
    "status": "Pending",
    "rowid": "1171176",
    "final_x": "3670806.91867",
    "final_y": "520018.438328",
    "longitude": "-90.10222551244391",
    "latitude": "29.924190455578582",
    "geocoded_column": {
      "latitude": "29.924190455578582",
      "longitude": "-90.10222551244391"
    }
  },
  {
    "service_request": "2025-1171175",
    "request_type": "Streetlights",
    "request_reason": "Streetlight Outage/Malfunction",
    "date_created": "2025-02-24T19:26:32.000",
    "date_modified": "2025-02-24T19:26:33.000",
    "request_status": "Pending",
    "responsible_agency": "Department of Public Works",
    "final_address": "3221 State Street Dr",
    "address_councildis": "A",
    "status": "Pending",
    "contractor": "Legacy Professional Services",
    "rowid": "1171175",
    "final_x": "3667639.15444",
    "final_y": "528119.921791",
    "longitude": "-90.11195247330734",
    "latitude": "29.94656014613507",
    "geocoded_column": {
      "latitude": "29.94656014613507",
      "longitude": "-90.11195247330734"
    }
  },
  {
    "service_request": "2025-1171174",
    "request_type": "Trash/Recycling",
    "request_reason": "Request a Large Item Pick Up",
    "date_created": "2025-02-24T19:19:59.000",
    "date_modified": "2025-02-24T19:20:01.000",
    "request_status": "Pending",
    "responsible_agency": "Department of Sanitation",
    "final_address": "825 Belleville St",
    "address_councildis": "C",
    "status": "Assigned to Contractor",
    "contractor": "Richards Disposal",
    "rowid": "1171174",
    "final_x": "3687752.62908",
    "final_y": "528527.57728",
    "longitude": "-90.0484327789903",
    "latitude": "29.947076219945657",
    "geocoded_column": {
      "latitude": "29.947076219945657",
      "longitude": "-90.0484327789903"
    }
  },
  {
    "service_request": "2025-1171173",
    "request_type": "Streetlights",
    "request_reason": "Streetlight Outage/Malfunction",
    "date_created": "2025-02-24T19:18:00.000",
    "date_modified": "2025-02-24T19:18:01.000",
    "request_status": "Pending",
    "responsible_agency": "Department of Public Works",
    "final_address": "3231 State Street Dr",
    "address_councildis": "A",
    "status": "Pending",
    "contractor": "Legacy Professional Services",
    "rowid": "1171173",
    "final_x": "3667663.38701",
    "final_y": "528198.6496",
    "longitude": "-90.11187331239908",
    "latitude": "29.946775911808924",
    "geocoded_column": {
      "latitude": "29.946775911808924",
      "longitude": "-90.11187331239908"
    }
  },
  {
    "service_request": "2025-1171172",
    "request_type": "Streetlights",
    "request_reason": "Streetlight Outage/Malfunction",
    "date_created": "2025-02-24T19:14:42.000",
    "date_modified": "2025-02-24T19:14:43.000",
    "request_status": "Pending",
    "responsible_agency": "Department of Public Works",
    "final_address": "3231 State Street Dr",
    "address_councildis": "A",
    "status": "Pending",
    "contractor": "Legacy Professional Services",
    "rowid": "1171172",
    "final_x": "3667663.38701",
    "final_y": "528198.6496",
    "longitude": "-90.11187331239908",
    "latitude": "29.946775911808924",
    "geocoded_column": {
      "latitude": "29.946775911808924",
      "longitude": "-90.11187331239908"
    }
  },
  {
    "service_request": "2025-1171171",
    "request_type": "Roads and Streets",
    "request_reason": "Pothole",
    "date_created": "2025-02-24T19:11:42.000",
    "date_modified": "2025-02-24T19:11:44.000",
    "request_status": "Pending",
    "responsible_agency": "Department of Public Works",
    "final_address": "129 Burgundy St",
    "address_councildis": "C",
    "status": "Pending",
    "rowid": "1171171",
    "final_x": "3680471.87599",
    "final_y": "531572.241091",
    "longitude": "-90.0713149488568",
    "latitude": "29.955670504386838",
    "geocoded_column": {
      "latitude": "29.955670504386838",
      "longitude": "-90.0713149488568"
    }
  },
  {
    "service_request": "2025-1171170",
    "request_type": "Streetlights",
    "request_reason": "Streetlight Outage/Malfunction",
    "date_created": "2025-02-24T19:09:55.000",
    "date_modified": "2025-02-24T19:09:56.000",
    "request_status": "Pending",
    "responsible_agency": "Department of Public Works",
    "final_address": "3225 State Street Dr",
    "address_councildis": "A",
    "status": "Pending",
    "contractor": "Legacy Professional Services",
    "rowid": "1171170",
    "final_x": "3667652.51809",
    "final_y": "528157.727104",
    "longitude": "-90.11190900695783",
    "latitude": "29.946663706796812",
    "geocoded_column": {
      "latitude": "29.946663706796812",
      "longitude": "-90.11190900695783"
    }
  },
  {
    "service_request": "2025-1171169",
    "request_type": "Trash/Recycling",
    "request_reason": "Request a Large Item Pick Up",
    "date_created": "2025-02-24T19:05:16.000",
    "date_modified": "2025-02-24T19:05:17.000",
    "request_status": "Pending",
    "responsible_agency": "Department of Sanitation",
    "final_address": "6109 Milne Blvd",
    "address_councildis": "A",
    "status": "Assigned to Contractor",
    "contractor": "IV Waste",
    "rowid": "1171169",
    "final_x": "3667181.42113",
    "final_y": "548191.25685",
    "longitude": "-90.11272262866004",
    "latitude": "30.001763007252087",
    "geocoded_column": {
      "latitude": "30.001763007252087",
      "longitude": "-90.11272262866004"
    }
  },
  {
    "service_request": "2025-1171168",
    "request_type": "Trash/Recycling",
    "request_reason": "Order Trash Cart",
    "date_created": "2025-02-24T19:05:11.000",
    "date_modified": "2025-02-24T19:05:13.000",
    "request_status": "Pending",
    "responsible_agency": "Department of Sanitation",
    "final_address": "7840 W Laverne St",
    "address_councildis": "D",
    "status": "Assigned to Contractor",
    "contractor": "Waste Pro",
    "rowid": "1171168",
    "final_x": "3694894.87107",
    "final_y": "559305.316701",
    "longitude": "-90.02477239783298",
    "latitude": "30.031481642830602",
    "geocoded_column": {
      "latitude": "30.031481642830602",
      "longitude": "-90.02477239783298"
    }
  },
  {
    "service_request": "2025-1171167",
    "request_type": "Trash/Recycling",
    "request_reason": "Request a Large Item Pick Up",
    "date_created": "2025-02-24T19:02:18.000",
    "date_modified": "2025-02-24T19:02:21.000",
    "request_status": "Pending",
    "responsible_agency": "Department of Sanitation",
    "final_address": "7518 Oak St",
    "address_councildis": "A",
    "status": "Assigned to Contractor",
    "contractor": "IV Waste",
    "rowid": "1171167",
    "final_x": "3663386.32083",
    "final_y": "527039.44179",
    "longitude": "-90.12541621401822",
    "latitude": "29.943713135267256",
    "geocoded_column": {
      "latitude": "29.943713135267256",
      "longitude": "-90.12541621401822"
    }
  },
  {
    "service_request": "2025-1171166",
    "request_type": "Property Maintenance",
    "request_reason": "Property Maintenance",
    "date_created": "2025-02-24T18:51:11.000",
    "date_modified": "2025-02-24T18:51:13.000",
    "request_status": "Pending",
    "responsible_agency": "Department of Code Enforcement",
    "final_address": "6246 Music St",
    "address_councildis": "D",
    "status": "Pending",
    "rowid": "1171166",
    "final_x": "3685173.79036",
    "final_y": "556239.140186",
    "longitude": "-90.05559945049026",
    "latitude": "30.023352466901",
    "geocoded_column": {
      "latitude": "30.023352466901",
      "longitude": "-90.05559945049026"
    }
  },
  {
    "service_request": "2025-1171165",
    "request_type": "Trash/Recycling",
    "request_reason": "Request a Large Item Pick Up",
    "date_created": "2025-02-24T18:42:43.000",
    "date_modified": "2025-02-24T18:42:46.000",
    "request_status": "Pending",
    "responsible_agency": "Department of Sanitation",
    "final_address": "2530 Delachaise St",
    "address_councildis": "B",
    "status": "Assigned to Contractor",
    "contractor": "IV Waste",
    "rowid": "1171165",
    "final_x": "3672420.67847",
    "final_y": "524558.462076",
    "longitude": "-90.09697679401737",
    "latitude": "29.936626284171226",
    "geocoded_column": {
      "latitude": "29.936626284171226",
      "longitude": "-90.09697679401737"
    }
  },
  {
    "service_request": "2025-1171164",
    "request_type": "Trash/Recycling",
    "request_reason": "Order Recycling Cart",
    "date_created": "2025-02-24T18:24:55.000",
    "date_modified": "2025-02-24T18:24:56.000",
    "request_status": "Pending",
    "responsible_agency": "Department of Sanitation",
    "final_address": "4414 Bienville Ave",
    "address_councildis": "A",
    "status": "Pending",
    "rowid": "1171164",
    "final_x": "3670336.68609",
    "final_y": "539824.70497",
    "longitude": "-90.1030385793036",
    "latitude": "29.978665067632186",
    "geocoded_column": {
      "latitude": "29.978665067632186",
      "longitude": "-90.1030385793036"
    }
  },
  {
    "service_request": "2025-1171163",
    "request_type": "Trash/Recycling",
    "request_reason": "Repair Trash Cart",
    "date_created": "2025-02-24T18:21:48.000",
    "date_modified": "2025-02-24T18:21:50.000",
    "request_status": "Pending",
    "responsible_agency": "Department of Sanitation",
    "final_address": "1010 Harmony St",
    "address_councildis": "B",
    "status": "Assigned to Contractor",
    "contractor": "IV Waste",
    "rowid": "1171163",
    "final_x": "3675886.1076",
    "final_y": "519734.86892",
    "longitude": "-90.086202018809",
    "latitude": "29.923259700004266",
    "geocoded_column": {
      "latitude": "29.923259700004266",
      "longitude": "-90.086202018809"
    }
  },
  {
    "service_request": "2025-1171162",
    "request_type": "Trash/Recycling",
    "request_reason": "Repair Trash Cart",
    "date_created": "2025-02-24T17:53:12.000",
    "date_modified": "2025-02-24T17:53:14.000",
    "request_status": "Pending",
    "responsible_agency": "Department of Sanitation",
    "final_address": "8140 Zimple St",
    "address_councildis": "A",
    "status": "Assigned to Contractor",
    "contractor": "IV Waste",
    "rowid": "1171162",
    "final_x": "3661485.85178",
    "final_y": "528281.0416",
    "longitude": "-90.13137541337191",
    "latitude": "29.947182089602926",
    "geocoded_column": {
      "latitude": "29.947182089602926",
      "longitude": "-90.13137541337191"
    }
  },
  {
    "service_request": "2025-1171161",
    "request_type": "Health Related Request",
    "request_reason": "Homeless Encampment Complaint",
    "date_created": "2025-02-24T17:47:54.000",
    "date_modified": "2025-02-24T17:47:55.000",
    "request_status": "Pending",
    "responsible_agency": "Health Department",
    "final_address": "2417 Dauphine St B",
    "address_councildis": "C",
    "status": "Pending",
    "rowid": "1171161",
    "final_x": "3685998.1734",
    "final_y": "535373.444742",
    "longitude": "-90.05373085719349",
    "latitude": "29.9659539850797",
    "geocoded_column": {
      "latitude": "29.9659539850797",
      "longitude": "-90.05373085719349"
    }
  },
  {
    "service_request": "2025-1171160",
    "request_type": "Trash/Recycling",
    "request_reason": "Request a Large Item Pick Up",
    "date_created": "2025-02-24T17:47:46.000",
    "date_modified": "2025-02-24T17:47:48.000",
    "request_status": "Pending",
    "responsible_agency": "Department of Sanitation",
    "final_address": "3920 S Pin Oak Ave",
    "address_councildis": "C",
    "status": "Assigned to Contractor",
    "contractor": "Richards Disposal",
    "rowid": "1171160",
    "final_x": "3704935.83217",
    "final_y": "513637.39877",
    "longitude": "-89.99472864771663",
    "latitude": "29.905592410816674",
    "geocoded_column": {
      "latitude": "29.905592410816674",
      "longitude": "-89.99472864771663"
    }
  },
  {
    "service_request": "2025-1171159",
    "request_type": "Trash/Recycling",
    "request_reason": "Request a Large Item Pick Up",
    "date_created": "2025-02-24T17:34:53.000",
    "date_modified": "2025-02-24T17:34:55.000",
    "request_status": "Pending",
    "responsible_agency": "Department of Sanitation",
    "final_address": "2228 Royal St",
    "address_councildis": "C",
    "status": "Assigned to Contractor",
    "contractor": "IV Waste",
    "rowid": "1171159",
    "final_x": "3685424.44476",
    "final_y": "534851.788166",
    "longitude": "-90.05556104261662",
    "latitude": "29.96453721476377",
    "geocoded_column": {
      "latitude": "29.96453721476377",
      "longitude": "-90.05556104261662"
    }
  },
  {
    "service_request": "2025-1171158",
    "request_type": "Trash/Recycling",
    "request_reason": "Repair Recycling Cart",
    "date_created": "2025-02-24T17:13:58.000",
    "date_modified": "2025-02-24T17:14:00.000",
    "request_status": "Pending",
    "responsible_agency": "Department of Sanitation",
    "final_address": "4627 Lafaye St",
    "address_councildis": "D",
    "status": "Pending",
    "rowid": "1171158",
    "final_x": "3687558.75702",
    "final_y": "549922.170644",
    "longitude": "-90.04828733150963",
    "latitude": "30.005909785461437",
    "geocoded_column": {
      "latitude": "30.005909785461437",
      "longitude": "-90.04828733150963"
    }
  },
  {
    "service_request": "2025-1171157",
    "request_type": "Trash/Recycling",
    "request_reason": "Request a Large Item Pick Up",
    "date_created": "2025-02-24T16:50:55.000",
    "date_modified": "2025-02-24T16:50:57.000",
    "request_status": "Pending",
    "responsible_agency": "Department of Sanitation",
    "final_address": "3700 S Liberty St",
    "address_councildis": "B",
    "status": "Assigned to Contractor",
    "contractor": "IV Waste",
    "rowid": "1171157",
    "final_x": "3672505.96673",
    "final_y": "523552.462267",
    "longitude": "-90.09674181003618",
    "latitude": "29.933857580015424",
    "geocoded_column": {
      "latitude": "29.933857580015424",
      "longitude": "-90.09674181003618"
    }
  },
  {
    "service_request": "2025-1171156",
    "request_type": "Trash/Recycling",
    "request_reason": "Illegal Dumping",
    "date_created": "2025-02-24T16:47:44.000",
    "date_modified": "2025-02-24T16:47:46.000",
    "request_status": "Pending",
    "responsible_agency": "Department of Sanitation",
    "final_address": "1541 Clouet St",
    "address_councildis": "D",
    "status": "Pending",
    "rowid": "1171156",
    "final_x": "3689489.44278",
    "final_y": "537796.533192",
    "longitude": "-90.04261936995944",
    "latitude": "29.97250896115757",
    "geocoded_column": {
      "latitude": "29.97250896115757",
      "longitude": "-90.04261936995944"
    }
  },
  {
    "service_request": "2025-1171155",
    "request_type": "Trash/Recycling",
    "request_reason": "MIssed Recycling Pick-Up",
    "date_created": "2025-02-24T16:46:19.000",
    "date_modified": "2025-02-24T16:48:11.000",
    "case_close_date": "2025-02-24T10:48:10.000",
    "request_status": "Closed",
    "responsible_agency": "Department of Sanitation",
    "final_address": "139 Fairway Dr",
    "address_councildis": "A",
    "status": "Invalid Request",
    "contractor": "IV Waste",
    "contractor_action": "Invalid",
    "rowid": "1171155",
    "final_x": "3664242.17338",
    "final_y": "540651.257547",
    "longitude": "-90.12225981851088",
    "latitude": "29.981116332671302",
    "geocoded_column": {
      "latitude": "29.981116332671302",
      "longitude": "-90.12225981851088"
    }
  },
  {
    "service_request": "2025-1171154",
    "request_type": "Streetlights",
    "request_reason": "New Streetlight Request",
    "date_created": "2025-02-24T16:45:41.000",
    "date_modified": "2025-02-24T16:45:42.000",
    "request_status": "Pending",
    "responsible_agency": "Department of Public Works",
    "final_address": "1541 Clouet St",
    "address_councildis": "D",
    "status": "Pending",
    "contractor": "Legacy Professional Services",
    "rowid": "1171154",
    "final_x": "3689489.44278",
    "final_y": "537796.533192",
    "longitude": "-90.04261936995944",
    "latitude": "29.97250896115757",
    "geocoded_column": {
      "latitude": "29.97250896115757",
      "longitude": "-90.04261936995944"
    }
  },
  {
    "service_request": "2025-1171153",
    "request_type": "Abandoned Vehicles",
    "request_reason": "Abandoned/Junk Vehicles",
    "date_created": "2025-02-24T16:43:01.000",
    "date_modified": "2025-02-24T16:43:03.000",
    "request_status": "Pending",
    "responsible_agency": "Department of Public Works",
    "final_address": "4121 Orleans Ave",
    "address_councildis": "A",
    "status": "Pending",
    "rowid": "1171153",
    "final_x": "3672581.77979",
    "final_y": "540340.183243",
    "longitude": "-90.0959301397744",
    "latitude": "29.980015983721113",
    "geocoded_column": {
      "latitude": "29.980015983721113",
      "longitude": "-90.0959301397744"
    }
  },
  {
    "service_request": "2025-1171152",
    "request_type": "Abandoned Vehicles",
    "request_reason": "Abandoned/Junk Vehicles",
    "date_created": "2025-02-24T16:42:33.000",
    "date_modified": "2025-02-24T16:42:35.000",
    "request_status": "Pending",
    "responsible_agency": "Department of Public Works",
    "final_address": "8419 S Claiborne Ave",
    "address_councildis": "A",
    "status": "Pending",
    "rowid": "1171152",
    "final_x": "3663998.51738",
    "final_y": "532445.946692",
    "longitude": "-90.12330307675028",
    "latitude": "29.95856151735595",
    "geocoded_column": {
      "latitude": "29.95856151735595",
      "longitude": "-90.12330307675028"
    }
  },
  {
    "service_request": "2025-1171151",
    "request_type": "Trash/Recycling",
    "request_reason": "MIssed Recycling Pick-Up",
    "date_created": "2025-02-24T16:41:39.000",
    "date_modified": "2025-02-24T16:47:31.000",
    "case_close_date": "2025-02-24T10:47:30.000",
    "request_status": "Closed",
    "responsible_agency": "Department of Sanitation",
    "final_address": "139 Fairway Dr",
    "address_councildis": "A",
    "status": "Invalid Request",
    "contractor": "IV Waste",
    "contractor_action": "Invalid",
    "rowid": "1171151",
    "final_x": "3664242.17338",
    "final_y": "540651.257547",
    "longitude": "-90.12225981851088",
    "latitude": "29.981116332671302",
    "geocoded_column": {
      "latitude": "29.981116332671302",
      "longitude": "-90.12225981851088"
    }
  },
  {
    "service_request": "2025-1171150",
    "request_type": "Abandoned Vehicles",
    "request_reason": "Abandoned/Junk Vehicles",
    "date_created": "2025-02-24T16:41:25.000",
    "date_modified": "2025-02-24T16:41:27.000",
    "request_status": "Pending",
    "responsible_agency": "Department of Public Works",
    "final_address": "7833 S Claiborne Ave",
    "address_councildis": "A",
    "status": "Pending",
    "rowid": "1171150",
    "final_x": "3665566.53095",
    "final_y": "531017.240578",
    "longitude": "-90.11839951754914",
    "latitude": "29.95458741831327",
    "geocoded_column": {
      "latitude": "29.95458741831327",
      "longitude": "-90.11839951754914"
    }
  },
  {
    "service_request": "2025-1171149",
    "request_type": "Trash/Recycling",
    "request_reason": "Request a Large Item Pick Up",
    "date_created": "2025-02-24T16:40:39.000",
    "date_modified": "2025-02-24T16:40:41.000",
    "request_status": "Pending",
    "responsible_agency": "Department of Sanitation",
    "final_address": "2724 Mithra St",
    "address_councildis": "D",
    "status": "Assigned to Contractor",
    "contractor": "IV Waste",
    "rowid": "1171149",
    "final_x": "3687559.30972",
    "final_y": "552934.393751",
    "longitude": "-90.04817885208625",
    "latitude": "30.014192278409258",
    "geocoded_column": {
      "latitude": "30.014192278409258",
      "longitude": "-90.04817885208625"
    }
  },
  {
    "service_request": "2025-1171148",
    "request_type": "Abandoned Vehicles",
    "request_reason": "Abandoned/Junk Vehicles",
    "date_created": "2025-02-24T16:40:17.000",
    "date_modified": "2025-02-24T16:40:19.000",
    "request_status": "Pending",
    "responsible_agency": "Department of Public Works",
    "final_address": "2012 Foucher St",
    "address_councildis": "B",
    "status": "Pending",
    "rowid": "1171148",
    "final_x": "3672938.59547",
    "final_y": "522745.124154",
    "longitude": "-90.09540355352225",
    "latitude": "29.931624816250153",
    "geocoded_column": {
      "latitude": "29.931624816250153",
      "longitude": "-90.09540355352225"
    }
  },
  {
    "service_request": "2025-1171147",
    "request_type": "Trash/Recycling",
    "request_reason": "Request a Large Item Pick Up",
    "date_created": "2025-02-24T16:38:31.000",
    "date_modified": "2025-02-24T16:38:39.000",
    "request_status": "Pending",
    "responsible_agency": "Department of Sanitation",
    "final_address": "5062 Stephen Girard Ave",
    "address_councildis": "D",
    "status": "Assigned to Contractor",
    "contractor": "IV Waste",
    "rowid": "1171147",
    "final_x": "3693075.81936",
    "final_y": "551205.015573",
    "longitude": "-90.03081163495635",
    "latitude": "30.0092658516872",
    "geocoded_column": {
      "latitude": "30.0092658516872",
      "longitude": "-90.03081163495635"
    }
  },
  {
    "service_request": "2025-1171146",
    "request_type": "Trash/Recycling",
    "request_reason": "Illegal Dumping",
    "date_created": "2025-02-24T16:35:13.000",
    "date_modified": "2025-02-24T16:35:16.000",
    "request_status": "Pending",
    "responsible_agency": "Department of Sanitation",
    "final_address": "3923 Carondelet St",
    "address_councildis": "B",
    "status": "Pending",
    "rowid": "1171146",
    "final_x": "3672364.58913",
    "final_y": "521434.804729",
    "longitude": "-90.09726025186187",
    "latitude": "29.928038899016997",
    "geocoded_column": {
      "latitude": "29.928038899016997",
      "longitude": "-90.09726025186187"
    }
  },
  {
    "service_request": "2025-1171145",
    "request_type": "Trash/Recycling",
    "request_reason": "Order Recycling Cart",
    "date_created": "2025-02-24T16:27:42.000",
    "date_modified": "2025-02-24T16:27:44.000",
    "request_status": "Pending",
    "responsible_agency": "Department of Sanitation",
    "final_address": "1817 N Rampart St",
    "address_councildis": "C",
    "status": "Pending",
    "rowid": "1171145",
    "final_x": "3683688.19381",
    "final_y": "535865.974087",
    "longitude": "-90.06100842458105",
    "latitude": "29.96737899979045",
    "geocoded_column": {
      "latitude": "29.96737899979045",
      "longitude": "-90.06100842458105"
    }
  },
  {
    "service_request": "2025-1171144",
    "request_type": "Mosquito, Termite & Rodent Control",
    "request_reason": "Rodent Complaint (Rats)",
    "date_created": "2025-02-24T16:25:19.000",
    "date_modified": "2025-02-24T16:25:22.000",
    "request_status": "Pending",
    "responsible_agency": "Mosquito, Termite & Rodent Control Board",
    "final_address": "1817 N Rampart St",
    "address_councildis": "C",
    "status": "Pending",
    "rowid": "1171144",
    "final_x": "3683688.19381",
    "final_y": "535865.974087",
    "longitude": "-90.06100842458105",
    "latitude": "29.96737899979045",
    "geocoded_column": {
      "latitude": "29.96737899979045",
      "longitude": "-90.06100842458105"
    }
  },
  {
    "service_request": "2025-1171143",
    "request_type": "Trash/Recycling",
    "request_reason": "Request a Large Item Pick Up",
    "date_created": "2025-02-24T16:20:15.000",
    "date_modified": "2025-02-24T16:20:17.000",
    "request_status": "Pending",
    "responsible_agency": "Department of Sanitation",
    "final_address": "7031 Ridgefield Dr",
    "address_councildis": "E",
    "status": "Assigned to Contractor",
    "contractor": "Waste Pro",
    "rowid": "1171143",
    "final_x": "3719465.61157",
    "final_y": "569607.585382",
    "longitude": "-89.94673476020041",
    "latitude": "30.059014222318503",
    "geocoded_column": {
      "latitude": "30.059014222318503",
      "longitude": "-89.94673476020041"
    }
  },
  {
    "service_request": "2025-1171142",
    "request_type": "Trash/Recycling",
    "request_reason": "Missed Trash Pick-Up",
    "date_created": "2025-02-24T16:19:32.000",
    "date_modified": "2025-02-24T16:19:34.000",
    "request_status": "Pending",
    "responsible_agency": "Department of Sanitation",
    "final_address": "1026 Tricou St",
    "address_councildis": "E",
    "status": "Assigned to Contractor",
    "contractor": "Waste Pro",
    "rowid": "1171142",
    "final_x": "3700006.05629",
    "final_y": "532826.996484",
    "longitude": "-90.00958755703746",
    "latitude": "29.958514595819565",
    "geocoded_column": {
      "latitude": "29.958514595819565",
      "longitude": "-90.00958755703746"
    }
  },
  {
    "service_request": "2025-1171141",
    "request_type": "Trash/Recycling",
    "request_reason": "Request a Large Item Pick Up",
    "date_created": "2025-02-24T16:19:30.000",
    "date_modified": "2025-02-24T16:19:32.000",
    "request_status": "Pending",
    "responsible_agency": "Department of Sanitation",
    "final_address": "11140 N Parkwood Ct",
    "address_councildis": "E",
    "status": "Assigned to Contractor",
    "contractor": "Waste Pro",
    "rowid": "1171141",
    "final_x": "3716396.5548",
    "final_y": "559013.036764",
    "longitude": "-89.9568379803472",
    "latitude": "30.02998528747709",
    "geocoded_column": {
      "latitude": "30.02998528747709",
      "longitude": "-89.9568379803472"
    }
  },
  {
    "service_request": "2025-1171140",
    "request_type": "Abandoned Vehicles",
    "request_reason": "Abandoned/Junk Vehicles",
    "date_created": "2025-02-24T16:18:43.000",
    "date_modified": "2025-02-24T16:18:44.000",
    "request_status": "Pending",
    "responsible_agency": "Department of Public Works",
    "final_address": "2048 Camp St",
    "address_councildis": "B",
    "status": "Pending",
    "rowid": "1171140",
    "final_x": "3678983.578",
    "final_y": "522609.467898",
    "longitude": "-90.07632493677988",
    "latitude": "29.93107084607271",
    "geocoded_column": {
      "latitude": "29.93107084607271",
      "longitude": "-90.07632493677988"
    }
  },
  {
    "service_request": "2025-1171139",
    "request_type": "Abandoned Vehicles",
    "request_reason": "Abandoned/Junk Vehicles",
    "date_created": "2025-02-24T16:18:27.000",
    "date_modified": "2025-02-24T16:18:30.000",
    "request_status": "Pending",
    "responsible_agency": "Department of Public Works",
    "final_address": "2048 Camp St",
    "address_councildis": "B",
    "status": "Pending",
    "rowid": "1171139",
    "final_x": "3678983.578",
    "final_y": "522609.467898",
    "longitude": "-90.07632493677988",
    "latitude": "29.93107084607271",
    "geocoded_column": {
      "latitude": "29.93107084607271",
      "longitude": "-90.07632493677988"
    }
  },
  {
    "service_request": "2025-1171138",
    "request_type": "Abandoned Vehicles",
    "request_reason": "Abandoned/Junk Vehicles",
    "date_created": "2025-02-24T16:15:53.000",
    "date_modified": "2025-02-24T16:16:00.000",
    "request_status": "Pending",
    "responsible_agency": "Department of Public Works",
    "final_address": "2048 Camp St",
    "address_councildis": "B",
    "status": "Pending",
    "rowid": "1171138",
    "final_x": "3678983.578",
    "final_y": "522609.467898",
    "longitude": "-90.07632493677988",
    "latitude": "29.93107084607271",
    "geocoded_column": {
      "latitude": "29.93107084607271",
      "longitude": "-90.07632493677988"
    }
  },
  {
    "service_request": "2025-1171137",
    "request_type": "Drainage",
    "request_reason": "Catch Basin Clogged",
    "date_created": "2025-02-24T16:12:16.000",
    "date_modified": "2025-02-24T16:12:17.000",
    "request_status": "Pending",
    "responsible_agency": "Sewerage & Water Board ",
    "final_address": "468 St Joseph St",
    "address_councildis": "B",
    "status": "Pending",
    "rowid": "1171137",
    "final_x": "3681115.67554",
    "final_y": "527212.253503",
    "longitude": "-90.06943391702114",
    "latitude": "29.94366249296465",
    "geocoded_column": {
      "latitude": "29.94366249296465",
      "longitude": "-90.06943391702114"
    }
  },
  {
    "service_request": "2025-1171136",
    "request_type": "Roads and Streets",
    "request_reason": "Street Subsidence (Sinking)",
    "date_created": "2025-02-24T16:10:57.000",
    "date_modified": "2025-02-24T16:10:58.000",
    "request_status": "Pending",
    "responsible_agency": "Department of Public Works",
    "final_address": "315 Girod St",
    "address_councildis": "B",
    "status": "Pending",
    "rowid": "1171136",
    "final_x": "3682121.52866",
    "final_y": "528287.084288",
    "longitude": "-90.06622064760565",
    "latitude": "29.94658737126785",
    "geocoded_column": {
      "latitude": "29.94658737126785",
      "longitude": "-90.06622064760565"
    }
  },
  {
    "service_request": "2025-1171135",
    "request_type": "Trash/Recycling",
    "request_reason": "MIssed Recycling Pick-Up",
    "date_created": "2025-02-24T16:06:28.000",
    "date_modified": "2025-02-24T16:46:55.000",
    "case_close_date": "2025-02-24T10:46:54.000",
    "request_status": "Closed",
    "responsible_agency": "Department of Sanitation",
    "final_address": "139 Fairway Dr",
    "address_councildis": "A",
    "status": "Invalid Request",
    "contractor": "IV Waste",
    "contractor_action": "Invalid",
    "rowid": "1171135",
    "final_x": "3664242.17338",
    "final_y": "540651.257547",
    "longitude": "-90.12225981851088",
    "latitude": "29.981116332671302",
    "geocoded_column": {
      "latitude": "29.981116332671302",
      "longitude": "-90.12225981851088"
    }
  },
  {
    "service_request": "2025-1171134",
    "request_type": "Trash/Recycling",
    "request_reason": "Order Second Trash Cart",
    "date_created": "2025-02-24T16:01:39.000",
    "date_modified": "2025-02-24T16:01:41.000",
    "request_status": "Pending",
    "responsible_agency": "Department of Sanitation",
    "final_address": "3218 Chippewa St",
    "address_councildis": "B",
    "status": "Assigned to Contractor",
    "contractor": "IV Waste",
    "rowid": "1171134",
    "final_x": "3676376.08405",
    "final_y": "518526.716407",
    "longitude": "-90.0846969060357",
    "latitude": "29.919922997164928",
    "geocoded_column": {
      "latitude": "29.919922997164928",
      "longitude": "-90.0846969060357"
    }
  },
  {
    "service_request": "2025-1171133",
    "request_type": "Trash/Recycling",
    "request_reason": "Request a Large Item Pick Up",
    "date_created": "2025-02-24T16:00:10.000",
    "date_modified": "2025-02-24T16:00:15.000",
    "request_status": "Pending",
    "responsible_agency": "Department of Sanitation",
    "final_address": "824 Sumner St",
    "address_councildis": "C",
    "status": "Assigned to Contractor",
    "contractor": "Richards Disposal",
    "rowid": "1171133",
    "final_x": "3691201.48912",
    "final_y": "528276.990144",
    "longitude": "-90.03755242699559",
    "latitude": "29.946280399973634",
    "geocoded_column": {
      "latitude": "29.946280399973634",
      "longitude": "-90.03755242699559"
    }
  },
  {
    "service_request": "2025-1171132",
    "request_type": "Trash/Recycling",
    "request_reason": "Order Trash Cart",
    "date_created": "2025-02-24T15:58:20.000",
    "date_modified": "2025-02-24T15:58:58.000",
    "request_status": "Pending",
    "responsible_agency": "Department of Sanitation",
    "final_address": "2901 Ursulines Ave",
    "address_councildis": "A",
    "status": "Assigned to Contractor",
    "contractor": "IV Waste",
    "rowid": "1171132",
    "final_x": "3676827.44923",
    "final_y": "538882.582665",
    "longitude": "-90.08257079262258",
    "latitude": "29.975881330528857",
    "geocoded_column": {
      "latitude": "29.975881330528857",
      "longitude": "-90.08257079262258"
    }
  },
  {
    "service_request": "2025-1171131",
    "request_type": "Trash/Recycling",
    "request_reason": "Request a Large Item Pick Up",
    "date_created": "2025-02-24T15:57:00.000",
    "date_modified": "2025-02-24T15:57:02.000",
    "request_status": "Pending",
    "responsible_agency": "Department of Sanitation",
    "final_address": "51 Marywood Ct",
    "address_councildis": "E",
    "status": "Assigned to Contractor",
    "contractor": "Waste Pro",
    "rowid": "1171131",
    "final_x": "3712100.96907",
    "final_y": "567017.894436",
    "longitude": "-89.97011094283138",
    "latitude": "30.05213661956009",
    "geocoded_column": {
      "latitude": "30.05213661956009",
      "longitude": "-89.97011094283138"
    }
  },
  {
    "service_request": "2025-1171130",
    "request_type": "Trash/Recycling",
    "request_reason": "Order Recycling Cart",
    "date_created": "2025-02-24T15:54:06.000",
    "date_modified": "2025-02-24T15:54:09.000",
    "request_status": "Pending",
    "responsible_agency": "Department of Sanitation",
    "final_address": "2406 S Johnson St",
    "address_councildis": "B",
    "status": "Pending",
    "rowid": "1171130",
    "final_x": "3673360.48763",
    "final_y": "528463.707904",
    "longitude": "-90.0938764076302",
    "latitude": "29.94733651575991",
    "geocoded_column": {
      "latitude": "29.94733651575991",
      "longitude": "-90.0938764076302"
    }
  },
  {
    "service_request": "2025-1171129",
    "request_type": "Trash/Recycling",
    "request_reason": "Start Trash Service",
    "date_created": "2025-02-24T15:53:09.000",
    "date_modified": "2025-02-24T15:53:11.000",
    "request_status": "Pending",
    "responsible_agency": "Department of Sanitation",
    "final_address": "2406 S Johnson St",
    "address_councildis": "B",
    "status": "Assigned to Contractor",
    "contractor": "IV Waste",
    "rowid": "1171129",
    "final_x": "3673360.48763",
    "final_y": "528463.707904",
    "longitude": "-90.0938764076302",
    "latitude": "29.94733651575991",
    "geocoded_column": {
      "latitude": "29.94733651575991",
      "longitude": "-90.0938764076302"
    }
  },
  {
    "service_request": "2025-1171128",
    "request_type": "Trash/Recycling",
    "request_reason": "Order Recycling Cart",
    "date_created": "2025-02-24T15:52:21.000",
    "date_modified": "2025-02-24T15:52:23.000",
    "request_status": "Pending",
    "responsible_agency": "Department of Sanitation",
    "final_address": "2408 S Johnson St",
    "address_councildis": "B",
    "status": "Pending",
    "rowid": "1171128",
    "final_x": "3673349.65467",
    "final_y": "528456.750912",
    "longitude": "-90.09391084907934",
    "latitude": "29.947317708524633",
    "geocoded_column": {
      "latitude": "29.947317708524633",
      "longitude": "-90.09391084907934"
    }
  },
  {
    "service_request": "2025-1171127",
    "request_type": "Streetlights",
    "request_reason": "Streetlight Outage/Malfunction",
    "date_created": "2025-02-24T15:51:56.000",
    "date_modified": "2025-02-24T15:51:57.000",
    "request_status": "Pending",
    "responsible_agency": "Department of Public Works",
    "final_address": "1100 Canal St",
    "address_councildis": "B",
    "status": "Pending",
    "contractor": "Legacy Professional Services",
    "rowid": "1171127",
    "final_x": "3679911.79426",
    "final_y": "531539.116611",
    "longitude": "-90.07308463838378",
    "latitude": "29.95559637318677",
    "geocoded_column": {
      "latitude": "29.95559637318677",
      "longitude": "-90.07308463838378"
    }
  },
  {
    "service_request": "2025-1171126",
    "request_type": "Trash/Recycling",
    "request_reason": "Start Trash Service",
    "date_created": "2025-02-24T15:50:36.000",
    "date_modified": "2025-02-24T15:50:38.000",
    "request_status": "Pending",
    "responsible_agency": "Department of Sanitation",
    "final_address": "2408 S Johnson St",
    "address_councildis": "B",
    "status": "Assigned to Contractor",
    "contractor": "IV Waste",
    "rowid": "1171126",
    "final_x": "3673349.65467",
    "final_y": "528456.750912",
    "longitude": "-90.09391084907934",
    "latitude": "29.947317708524633",
    "geocoded_column": {
      "latitude": "29.947317708524633",
      "longitude": "-90.09391084907934"
    }
  },
  {
    "service_request": "2025-1171125",
    "request_type": "Trash/Recycling",
    "request_reason": "Request a Large Item Pick Up",
    "date_created": "2025-02-24T15:49:21.000",
    "date_modified": "2025-02-24T15:49:23.000",
    "request_status": "Pending",
    "responsible_agency": "Department of Sanitation",
    "final_address": "7802 Dorsett Dr",
    "address_councildis": "E",
    "status": "Assigned to Contractor",
    "contractor": "Waste Pro",
    "rowid": "1171125",
    "final_x": "3712401.1667",
    "final_y": "567832.019236",
    "longitude": "-89.9691314822498",
    "latitude": "30.0543653073874",
    "geocoded_column": {
      "latitude": "30.0543653073874",
      "longitude": "-89.9691314822498"
    }
  },
  {
    "service_request": "2025-1171124",
    "request_type": "Drainage",
    "request_reason": "Street Flooding",
    "date_created": "2025-02-24T15:48:53.000",
    "date_modified": "2025-02-24T15:48:55.000",
    "request_status": "Pending",
    "responsible_agency": "Sewerage & Water Board ",
    "final_address": "3327 Lancaster St",
    "address_councildis": "C",
    "status": "Pending",
    "rowid": "1171124",
    "final_x": "3709875.59217",
    "final_y": "518415.88127",
    "longitude": "-89.97896035304636",
    "latitude": "29.918571974434318",
    "geocoded_column": {
      "latitude": "29.918571974434318",
      "longitude": "-89.97896035304636"
    }
  },
  {
    "service_request": "2025-1171123",
    "request_type": "Abandoned Vehicles",
    "request_reason": "Abandoned/Junk Vehicles",
    "date_created": "2025-02-24T15:48:41.000",
    "date_modified": "2025-02-24T15:48:43.000",
    "request_status": "Pending",
    "responsible_agency": "Department of Public Works",
    "final_address": "801 Solomon Pl",
    "address_councildis": "A",
    "status": "Pending",
    "rowid": "1171123",
    "final_x": "3672401.53044",
    "final_y": "540693.898955",
    "longitude": "-90.09648738424217",
    "latitude": "29.980993932221672",
    "geocoded_column": {
      "latitude": "29.980993932221672",
      "longitude": "-90.09648738424217"
    }
  },
  {
    "service_request": "2025-1171122",
    "request_type": "Trash/Recycling",
    "request_reason": "Request a Large Item Pick Up",
    "date_created": "2025-02-24T15:44:17.000",
    "date_modified": "2025-02-24T15:44:19.000",
    "request_status": "Pending",
    "responsible_agency": "Department of Sanitation",
    "final_address": "4901 Michoud Blvd",
    "address_councildis": "E",
    "status": "Assigned to Contractor",
    "contractor": "Waste Pro",
    "rowid": "1171122",
    "final_x": "3725089.9056",
    "final_y": "561155.121182",
    "longitude": "-89.92928446490467",
    "latitude": "30.035585125654556",
    "geocoded_column": {
      "latitude": "30.035585125654556",
      "longitude": "-89.92928446490467"
    }
  },
  {
    "service_request": "2025-1171121",
    "request_type": "Streetlights",
    "request_reason": "Streetlight Outage/Malfunction",
    "date_created": "2025-02-24T15:43:51.000",
    "date_modified": "2025-02-24T15:43:52.000",
    "request_status": "Pending",
    "responsible_agency": "Department of Public Works",
    "final_address": "1100 Canal St",
    "address_councildis": "B",
    "status": "Pending",
    "contractor": "Legacy Professional Services",
    "rowid": "1171121",
    "final_x": "3679911.79426",
    "final_y": "531539.116611",
    "longitude": "-90.07308463838378",
    "latitude": "29.95559637318677",
    "geocoded_column": {
      "latitude": "29.95559637318677",
      "longitude": "-90.07308463838378"
    }
  },
  {
    "service_request": "2025-1171120",
    "request_type": "Drainage",
    "request_reason": "Street Flooding",
    "date_created": "2025-02-24T15:43:34.000",
    "date_modified": "2025-02-24T15:43:36.000",
    "request_status": "Pending",
    "responsible_agency": "Sewerage & Water Board ",
    "final_address": "1537 Fern St",
    "address_councildis": "A",
    "status": "Pending",
    "rowid": "1171120",
    "final_x": "3663473.15834",
    "final_y": "528819.75808",
    "longitude": "-90.12508277255752",
    "latitude": "29.948605916553113",
    "geocoded_column": {
      "latitude": "29.948605916553113",
      "longitude": "-90.12508277255752"
    }
  },
  {
    "service_request": "2025-1171119",
    "request_type": "Trash/Recycling",
    "request_reason": "Order Second Trash Cart",
    "date_created": "2025-02-24T15:43:07.000",
    "date_modified": "2025-02-24T15:43:09.000",
    "request_status": "Pending",
    "responsible_agency": "Department of Sanitation",
    "final_address": "92 Fontainebleau Dr",
    "address_councildis": "A",
    "status": "Assigned to Contractor",
    "contractor": "IV Waste",
    "rowid": "1171119",
    "final_x": "3667083.64615",
    "final_y": "530541.81709",
    "longitude": "-90.11362502015767",
    "latitude": "29.953235840770787",
    "geocoded_column": {
      "latitude": "29.953235840770787",
      "longitude": "-90.11362502015767"
    }
  },
  {
    "service_request": "2025-1171118",
    "request_type": "Safety & Permits",
    "request_reason": "Licenses & Permits",
    "date_created": "2025-02-24T15:36:09.000",
    "date_modified": "2025-02-24T15:36:11.000",
    "request_status": "Pending",
    "responsible_agency": "Safety and Permits",
    "final_address": "538 Leboeuf St",
    "address_councildis": "C",
    "status": "Pending",
    "rowid": "1171118",
    "final_x": "3689887.03472",
    "final_y": "529504.307649",
    "longitude": "-90.04165892127727",
    "latitude": "29.94969590890328",
    "geocoded_column": {
      "latitude": "29.94969590890328",
      "longitude": "-90.04165892127727"
    }
  },
  {
    "service_request": "2025-1171117",
    "request_type": "Traffic Signals",
    "request_reason": "Traffic Signal Malfunctioning or Damaged",
    "date_created": "2025-02-24T15:33:05.000",
    "date_modified": "2025-02-24T15:33:07.000",
    "request_status": "Pending",
    "responsible_agency": "Department of Public Works",
    "final_address": "4105 Orleans Ave",
    "address_councildis": "A",
    "status": "Pending",
    "rowid": "1171117",
    "final_x": "3672696.66657",
    "final_y": "540255.549259",
    "longitude": "-90.09557016636619",
    "latitude": "29.97977985723724",
    "geocoded_column": {
      "latitude": "29.97977985723724",
      "longitude": "-90.09557016636619"
    }
  },
  {
    "service_request": "2025-1171116",
    "request_type": "Traffic Signals",
    "request_reason": "Traffic Signal Malfunctioning or Damaged",
    "date_created": "2025-02-24T15:28:25.000",
    "date_modified": "2025-02-24T15:28:27.000",
    "request_status": "Pending",
    "responsible_agency": "Department of Public Works",
    "final_address": "731 N Carrollton Ave",
    "address_councildis": "A",
    "status": "Pending",
    "rowid": "1171116",
    "final_x": "3672568.46497",
    "final_y": "540063.958859",
    "longitude": "-90.09598161467692",
    "latitude": "29.979256856268997",
    "geocoded_column": {
      "latitude": "29.979256856268997",
      "longitude": "-90.09598161467692"
    }
  },
  {
    "service_request": "2025-1171115",
    "request_type": "Trash/Recycling",
    "request_reason": "Request a Large Item Pick Up",
    "date_created": "2025-02-24T15:27:44.000",
    "date_modified": "2025-02-24T15:27:46.000",
    "request_status": "Pending",
    "responsible_agency": "Department of Sanitation",
    "final_address": "10311 Plainfield Dr",
    "address_councildis": "E",
    "status": "Assigned to Contractor",
    "contractor": "Waste Pro",
    "rowid": "1171115",
    "final_x": "3710564.69803",
    "final_y": "562996.239968",
    "longitude": "-89.97511725951598",
    "latitude": "30.041128855377025",
    "geocoded_column": {
      "latitude": "30.041128855377025",
      "longitude": "-89.97511725951598"
    }
  },
  {
    "service_request": "2025-1171114",
    "request_type": "Trash/Recycling",
    "request_reason": "Order Second Trash Cart",
    "date_created": "2025-02-24T15:27:09.000",
    "date_modified": "2025-02-24T15:27:11.000",
    "request_status": "Pending",
    "responsible_agency": "Department of Sanitation",
    "final_address": "1024 Kerlerec St",
    "address_councildis": "C",
    "status": "Assigned to Contractor",
    "contractor": "IV Waste",
    "rowid": "1171114",
    "final_x": "3683220.10133",
    "final_y": "535462.54055",
    "longitude": "-90.06250079655989",
    "latitude": "29.96628398012159",
    "geocoded_column": {
      "latitude": "29.96628398012159",
      "longitude": "-90.06250079655989"
    }
  },
  {
    "service_request": "2025-1171112",
    "request_type": "Trash/Recycling",
    "request_reason": "Order Recycling Cart",
    "date_created": "2025-02-24T15:25:33.000",
    "date_modified": "2025-02-24T15:25:35.000",
    "request_status": "Pending",
    "responsible_agency": "Department of Sanitation",
    "final_address": "1133 Farragut St",
    "address_councildis": "C",
    "status": "Pending",
    "rowid": "1171112",
    "final_x": "3692337.44406",
    "final_y": "526983.116862",
    "longitude": "-90.03401216000651",
    "latitude": "29.942687322562172",
    "geocoded_column": {
      "latitude": "29.942687322562172",
      "longitude": "-90.03401216000651"
    }
  },
  {
    "service_request": "2025-1171111",
    "request_type": "Alley Ways",
    "request_reason": "Alley Way Regrading",
    "date_created": "2025-02-24T15:23:59.000",
    "date_modified": "2025-02-24T15:24:01.000",
    "request_status": "Pending",
    "responsible_agency": "Department of Public Works",
    "final_address": "5965 Argonne Blvd",
    "address_councildis": "A",
    "status": "Pending",
    "rowid": "1171111",
    "final_x": "3670207.69582",
    "final_y": "546963.371729",
    "longitude": "-90.10320392840589",
    "latitude": "29.998297761139128",
    "geocoded_column": {
      "latitude": "29.998297761139128",
      "longitude": "-90.10320392840589"
    }
  },
  {
    "service_request": "2025-1171110",
    "request_type": "Trash/Recycling",
    "request_reason": "Replace Trash Cart",
    "date_created": "2025-02-24T15:23:34.000",
    "date_modified": "2025-02-24T15:23:36.000",
    "request_status": "Pending",
    "responsible_agency": "Department of Sanitation",
    "final_address": "834 Wilson Dr",
    "address_councildis": "A",
    "status": "Assigned to Contractor",
    "contractor": "IV Waste",
    "rowid": "1171110",
    "final_x": "3674087.91176",
    "final_y": "539502.48129",
    "longitude": "-90.09120182275423",
    "latitude": "29.977667781236573",
    "geocoded_column": {
      "latitude": "29.977667781236573",
      "longitude": "-90.09120182275423"
    }
  },
  {
    "service_request": "2025-1171109",
    "request_type": "Parks & Parkways",
    "request_reason": "Tree Stump (removal, grind)",
    "date_created": "2025-02-24T15:23:25.000",
    "date_modified": "2025-02-24T15:23:26.000",
    "request_status": "Pending",
    "responsible_agency": "Department of Parks & Parkway",
    "final_address": "426 Dauphine St",
    "address_councildis": "C",
    "status": "Pending",
    "rowid": "1171109",
    "final_x": "3681466.50197",
    "final_y": "532183.498819",
    "longitude": "-90.06815296324162",
    "latitude": "29.95732109639485",
    "geocoded_column": {
      "latitude": "29.95732109639485",
      "longitude": "-90.06815296324162"
    }
  },
  {
    "service_request": "2025-1171108",
    "request_type": "Alley Ways",
    "request_reason": "Alley Way Regrading",
    "date_created": "2025-02-24T15:22:50.000",
    "date_modified": "2025-02-24T15:22:52.000",
    "request_status": "Pending",
    "responsible_agency": "Department of Public Works",
    "final_address": "5965 Argonne Blvd",
    "address_councildis": "A",
    "status": "Pending",
    "rowid": "1171108",
    "final_x": "3670207.69582",
    "final_y": "546963.371729",
    "longitude": "-90.10320392840589",
    "latitude": "29.998297761139128",
    "geocoded_column": {
      "latitude": "29.998297761139128",
      "longitude": "-90.10320392840589"
    }
  },
  {
    "service_request": "2025-1171107",
    "request_type": "Street and Traffic Signs",
    "request_reason": "Street Name Sign Damaged or Missing",
    "date_created": "2025-02-24T15:22:25.000",
    "date_modified": "2025-02-24T15:22:27.000",
    "request_status": "Pending",
    "responsible_agency": "Department of Public Works",
    "final_address": "WEST END BLVD & HARRISON AVE",
    "address_councildis": "A",
    "status": "Pending",
    "rowid": "1171107",
    "final_x": "3666572.7",
    "final_y": "549428.38",
    "longitude": "-90.11460408143765",
    "latitude": "30.005182483494092",
    "geocoded_column": {
      "latitude": "30.005182483494092",
      "longitude": "-90.11460408143765"
    }
  },
  {
    "service_request": "2025-1171106",
    "request_type": "Alley Ways",
    "request_reason": "Alley Way Regrading",
    "date_created": "2025-02-24T15:20:16.000",
    "date_modified": "2025-02-24T15:20:17.000",
    "request_status": "Pending",
    "responsible_agency": "Department of Public Works",
    "final_address": "5965 Argonne Blvd",
    "address_councildis": "A",
    "status": "Pending",
    "rowid": "1171106",
    "final_x": "3670207.69582",
    "final_y": "546963.371729",
    "longitude": "-90.10320392840589",
    "latitude": "29.998297761139128",
    "geocoded_column": {
      "latitude": "29.998297761139128",
      "longitude": "-90.10320392840589"
    }
  },
  {
    "service_request": "2025-1171105",
    "request_type": "Trash/Recycling",
    "request_reason": "Repair Recycling Cart",
    "date_created": "2025-02-24T15:19:19.000",
    "date_modified": "2025-02-24T15:19:21.000",
    "request_status": "Pending",
    "responsible_agency": "Department of Sanitation",
    "final_address": "1828 Jefferson Ave",
    "address_councildis": "A",
    "status": "Pending",
    "rowid": "1171105",
    "final_x": "3667474.25965",
    "final_y": "522534.707066",
    "longitude": "-90.1126609689365",
    "latitude": "29.931207432186657",
    "geocoded_column": {
      "latitude": "29.931207432186657",
      "longitude": "-90.1126609689365"
    }
  },
  {
    "service_request": "2025-1171104",
    "request_type": "Trash/Recycling",
    "request_reason": "Request a Large Item Pick Up",
    "date_created": "2025-02-24T15:15:50.000",
    "date_modified": "2025-02-24T15:16:04.000",
    "request_status": "Pending",
    "responsible_agency": "Department of Sanitation",
    "final_address": "2821 Johnny Jackson Jr Blvd",
    "address_councildis": "D",
    "status": "Assigned to Contractor",
    "contractor": "IV Waste",
    "rowid": "1171104",
    "final_x": "3691360.70224",
    "final_y": "542800.125965",
    "longitude": "-90.03653077981288",
    "latitude": "29.986208964641367",
    "geocoded_column": {
      "latitude": "29.986208964641367",
      "longitude": "-90.03653077981288"
    }
  },
  {
    "service_request": "2025-1171103",
    "request_type": "Trash/Recycling",
    "request_reason": "Replace Trash Cart",
    "date_created": "2025-02-24T15:12:05.000",
    "date_modified": "2025-02-24T15:12:12.000",
    "request_status": "Pending",
    "responsible_agency": "Department of Sanitation",
    "final_address": "223 S Salcedo St",
    "address_councildis": "B",
    "status": "Assigned to Contractor",
    "contractor": "IV Waste",
    "rowid": "1171103",
    "final_x": "3673634.1042",
    "final_y": "535612.99335",
    "longitude": "-90.09276810312069",
    "latitude": "29.966986527421",
    "geocoded_column": {
      "latitude": "29.966986527421",
      "longitude": "-90.09276810312069"
    }
  },
  {
    "service_request": "2025-1171102",
    "request_type": "Trash/Recycling",
    "request_reason": "Order Recycling Cart",
    "date_created": "2025-02-24T15:10:00.000",
    "date_modified": "2025-02-24T15:10:02.000",
    "request_status": "Pending",
    "responsible_agency": "Department of Sanitation",
    "final_address": "1300 Chartres St",
    "address_councildis": "C",
    "status": "Pending",
    "rowid": "1171102",
    "final_x": "3684194.50178",
    "final_y": "533978.725445",
    "longitude": "-90.0594757566036",
    "latitude": "29.962174248797023",
    "geocoded_column": {
      "latitude": "29.962174248797023",
      "longitude": "-90.0594757566036"
    }
  },
  {
    "service_request": "2025-1171101",
    "request_type": "Abandoned Vehicles",
    "request_reason": "Abandoned/Junk Vehicles",
    "date_created": "2025-02-24T15:06:39.000",
    "date_modified": "2025-02-24T15:06:42.000",
    "request_status": "Pending",
    "responsible_agency": "Department of Public Works",
    "final_address": "7464 Pearl St",
    "address_councildis": "A",
    "status": "Pending",
    "rowid": "1171101",
    "final_x": "3661850.29165",
    "final_y": "525034.792701",
    "longitude": "-90.13033234298223",
    "latitude": "29.9382454214423",
    "geocoded_column": {
      "latitude": "29.9382454214423",
      "longitude": "-90.13033234298223"
    }
  },
  {
    "service_request": "2025-1171100",
    "request_type": "Drainage",
    "request_reason": "Street Flooding",
    "date_created": "2025-02-24T15:03:05.000",
    "date_modified": "2025-02-24T15:03:07.000",
    "request_status": "Pending",
    "responsible_agency": "Sewerage & Water Board ",
    "final_address": "3119 Third St",
    "address_councildis": "B",
    "status": "Pending",
    "rowid": "1171100",
    "final_x": "3673411.26139",
    "final_y": "527559.308671",
    "longitude": "-90.09374698678972",
    "latitude": "29.944848204978953",
    "geocoded_column": {
      "latitude": "29.944848204978953",
      "longitude": "-90.09374698678972"
    }
  },
  {
    "service_request": "2025-1171099",
    "request_type": "Trash/Recycling",
    "request_reason": "Order Recycling Cart",
    "date_created": "2025-02-24T14:58:04.000",
    "date_modified": "2025-02-24T14:58:06.000",
    "request_status": "Pending",
    "responsible_agency": "Department of Sanitation",
    "final_address": "13 Assumption Pl",
    "address_councildis": "E",
    "status": "Pending",
    "rowid": "1171099",
    "final_x": "3726270.62957",
    "final_y": "564490.646369",
    "longitude": "-89.92542370952476",
    "latitude": "30.04471660437021",
    "geocoded_column": {
      "latitude": "30.04471660437021",
      "longitude": "-89.92542370952476"
    }
  },
  {
    "service_request": "2025-1171098",
    "request_type": "Trash/Recycling",
    "request_reason": "Request a Large Item Pick Up",
    "date_created": "2025-02-24T14:56:59.000",
    "date_modified": "2025-02-24T14:57:03.000",
    "request_status": "Pending",
    "responsible_agency": "Department of Sanitation",
    "final_address": "13 Assumption Pl",
    "address_councildis": "E",
    "status": "Assigned to Contractor",
    "contractor": "Waste Pro",
    "rowid": "1171098",
    "final_x": "3726270.62957",
    "final_y": "564490.646369",
    "longitude": "-89.92542370952476",
    "latitude": "30.04471660437021",
    "geocoded_column": {
      "latitude": "30.04471660437021",
      "longitude": "-89.92542370952476"
    }
  },
  {
    "service_request": "2025-1171097",
    "request_type": "Roads and Streets",
    "request_reason": "Abandoned Service Cut",
    "date_created": "2025-02-24T14:56:32.000",
    "date_modified": "2025-02-24T14:56:34.000",
    "request_status": "Pending",
    "responsible_agency": "Department of Public Works",
    "final_address": "4920 Press Dr",
    "address_councildis": "D",
    "status": "Pending",
    "rowid": "1171097",
    "final_x": "3689400.86812",
    "final_y": "551449.286741",
    "longitude": "-90.04241333260622",
    "latitude": "30.01005186065969",
    "geocoded_column": {
      "latitude": "30.01005186065969",
      "longitude": "-90.04241333260622"
    }
  },
  {
    "service_request": "2025-1171096",
    "request_type": "Safety & Permits",
    "request_reason": "Construction permit",
    "date_created": "2025-02-24T14:55:38.000",
    "date_modified": "2025-02-24T14:55:40.000",
    "request_status": "Pending",
    "responsible_agency": "Safety and Permits",
    "final_address": "4920 Press Dr",
    "address_councildis": "D",
    "status": "Pending",
    "rowid": "1171096",
    "final_x": "3689400.86812",
    "final_y": "551449.286741",
    "longitude": "-90.04241333260622",
    "latitude": "30.01005186065969",
    "geocoded_column": {
      "latitude": "30.01005186065969",
      "longitude": "-90.04241333260622"
    }
  },
  {
    "service_request": "2025-1171095",
    "request_type": "Healthy Homes",
    "request_reason": "Healthy Homes",
    "date_created": "2025-02-24T14:55:20.000",
    "date_modified": "2025-02-24T14:55:22.000",
    "request_status": "Pending",
    "responsible_agency": "Department of Code Enforcement",
    "final_address": "603 N Hennessey St",
    "address_councildis": "A",
    "status": "Pending",
    "rowid": "1171095",
    "final_x": "3671375.72308",
    "final_y": "540434.765963",
    "longitude": "-90.09973616134626",
    "latitude": "29.98031181124827",
    "geocoded_column": {
      "latitude": "29.98031181124827",
      "longitude": "-90.09973616134626"
    }
  },
  {
    "service_request": "2025-1171094",
    "request_type": "Trash/Recycling",
    "request_reason": "Replace Trash Cart",
    "date_created": "2025-02-24T14:52:51.000",
    "date_modified": "2025-02-24T14:53:43.000",
    "request_status": "Pending",
    "responsible_agency": "Department of Sanitation",
    "final_address": "1669 N Miro St",
    "address_councildis": "D",
    "status": "Assigned to Contractor",
    "contractor": "IV Waste",
    "rowid": "1171094",
    "final_x": "3680834.1677",
    "final_y": "539577.26753",
    "longitude": "-90.06989224790104",
    "latitude": "29.977670605565834",
    "geocoded_column": {
      "latitude": "29.977670605565834",
      "longitude": "-90.06989224790104"
    }
  },
  {
    "service_request": "2025-1171093",
    "request_type": "Roads and Streets",
    "request_reason": "Pothole",
    "date_created": "2025-02-24T14:52:09.000",
    "date_modified": "2025-02-24T14:52:11.000",
    "request_status": "Pending",
    "responsible_agency": "Department of Public Works",
    "final_address": "211 Conti St",
    "address_councildis": "C",
    "status": "Pending",
    "rowid": "1171093",
    "final_x": "3682801.38492",
    "final_y": "530942.76237",
    "longitude": "-90.0639812128763",
    "latitude": "29.953868898169226",
    "geocoded_column": {
      "latitude": "29.953868898169226",
      "longitude": "-90.0639812128763"
    }
  },
  {
    "service_request": "2025-1171092",
    "request_type": "Trash/Recycling",
    "request_reason": "Order Second Trash Cart",
    "date_created": "2025-02-24T14:43:52.000",
    "date_modified": "2025-02-24T14:43:54.000",
    "request_status": "Pending",
    "responsible_agency": "Department of Sanitation",
    "final_address": "10201 Chevy Chase Dr",
    "address_councildis": "E",
    "status": "Assigned to Contractor",
    "contractor": "Waste Pro",
    "rowid": "1171092",
    "final_x": "3709952.25745",
    "final_y": "563232.614944",
    "longitude": "-89.97704392618412",
    "latitude": "30.04179873876961",
    "geocoded_column": {
      "latitude": "30.04179873876961",
      "longitude": "-89.97704392618412"
    }
  },
  {
    "service_request": "2025-1171091",
    "request_type": "Property Maintenance",
    "request_reason": "Property Maintenance",
    "date_created": "2025-02-24T14:43:20.000",
    "date_modified": "2025-02-24T14:43:22.000",
    "request_status": "Pending",
    "responsible_agency": "Department of Code Enforcement",
    "final_address": "7041 Yorktown Dr",
    "address_councildis": "E",
    "status": "Pending",
    "rowid": "1171091",
    "final_x": "3706204.6074",
    "final_y": "560627.893854",
    "longitude": "-89.98898437795343",
    "latitude": "30.034758224114018",
    "geocoded_column": {
      "latitude": "30.034758224114018",
      "longitude": "-89.98898437795343"
    }
  },
  {
    "service_request": "2025-1171090",
    "request_type": "Trash/Recycling",
    "request_reason": "Repair Trash Cart",
    "date_created": "2025-02-24T14:43:02.000",
    "date_modified": "2025-02-24T14:43:04.000",
    "request_status": "Pending",
    "responsible_agency": "Department of Sanitation",
    "final_address": "2027 Valence St",
    "address_councildis": "B",
    "status": "Assigned to Contractor",
    "contractor": "IV Waste",
    "rowid": "1171090",
    "final_x": "3669627.94734",
    "final_y": "522407.92889",
    "longitude": "-90.10586632134363",
    "latitude": "29.930795570225477",
    "geocoded_column": {
      "latitude": "29.930795570225477",
      "longitude": "-90.10586632134363"
    }
  },
  {
    "service_request": "2025-1171089",
    "request_type": "Trash/Recycling",
    "request_reason": "Request a Large Item Pick Up",
    "date_created": "2025-02-24T14:42:12.000",
    "date_modified": "2025-02-24T14:42:14.000",
    "request_status": "Pending",
    "responsible_agency": "Department of Sanitation",
    "final_address": "10940 Guildford Rd",
    "address_councildis": "E",
    "status": "Assigned to Contractor",
    "contractor": "Waste Pro",
    "rowid": "1171089",
    "final_x": "3711625.16632",
    "final_y": "564021.686561",
    "longitude": "-89.97172733088836",
    "latitude": "30.043913815562455",
    "geocoded_column": {
      "latitude": "30.043913815562455",
      "longitude": "-89.97172733088836"
    }
  },
  {
    "service_request": "2025-1171088",
    "request_type": "Alley Ways",
    "request_reason": "Alley Way Regrading",
    "date_created": "2025-02-24T14:41:56.000",
    "date_modified": "2025-02-24T14:41:58.000",
    "request_status": "Pending",
    "responsible_agency": "Department of Public Works",
    "final_address": "5954 Orleans Ave",
    "address_councildis": "A",
    "status": "Pending",
    "rowid": "1171088",
    "final_x": "3670817.26145",
    "final_y": "546863.308689",
    "longitude": "-90.10128170773126",
    "latitude": "29.998004614597843",
    "geocoded_column": {
      "latitude": "29.998004614597843",
      "longitude": "-90.10128170773126"
    }
  },
  {
    "service_request": "2025-1171087",
    "request_type": "Abandoned Vehicles",
    "request_reason": "Abandoned/Junk Vehicles",
    "date_created": "2025-02-24T14:39:51.000",
    "date_modified": "2025-02-24T14:44:12.000",
    "request_status": "Pending",
    "responsible_agency": "Department of Public Works",
    "final_address": "S PETERS ST & ST JAMES ST",
    "address_councildis": "B",
    "status": "Inspected",
    "rowid": "1171087",
    "final_x": "3682466.7",
    "final_y": "521768.98",
    "longitude": "-90.0653585550271",
    "latitude": "29.928654256131434",
    "geocoded_column": {
      "latitude": "29.928654256131434",
      "longitude": "-90.0653585550271"
    }
  },
  {
    "service_request": "2025-1171086",
    "request_type": "Alley Ways",
    "request_reason": "Alley Way Regrading",
    "date_created": "2025-02-24T14:37:10.000",
    "date_modified": "2025-02-24T14:37:11.000",
    "request_status": "Pending",
    "responsible_agency": "Department of Public Works",
    "final_address": "6226 General Diaz St",
    "address_councildis": "A",
    "status": "Pending",
    "rowid": "1171086",
    "final_x": "3669560.01012",
    "final_y": "548689.626515",
    "longitude": "-90.10519152084838",
    "latitude": "30.00306346530948",
    "geocoded_column": {
      "latitude": "30.00306346530948",
      "longitude": "-90.10519152084838"
    }
  },
  {
    "service_request": "2025-1171085",
    "request_type": "Property Maintenance",
    "request_reason": "Property Maintenance",
    "date_created": "2025-02-24T14:36:45.000",
    "date_modified": "2025-02-24T14:37:19.000",
    "request_status": "Pending",
    "responsible_agency": "Department of Code Enforcement",
    "final_address": "5408 Providence Pl",
    "address_councildis": "D",
    "status": "Pending",
    "rowid": "1171085",
    "final_x": "3688301.94031",
    "final_y": "552998.457303",
    "longitude": "-90.04583024426627",
    "latitude": "30.014345506332916",
    "geocoded_column": {
      "latitude": "30.014345506332916",
      "longitude": "-90.04583024426627"
    }
  },
  {
    "service_request": "2025-1171084",
    "request_type": "Roads and Streets",
    "request_reason": "Street Subsidence (Sinking)",
    "date_created": "2025-02-24T14:34:01.000",
    "date_modified": "2025-02-24T14:34:03.000",
    "request_status": "Pending",
    "responsible_agency": "Department of Public Works",
    "final_address": "1425 Independence St",
    "address_councildis": "D",
    "status": "Pending",
    "rowid": "1171084",
    "final_x": "3691323.00099",
    "final_y": "536826.967496",
    "longitude": "-90.03686333361073",
    "latitude": "29.96978607997463",
    "geocoded_column": {
      "latitude": "29.96978607997463",
      "longitude": "-90.03686333361073"
    }
  },
  {
    "service_request": "2025-1171083",
    "request_type": "Drainage",
    "request_reason": "Catch Basin Clogged",
    "date_created": "2025-02-24T14:31:30.000",
    "date_modified": "2025-02-24T14:31:32.000",
    "request_status": "Pending",
    "responsible_agency": "Sewerage & Water Board ",
    "final_address": "4400 St Claude Ave",
    "address_councildis": "C",
    "status": "Pending",
    "rowid": "1171083",
    "final_x": "3693099.69814",
    "final_y": "534919.55975",
    "longitude": "-90.03132083196796",
    "latitude": "29.96448598809065",
    "geocoded_column": {
      "latitude": "29.96448598809065",
      "longitude": "-90.03132083196796"
    }
  },
  {
    "service_request": "2025-1171082",
    "request_type": "Trash/Recycling",
    "request_reason": "Request a Large Item Pick Up",
    "date_created": "2025-02-24T14:30:44.000",
    "date_modified": "2025-02-24T14:30:48.000",
    "request_status": "Pending",
    "responsible_agency": "Department of Sanitation",
    "final_address": "1111 Lyons St",
    "address_councildis": "B",
    "status": "Assigned to Contractor",
    "contractor": "IV Waste",
    "rowid": "1171082",
    "final_x": "3669186.54183",
    "final_y": "519458.615543",
    "longitude": "-90.10735939730678",
    "latitude": "29.92269889167618",
    "geocoded_column": {
      "latitude": "29.92269889167618",
      "longitude": "-90.10735939730678"
    }
  },
  {
    "service_request": "2025-1171081",
    "request_type": "Trash/Recycling",
    "request_reason": "Request a Large Item Pick Up",
    "date_created": "2025-02-24T14:27:54.000",
    "date_modified": "2025-02-24T14:27:56.000",
    "request_status": "Pending",
    "responsible_agency": "Department of Sanitation",
    "final_address": "8003 Wales St",
    "address_councildis": "E",
    "status": "Assigned to Contractor",
    "contractor": "Waste Pro",
    "rowid": "1171081",
    "final_x": "3701725.45636",
    "final_y": "562263.999327",
    "longitude": "-90.00307904262345",
    "latitude": "30.039400610751734",
    "geocoded_column": {
      "latitude": "30.039400610751734",
      "longitude": "-90.00307904262345"
    }
  },
  {
    "service_request": "2025-1171080",
    "request_type": "Trash/Recycling",
    "request_reason": "Request a Large Item Pick Up",
    "date_created": "2025-02-24T14:25:07.000",
    "date_modified": "2025-02-24T14:25:10.000",
    "request_status": "Pending",
    "responsible_agency": "Department of Sanitation",
    "final_address": "4831 Rosemont Pl",
    "address_councildis": "E",
    "status": "Assigned to Contractor",
    "contractor": "Waste Pro",
    "rowid": "1171080",
    "final_x": "3702733.86346",
    "final_y": "555381.764505",
    "longitude": "-90.00014526007503",
    "latitude": "30.02044490829263",
    "geocoded_column": {
      "latitude": "30.02044490829263",
      "longitude": "-90.00014526007503"
    }
  },
  {
    "service_request": "2025-1171079",
    "request_type": "Trash/Recycling",
    "request_reason": "Request a Large Item Pick Up",
    "date_created": "2025-02-24T14:24:50.000",
    "date_modified": "2025-02-24T14:24:52.000",
    "request_status": "Pending",
    "responsible_agency": "Department of Sanitation",
    "final_address": "1804 Spain St",
    "address_councildis": "D",
    "status": "Assigned to Contractor",
    "contractor": "IV Waste",
    "rowid": "1171079",
    "final_x": "3685883.53289",
    "final_y": "539035.830602",
    "longitude": "-90.05396375289381",
    "latitude": "29.976027788405954",
    "geocoded_column": {
      "latitude": "29.976027788405954",
      "longitude": "-90.05396375289381"
    }
  },
  {
    "service_request": "2025-1171078",
    "request_type": "Drainage",
    "request_reason": "Catch Basin Damaged",
    "date_created": "2025-02-24T14:24:03.000",
    "date_modified": "2025-02-24T14:27:51.000",
    "request_status": "Pending",
    "responsible_agency": "Sewerage & Water Board ",
    "final_address": "4901 Magazine St",
    "address_councildis": "B",
    "status": "Pending",
    "rowid": "1171078",
    "final_x": "3668963.20423",
    "final_y": "518623.701815",
    "longitude": "-90.10809256867677",
    "latitude": "29.920409711602925",
    "geocoded_column": {
      "latitude": "29.920409711602925",
      "longitude": "-90.10809256867677"
    }
  },
  {
    "service_request": "2025-1171077",
    "request_type": "Alley Ways",
    "request_reason": "Alley Way Regrading",
    "date_created": "2025-02-24T14:23:36.000",
    "date_modified": "2025-02-24T14:23:38.000",
    "request_status": "Pending",
    "responsible_agency": "Department of Public Works",
    "final_address": "5939 Argonne Blvd",
    "address_councildis": "A",
    "status": "Pending",
    "rowid": "1171077",
    "final_x": "3670177.98388",
    "final_y": "546766.271953",
    "longitude": "-90.10330447237176",
    "latitude": "29.997756682145862",
    "geocoded_column": {
      "latitude": "29.997756682145862",
      "longitude": "-90.10330447237176"
    }
  },
  {
    "service_request": "2025-1171076",
    "request_type": "Streetlights",
    "request_reason": "Streetlight Outage/Malfunction",
    "date_created": "2025-02-24T14:23:15.000",
    "date_modified": "2025-02-24T14:23:16.000",
    "request_status": "Pending",
    "responsible_agency": "Department of Public Works",
    "final_address": "628 Jefferson Ave",
    "address_councildis": "A",
    "status": "Pending",
    "contractor": "Legacy Professional Services",
    "rowid": "1171076",
    "final_x": "3666485.87521",
    "final_y": "517755.82815",
    "longitude": "-90.11594146737902",
    "latitude": "29.918095937436913",
    "geocoded_column": {
      "latitude": "29.918095937436913",
      "longitude": "-90.11594146737902"
    }
  },
  {
    "service_request": "2025-1171075",
    "request_type": "Trash/Recycling",
    "request_reason": "Request a Large Item Pick Up",
    "date_created": "2025-02-24T14:21:56.000",
    "date_modified": "2025-02-24T14:21:58.000",
    "request_status": "Pending",
    "responsible_agency": "Department of Sanitation",
    "final_address": "7011 Edgefield Dr",
    "address_councildis": "E",
    "status": "Assigned to Contractor",
    "contractor": "Waste Pro",
    "rowid": "1171075",
    "final_x": "3718948.26476",
    "final_y": "569043.65527",
    "longitude": "-89.94839157564236",
    "latitude": "30.057480852718413",
    "geocoded_column": {
      "latitude": "30.057480852718413",
      "longitude": "-89.94839157564236"
    }
  },
  {
    "service_request": "2025-1171074",
    "request_type": "Trash/Recycling",
    "request_reason": "Repair Trash Cart",
    "date_created": "2025-02-24T14:20:21.000",
    "date_modified": "2025-02-24T14:20:25.000",
    "request_status": "Pending",
    "responsible_agency": "Department of Sanitation",
    "final_address": "95 Maryland Dr",
    "address_councildis": "A",
    "status": "Assigned to Contractor",
    "contractor": "IV Waste",
    "rowid": "1171074",
    "final_x": "3663758.48627",
    "final_y": "541964.388108",
    "longitude": "-90.12374374533965",
    "latitude": "29.984741049331472",
    "geocoded_column": {
      "latitude": "29.984741049331472",
      "longitude": "-90.12374374533965"
    }
  },
  {
    "service_request": "2025-1171073",
    "request_type": "Trash/Recycling",
    "request_reason": "Replace Trash Cart",
    "date_created": "2025-02-24T14:19:02.000",
    "date_modified": "2025-02-24T14:19:05.000",
    "request_status": "Pending",
    "responsible_agency": "Department of Sanitation",
    "final_address": "2426 Jefferson Ave",
    "address_councildis": "A",
    "status": "Assigned to Contractor",
    "contractor": "IV Waste",
    "rowid": "1171073",
    "final_x": "3667938.58573",
    "final_y": "524572.408892",
    "longitude": "-90.11112653129429",
    "latitude": "29.936796850941437",
    "geocoded_column": {
      "latitude": "29.936796850941437",
      "longitude": "-90.11112653129429"
    }
  },
  {
    "service_request": "2025-1171072",
    "request_type": "Parks & Parkways",
    "request_reason": "Park Maintenance/Clean Up",
    "date_created": "2025-02-24T14:17:59.000",
    "date_modified": "2025-02-24T14:18:01.000",
    "request_status": "Pending",
    "responsible_agency": "Department of Parks & Parkway",
    "final_address": "2299 Dublin St",
    "address_councildis": "A",
    "status": "Pending",
    "rowid": "1171072",
    "final_x": "3664327.52589",
    "final_y": "531439.651587",
    "longitude": "-90.12229773401728",
    "latitude": "29.955784976002608",
    "geocoded_column": {
      "latitude": "29.955784976002608",
      "longitude": "-90.12229773401728"
    }
  },
  {
    "service_request": "2025-1171071",
    "request_type": "Trash/Recycling",
    "request_reason": "Replace Trash Cart",
    "date_created": "2025-02-24T14:13:33.000",
    "date_modified": "2025-02-24T14:13:34.000",
    "request_status": "Pending",
    "responsible_agency": "Department of Sanitation",
    "final_address": "200 Harbor Cir",
    "address_councildis": "D",
    "status": "Assigned to Contractor",
    "contractor": "Waste Pro",
    "rowid": "1171071",
    "final_x": "3693169.4447",
    "final_y": "558611.8687",
    "longitude": "-90.03024972150669",
    "latitude": "30.029628991697695",
    "geocoded_column": {
      "latitude": "30.029628991697695",
      "longitude": "-90.03024972150669"
    }
  },
  {
    "service_request": "2025-1171070",
    "request_type": "Trash/Recycling",
    "request_reason": "Request a Large Item Pick Up",
    "date_created": "2025-02-24T14:13:21.000",
    "date_modified": "2025-02-24T14:14:04.000",
    "request_status": "Pending",
    "responsible_agency": "Department of Sanitation",
    "final_address": "2335 St Nick Dr",
    "address_councildis": "C",
    "status": "Assigned to Contractor",
    "contractor": "Richards Disposal",
    "rowid": "1171070",
    "final_x": "3699530.80727",
    "final_y": "522399.587194",
    "longitude": "-90.01146811016974",
    "latitude": "29.929857960610708",
    "geocoded_column": {
      "latitude": "29.929857960610708",
      "longitude": "-90.01146811016974"
    }
  },
  {
    "service_request": "2025-1171069",
    "request_type": "Traffic Signals",
    "request_reason": "Traffic Signal Malfunctioning or Damaged",
    "date_created": "2025-02-24T14:13:19.000",
    "date_modified": "2025-02-24T14:13:21.000",
    "request_status": "Pending",
    "responsible_agency": "Department of Public Works",
    "final_address": "N CARROLLTON AVE & ORLEANS AVE",
    "address_councildis": "A",
    "status": "Pending",
    "rowid": "1171069",
    "final_x": "3672713.3",
    "final_y": "540029.38",
    "longitude": "-90.09552534779168",
    "latitude": "29.979157474888535",
    "geocoded_column": {
      "latitude": "29.979157474888535",
      "longitude": "-90.09552534779168"
    }
  },
  {
    "service_request": "2025-1171068",
    "request_type": "Trash/Recycling",
    "request_reason": "Return Trash Cart",
    "date_created": "2025-02-24T14:12:18.000",
    "date_modified": "2025-02-24T14:12:20.000",
    "request_status": "Pending",
    "responsible_agency": "Department of Sanitation",
    "final_address": "3231 St Philip St",
    "address_councildis": "A",
    "status": "Assigned to Contractor",
    "contractor": "IV Waste",
    "rowid": "1171068",
    "final_x": "3675477.36705",
    "final_y": "539385.322186",
    "longitude": "-90.08681746876643",
    "latitude": "29.97730414487071",
    "geocoded_column": {
      "latitude": "29.97730414487071",
      "longitude": "-90.08681746876643"
    }
  },
  {
    "service_request": "2025-1171067",
    "request_type": "Trash/Recycling",
    "request_reason": "Repair Recycling Cart",
    "date_created": "2025-02-24T14:12:06.000",
    "date_modified": "2025-02-24T14:12:09.000",
    "request_status": "Pending",
    "responsible_agency": "Department of Sanitation",
    "final_address": "1920 Adams St",
    "address_councildis": "A",
    "status": "Pending",
    "rowid": "1171067",
    "final_x": "3664806.90612",
    "final_y": "529360.570689",
    "longitude": "-90.1208534812332",
    "latitude": "29.950054237977923",
    "geocoded_column": {
      "latitude": "29.950054237977923",
      "longitude": "-90.1208534812332"
    }
  },
  {
    "service_request": "2025-1171066",
    "request_type": "Trash/Recycling",
    "request_reason": "Order Trash Cart",
    "date_created": "2025-02-24T14:10:05.000",
    "date_modified": "2025-02-24T14:10:07.000",
    "request_status": "Pending",
    "responsible_agency": "Department of Sanitation",
    "final_address": "1621 Mandeville St",
    "address_councildis": "D",
    "status": "Assigned to Contractor",
    "contractor": "IV Waste",
    "rowid": "1171066",
    "final_x": "3685645.70697",
    "final_y": "538382.981385",
    "longitude": "-90.05473788229092",
    "latitude": "29.974239981029623",
    "geocoded_column": {
      "latitude": "29.974239981029623",
      "longitude": "-90.05473788229092"
    }
  },
  {
    "service_request": "2025-1171065",
    "request_type": "Parks & Parkways",
    "request_reason": "Tree Stump (removal, grind)",
    "date_created": "2025-02-24T14:09:51.000",
    "date_modified": "2025-02-24T14:09:53.000",
    "request_status": "Pending",
    "responsible_agency": "Department of Parks & Parkway",
    "final_address": "110 Sherwood Forest Dr",
    "address_councildis": "A",
    "status": "Pending",
    "rowid": "1171065",
    "final_x": "3673166.73435",
    "final_y": "541221.134604",
    "longitude": "-90.09405251350799",
    "latitude": "29.982420915934412",
    "geocoded_column": {
      "latitude": "29.982420915934412",
      "longitude": "-90.09405251350799"
    }
  },
  {
    "service_request": "2025-1171064",
    "request_type": "Trash/Recycling",
    "request_reason": "Order Trash Cart",
    "date_created": "2025-02-24T14:09:06.000",
    "date_modified": "2025-02-24T14:09:09.000",
    "request_status": "Pending",
    "responsible_agency": "Department of Sanitation",
    "final_address": "1619 Mandeville St",
    "address_councildis": "D",
    "status": "Assigned to Contractor",
    "contractor": "IV Waste",
    "rowid": "1171064",
    "final_x": "3685647.09583",
    "final_y": "538369.786953",
    "longitude": "-90.05473396094733",
    "latitude": "29.97420365834488",
    "geocoded_column": {
      "latitude": "29.97420365834488",
      "longitude": "-90.05473396094733"
    }
  },
  {
    "service_request": "2025-1171063",
    "request_type": "Abandoned Vehicles",
    "request_reason": "Abandoned/Junk Vehicles",
    "date_created": "2025-02-24T14:06:40.000",
    "date_modified": "2025-02-24T14:07:20.000",
    "request_status": "Pending",
    "responsible_agency": "Department of Public Works",
    "final_address": "4500 BLK Almonaster Ave",
    "address_councildis": "D",
    "status": "Inspected",
    "rowid": "1171063",
    "final_x": "3691533.66447",
    "final_y": "548508.061564",
    "longitude": "-90.03578029891706",
    "latitude": "30.001898332004835",
    "geocoded_column": {
      "latitude": "30.001898332004835",
      "longitude": "-90.03578029891706"
    }
  },
  {
    "service_request": "2025-1171062",
    "request_type": "Trash/Recycling",
    "request_reason": "Repair Trash Cart",
    "date_created": "2025-02-24T14:06:26.000",
    "date_modified": "2025-02-24T14:06:27.000",
    "request_status": "Pending",
    "responsible_agency": "Department of Sanitation",
    "final_address": "3214 Ponce De Leon St Apt A",
    "address_councildis": "A",
    "status": "Assigned to Contractor",
    "contractor": "IV Waste",
    "rowid": "1171062",
    "final_x": "3675906.34645",
    "final_y": "540509.111627",
    "longitude": "-90.08542395424494",
    "latitude": "29.980381340896745",
    "geocoded_column": {
      "latitude": "29.980381340896745",
      "longitude": "-90.08542395424494"
    }
  },
  {
    "service_request": "2025-1171061",
    "request_type": "Abandoned Vehicles",
    "request_reason": "Abandoned/Junk Vehicles",
    "date_created": "2025-02-24T14:04:42.000",
    "date_modified": "2025-02-24T14:06:41.000",
    "request_status": "Pending",
    "responsible_agency": "Department of Public Works",
    "final_address": "1100 BLK Port St",
    "address_councildis": "C",
    "status": "Pending",
    "rowid": "1171061",
    "final_x": "3687472.82318",
    "final_y": "536598.437418",
    "longitude": "-90.04903060844487",
    "latitude": "29.969276924008593",
    "geocoded_column": {
      "latitude": "29.969276924008593",
      "longitude": "-90.04903060844487"
    }
  },
  {
    "service_request": "2025-1171060",
    "request_type": "Abandoned Vehicles",
    "request_reason": "Abandoned/Junk Vehicles",
    "date_created": "2025-02-24T14:04:22.000",
    "date_modified": "2025-02-24T14:05:42.000",
    "request_status": "Pending",
    "responsible_agency": "Department of Public Works",
    "final_address": "2717 Chippewa St",
    "address_councildis": "B",
    "status": "Pending",
    "rowid": "1171060",
    "final_x": "3677982.71349",
    "final_y": "519681.016504",
    "longitude": "-90.07958568775406",
    "latitude": "29.923048710801694",
    "geocoded_column": {
      "latitude": "29.923048710801694",
      "longitude": "-90.07958568775406"
    }
  },
  {
    "service_request": "2025-1171059",
    "request_type": "Trash/Recycling",
    "request_reason": "Order Recycling Cart",
    "date_created": "2025-02-24T14:03:25.000",
    "date_modified": "2025-02-24T14:03:28.000",
    "request_status": "Pending",
    "responsible_agency": "Department of Sanitation",
    "final_address": "501 Broadway St",
    "address_councildis": "A",
    "status": "Pending",
    "rowid": "1171059",
    "final_x": "3662487.22976",
    "final_y": "523891.792124",
    "longitude": "-90.12835940735944",
    "latitude": "29.935084128832777",
    "geocoded_column": {
      "latitude": "29.935084128832777",
      "longitude": "-90.12835940735944"
    }
  },
  {
    "service_request": "2025-1171058",
    "request_type": "Trash/Recycling",
    "request_reason": "Request a Large Item Pick Up",
    "date_created": "2025-02-24T13:59:36.000",
    "date_modified": "2025-02-24T13:59:37.000",
    "request_status": "Pending",
    "responsible_agency": "Department of Sanitation",
    "final_address": "7900 Redfish St",
    "address_councildis": "E",
    "status": "Assigned to Contractor",
    "contractor": "Waste Pro",
    "rowid": "1171058",
    "final_x": "3698559.57687",
    "final_y": "560771.056158",
    "longitude": "-90.01313846261606",
    "latitude": "30.03539627580403",
    "geocoded_column": {
      "latitude": "30.03539627580403",
      "longitude": "-90.01313846261606"
    }
  },
  {
    "service_request": "2025-1171057",
    "request_type": "Trash/Recycling",
    "request_reason": "Repair Trash Cart",
    "date_created": "2025-02-24T13:59:33.000",
    "date_modified": "2025-02-24T13:59:35.000",
    "request_status": "Pending",
    "responsible_agency": "Department of Sanitation",
    "final_address": "501 Broadway St",
    "address_councildis": "A",
    "status": "Assigned to Contractor",
    "contractor": "IV Waste",
    "rowid": "1171057",
    "final_x": "3662487.22976",
    "final_y": "523891.792124",
    "longitude": "-90.12835940735944",
    "latitude": "29.935084128832777",
    "geocoded_column": {
      "latitude": "29.935084128832777",
      "longitude": "-90.12835940735944"
    }
  },
  {
    "service_request": "2025-1171056",
    "request_type": "General Services",
    "request_reason": "General Service Request",
    "date_created": "2025-02-24T13:59:04.000",
    "date_modified": "2025-02-24T14:04:35.000",
    "case_close_date": "2025-02-24T08:04:34.000",
    "request_status": "Closed",
    "responsible_agency": "Orleans Parish Communication District",
    "final_address": "3121 Fortin St",
    "address_councildis": "A",
    "status": "Question Answered.",
    "rowid": "1171056",
    "final_x": "3676421.66344",
    "final_y": "540994.540171",
    "longitude": "-90.08377964187608",
    "latitude": "29.981700660280833",
    "geocoded_column": {
      "latitude": "29.981700660280833",
      "longitude": "-90.08377964187608"
    }
  },
  {
    "service_request": "2025-1171055",
    "request_type": "Trash/Recycling",
    "request_reason": "Repair Recycling Cart",
    "date_created": "2025-02-24T13:58:44.000",
    "date_modified": "2025-02-24T13:58:46.000",
    "request_status": "Pending",
    "responsible_agency": "Department of Sanitation",
    "final_address": "4624 Danneel St",
    "address_councildis": "B",
    "status": "Pending",
    "rowid": "1171055",
    "final_x": "3669777.18855",
    "final_y": "522127.078714",
    "longitude": "-90.10540468784106",
    "latitude": "29.93001892530912",
    "geocoded_column": {
      "latitude": "29.93001892530912",
      "longitude": "-90.10540468784106"
    }
  },
  {
    "service_request": "2025-1171054",
    "request_type": "Trash/Recycling",
    "request_reason": "Repair Trash Cart",
    "date_created": "2025-02-24T13:57:11.000",
    "date_modified": "2025-02-24T13:57:13.000",
    "request_status": "Pending",
    "responsible_agency": "Department of Sanitation",
    "final_address": "2710 Gallinghouse St",
    "address_councildis": "C",
    "status": "Assigned to Contractor",
    "contractor": "Richards Disposal",
    "rowid": "1171054",
    "final_x": "3700129.97316",
    "final_y": "520969.605241",
    "longitude": "-90.00962880743087",
    "latitude": "29.9259069836687",
    "geocoded_column": {
      "latitude": "29.9259069836687",
      "longitude": "-90.00962880743087"
    }
  },
  {
    "service_request": "2025-1171053",
    "request_type": "Trash/Recycling",
    "request_reason": "Repair Trash Cart",
    "date_created": "2025-02-24T13:55:53.000",
    "date_modified": "2025-02-24T13:55:56.000",
    "request_status": "Pending",
    "responsible_agency": "Department of Sanitation",
    "final_address": "2311 Tricou St",
    "address_councildis": "E",
    "status": "Assigned to Contractor",
    "contractor": "Waste Pro",
    "rowid": "1171053",
    "final_x": "3701964.90506",
    "final_y": "537454.758344",
    "longitude": "-90.00323244344227",
    "latitude": "29.971176904115605",
    "geocoded_column": {
      "latitude": "29.971176904115605",
      "longitude": "-90.00323244344227"
    }
  },
  {
    "service_request": "2025-1171052",
    "request_type": "Trash/Recycling",
    "request_reason": "Request a Large Item Pick Up",
    "date_created": "2025-02-24T13:53:31.000",
    "date_modified": "2025-02-24T13:53:34.000",
    "request_status": "Pending",
    "responsible_agency": "Department of Sanitation",
    "final_address": "7611 Maple St",
    "address_councildis": "A",
    "status": "Assigned to Contractor",
    "contractor": "IV Waste",
    "rowid": "1171052",
    "final_x": "3662299.23309",
    "final_y": "526226.905278",
    "longitude": "-90.12887542396415",
    "latitude": "29.941510384644783",
    "geocoded_column": {
      "latitude": "29.941510384644783",
      "longitude": "-90.12887542396415"
    }
  },