[
  {
    "service_request": "2026-1268701",
    "request_type": "Street and Traffic Signs",
    "request_reason": "Additional Signage Request",
    "date_created": "2026-03-25T23:31:47.000",
    "date_modified": "2026-03-25T23:31:51.000",
    "request_status": "Pending",
    "responsible_agency": "Department of Public Works",
    "final_address": "1754 Allen Toussaint Blvd",
    "address_councildis": "D",
    "status": "Pending",
    "rowid": "1268701",
    "final_x": "3680031.94536",
    "final_y": "555369.399065",
    "longitude": "-90.07187684381904",
    "latitude": "30.021117650092037",
    "geocoded_column": {
      "latitude": "30.021117650092037",
      "longitude": "-90.07187684381904"
    }
  },
  {
    "service_request": "2026-1268700",
    "request_type": "Mosquito, Termite & Rodent Control",
    "request_reason": "Mosquito Complaint",
    "date_created": "2026-03-25T23:14:15.000",
    "date_modified": "2026-03-25T23:14:19.000",
    "request_status": "Pending",
    "responsible_agency": "Mosquito, Termite & Rodent Control Board",
    "final_address": "130 Horseshoe Bend",
    "address_councildis": "E",
    "status": "Pending",
    "rowid": "1268700",
    "final_x": "3720124.63052",
    "final_y": "561626.157791",
    "longitude": "-89.9449573675473",
    "latitude": "30.037046641322327",
    "geocoded_column": {
      "latitude": "30.037046641322327",
      "longitude": "-89.9449573675473"
    }
  },
  {
    "service_request": "2026-1268699",
    "request_type": "Health Related Request",
    "request_reason": "Noise Ordinance Complaint",
    "date_created": "2026-03-25T22:19:37.000",
    "date_modified": "2026-03-25T22:19:41.000",
    "request_status": "Pending",
    "responsible_agency": "Health Department",
    "final_address": "801 Bourbon St, New Orleans, Louisiana, 70116",
    "address_councildis": "C",
    "status": "Pending",
    "rowid": "1268699",
    "final_x": "3682490.98735",
    "final_y": "533018.672772",
    "longitude": "-90.06488875731978",
    "latitude": "29.959586396383013",
    "geocoded_column": {
      "latitude": "29.959586396383013",
      "longitude": "-90.06488875731978"
    }
  },
  {
    "service_request": "2026-1268698",
    "request_type": "Trash/Recycling",
    "request_reason": "Request a Large Item Pick Up",
    "date_created": "2026-03-25T21:46:16.000",
    "date_modified": "2026-03-25T21:46:19.000",
    "request_status": "Pending",
    "responsible_agency": "Department of Sanitation",
    "final_address": "7301 Ebbtide Dr",
    "address_councildis": "E",
    "status": "Assigned to Contractor",
    "contractor": "Waste Pro",
    "rowid": "1268698",
    "final_x": "3702663.11153",
    "final_y": "560476.154782",
    "longitude": "-90.00018153280496",
    "latitude": "30.034454773097114",
    "geocoded_column": {
      "latitude": "30.034454773097114",
      "longitude": "-90.00018153280496"
    }
  },
  {
    "service_request": "2026-1268697",
    "request_type": "Streetlights",
    "request_reason": "Streetlight Outage/Malfunction",
    "date_created": "2026-03-25T21:21:52.000",
    "date_modified": "2026-03-25T21:21:55.000",
    "request_status": "Pending",
    "responsible_agency": "Department of Public Works",
    "final_address": "6830 Marshal Foch St",
    "address_councildis": "A",
    "status": "Pending",
    "rowid": "1268697",
    "final_x": "3670245.61038",
    "final_y": "552819.122838",
    "longitude": "-90.1028855142422",
    "latitude": "30.014397905734747",
    "geocoded_column": {
      "latitude": "30.014397905734747",
      "longitude": "-90.1028855142422"
    }
  },
  {
    "service_request": "2026-1268696",
    "request_type": "Streetlights",
    "request_reason": "Streetlight Outage/Malfunction",
    "date_created": "2026-03-25T21:20:28.000",
    "date_modified": "2026-03-25T21:20:30.000",
    "request_status": "Pending",
    "responsible_agency": "Department of Public Works",
    "final_address": "6830 Marshal Foch St",
    "address_councildis": "A",
    "status": "Pending",
    "rowid": "1268696",
    "final_x": "3670245.61038",
    "final_y": "552819.122838",
    "longitude": "-90.1028855142422",
    "latitude": "30.014397905734747",
    "geocoded_column": {
      "latitude": "30.014397905734747",
      "longitude": "-90.1028855142422"
    }
  },
  {
    "service_request": "2026-1268695",
    "request_type": "Trash/Recycling",
    "request_reason": "Repair Trash Cart",
    "date_created": "2026-03-25T21:19:35.000",
    "date_modified": "2026-03-25T21:19:36.000",
    "request_status": "Pending",
    "responsible_agency": "Department of Sanitation",
    "final_address": "2814 Serantine St",
    "address_councildis": "D",
    "status": "Assigned to Contractor",
    "contractor": "IV Waste",
    "rowid": "1268695",
    "final_x": "3679714.14043",
    "final_y": "542430.780301",
    "longitude": "-90.07333057327584",
    "latitude": "29.9855506830658",
    "geocoded_column": {
      "latitude": "29.9855506830658",
      "longitude": "-90.07333057327584"
    }
  },
  {
    "service_request": "2026-1268694",
    "request_type": "Roads and Streets",
    "request_reason": "Sidewalk Damaged or Missing",
    "date_created": "2026-03-25T21:16:33.000",
    "date_modified": "2026-03-25T21:16:35.000",
    "request_status": "Pending",
    "responsible_agency": "Department of Public Works",
    "final_address": "527 S Dorgenois St",
    "address_councildis": "B",
    "status": "Pending",
    "rowid": "1268694",
    "final_x": "3674625.19355",
    "final_y": "533318.74554",
    "longitude": "-90.08971687004046",
    "latitude": "29.960648576518448",
    "geocoded_column": {
      "latitude": "29.960648576518448",
      "longitude": "-90.08971687004046"
    }
  },
  {
    "service_request": "2026-1268693",
    "request_type": "Graffiti Removal",
    "request_reason": "Graffiti Removal",
    "date_created": "2026-03-25T20:56:56.000",
    "date_modified": "2026-03-25T20:56:58.000",
    "request_status": "Pending",
    "responsible_agency": "Department of Code Enforcement",
    "final_address": "2614 Tulane Ave",
    "address_councildis": "B",
    "status": "Pending",
    "rowid": "1268693",
    "final_x": "3674655.27547",
    "final_y": "533451.06074",
    "longitude": "-90.08961734198078",
    "latitude": "29.961011501164947",
    "geocoded_column": {
      "latitude": "29.961011501164947",
      "longitude": "-90.08961734198078"
    }
  },
  {
    "service_request": "2026-1268692",
    "request_type": "Trash/Recycling",
    "request_reason": "Replace Trash Cart",
    "date_created": "2026-03-25T20:47:11.000",
    "date_modified": "2026-03-25T20:47:19.000",
    "request_status": "Pending",
    "responsible_agency": "Department of Sanitation",
    "final_address": "2843 Laurel St",
    "address_councildis": "B",
    "status": "Assigned to Contractor",
    "contractor": "IV Waste",
    "rowid": "1268692",
    "final_x": "3677131.42338",
    "final_y": "520052.635704",
    "longitude": "-90.08226007544351",
    "latitude": "29.924096127967033",
    "geocoded_column": {
      "latitude": "29.924096127967033",
      "longitude": "-90.08226007544351"
    }
  },
  {
    "service_request": "2026-1268691",
    "request_type": "Property Maintenance",
    "request_reason": "Property Maintenance",
    "date_created": "2026-03-25T20:23:04.000",
    "date_modified": "2026-03-25T20:23:06.000",
    "request_status": "Pending",
    "responsible_agency": "Department of Code Enforcement",
    "final_address": "2219 Delachaise St",
    "address_councildis": "B",
    "status": "Pending",
    "rowid": "1268691",
    "final_x": "3672941.33774",
    "final_y": "523515.801595",
    "longitude": "-90.09536861100518",
    "latitude": "29.933743848453343",
    "geocoded_column": {
      "latitude": "29.933743848453343",
      "longitude": "-90.09536861100518"
    }
  },
  {
    "service_request": "2026-1268690",
    "request_type": "Utility Poles",
    "request_reason": "Utility Pole Leaning",
    "date_created": "2026-03-25T20:17:05.000",
    "date_modified": "2026-03-25T20:17:07.000",
    "request_status": "Pending",
    "responsible_agency": "Utility Company Collective",
    "final_address": "1137 Belleville St",
    "address_councildis": "C",
    "status": "Pending",
    "rowid": "1268690",
    "final_x": "3687693.88131",
    "final_y": "527246.840063",
    "longitude": "-90.04866360418087",
    "latitude": "29.943556439898725",
    "geocoded_column": {
      "latitude": "29.943556439898725",
      "longitude": "-90.04866360418087"
    }
  },
  {
    "service_request": "2026-1268689",
    "request_type": "Mosquito, Termite & Rodent Control",
    "request_reason": "Mosquito Complaint",
    "date_created": "2026-03-25T20:12:30.000",
    "date_modified": "2026-03-25T20:12:33.000",
    "request_status": "Pending",
    "responsible_agency": "Mosquito, Termite & Rodent Control Board",
    "final_address": "7680 Vincent Rd",
    "address_councildis": "E",
    "status": "Pending",
    "rowid": "1268689",
    "final_x": "3718262.38277",
    "final_y": "571717.571304",
    "longitude": "-89.95045752989452",
    "latitude": "30.0648557845783",
    "geocoded_column": {
      "latitude": "30.0648557845783",
      "longitude": "-89.95045752989452"
    }
  },
  {
    "service_request": "2026-1268688",
    "request_type": "Streetlights",
    "request_reason": "Streetlight Outage/Malfunction",
    "date_created": "2026-03-25T20:10:53.000",
    "date_modified": "2026-03-25T20:10:54.000",
    "request_status": "Pending",
    "responsible_agency": "Department of Public Works",
    "final_address": "2107 Valmont St",
    "address_councildis": "B",
    "status": "Pending",
    "rowid": "1268688",
    "final_x": "3668142.65031",
    "final_y": "523302.938811",
    "longitude": "-90.11052505733328",
    "latitude": "29.933300228353247",
    "geocoded_column": {
      "latitude": "29.933300228353247",
      "longitude": "-90.11052505733328"
    }
  },
  {
    "service_request": "2026-1268686",
    "request_type": "Streetlights",
    "request_reason": "Streetlight Outage/Malfunction",
    "date_created": "2026-03-25T19:44:02.000",
    "date_modified": "2026-03-25T19:44:03.000",
    "request_status": "Pending",
    "responsible_agency": "Department of Public Works",
    "final_address": "4535 Dale St",
    "address_councildis": "E",
    "status": "Pending",
    "rowid": "1268686",
    "final_x": "3699621.86519",
    "final_y": "553948.35036",
    "longitude": "-90.01003047318868",
    "latitude": "30.01660275667681",
    "geocoded_column": {
      "latitude": "30.01660275667681",
      "longitude": "-90.01003047318868"
    }
  },
  {
    "service_request": "2026-1268687",
    "request_type": "Streetlights",
    "request_reason": "Streetlight Outage/Malfunction",
    "date_created": "2026-03-25T19:44:02.000",
    "date_modified": "2026-03-25T19:44:04.000",
    "request_status": "Pending",
    "responsible_agency": "Department of Public Works",
    "final_address": "4535 Dale St",
    "address_councildis": "E",
    "status": "Pending",
    "rowid": "1268687",
    "final_x": "3699621.86519",
    "final_y": "553948.35036",
    "longitude": "-90.01003047318868",
    "latitude": "30.01660275667681",
    "geocoded_column": {
      "latitude": "30.01660275667681",
      "longitude": "-90.01003047318868"
    }
  },
  {
    "service_request": "2026-1268685",
    "request_type": "General Services",
    "request_reason": "General Service Request",
    "date_created": "2026-03-25T19:42:20.000",
    "date_modified": "2026-03-25T19:42:22.000",
    "request_status": "Pending",
    "responsible_agency": "Orleans Parish Communication District",
    "final_address": "2430 Choctaw Ct",
    "address_councildis": "E",
    "status": "Pending",
    "rowid": "1268685",
    "final_x": "3698779.71543",
    "final_y": "539047.462346",
    "longitude": "-90.01323369563106",
    "latitude": "29.97565754632611",
    "geocoded_column": {
      "latitude": "29.97565754632611",
      "longitude": "-90.01323369563106"
    }
  },
  {
    "service_request": "2026-1268684",
    "request_type": "Trash/Recycling",
    "request_reason": "Dead Animal Pick Up",
    "date_created": "2026-03-25T19:30:52.000",
    "date_modified": "2026-03-25T19:30:55.000",
    "request_status": "Pending",
    "responsible_agency": "Department of Sanitation",
    "final_address": "1546 N Miro St",
    "address_councildis": "D",
    "status": "Assigned to Contractor",
    "contractor": "IV Waste",
    "rowid": "1268684",
    "final_x": "3680336.75976",
    "final_y": "538820.377417",
    "longitude": "-90.0714895569043",
    "latitude": "29.97560449127031",
    "geocoded_column": {
      "latitude": "29.97560449127031",
      "longitude": "-90.0714895569043"
    }
  },
  {
    "service_request": "2026-1268683",
    "request_type": "Trash/Recycling",
    "request_reason": "Request a Large Item Pick Up",
    "date_created": "2026-03-25T19:21:34.000",
    "date_modified": "2026-03-25T19:21:37.000",
    "request_status": "Pending",
    "responsible_agency": "Department of Sanitation",
    "final_address": "4546 Stemway Dr",
    "address_councildis": "D",
    "status": "Assigned to Contractor",
    "contractor": "Waste Pro",
    "rowid": "1268683",
    "final_x": "3696934.52061",
    "final_y": "553237.446295",
    "longitude": "-90.0185470655372",
    "latitude": "30.014733100799962",
    "geocoded_column": {
      "latitude": "30.014733100799962",
      "longitude": "-90.0185470655372"
    }
  },
  {
    "service_request": "2026-1268682",
    "request_type": "Trash/Recycling",
    "request_reason": "Order Trash Cart",
    "date_created": "2026-03-25T19:15:07.000",
    "date_modified": "2026-03-25T19:15:09.000",
    "request_status": "Pending",
    "responsible_agency": "Department of Sanitation",
    "final_address": "5819 Bancroft Dr",
    "address_councildis": "D",
    "status": "Assigned to Contractor",
    "contractor": "IV Waste",
    "rowid": "1268682",
    "final_x": "3676577.59969",
    "final_y": "553847.569367",
    "longitude": "-90.08284408661564",
    "latitude": "30.0170372812162",
    "geocoded_column": {
      "latitude": "30.0170372812162",
      "longitude": "-90.08284408661564"
    }
  },
  {
    "service_request": "2026-1268681",
    "request_type": "Trash/Recycling",
    "request_reason": "Order Recycling Cart",
    "date_created": "2026-03-25T19:07:56.000",
    "date_modified": "2026-03-25T19:07:57.000",
    "request_status": "Pending",
    "responsible_agency": "Department of Sanitation",
    "final_address": "8430 Lomond Rd",
    "address_councildis": "E",
    "status": "Pending",
    "rowid": "1268681",
    "final_x": "3703741.26474",
    "final_y": "562003.928095",
    "longitude": "-89.9967181256889",
    "latitude": "30.03862101539701",
    "geocoded_column": {
      "latitude": "30.03862101539701",
      "longitude": "-89.9967181256889"
    }
  },
  {
    "service_request": "2026-1268680",
    "request_type": "Trash/Recycling",
    "request_reason": "Order Recycling Cart",
    "date_created": "2026-03-25T19:07:32.000",
    "date_modified": "2026-03-25T19:07:34.000",
    "request_status": "Pending",
    "responsible_agency": "Department of Sanitation",
    "final_address": "54 Fontainebleau Dr",
    "address_councildis": "A",
    "status": "Pending",
    "rowid": "1268680",
    "final_x": "3666292.69831",
    "final_y": "531108.259522",
    "longitude": "-90.1161035014854",
    "latitude": "29.95481649954296",
    "geocoded_column": {
      "latitude": "29.95481649954296",
      "longitude": "-90.1161035014854"
    }
  },
  {
    "service_request": "2026-1268679",
    "request_type": "Trash/Recycling",
    "request_reason": "Order Recycling Cart",
    "date_created": "2026-03-25T19:05:53.000",
    "date_modified": "2026-03-25T19:05:56.000",
    "request_status": "Pending",
    "responsible_agency": "Department of Sanitation",
    "final_address": "8421 Lomond Rd",
    "address_councildis": "E",
    "status": "Pending",
    "rowid": "1268679",
    "final_x": "3703614.27556",
    "final_y": "562107.635231",
    "longitude": "-89.99711562106411",
    "latitude": "30.03891024172641",
    "geocoded_column": {
      "latitude": "30.03891024172641",
      "longitude": "-89.99711562106411"
    }
  },
  {
    "service_request": "2026-1268678",
    "request_type": "Trash/Recycling",
    "request_reason": "Missed Trash Pick-Up",
    "date_created": "2026-03-25T18:53:44.000",
    "date_modified": "2026-03-25T18:53:45.000",
    "request_status": "Pending",
    "responsible_agency": "Department of Sanitation",
    "final_address": "7718 Belfast St",
    "address_councildis": "A",
    "status": "Assigned to Contractor",
    "contractor": "IV Waste",
    "rowid": "1268678",
    "final_x": "3666594.42785",
    "final_y": "531394.049347",
    "longitude": "-90.11514115718226",
    "latitude": "29.955593511279886",
    "geocoded_column": {
      "latitude": "29.955593511279886",
      "longitude": "-90.11514115718226"
    }
  },
  {
    "service_request": "2026-1268677",
    "request_type": "Trash/Recycling",
    "request_reason": "Order Recycling Cart",
    "date_created": "2026-03-25T18:40:54.000",
    "date_modified": "2026-03-25T18:40:55.000",
    "request_status": "Pending",
    "responsible_agency": "Department of Sanitation",
    "final_address": "1024 N Robertson St Bldg 1A",
    "address_councildis": "C",
    "status": "Pending",
    "rowid": "1268677",
    "final_x": "3680906.15087",
    "final_y": "535386.411206",
    "longitude": "-90.06981085612527",
    "latitude": "29.96614501386282",
    "geocoded_column": {
      "latitude": "29.96614501386282",
      "longitude": "-90.06981085612527"
    }
  },
  {
    "service_request": "2026-1268676",
    "request_type": "Trash/Recycling",
    "request_reason": "Replace Trash Cart",
    "date_created": "2026-03-25T18:39:41.000",
    "date_modified": "2026-03-25T18:39:43.000",
    "request_status": "Pending",
    "responsible_agency": "Department of Sanitation",
    "final_address": "1024 N Robertson St Bldg 1A",
    "address_councildis": "C",
    "status": "Assigned to Contractor",
    "contractor": "IV Waste",
    "rowid": "1268676",
    "final_x": "3680906.15087",
    "final_y": "535386.411206",
    "longitude": "-90.06981085612527",
    "latitude": "29.96614501386282",
    "geocoded_column": {
      "latitude": "29.96614501386282",
      "longitude": "-90.06981085612527"
    }
  },
  {
    "service_request": "2026-1268675",
    "request_type": "Trash/Recycling",
    "request_reason": "Replace Trash Cart",
    "date_created": "2026-03-25T18:31:08.000",
    "date_modified": "2026-03-25T18:31:10.000",
    "request_status": "Pending",
    "responsible_agency": "Department of Sanitation",
    "final_address": "51 Oriole St",
    "address_councildis": "D",
    "status": "Assigned to Contractor",
    "contractor": "IV Waste",
    "rowid": "1268675",
    "final_x": "3675397.69448",
    "final_y": "556647.867226",
    "longitude": "-90.08647582750815",
    "latitude": "30.02477244310259",
    "geocoded_column": {
      "latitude": "30.02477244310259",
      "longitude": "-90.08647582750815"
    }
  },
  {
    "service_request": "2026-1268674",
    "request_type": "Property Maintenance",
    "request_reason": "Property Maintenance",
    "date_created": "2026-03-25T18:30:41.000",
    "date_modified": "2026-03-25T18:30:44.000",
    "request_status": "Pending",
    "responsible_agency": "Department of Code Enforcement",
    "final_address": "2744 Allen Toussaint Blvd",
    "address_councildis": "D",
    "status": "Pending",
    "rowid": "1268674",
    "final_x": "3687480.71119",
    "final_y": "555976.088729",
    "longitude": "-90.04831940860063",
    "latitude": "30.022558238193067",
    "geocoded_column": {
      "latitude": "30.022558238193067",
      "longitude": "-90.04831940860063"
    }
  },
  {
    "service_request": "2026-1268673",
    "request_type": "Trash/Recycling",
    "request_reason": "Repair Trash Cart",
    "date_created": "2026-03-25T18:19:34.000",
    "date_modified": "2026-03-25T18:19:36.000",
    "request_status": "Pending",
    "responsible_agency": "Department of Sanitation",
    "final_address": "1505 S White St",
    "address_councildis": "B",
    "status": "Assigned to Contractor",
    "contractor": "IV Waste",
    "rowid": "1268673",
    "final_x": "3671299.09332",
    "final_y": "530401.159938",
    "longitude": "-90.10031920506384",
    "latitude": "29.952725023689936",
    "geocoded_column": {
      "latitude": "29.952725023689936",
      "longitude": "-90.10031920506384"
    }
  },
  {
    "service_request": "2026-1268672",
    "request_type": "Trash/Recycling",
    "request_reason": "Replace Trash Cart",
    "date_created": "2026-03-25T18:18:18.000",
    "date_modified": "2026-03-25T18:18:19.000",
    "request_status": "Pending",
    "responsible_agency": "Department of Sanitation",
    "final_address": "1505 S White St",
    "address_councildis": "B",
    "status": "Assigned to Contractor",
    "contractor": "IV Waste",
    "rowid": "1268672",
    "final_x": "3671299.09332",
    "final_y": "530401.159938",
    "longitude": "-90.10031920506384",
    "latitude": "29.952725023689936",
    "geocoded_column": {
      "latitude": "29.952725023689936",
      "longitude": "-90.10031920506384"
    }
  },
  {
    "service_request": "2026-1268671",
    "request_type": "Trash/Recycling",
    "request_reason": "Repair Recycling Cart",
    "date_created": "2026-03-25T18:14:23.000",
    "date_modified": "2026-03-25T18:14:25.000",
    "request_status": "Pending",
    "responsible_agency": "Department of Sanitation",
    "final_address": "44 Neron Pl",
    "address_councildis": "A",
    "status": "Pending",
    "rowid": "1268671",
    "final_x": "3665403.34516",
    "final_y": "530408.729666",
    "longitude": "-90.11893516100587",
    "latitude": "29.952918967827237",
    "geocoded_column": {
      "latitude": "29.952918967827237",
      "longitude": "-90.11893516100587"
    }
  },
  {
    "service_request": "2026-1268670",
    "request_type": "Streetlights",
    "request_reason": "Streetlight Outage/Malfunction",
    "date_created": "2026-03-25T17:23:15.000",
    "date_modified": "2026-03-25T17:23:16.000",
    "request_status": "Pending",
    "responsible_agency": "Department of Public Works",
    "final_address": "1011 Louisa St",
    "address_councildis": "C",
    "status": "Pending",
    "rowid": "1268670",
    "final_x": "3689508.86313",
    "final_y": "535526.500934",
    "longitude": "-90.04263879187491",
    "latitude": "29.96626656829417",
    "geocoded_column": {
      "latitude": "29.96626656829417",
      "longitude": "-90.04263879187491"
    }
  },
  {
    "service_request": "2026-1268669",
    "request_type": "Trash/Recycling",
    "request_reason": "Request a Large Item Pick Up",
    "date_created": "2026-03-25T17:14:15.000",
    "date_modified": "2026-03-25T17:14:18.000",
    "request_status": "Pending",
    "responsible_agency": "Department of Sanitation",
    "final_address": "3145 Marais St",
    "address_councildis": "C",
    "status": "Assigned to Contractor",
    "contractor": "IV Waste",
    "rowid": "1268669",
    "final_x": "3689448.55721",
    "final_y": "536296.716999",
    "longitude": "-90.04280184154193",
    "latitude": "29.968386260287485",
    "geocoded_column": {
      "latitude": "29.968386260287485",
      "longitude": "-90.04280184154193"
    }
  },
  {
    "service_request": "2026-1268668",
    "request_type": "Parks & Parkways",
    "request_reason": "Request Tree Service (Right of Way/Public Property)",
    "date_created": "2026-03-25T17:02:14.000",
    "date_modified": "2026-03-25T17:02:16.000",
    "request_status": "Pending",
    "responsible_agency": "Department of Parks & Parkway",
    "final_address": "5646 Read Blvd",
    "address_councildis": "E",
    "status": "Pending",
    "rowid": "1268668",
    "final_x": "3711105.06686",
    "final_y": "558905.130588",
    "longitude": "-89.97356295327126",
    "latitude": "30.029862310494593",
    "geocoded_column": {
      "latitude": "30.029862310494593",
      "longitude": "-89.97356295327126"
    }
  },
  {
    "service_request": "2026-1268667",
    "request_type": "Trash/Recycling",
    "request_reason": "Request a Large Item Pick Up",
    "date_created": "2026-03-25T16:59:51.000",
    "date_modified": "2026-03-25T16:59:53.000",
    "request_status": "Pending",
    "responsible_agency": "Department of Sanitation",
    "final_address": "1530 N Prieur St",
    "address_councildis": "D",
    "status": "Assigned to Contractor",
    "contractor": "IV Waste",
    "rowid": "1268667",
    "final_x": "3681070.68059",
    "final_y": "538010.310985",
    "longitude": "-90.06919985880734",
    "latitude": "29.973354845259095",
    "geocoded_column": {
      "latitude": "29.973354845259095",
      "longitude": "-90.06919985880734"
    }
  },
  {
    "service_request": "2026-1268666",
    "request_type": "Property Maintenance",
    "request_reason": "Property Maintenance",
    "date_created": "2026-03-25T16:58:41.000",
    "date_modified": "2026-03-25T16:58:42.000",
    "request_status": "Pending",
    "responsible_agency": "Department of Code Enforcement",
    "final_address": "5646 Read Blvd",
    "address_councildis": "E",
    "status": "Pending",
    "rowid": "1268666",
    "final_x": "3711105.06686",
    "final_y": "558905.130588",
    "longitude": "-89.97356295327126",
    "latitude": "30.029862310494593",
    "geocoded_column": {
      "latitude": "30.029862310494593",
      "longitude": "-89.97356295327126"
    }
  },
  {
    "service_request": "2026-1268665",
    "request_type": "Trash/Recycling",
    "request_reason": "Order Recycling Cart",
    "date_created": "2026-03-25T16:54:24.000",
    "date_modified": "2026-03-25T16:54:26.000",
    "request_status": "Pending",
    "responsible_agency": "Department of Sanitation",
    "final_address": "7530 Sardonyx St",
    "address_councildis": "D",
    "status": "Pending",
    "rowid": "1268665",
    "final_x": "3669590.35086",
    "final_y": "556557.78537",
    "longitude": "-90.10482917069507",
    "latitude": "30.024697229863204",
    "geocoded_column": {
      "latitude": "30.024697229863204",
      "longitude": "-90.10482917069507"
    }
  },
  {
    "service_request": "2026-1268664",
    "request_type": "Trash/Recycling",
    "request_reason": "Return Recycling Cart",
    "date_created": "2026-03-25T16:53:46.000",
    "date_modified": "2026-03-25T16:53:47.000",
    "request_status": "Pending",
    "responsible_agency": "Department of Sanitation",
    "final_address": "714 Crystal St",
    "address_councildis": "D",
    "status": "Pending",
    "rowid": "1268664",
    "final_x": "3669790.65966",
    "final_y": "556092.098586",
    "longitude": "-90.10421201137127",
    "latitude": "30.023410851137157",
    "geocoded_column": {
      "latitude": "30.023410851137157",
      "longitude": "-90.10421201137127"
    }
  },
  {
    "service_request": "2026-1268663",
    "request_type": "Trash/Recycling",
    "request_reason": "Request a Large Item Pick Up",
    "date_created": "2026-03-25T16:52:02.000",
    "date_modified": "2026-03-25T16:52:03.000",
    "request_status": "Pending",
    "responsible_agency": "Department of Sanitation",
    "final_address": "4406 St Peter St",
    "address_councildis": "A",
    "status": "Assigned to Contractor",
    "contractor": "IV Waste",
    "rowid": "1268663",
    "final_x": "3671221.94043",
    "final_y": "540886.420747",
    "longitude": "-90.1002065216556",
    "latitude": "29.98155825951125",
    "geocoded_column": {
      "latitude": "29.98155825951125",
      "longitude": "-90.1002065216556"
    }
  },
  {
    "service_request": "2026-1268662",
    "request_type": "Property Maintenance",
    "request_reason": "Property Maintenance",
    "date_created": "2026-03-25T16:51:56.000",
    "date_modified": "2026-03-25T16:51:57.000",
    "request_status": "Pending",
    "responsible_agency": "Department of Code Enforcement",
    "final_address": "5646 Read Blvd",
    "address_councildis": "E",
    "status": "Pending",
    "rowid": "1268662",
    "final_x": "3711105.06686",
    "final_y": "558905.130588",
    "longitude": "-89.97356295327126",
    "latitude": "30.029862310494593",
    "geocoded_column": {
      "latitude": "30.029862310494593",
      "longitude": "-89.97356295327126"
    }
  },
  {
    "service_request": "2026-1268661",
    "request_type": "Utility Poles",
    "request_reason": "Utility Pole Leaning",
    "date_created": "2026-03-25T16:51:05.000",
    "date_modified": "2026-03-25T16:51:08.000",
    "request_status": "Pending",
    "responsible_agency": "Utility Company Collective",
    "final_address": "1614 Adams St",
    "address_councildis": "A",
    "status": "Pending",
    "rowid": "1268661",
    "final_x": "3664061.13044",
    "final_y": "528545.57888",
    "longitude": "-90.12323543069921",
    "latitude": "29.947834951084108",
    "geocoded_column": {
      "latitude": "29.947834951084108",
      "longitude": "-90.12323543069921"
    }
  },
  {
    "service_request": "2026-1268660",
    "request_type": "Roads and Streets",
    "request_reason": "Pothole",
    "date_created": "2026-03-25T16:49:32.000",
    "date_modified": "2026-03-25T16:49:34.000",
    "request_status": "Pending",
    "responsible_agency": "Department of Public Works",
    "final_address": "4810 N Tonti St",
    "address_councildis": "E",
    "status": "Pending",
    "rowid": "1268660",
    "final_x": "3696464.72765",
    "final_y": "538901.996938",
    "longitude": "-90.02055029507399",
    "latitude": "29.975330700246044",
    "geocoded_column": {
      "latitude": "29.975330700246044",
      "longitude": "-90.02055029507399"
    }
  },
  {
    "service_request": "2026-1268659",
    "request_type": "Utility Poles",
    "request_reason": "Utility Pole Leaning",
    "date_created": "2026-03-25T16:49:20.000",
    "date_modified": "2026-03-25T16:49:22.000",
    "request_status": "Pending",
    "responsible_agency": "Utility Company Collective",
    "final_address": "1516 Adams St",
    "address_councildis": "A",
    "status": "Pending",
    "rowid": "1268659",
    "final_x": "3663840.05312",
    "final_y": "528302.602816",
    "longitude": "-90.12394156009121",
    "latitude": "29.947173262991047",
    "geocoded_column": {
      "latitude": "29.947173262991047",
      "longitude": "-90.12394156009121"
    }
  },
  {
    "service_request": "2026-1268658",
    "request_type": "Trash/Recycling",
    "request_reason": "Order Trash Cart",
    "date_created": "2026-03-25T16:48:13.000",
    "date_modified": "2026-03-25T16:48:14.000",
    "request_status": "Pending",
    "responsible_agency": "Department of Sanitation",
    "final_address": "2714 Coliseum St",
    "address_councildis": "B",
    "status": "Assigned to Contractor",
    "contractor": "IV Waste",
    "rowid": "1268658",
    "final_x": "3676653.73237",
    "final_y": "521751.276922",
    "longitude": "-90.08370950164189",
    "latitude": "29.92878117309633",
    "geocoded_column": {
      "latitude": "29.92878117309633",
      "longitude": "-90.08370950164189"
    }
  },
  {
    "service_request": "2026-1268657",
    "request_type": "Utility Poles",
    "request_reason": "Utility Pole Leaning",
    "date_created": "2026-03-25T16:47:41.000",
    "date_modified": "2026-03-25T16:47:44.000",
    "request_status": "Pending",
    "responsible_agency": "Utility Company Collective",
    "final_address": "1534 Adams St",
    "address_councildis": "A",
    "status": "Pending",
    "rowid": "1268657",
    "final_x": "3663917.26586",
    "final_y": "528391.012672",
    "longitude": "-90.12369482242971",
    "latitude": "29.947414120590413",
    "geocoded_column": {
      "latitude": "29.947414120590413",
      "longitude": "-90.12369482242971"
    }
  },
  {
    "service_request": "2026-1268656",
    "request_type": "Utility Poles",
    "request_reason": "Utility Pole Leaning",
    "date_created": "2026-03-25T16:43:56.000",
    "date_modified": "2026-03-25T16:44:00.000",
    "request_status": "Pending",
    "responsible_agency": "Utility Company Collective",
    "final_address": "BIRCH ST & ADAMS ST",
    "address_councildis": "A",
    "status": "Pending",
    "rowid": "1268656",
    "final_x": "3663999.7",
    "final_y": "528415.78",
    "longitude": "-90.12343371928381",
    "latitude": "29.94747982964708",
    "geocoded_column": {
      "latitude": "29.94747982964708",
      "longitude": "-90.12343371928381"
    }
  },
  {
    "service_request": "2026-1268655",
    "request_type": "Trash/Recycling",
    "request_reason": "Request a Large Item Pick Up",
    "date_created": "2026-03-25T16:42:03.000",
    "date_modified": "2026-03-25T16:42:05.000",
    "request_status": "Pending",
    "responsible_agency": "Department of Sanitation",
    "final_address": "8001 W Laverne St",
    "address_councildis": "E",
    "status": "Assigned to Contractor",
    "contractor": "Waste Pro",
    "rowid": "1268655",
    "final_x": "3694884.02678",
    "final_y": "559713.963293",
    "longitude": "-90.02479191911397",
    "latitude": "30.032605605255203",
    "geocoded_column": {
      "latitude": "30.032605605255203",
      "longitude": "-90.02479191911397"
    }
  },
  {
    "service_request": "2026-1268653",
    "request_type": "Trash/Recycling",
    "request_reason": "Repair Trash Cart",
    "date_created": "2026-03-25T16:39:34.000",
    "date_modified": "2026-03-25T16:39:36.000",
    "request_status": "Pending",
    "responsible_agency": "Department of Sanitation",
    "final_address": "2591 Valentine Ct",
    "address_councildis": "C",
    "status": "Assigned to Contractor",
    "contractor": "Richards Disposal",
    "rowid": "1268653",
    "final_x": "3699051.40208",
    "final_y": "521566.577465",
    "longitude": "-90.01301180194244",
    "latitude": "29.927582668888665",
    "geocoded_column": {
      "latitude": "29.927582668888665",
      "longitude": "-90.01301180194244"
    }
  },
  {
    "service_request": "2026-1268652",
    "request_type": "Drainage",
    "request_reason": "Catch Basin Not Draining",
    "date_created": "2026-03-25T16:37:36.000",
    "date_modified": "2026-03-25T16:37:37.000",
    "request_status": "Pending",
    "responsible_agency": "Sewerage & Water Board",
    "final_address": "5400 Chatham Dr",
    "address_councildis": "D",
    "status": "Pending",
    "rowid": "1268652",
    "final_x": "3679686.34235",
    "final_y": "552326.930966",
    "longitude": "-90.07307458442857",
    "latitude": "30.01276242348079",
    "geocoded_column": {
      "latitude": "30.01276242348079",
      "longitude": "-90.07307458442857"
    }
  },
  {
    "service_request": "2026-1268651",
    "request_type": "Trash/Recycling",
    "request_reason": "Request a Large Item Pick Up",
    "date_created": "2026-03-25T16:34:59.000",
    "date_modified": "2026-03-25T16:35:01.000",
    "request_status": "Pending",
    "responsible_agency": "Department of Sanitation",
    "final_address": "7801 Shelly St",
    "address_councildis": "E",
    "status": "Assigned to Contractor",
    "contractor": "Waste Pro",
    "rowid": "1268651",
    "final_x": "3695912.78013",
    "final_y": "559416.285149",
    "longitude": "-90.0215517604976",
    "latitude": "30.03175476091037",
    "geocoded_column": {
      "latitude": "30.03175476091037",
      "longitude": "-90.0215517604976"
    }
  },
  {
    "service_request": "2026-1268650",
    "request_type": "Trash/Recycling",
    "request_reason": "Request a Large Item Pick Up",
    "date_created": "2026-03-25T16:34:47.000",
    "date_modified": "2026-03-25T16:34:49.000",
    "request_status": "Pending",
    "responsible_agency": "Department of Sanitation",
    "final_address": "2426 Magnolia St",
    "address_councildis": "B",
    "status": "Assigned to Contractor",
    "contractor": "IV Waste",
    "rowid": "1268650",
    "final_x": "3674612.84859",
    "final_y": "526346.639678",
    "longitude": "-90.08999475211523",
    "latitude": "29.941477966386092",
    "geocoded_column": {
      "latitude": "29.941477966386092",
      "longitude": "-90.08999475211523"
    }
  },
  {
    "service_request": "2026-1268649",
    "request_type": "Trash/Recycling",
    "request_reason": "Repair Trash Cart",
    "date_created": "2026-03-25T16:33:01.000",
    "date_modified": "2026-03-25T16:33:03.000",
    "request_status": "Pending",
    "responsible_agency": "Department of Sanitation",
    "final_address": "2512 Pine St",
    "address_councildis": "A",
    "status": "Assigned to Contractor",
    "contractor": "IV Waste",
    "rowid": "1268649",
    "final_x": "3666591.8377",
    "final_y": "530699.751042",
    "longitude": "-90.11517264318184",
    "latitude": "29.953684493354455",
    "geocoded_column": {
      "latitude": "29.953684493354455",
      "longitude": "-90.11517264318184"
    }
  },
  {
    "service_request": "2026-1268648",
    "request_type": "Trash/Recycling",
    "request_reason": "Replace Trash Cart",
    "date_created": "2026-03-25T16:31:27.000",
    "date_modified": "2026-03-25T16:31:29.000",
    "request_status": "Pending",
    "responsible_agency": "Department of Sanitation",
    "final_address": "2933 Marigny St",
    "address_councildis": "D",
    "status": "Assigned to Contractor",
    "contractor": "IV Waste",
    "rowid": "1268648",
    "final_x": "3684878.36642",
    "final_y": "543608.277966",
    "longitude": "-90.05697749426483",
    "latitude": "29.98863122790963",
    "geocoded_column": {
      "latitude": "29.98863122790963",
      "longitude": "-90.05697749426483"
    }
  },
  {
    "service_request": "2026-1268647",
    "request_type": "Trash/Recycling",
    "request_reason": "Request a Large Item Pick Up",
    "date_created": "2026-03-25T16:31:13.000",
    "date_modified": "2026-03-25T16:31:15.000",
    "request_status": "Pending",
    "responsible_agency": "Department of Sanitation",
    "final_address": "920 Forstall St",
    "address_councildis": "E",
    "status": "Assigned to Contractor",
    "contractor": "Waste Pro",
    "rowid": "1268647",
    "final_x": "3696033.00016",
    "final_y": "533600.064709",
    "longitude": "-90.02210541700154",
    "latitude": "29.96076586944666",
    "geocoded_column": {
      "latitude": "29.96076586944666",
      "longitude": "-90.02210541700154"
    }
  },
  {
    "service_request": "2026-1268646",
    "request_type": "Trash/Recycling",
    "request_reason": "Request a Large Item Pick Up",
    "date_created": "2026-03-25T16:29:46.000",
    "date_modified": "2026-03-25T16:29:48.000",
    "request_status": "Pending",
    "responsible_agency": "Department of Sanitation",
    "final_address": "5512 Chartres St",
    "address_councildis": "E",
    "status": "Assigned to Contractor",
    "contractor": "Waste Pro",
    "rowid": "1268646",
    "final_x": "3697305.68867",
    "final_y": "531945.270595",
    "longitude": "-90.01814651323147",
    "latitude": "29.9561756640024",
    "geocoded_column": {
      "latitude": "29.9561756640024",
      "longitude": "-90.01814651323147"
    }
  },
  {
    "service_request": "2026-1268645",
    "request_type": "Trash/Recycling",
    "request_reason": "Request a Large Item Pick Up",
    "date_created": "2026-03-25T16:28:22.000",
    "date_modified": "2026-03-25T16:28:23.000",
    "request_status": "Pending",
    "responsible_agency": "Department of Sanitation",
    "final_address": "3401 General Taylor St",
    "address_councildis": "B",
    "status": "Assigned to Contractor",
    "contractor": "IV Waste",
    "rowid": "1268645",
    "final_x": "3671199.26164",
    "final_y": "527358.308031",
    "longitude": "-90.10073778377108",
    "latitude": "29.94436113229455",
    "geocoded_column": {
      "latitude": "29.94436113229455",
      "longitude": "-90.10073778377108"
    }
  },
  {
    "service_request": "2026-1268644",
    "request_type": "Trash/Recycling",
    "request_reason": "Request a Large Item Pick Up",
    "date_created": "2026-03-25T16:27:14.000",
    "date_modified": "2026-03-25T16:27:16.000",
    "request_status": "Pending",
    "responsible_agency": "Department of Sanitation",
    "final_address": "3705 Coliseum St",
    "address_councildis": "B",
    "status": "Assigned to Contractor",
    "contractor": "IV Waste",
    "rowid": "1268644",
    "final_x": "3673321.77467",
    "final_y": "520162.498104",
    "longitude": "-90.09428206164169",
    "latitude": "29.924512038006064",
    "geocoded_column": {
      "latitude": "29.924512038006064",
      "longitude": "-90.09428206164169"
    }
  },
  {
    "service_request": "2026-1268643",
    "request_type": "Parks & Parkways",
    "request_reason": "Request Tree Service (Right of Way/Public Property)",
    "date_created": "2026-03-25T16:25:47.000",
    "date_modified": "2026-03-25T16:26:19.000",
    "request_status": "Pending",
    "responsible_agency": "Department of Parks & Parkway",
    "final_address": "716 Calhoun St",
    "address_councildis": "A",
    "status": "Pending",
    "rowid": "1268643",
    "final_x": "3663333.25715",
    "final_y": "519575.270328",
    "longitude": "-90.12583209695087",
    "latitude": "29.92319056045942",
    "geocoded_column": {
      "latitude": "29.92319056045942",
      "longitude": "-90.12583209695087"
    }
  },
  {
    "service_request": "2026-1268642",
    "request_type": "Trash/Recycling",
    "request_reason": "Replace Trash Cart",
    "date_created": "2026-03-25T16:23:12.000",
    "date_modified": "2026-03-25T16:23:14.000",
    "request_status": "Pending",
    "responsible_agency": "Department of Sanitation",
    "final_address": "2753 Bienville Ave",
    "address_councildis": "B",
    "status": "Assigned to Contractor",
    "contractor": "IV Waste",
    "rowid": "1268642",
    "final_x": "3675481.48686",
    "final_y": "536068.052295",
    "longitude": "-90.08691842346998",
    "latitude": "29.96818266002608",
    "geocoded_column": {
      "latitude": "29.96818266002608",
      "longitude": "-90.08691842346998"
    }
  },
  {
    "service_request": "2026-1268641",
    "request_type": "Utility Poles",
    "request_reason": "Utility Pole Leaning",
    "date_created": "2026-03-25T16:20:10.000",
    "date_modified": "2026-03-25T16:20:13.000",
    "request_status": "Pending",
    "responsible_agency": "Utility Company Collective",
    "final_address": "HICKORY ST & SHORT ST",
    "address_councildis": "A",
    "status": "Pending",
    "rowid": "1268641",
    "final_x": "3663717.5",
    "final_y": "529627.58",
    "longitude": "-90.12428436589732",
    "latitude": "29.950820079658524",
    "geocoded_column": {
      "latitude": "29.950820079658524",
      "longitude": "-90.12428436589732"
    }
  },
  {
    "service_request": "2026-1268640",
    "request_type": "Trash/Recycling",
    "request_reason": "Request a Large Item Pick Up",
    "date_created": "2026-03-25T16:19:46.000",
    "date_modified": "2026-03-25T16:19:48.000",
    "request_status": "Pending",
    "responsible_agency": "Department of Sanitation",
    "final_address": "5208 Dauphine St",
    "address_councildis": "E",
    "status": "Assigned to Contractor",
    "contractor": "Waste Pro",
    "rowid": "1268640",
    "final_x": "3696293.98999",
    "final_y": "532950.308804",
    "longitude": "-90.0213047597758",
    "latitude": "29.95897105559996",
    "geocoded_column": {
      "latitude": "29.95897105559996",
      "longitude": "-90.0213047597758"
    }
  },
  {
    "service_request": "2026-1268639",
    "request_type": "Abandoned Vehicles",
    "request_reason": "Abandoned/Junk Vehicles",
    "date_created": "2026-03-25T16:17:28.000",
    "date_modified": "2026-03-25T16:18:41.000",
    "request_status": "Pending",
    "responsible_agency": "Department of Public Works",
    "final_address": "2026 N Broad St",
    "address_councildis": "D",
    "status": "Pending",
    "rowid": "1268639",
    "final_x": "3680673.21173",
    "final_y": "542074.884556",
    "longitude": "-90.07031365136632",
    "latitude": "29.984543060982993",
    "geocoded_column": {
      "latitude": "29.984543060982993",
      "longitude": "-90.07031365136632"
    }
  },
  {
    "service_request": "2026-1268638",
    "request_type": "Traffic Safety",
    "request_reason": "Request for Traffic Calming due to Speeding",
    "date_created": "2026-03-25T16:08:27.000",
    "date_modified": "2026-03-25T16:08:30.000",
    "request_status": "Pending",
    "responsible_agency": "Department of Public Works",
    "final_address": "6386 Canal Blvd",
    "address_councildis": "A",
    "status": "Pending",
    "rowid": "1268638",
    "final_x": "3668585.21178",
    "final_y": "549999.489748",
    "longitude": "-90.10822681749111",
    "latitude": "30.006693825532285",
    "geocoded_column": {
      "latitude": "30.006693825532285",
      "longitude": "-90.10822681749111"
    }
  },
  {
    "service_request": "2026-1268637",
    "request_type": "Trash/Recycling",
    "request_reason": "Order Trash Cart",
    "date_created": "2026-03-25T16:05:13.000",
    "date_modified": "2026-03-25T16:05:15.000",
    "request_status": "Pending",
    "responsible_agency": "Department of Sanitation",
    "final_address": "1743 N Dorgenois St",
    "address_councildis": "D",
    "status": "Assigned to Contractor",
    "contractor": "IV Waste",
    "rowid": "1268637",
    "final_x": "3680205.26824",
    "final_y": "540749.873803",
    "longitude": "-90.07183775366069",
    "latitude": "29.980913917848834",
    "geocoded_column": {
      "latitude": "29.980913917848834",
      "longitude": "-90.07183775366069"
    }
  },
  {
    "service_request": "2026-1268636",
    "request_type": "Trash/Recycling",
    "request_reason": "Request a Large Item Pick Up",
    "date_created": "2026-03-25T15:59:05.000",
    "date_modified": "2026-03-25T15:59:06.000",
    "request_status": "Pending",
    "responsible_agency": "Department of Sanitation",
    "final_address": "6803 Louisville St",
    "address_councildis": "A",
    "status": "Assigned to Contractor",
    "contractor": "IV Waste",
    "rowid": "1268636",
    "final_x": "3668335.71796",
    "final_y": "552790.297814",
    "longitude": "-90.10892082118019",
    "latitude": "30.014374901642938",
    "geocoded_column": {
      "latitude": "30.014374901642938",
      "longitude": "-90.10892082118019"
    }
  },
  {
    "service_request": "2026-1268635",
    "request_type": "Safety & Permits",
    "request_reason": "Zoning Enforcement",
    "date_created": "2026-03-25T15:56:42.000",
    "date_modified": "2026-03-25T15:56:43.000",
    "request_status": "Pending",
    "responsible_agency": "Safety and Permits",
    "final_address": "4200 BLK Freret St",
    "address_councildis": "B",
    "status": "Pending",
    "rowid": "1268635",
    "final_x": "3671105.1525",
    "final_y": "524101.001126",
    "longitude": "-90.10114550668419",
    "latitude": "29.93540737897443",
    "geocoded_column": {
      "latitude": "29.93540737897443",
      "longitude": "-90.10114550668419"
    }
  },
  {
    "service_request": "2026-1268634",
    "request_type": "Roads and Streets",
    "request_reason": "Street Subsidence (Sinking)",
    "date_created": "2026-03-25T15:50:14.000",
    "date_modified": "2026-03-25T15:50:26.000",
    "request_status": "Pending",
    "responsible_agency": "Sewerage & Water Board",
    "final_address": "1828 Sophie Wright Pl",
    "address_councildis": "B",
    "status": "Pending",
    "rowid": "1268634",
    "final_x": "3679647.28693",
    "final_y": "523112.607867",
    "longitude": "-90.07421224233248",
    "latitude": "29.93243427854433",
    "geocoded_column": {
      "latitude": "29.93243427854433",
      "longitude": "-90.07421224233248"
    }
  },
  {
    "service_request": "2026-1268633",
    "request_type": "Trash/Recycling",
    "request_reason": "Request a Large Item Pick Up",
    "date_created": "2026-03-25T15:50:03.000",
    "date_modified": "2026-03-25T15:51:14.000",
    "request_status": "Pending",
    "responsible_agency": "Department of Sanitation",
    "final_address": "1921 Jena St",
    "address_councildis": "B",
    "status": "Assigned to Contractor",
    "contractor": "IV Waste",
    "rowid": "1268633",
    "final_x": "3670361.53966",
    "final_y": "522092.896762",
    "longitude": "-90.10356114162168",
    "latitude": "29.92990770410721",
    "geocoded_column": {
      "latitude": "29.92990770410721",
      "longitude": "-90.10356114162168"
    }
  },
  {
    "service_request": "2026-1268632",
    "request_type": "Trash/Recycling",
    "request_reason": "Request a Large Item Pick Up",
    "date_created": "2026-03-25T15:48:01.000",
    "date_modified": "2026-03-25T15:48:03.000",
    "request_status": "Pending",
    "responsible_agency": "Department of Sanitation",
    "final_address": "4821 Lynhuber Dr",
    "address_councildis": "D",
    "status": "Assigned to Contractor",
    "contractor": "Waste Pro",
    "rowid": "1268632",
    "final_x": "3698056.27939",
    "final_y": "554762.119256",
    "longitude": "-90.01494744602634",
    "latitude": "30.018889934921223",
    "geocoded_column": {
      "latitude": "30.018889934921223",
      "longitude": "-90.01494744602634"
    }
  },
  {
    "service_request": "2026-1268631",
    "request_type": "Trash/Recycling",
    "request_reason": "Request a Large Item Pick Up",
    "date_created": "2026-03-25T15:46:53.000",
    "date_modified": "2026-03-25T15:46:55.000",
    "request_status": "Pending",
    "responsible_agency": "Department of Sanitation",
    "final_address": "104 Cambridge Ct",
    "address_councildis": "C",
    "status": "Assigned to Contractor",
    "contractor": "Richards Disposal",
    "rowid": "1268631",
    "final_x": "3705749.59895",
    "final_y": "518484.330102",
    "longitude": "-89.99198129803912",
    "latitude": "29.91889363845878",
    "geocoded_column": {
      "latitude": "29.91889363845878",
      "longitude": "-89.99198129803912"
    }
  },
  {
    "service_request": "2026-1268630",
    "request_type": "Trash/Recycling",
    "request_reason": "Request a Large Item Pick Up",
    "date_created": "2026-03-25T15:45:38.000",
    "date_modified": "2026-03-25T15:45:40.000",
    "request_status": "Pending",
    "responsible_agency": "Department of Sanitation",
    "final_address": "1541 Shirley Dr",
    "address_councildis": "C",
    "status": "Assigned to Contractor",
    "contractor": "Richards Disposal",
    "rowid": "1268630",
    "final_x": "3692963.012",
    "final_y": "525016.811709",
    "longitude": "-90.03210760299493",
    "latitude": "29.937261137904606",
    "geocoded_column": {
      "latitude": "29.937261137904606",
      "longitude": "-90.03210760299493"
    }
  },
  {
    "service_request": "2026-1268629",
    "request_type": "Trash/Recycling",
    "request_reason": "Request a Large Item Pick Up",
    "date_created": "2026-03-25T15:44:39.000",
    "date_modified": "2026-03-25T15:44:40.000",
    "request_status": "Pending",
    "responsible_agency": "Department of Sanitation",
    "final_address": "8316 Edinburgh St",
    "address_councildis": "A",
    "status": "Assigned to Contractor",
    "contractor": "IV Waste",
    "rowid": "1268629",
    "final_x": "3666830.03853",
    "final_y": "534958.177606",
    "longitude": "-90.11427744635124",
    "latitude": "29.965386801868487",
    "geocoded_column": {
      "latitude": "29.965386801868487",
      "longitude": "-90.11427744635124"
    }
  },
  {
    "service_request": "2026-1268628",
    "request_type": "Trash/Recycling",
    "request_reason": "Request a Large Item Pick Up",
    "date_created": "2026-03-25T15:44:38.000",
    "date_modified": "2026-03-25T15:44:40.000",
    "request_status": "Pending",
    "responsible_agency": "Department of Sanitation",
    "final_address": "3514 Louisiana Avenue Prkwy",
    "address_councildis": "B",
    "status": "Assigned to Contractor",
    "contractor": "IV Waste",
    "rowid": "1268628",
    "final_x": "3671545.55649",
    "final_y": "527878.755199",
    "longitude": "-90.09962673673873",
    "latitude": "29.945781944426876",
    "geocoded_column": {
      "latitude": "29.945781944426876",
      "longitude": "-90.09962673673873"
    }
  },
  {
    "service_request": "2026-1268627",
    "request_type": "Trash/Recycling",
    "request_reason": "Repair Trash Cart",
    "date_created": "2026-03-25T15:37:28.000",
    "date_modified": "2026-03-25T15:37:29.000",
    "request_status": "Pending",
    "responsible_agency": "Department of Sanitation",
    "final_address": "2714 Coliseum St",
    "address_councildis": "B",
    "status": "Assigned to Contractor",
    "contractor": "IV Waste",
    "rowid": "1268627",
    "final_x": "3676653.73237",
    "final_y": "521751.276922",
    "longitude": "-90.08370950164189",
    "latitude": "29.92878117309633",
    "geocoded_column": {
      "latitude": "29.92878117309633",
      "longitude": "-90.08370950164189"
    }
  },
  {
    "service_request": "2026-1268626",
    "request_type": "Abandoned Vehicles",
    "request_reason": "Abandoned/Junk Vehicles",
    "date_created": "2026-03-25T15:37:15.000",
    "date_modified": "2026-03-25T15:37:17.000",
    "request_status": "Pending",
    "responsible_agency": "Department of Public Works",
    "final_address": "167 Danny Dr",
    "address_councildis": "C",
    "status": "Pending",
    "rowid": "1268626",
    "final_x": "3701977.96407",
    "final_y": "523776.507451",
    "longitude": "-90.00369247031232",
    "latitude": "29.93356616008859",
    "geocoded_column": {
      "latitude": "29.93356616008859",
      "longitude": "-90.00369247031232"
    }
  },
  {
    "service_request": "2026-1268625",
    "request_type": "Property Maintenance",
    "request_reason": "Property Maintenance",
    "date_created": "2026-03-25T15:31:24.000",
    "date_modified": "2026-03-25T15:31:25.000",
    "request_status": "Pending",
    "responsible_agency": "Department of Code Enforcement",
    "final_address": "2921 Piety St",
    "address_councildis": "D",
    "status": "Pending",
    "rowid": "1268625",
    "final_x": "3691712.20822",
    "final_y": "543108.178061",
    "longitude": "-90.03540949146809",
    "latitude": "29.98704505375916",
    "geocoded_column": {
      "latitude": "29.98704505375916",
      "longitude": "-90.03540949146809"
    }
  },
  {
    "service_request": "2026-1268624",
    "request_type": "Trash/Recycling",
    "request_reason": "Request a Large Item Pick Up",
    "date_created": "2026-03-25T15:29:32.000",
    "date_modified": "2026-03-25T15:29:34.000",
    "request_status": "Pending",
    "responsible_agency": "Department of Sanitation",
    "final_address": "4814 Stemway Dr",
    "address_councildis": "D",
    "status": "Assigned to Contractor",
    "contractor": "Waste Pro",
    "rowid": "1268624",
    "final_x": "3696813.50301",
    "final_y": "554514.319128",
    "longitude": "-90.01888314105888",
    "latitude": "30.01824783719075",
    "geocoded_column": {
      "latitude": "30.01824783719075",
      "longitude": "-90.01888314105888"
    }
  },
  {
    "service_request": "2026-1268623",
    "request_type": "Trash/Recycling",
    "request_reason": "Order Recycling Cart",
    "date_created": "2026-03-25T15:28:30.000",
    "date_modified": "2026-03-25T15:28:32.000",
    "request_status": "Pending",
    "responsible_agency": "Department of Sanitation",
    "final_address": "1000 Race St",
    "address_councildis": "B",
    "status": "Pending",
    "rowid": "1268623",
    "final_x": "3680508.50728",
    "final_y": "523719.305275",
    "longitude": "-90.0714723557563",
    "latitude": "29.934076446289726",
    "geocoded_column": {
      "latitude": "29.934076446289726",
      "longitude": "-90.0714723557563"
    }
  },
  {
    "service_request": "2026-1268622",
    "request_type": "Trash/Recycling",
    "request_reason": "Missed Trash Pick-Up",
    "date_created": "2026-03-25T15:28:00.000",
    "date_modified": "2026-03-25T15:28:53.000",
    "request_status": "Pending",
    "responsible_agency": "Department of Sanitation",
    "final_address": "5650 New England Dr",
    "address_councildis": "E",
    "status": "Assigned to Contractor",
    "contractor": "Waste Pro",
    "rowid": "1268622",
    "final_x": "3723563.50079",
    "final_y": "564375.619169",
    "longitude": "-89.93398381487098",
    "latitude": "30.044491509212655",
    "geocoded_column": {
      "latitude": "30.044491509212655",
      "longitude": "-89.93398381487098"
    }
  },
  {
    "service_request": "2026-1268621",
    "request_type": "Trash/Recycling",
    "request_reason": "Request a Large Item Pick Up",
    "date_created": "2026-03-25T15:27:56.000",
    "date_modified": "2026-03-25T16:22:48.000",
    "request_status": "Pending",
    "responsible_agency": "Department of Sanitation",
    "final_address": "5330 Danneel St",
    "address_councildis": "B",
    "status": "Assigned to Contractor",
    "contractor": "IV Waste",
    "rowid": "1268621",
    "final_x": "3667725.96109",
    "final_y": "522172.15993",
    "longitude": "-90.11187857752286",
    "latitude": "29.930203167677515",
    "geocoded_column": {
      "latitude": "29.930203167677515",
      "longitude": "-90.11187857752286"
    }
  },
  {
    "service_request": "2026-1268620",
    "request_type": "Trash/Recycling",
    "request_reason": "Illegal Dumping",
    "date_created": "2026-03-25T15:20:39.000",
    "date_modified": "2026-03-25T15:20:40.000",
    "request_status": "Pending",
    "responsible_agency": "Department of Sanitation",
    "final_address": "800 BLK N Prieur St",
    "address_councildis": "C",
    "status": "Pending",
    "rowid": "1268620",
    "final_x": "3679243.02993",
    "final_y": "535686.75781",
    "longitude": "-90.07505253794322",
    "latitude": "29.967021186447216",
    "geocoded_column": {
      "latitude": "29.967021186447216",
      "longitude": "-90.07505253794322"
    }
  },
  {
    "service_request": "2026-1268619",
    "request_type": "Streetlights",
    "request_reason": "Streetlight Outage/Malfunction",
    "date_created": "2026-03-25T15:19:41.000",
    "date_modified": "2026-03-25T15:19:43.000",
    "request_status": "Pending",
    "responsible_agency": "Department of Public Works",
    "final_address": "1525 Tupelo St",
    "address_councildis": "E",
    "status": "Pending",
    "rowid": "1268619",
    "final_x": "3700174.99223",
    "final_y": "534902.494918",
    "longitude": "-90.00897835641662",
    "latitude": "29.9642161074043",
    "geocoded_column": {
      "latitude": "29.9642161074043",
      "longitude": "-90.00897835641662"
    }
  },
  {
    "service_request": "2026-1268618",
    "request_type": "Abandoned Vehicles",
    "request_reason": "Abandoned/Junk Vehicles",
    "date_created": "2026-03-25T15:17:51.000",
    "date_modified": "2026-03-25T15:18:51.000",
    "request_status": "Pending",
    "responsible_agency": "Department of Public Works",
    "final_address": "2530 Onzaga St",
    "address_councildis": "D",
    "status": "Pending",
    "rowid": "1268618",
    "final_x": "3679546.17531",
    "final_y": "540170.571979",
    "longitude": "-90.07393957196211",
    "latitude": "29.9793409744577",
    "geocoded_column": {
      "latitude": "29.9793409744577",
      "longitude": "-90.07393957196211"
    }
  },
  {
    "service_request": "2026-1268617",
    "request_type": "Roads and Streets",
    "request_reason": "Pothole",
    "date_created": "2026-03-25T15:17:42.000",
    "date_modified": "2026-03-25T15:17:44.000",
    "request_status": "Pending",
    "responsible_agency": "Department of Public Works",
    "final_address": "1525 Tupelo St",
    "address_councildis": "E",
    "status": "Pending",
    "rowid": "1268617",
    "final_x": "3700174.99223",
    "final_y": "534902.494918",
    "longitude": "-90.00897835641662",
    "latitude": "29.9642161074043",
    "geocoded_column": {
      "latitude": "29.9642161074043",
      "longitude": "-90.00897835641662"
    }
  },
  {
    "service_request": "2026-1268616",
    "request_type": "Utility Poles",
    "request_reason": "Wires Sagging/Hanging Low",
    "date_created": "2026-03-25T15:13:42.000",
    "date_modified": "2026-03-25T15:13:44.000",
    "request_status": "Pending",
    "responsible_agency": "Utility Company Collective",
    "final_address": "909 Whitney Ave",
    "address_councildis": "C",
    "status": "Pending",
    "rowid": "1268616",
    "final_x": "3690101.31702",
    "final_y": "528144.148799",
    "longitude": "-90.04103077232406",
    "latitude": "29.945949295523484",
    "geocoded_column": {
      "latitude": "29.945949295523484",
      "longitude": "-90.04103077232406"
    }
  },
  {
    "service_request": "2026-1268615",
    "request_type": "Trash/Recycling",
    "request_reason": "Order Recycling Cart",
    "date_created": "2026-03-25T15:04:13.000",
    "date_modified": "2026-03-25T15:04:20.000",
    "request_status": "Pending",
    "responsible_agency": "Department of Sanitation",
    "final_address": "1915 Napoleon Ave",
    "address_councildis": "B",
    "status": "Pending",
    "rowid": "1268615",
    "final_x": "3670817.28487",
    "final_y": "522066.32057",
    "longitude": "-90.10212332911344",
    "latitude": "29.929821170803585",
    "geocoded_column": {
      "latitude": "29.929821170803585",
      "longitude": "-90.10212332911344"
    }
  },
  {
    "service_request": "2026-1268614",
    "request_type": "Trash/Recycling",
    "request_reason": "Replace Trash Cart",
    "date_created": "2026-03-25T15:03:46.000",
    "date_modified": "2026-03-25T15:03:48.000",
    "request_status": "Pending",
    "responsible_agency": "Department of Sanitation",
    "final_address": "5737 St Bernard Ave",
    "address_councildis": "D",
    "status": "Assigned to Contractor",
    "contractor": "IV Waste",
    "rowid": "1268614",
    "final_x": "3676996.87515",
    "final_y": "553631.591639",
    "longitude": "-90.08152680295511",
    "latitude": "30.016430832178553",
    "geocoded_column": {
      "latitude": "30.016430832178553",
      "longitude": "-90.08152680295511"
    }
  },
  {
    "service_request": "2026-1268613",
    "request_type": "Trash/Recycling",
    "request_reason": "Request a Large Item Pick Up",
    "date_created": "2026-03-25T15:02:52.000",
    "date_modified": "2026-03-25T16:22:29.000",
    "request_status": "Pending",
    "responsible_agency": "Department of Sanitation",
    "final_address": "3727 Annunciation St",
    "address_councildis": "B",
    "status": "Assigned to Contractor",
    "contractor": "IV Waste",
    "rowid": "1268613",
    "final_x": "3673684.96123",
    "final_y": "518094.64287",
    "longitude": "-90.09320624972527",
    "latitude": "29.918815294266782",
    "geocoded_column": {
      "latitude": "29.918815294266782",
      "longitude": "-90.09320624972527"
    }
  },
  {
    "service_request": "2026-1268612",
    "request_type": "Trash/Recycling",
    "request_reason": "Missed Trash Pick-Up",
    "date_created": "2026-03-25T15:02:42.000",
    "date_modified": "2026-03-25T17:29:21.000",
    "case_close_date": "2026-03-25T12:29:21.000",
    "request_status": "Closed",
    "responsible_agency": "Department of Sanitation",
    "final_address": "8013 Devine Ave",
    "address_councildis": "E",
    "status": "Invalid Request",
    "contractor": "Waste Pro",
    "contractor_action": "Invalid",
    "rowid": "1268612",
    "final_x": "3705068.61201",
    "final_y": "564225.499681",
    "longitude": "-89.9924412222174",
    "latitude": "30.0446868181755",
    "geocoded_column": {
      "latitude": "30.0446868181755",
      "longitude": "-89.9924412222174"
    }
  },
  {
    "service_request": "2026-1268611",
    "request_type": "Trash/Recycling",
    "request_reason": "Request a Large Item Pick Up",
    "date_created": "2026-03-25T15:01:46.000",
    "date_modified": "2026-03-25T15:01:49.000",
    "request_status": "Pending",
    "responsible_agency": "Department of Sanitation",
    "final_address": "8921 Curran Rd",
    "address_councildis": "E",
    "status": "Assigned to Contractor",
    "contractor": "Waste Pro",
    "rowid": "1268611",
    "final_x": "3705074.28964",
    "final_y": "563093.8792",
    "longitude": "-89.99246513005774",
    "latitude": "30.041575127559042",
    "geocoded_column": {
      "latitude": "30.041575127559042",
      "longitude": "-89.99246513005774"
    }
  },
  {
    "service_request": "2026-1268610",
    "request_type": "Trash/Recycling",
    "request_reason": "Request a Large Item Pick Up",
    "date_created": "2026-03-25T15:00:02.000",
    "date_modified": "2026-03-25T15:00:05.000",
    "request_status": "Pending",
    "responsible_agency": "Department of Sanitation",
    "final_address": "7301 Edward St",
    "address_councildis": "E",
    "status": "Assigned to Contractor",
    "contractor": "Waste Pro",
    "rowid": "1268610",
    "final_x": "3701471.24055",
    "final_y": "559947.994717",
    "longitude": "-90.00396734997452",
    "latitude": "30.033040613632416",
    "geocoded_column": {
      "latitude": "30.033040613632416",
      "longitude": "-90.00396734997452"
    }
  },
  {
    "service_request": "2026-1268609",
    "request_type": "Trash/Recycling",
    "request_reason": "Request a Large Item Pick Up",
    "date_created": "2026-03-25T14:59:44.000",
    "date_modified": "2026-03-25T14:59:45.000",
    "request_status": "Pending",
    "responsible_agency": "Department of Sanitation",
    "final_address": "4566 Viola St",
    "address_councildis": "E",
    "status": "Assigned to Contractor",
    "contractor": "Waste Pro",
    "rowid": "1268609",
    "final_x": "3704052.03646",
    "final_y": "554030.100952",
    "longitude": "-89.99603011066687",
    "latitude": "30.01668611615896",
    "geocoded_column": {
      "latitude": "30.01668611615896",
      "longitude": "-89.99603011066687"
    }
  },
  {
    "service_request": "2026-1268608",
    "request_type": "Streetlights",
    "request_reason": "Streetlight Knocked Down/Leaning",
    "date_created": "2026-03-25T14:59:17.000",
    "date_modified": "2026-03-25T14:59:18.000",
    "request_status": "Pending",
    "responsible_agency": "Department of Public Works",
    "final_address": "SIX FLAGS PKWY & I 510 N",
    "address_councildis": "E",
    "status": "Pending",
    "rowid": "1268608",
    "final_x": "3721964.8",
    "final_y": "563912.18",
    "longitude": "-89.93905419556654",
    "latitude": "30.043270828961024",
    "geocoded_column": {
      "latitude": "30.043270828961024",
      "longitude": "-89.93905419556654"
    }
  },
  {
    "service_request": "2026-1268607",
    "request_type": "Trash/Recycling",
    "request_reason": "Repair Recycling Cart",
    "date_created": "2026-03-25T14:57:13.000",
    "date_modified": "2026-03-25T14:57:14.000",
    "request_status": "Pending",
    "responsible_agency": "Department of Sanitation",
    "final_address": "3535 Mimosa Ct",
    "address_councildis": "C",
    "status": "Pending",
    "rowid": "1268607",
    "final_x": "3703428.56561",
    "final_y": "512963.322033",
    "longitude": "-89.99951040249738",
    "latitude": "29.903787259804012",
    "geocoded_column": {
      "latitude": "29.903787259804012",
      "longitude": "-89.99951040249738"
    }
  },
  {
    "service_request": "2026-1268606",
    "request_type": "Roads and Streets",
    "request_reason": "Sidewalk Damaged or Missing",
    "date_created": "2026-03-25T14:55:56.000",
    "date_modified": "2026-03-25T14:58:12.000",
    "request_status": "Pending",
    "responsible_agency": "Department of Public Works",
    "final_address": "501 Wallace Dr",
    "address_councildis": "D",
    "status": "Pending",
    "rowid": "1268606",
    "final_x": "3681681.35804",
    "final_y": "548635.101075",
    "longitude": "-90.06690034831749",
    "latitude": "30.002550737415596",
    "geocoded_column": {
      "latitude": "30.002550737415596",
      "longitude": "-90.06690034831749"
    }
  },
  {
    "service_request": "2026-1268605",
    "request_type": "Streetlights",
    "request_reason": "Streetlight Outage/Malfunction",
    "date_created": "2026-03-25T14:55:20.000",
    "date_modified": "2026-03-25T15:08:20.000",
    "request_status": "Pending",
    "responsible_agency": "Department of Public Works",
    "final_address": "2800 BLK Paris Ave",
    "address_councildis": "D",
    "status": "Pending",
    "rowid": "1268605",
    "final_x": "3679931.36845",
    "final_y": "542753.347024",
    "longitude": "-90.0726332290528",
    "latitude": "29.98643105880179",
    "geocoded_column": {
      "latitude": "29.98643105880179",
      "longitude": "-90.0726332290528"
    }
  },
  {
    "service_request": "2026-1268604",
    "request_type": "Trash/Recycling",
    "request_reason": "Repair Recycling Cart",
    "date_created": "2026-03-25T14:54:32.000",
    "date_modified": "2026-03-25T14:54:33.000",
    "request_status": "Pending",
    "responsible_agency": "Department of Sanitation",
    "final_address": "3551 Rue Denise",
    "address_councildis": "C",
    "status": "Pending",
    "rowid": "1268604",
    "final_x": "3704214.48599",
    "final_y": "517492.120374",
    "longitude": "-89.99686334624792",
    "latitude": "29.91621472724445",
    "geocoded_column": {
      "latitude": "29.91621472724445",
      "longitude": "-89.99686334624792"
    }
  },
  {
    "service_request": "2026-1268603",
    "request_type": "Abandoned Vehicles",
    "request_reason": "Abandoned/Junk Vehicles",
    "date_created": "2026-03-25T14:54:16.000",
    "date_modified": "2026-03-25T14:54:19.000",
    "request_status": "Pending",
    "responsible_agency": "Department of Public Works",
    "final_address": "2835 Broadway St",
    "address_councildis": "B",
    "status": "Pending",
    "rowid": "1268603",
    "final_x": "3667490.32961",
    "final_y": "531511.473539",
    "longitude": "-90.11230825825258",
    "latitude": "29.95589016913479",
    "geocoded_column": {
      "latitude": "29.95589016913479",
      "longitude": "-90.11230825825258"
    }
  },
  {
    "service_request": "2026-1268602",
    "request_type": "Trash/Recycling",
    "request_reason": "Dead Animal Pick Up",
    "date_created": "2026-03-25T14:53:02.000",
    "date_modified": "2026-03-25T14:53:04.000",
    "request_status": "Pending",
    "responsible_agency": "Department of Sanitation",
    "final_address": "2614 Painters St",
    "address_councildis": "D",
    "status": "Assigned to Contractor",
    "contractor": "IV Waste",
    "rowid": "1268602",
    "final_x": "3687066.76476",
    "final_y": "542164.471565",
    "longitude": "-90.05011611475177",
    "latitude": "29.984594065737426",
    "geocoded_column": {
      "latitude": "29.984594065737426",
      "longitude": "-90.05011611475177"
    }
  },
  {
    "service_request": "2026-1268601",
    "request_type": "Trash/Recycling",
    "request_reason": "Replace Trash Cart",
    "date_created": "2026-03-25T14:52:41.000",
    "date_modified": "2026-03-25T14:52:42.000",
    "request_status": "Pending",
    "responsible_agency": "Department of Sanitation",
    "final_address": "2831 St Claude Ave",
    "address_councildis": "C",
    "status": "Assigned to Contractor",
    "contractor": "IV Waste",
    "rowid": "1268601",
    "final_x": "3688006.00092",
    "final_y": "536358.873159",
    "longitude": "-90.04735528804302",
    "latitude": "29.96860176320759",
    "geocoded_column": {
      "latitude": "29.96860176320759",
      "longitude": "-90.04735528804302"
    }
  },
  {
    "service_request": "2026-1268600",
    "request_type": "Trash/Recycling",
    "request_reason": "Order Recycling Cart",
    "date_created": "2026-03-25T14:47:55.000",
    "date_modified": "2026-03-25T14:47:56.000",
    "request_status": "Pending",
    "responsible_agency": "Department of Sanitation",
    "final_address": "4224 Clio St",
    "address_councildis": "B",
    "status": "Pending",
    "rowid": "1268600",
    "final_x": "3671432.56884",
    "final_y": "531538.787587",
    "longitude": "-90.0998590796906",
    "latitude": "29.955849173942532",
    "geocoded_column": {
      "latitude": "29.955849173942532",
      "longitude": "-90.0998590796906"
    }
  },
  {
    "service_request": "2026-1268599",
    "request_type": "Trash/Recycling",
    "request_reason": "Repair Recycling Cart",
    "date_created": "2026-03-25T14:45:56.000",
    "date_modified": "2026-03-25T14:45:57.000",
    "request_status": "Pending",
    "responsible_agency": "Department of Sanitation",
    "final_address": "2626 Palmer Ave",
    "address_councildis": "A",
    "status": "Pending",
    "rowid": "1268599",
    "final_x": "3666616.65729",
    "final_y": "526444.323326",
    "longitude": "-90.11523711498045",
    "latitude": "29.941982720142903",
    "geocoded_column": {
      "latitude": "29.941982720142903",
      "longitude": "-90.11523711498045"
    }
  },
  {
    "service_request": "2026-1268598",
    "request_type": "Trash/Recycling",
    "request_reason": "Request a Large Item Pick Up",
    "date_created": "2026-03-25T14:44:25.000",
    "date_modified": "2026-03-25T14:44:28.000",
    "request_status": "Pending",
    "responsible_agency": "Department of Sanitation",
    "final_address": "1816 Lizardi St",
    "address_councildis": "E",
    "status": "Assigned to Contractor",
    "contractor": "Waste Pro",
    "rowid": "1268598",
    "final_x": "3697262.28752",
    "final_y": "536904.08372",
    "longitude": "-90.01810382888874",
    "latitude": "29.96981200723804",
    "geocoded_column": {
      "latitude": "29.96981200723804",
      "longitude": "-90.01810382888874"
    }
  },
  {
    "service_request": "2026-1268597",
    "request_type": "Trash/Recycling",
    "request_reason": "Request a Large Item Pick Up",
    "date_created": "2026-03-25T14:43:52.000",
    "date_modified": "2026-03-25T14:43:54.000",
    "request_status": "Pending",
    "responsible_agency": "Department of Sanitation",
    "final_address": "3510 Rue Denise",
    "address_councildis": "C",
    "status": "Assigned to Contractor",
    "contractor": "Richards Disposal",
    "rowid": "1268597",
    "final_x": "3704333.06474",
    "final_y": "517749.33567",
    "longitude": "-89.99647959539396",
    "latitude": "29.916918177215685",
    "geocoded_column": {
      "latitude": "29.916918177215685",
      "longitude": "-89.99647959539396"
    }
  },
  {
    "service_request": "2026-1268596",
    "request_type": "Streetlights",
    "request_reason": "Streetlight Knocked Down/Leaning",
    "date_created": "2026-03-25T14:43:35.000",
    "date_modified": "2026-03-25T14:43:36.000",
    "request_status": "Pending",
    "responsible_agency": "Department of Public Works",
    "final_address": "LAKE FOREST EXIT & I 510 S ONRAMP & LAKE FOREST BLVD",
    "address_councildis": "E",
    "status": "Pending",
    "rowid": "1268596",
    "final_x": "3721595.35",
    "final_y": "563574.41",
    "longitude": "-89.94023477522641",
    "latitude": "30.042354456105457",
    "geocoded_column": {
      "latitude": "30.042354456105457",
      "longitude": "-89.94023477522641"
    }
  },
  {
    "service_request": "2026-1268595",
    "request_type": "Trash/Recycling",
    "request_reason": "Request a Large Item Pick Up",
    "date_created": "2026-03-25T14:42:15.000",
    "date_modified": "2026-03-25T14:42:16.000",
    "request_status": "Pending",
    "responsible_agency": "Department of Sanitation",
    "final_address": "8800 Tilford Rd",
    "address_councildis": "E",
    "status": "Assigned to Contractor",
    "contractor": "Waste Pro",
    "rowid": "1268595",
    "final_x": "3707606.04785",
    "final_y": "557189.168219",
    "longitude": "-89.98468355800516",
    "latitude": "30.02525779394253",
    "geocoded_column": {
      "latitude": "30.02525779394253",
      "longitude": "-89.98468355800516"
    }
  },
  {
    "service_request": "2026-1268594",
    "request_type": "Trash/Recycling",
    "request_reason": "Replace Trash Cart",
    "date_created": "2026-03-25T14:41:33.000",
    "date_modified": "2026-03-25T14:41:35.000",
    "request_status": "Pending",
    "responsible_agency": "Department of Sanitation",
    "final_address": "122 W Harrison Ave",
    "address_councildis": "A",
    "status": "Assigned to Contractor",
    "contractor": "IV Waste",
    "rowid": "1268594",
    "final_x": "3665990.1545",
    "final_y": "549540.280659",
    "longitude": "-90.116440719505",
    "latitude": "30.005507195538364",
    "geocoded_column": {
      "latitude": "30.005507195538364",
      "longitude": "-90.116440719505"
    }
  },
  {
    "service_request": "2026-1268593",
    "request_type": "Street and Traffic Signs",
    "request_reason": "Stop Sign Missing or Damaged",
    "date_created": "2026-03-25T14:40:32.000",
    "date_modified": "2026-03-25T14:40:33.000",
    "request_status": "Pending",
    "responsible_agency": "Department of Public Works",
    "final_address": "BYRNE PL & PIETY ST",
    "address_councildis": "D",
    "status": "Pending",
    "rowid": "1268593",
    "final_x": "3690918.8",
    "final_y": "540120.48",
    "longitude": "-90.03802225295274",
    "latitude": "29.97885464102524",
    "geocoded_column": {
      "latitude": "29.97885464102524",
      "longitude": "-90.03802225295274"
    }
  },
  {
    "service_request": "2026-1268592",
    "request_type": "Trash/Recycling",
    "request_reason": "Repair Trash Cart",
    "date_created": "2026-03-25T14:40:20.000",
    "date_modified": "2026-03-25T14:40:22.000",
    "request_status": "Pending",
    "responsible_agency": "Department of Sanitation",
    "final_address": "5949 Constance St",
    "address_councildis": "A",
    "status": "Assigned to Contractor",
    "contractor": "IV Waste",
    "rowid": "1268592",
    "final_x": "3664778.85293",
    "final_y": "518880.790519",
    "longitude": "-90.12129207229454",
    "latitude": "29.921238991018594",
    "geocoded_column": {
      "latitude": "29.921238991018594",
      "longitude": "-90.12129207229454"
    }
  },
  {
    "service_request": "2026-1268591",
    "request_type": "Trash/Recycling",
    "request_reason": "Request a Large Item Pick Up",
    "date_created": "2026-03-25T14:39:33.000",
    "date_modified": "2026-03-25T14:39:35.000",
    "request_status": "Pending",
    "responsible_agency": "Department of Sanitation",
    "final_address": "2209 Bienville Ave",
    "address_councildis": "B",
    "status": "Assigned to Contractor",
    "contractor": "IV Waste",
    "rowid": "1268591",
    "final_x": "3677365.40578",
    "final_y": "534630.44487",
    "longitude": "-90.0810185451714",
    "latitude": "29.964173245454223",
    "geocoded_column": {
      "latitude": "29.964173245454223",
      "longitude": "-90.0810185451714"
    }
  },
  {
    "service_request": "2026-1268590",
    "request_type": "Trash/Recycling",
    "request_reason": "Request a Large Item Pick Up",
    "date_created": "2026-03-25T14:39:07.000",
    "date_modified": "2026-03-25T16:22:07.000",
    "request_status": "Pending",
    "responsible_agency": "Department of Sanitation",
    "final_address": "2215 Soniat St",
    "address_councildis": "B",
    "status": "Assigned to Contractor",
    "contractor": "IV Waste",
    "rowid": "1268590",
    "final_x": "3668549.65402",
    "final_y": "523694.266811",
    "longitude": "-90.10922697003906",
    "latitude": "29.934364305719356",
    "geocoded_column": {
      "latitude": "29.934364305719356",
      "longitude": "-90.10922697003906"
    }
  },
  {
    "service_request": "2026-1268589",
    "request_type": "Roads and Streets",
    "request_reason": "Sidewalk Damaged or Missing",
    "date_created": "2026-03-25T14:39:06.000",
    "date_modified": "2026-03-25T14:39:08.000",
    "request_status": "Pending",
    "responsible_agency": "Department of Public Works",
    "final_address": "2227 Dauphine St Apt A",
    "address_councildis": "C",
    "status": "Pending",
    "rowid": "1268589",
    "final_x": "3685369.70357",
    "final_y": "535286.870342",
    "longitude": "-90.05571859127316",
    "latitude": "29.965735218568582",
    "geocoded_column": {
      "latitude": "29.965735218568582",
      "longitude": "-90.05571859127316"
    }
  },
  {
    "service_request": "2026-1268588",
    "request_type": "Property Maintenance",
    "request_reason": "Property Maintenance",
    "date_created": "2026-03-25T14:38:58.000",
    "date_modified": "2026-03-25T14:40:35.000",
    "request_status": "Pending",
    "responsible_agency": "Department of Code Enforcement",
    "final_address": "7501 Adventure Ave",
    "address_councildis": "E",
    "status": "Pending",
    "rowid": "1268588",
    "final_x": "3725938.51526",
    "final_y": "570448.343655",
    "longitude": "-89.9262421095522",
    "latitude": "30.061108987439045",
    "geocoded_column": {
      "latitude": "30.061108987439045",
      "longitude": "-89.9262421095522"
    }
  },
  {
    "service_request": "2026-1268587",
    "request_type": "Health Related Request",
    "request_reason": "Noise Ordinance Complaint",
    "date_created": "2026-03-25T14:38:10.000",
    "date_modified": "2026-03-25T14:57:08.000",
    "case_close_date": "2026-03-25T09:57:07.000",
    "request_status": "Closed",
    "responsible_agency": "Health Department",
    "final_address": "711 Bourbon St",
    "address_councildis": "C",
    "status": "Unfounded",
    "rowid": "1268587",
    "final_x": "3682299.38447",
    "final_y": "532765.705988",
    "longitude": "-90.06550263299877",
    "latitude": "29.95889665479323",
    "geocoded_column": {
      "latitude": "29.95889665479323",
      "longitude": "-90.06550263299877"
    }
  },
  {
    "service_request": "2026-1268586",
    "request_type": "Trash/Recycling",
    "request_reason": "Request a Large Item Pick Up",
    "date_created": "2026-03-25T14:36:22.000",
    "date_modified": "2026-03-25T14:36:24.000",
    "request_status": "Pending",
    "responsible_agency": "Department of Sanitation",
    "final_address": "2415 Danbury Dr",
    "address_councildis": "C",
    "status": "Assigned to Contractor",
    "contractor": "Richards Disposal",
    "rowid": "1268586",
    "final_x": "3703810.6851",
    "final_y": "522193.552954",
    "longitude": "-89.9979649516733",
    "latitude": "29.92915498368186",
    "geocoded_column": {
      "latitude": "29.92915498368186",
      "longitude": "-89.9979649516733"
    }
  },
  {
    "service_request": "2026-1268585",
    "request_type": "Healthy Homes",
    "request_reason": "Healthy Homes",
    "date_created": "2026-03-25T14:27:46.000",
    "date_modified": "2026-03-25T14:27:47.000",
    "request_status": "Pending",
    "responsible_agency": "Department of Code Enforcement",
    "final_address": "9640 Lincoln Beach Blvd",
    "address_councildis": "E",
    "status": "Pending",
    "rowid": "1268585",
    "final_x": "3706841.59614",
    "final_y": "564798.527906",
    "longitude": "-89.98681653525932",
    "latitude": "30.04620524918979",
    "geocoded_column": {
      "latitude": "30.04620524918979",
      "longitude": "-89.98681653525932"
    }
  },
  {
    "service_request": "2026-1268584",
    "request_type": "Trash/Recycling",
    "request_reason": "Request a Large Item Pick Up",
    "date_created": "2026-03-25T14:26:04.000",
    "date_modified": "2026-03-25T14:26:06.000",
    "request_status": "Pending",
    "responsible_agency": "Department of Sanitation",
    "final_address": "863 Olga St",
    "address_councildis": "A",
    "status": "Assigned to Contractor",
    "contractor": "IV Waste",
    "rowid": "1268584",
    "final_x": "3673314.09627",
    "final_y": "540278.726731",
    "longitude": "-90.09361927570885",
    "latitude": "29.979825233768352",
    "geocoded_column": {
      "latitude": "29.979825233768352",
      "longitude": "-90.09361927570885"
    }
  },
  {
    "service_request": "2026-1268583",
    "request_type": "Streetlights",
    "request_reason": "Streetlight Outage/Malfunction",
    "date_created": "2026-03-25T14:24:59.000",
    "date_modified": "2026-03-25T14:26:31.000",
    "request_status": "Pending",
    "responsible_agency": "Department of Public Works",
    "final_address": "1119 Dale Ct",
    "address_councildis": "A",
    "status": "Pending",
    "rowid": "1268583",
    "final_x": "3669775.89428",
    "final_y": "544996.074575",
    "longitude": "-90.10463463193135",
    "latitude": "29.992901112926905",
    "geocoded_column": {
      "latitude": "29.992901112926905",
      "longitude": "-90.10463463193135"
    }
  },
  {
    "service_request": "2026-1268582",
    "request_type": "Trash/Recycling",
    "request_reason": "Request a Large Item Pick Up",
    "date_created": "2026-03-25T14:23:37.000",
    "date_modified": "2026-03-25T16:21:49.000",
    "case_close_date": "2026-03-25T11:21:47.000",
    "request_status": "Closed",
    "responsible_agency": "Department of Sanitation",
    "final_address": "4317 Dryades St",
    "address_councildis": "B",
    "status": "Duplicate Request",
    "contractor": "IV Waste",
    "contractor_action": "Duplicate",
    "rowid": "1268582",
    "final_x": "3670978.82286",
    "final_y": "522038.916154",
    "longitude": "-90.101614310199",
    "latitude": "29.929741043765045",
    "geocoded_column": {
      "latitude": "29.929741043765045",
      "longitude": "-90.101614310199"
    }
  },
  {
    "service_request": "2026-1268581",
    "request_type": "Mosquito, Termite & Rodent Control",
    "request_reason": "Mosquito Complaint",
    "date_created": "2026-03-25T14:23:08.000",
    "date_modified": "2026-03-25T14:23:09.000",
    "request_status": "Pending",
    "responsible_agency": "Mosquito, Termite & Rodent Control Board",
    "final_address": "13632 N Cavelier Dr",
    "address_councildis": "E",
    "status": "Pending",
    "rowid": "1268581",
    "final_x": "3724085.57651",
    "final_y": "569858.311974",
    "longitude": "-89.93212194469127",
    "latitude": "30.059549083506568",
    "geocoded_column": {
      "latitude": "30.059549083506568",
      "longitude": "-89.93212194469127"
    }
  },
  {
    "service_request": "2026-1268580",
    "request_type": "Trash/Recycling",
    "request_reason": "Illegal Dumping",
    "date_created": "2026-03-25T14:20:26.000",
    "date_modified": "2026-03-25T14:20:28.000",
    "request_status": "Pending",
    "responsible_agency": "Department of Sanitation",
    "final_address": "8304 S Claiborne Ave",
    "address_councildis": "A",
    "status": "Pending",
    "rowid": "1268580",
    "final_x": "3664198.33901",
    "final_y": "531990.538307",
    "longitude": "-90.12268728374976",
    "latitude": "29.957303488955823",
    "geocoded_column": {
      "latitude": "29.957303488955823",
      "longitude": "-90.12268728374976"
    }
  },
  {
    "service_request": "2026-1268579",
    "request_type": "Utility Poles",
    "request_reason": "Utility Pole Leaning",
    "date_created": "2026-03-25T14:18:02.000",
    "date_modified": "2026-03-25T14:18:05.000",
    "request_status": "Pending",
    "responsible_agency": "Utility Company Collective",
    "final_address": "3015 Frenchmen St",
    "address_councildis": "D",
    "status": "Pending",
    "rowid": "1268579",
    "final_x": "3684032.09199",
    "final_y": "543791.564878",
    "longitude": "-90.05964417238299",
    "latitude": "29.98916109486121",
    "geocoded_column": {
      "latitude": "29.98916109486121",
      "longitude": "-90.05964417238299"
    }
  },
  {
    "service_request": "2026-1268578",
    "request_type": "Utility Poles",
    "request_reason": "Wires Sagging/Hanging Low",
    "date_created": "2026-03-25T14:14:18.000",
    "date_modified": "2026-03-25T14:14:20.000",
    "request_status": "Pending",
    "responsible_agency": "Utility Company Collective",
    "final_address": "1818 S Salcedo St",
    "address_councildis": "B",
    "status": "Pending",
    "rowid": "1268578",
    "final_x": "3669974.72218",
    "final_y": "530058.183617",
    "longitude": "-90.10451260160494",
    "latitude": "29.951821071213363",
    "geocoded_column": {
      "latitude": "29.951821071213363",
      "longitude": "-90.10451260160494"
    }
  },
  {
    "service_request": "2026-1268577",
    "request_type": "Utility Poles",
    "request_reason": "Wires Sagging/Hanging Low",
    "date_created": "2026-03-25T14:13:42.000",
    "date_modified": "2026-03-25T14:13:44.000",
    "request_status": "Pending",
    "responsible_agency": "Utility Company Collective",
    "final_address": "3015 Frenchmen St",
    "address_councildis": "D",
    "status": "Pending",
    "rowid": "1268577",
    "final_x": "3684032.09199",
    "final_y": "543791.564878",
    "longitude": "-90.05964417238299",
    "latitude": "29.98916109486121",
    "geocoded_column": {
      "latitude": "29.98916109486121",
      "longitude": "-90.05964417238299"
    }
  },
  {
    "service_request": "2026-1268576",
    "request_type": "Abandoned Vehicles",
    "request_reason": "Abandoned/Junk Vehicles",
    "date_created": "2026-03-25T14:13:18.000",
    "date_modified": "2026-03-25T14:13:20.000",
    "request_status": "Pending",
    "responsible_agency": "Department of Public Works",
    "final_address": "2767 N Rocheblave St",
    "address_councildis": "D",
    "status": "Pending",
    "rowid": "1268576",
    "final_x": "3687848.09961",
    "final_y": "541385.129676",
    "longitude": "-90.04767584722418",
    "latitude": "29.98242706974755",
    "geocoded_column": {
      "latitude": "29.98242706974755",
      "longitude": "-90.04767584722418"
    }
  },
  {
    "service_request": "2026-1268575",
    "request_type": "Parks & Parkways",
    "request_reason": "Request Tree Service (Right of Way/Public Property)",
    "date_created": "2026-03-25T14:11:06.000",
    "date_modified": "2026-03-25T14:11:08.000",
    "request_status": "Pending",
    "responsible_agency": "Department of Parks & Parkway",
    "final_address": "3600 BLK MacArthur Blvd",
    "address_councildis": "C",
    "status": "Pending",
    "rowid": "1268575",
    "final_x": "3696889.25317",
    "final_y": "520524.372781",
    "longitude": "-90.01987485578174",
    "latitude": "29.92478528954557",
    "geocoded_column": {
      "latitude": "29.92478528954557",
      "longitude": "-90.01987485578174"
    }
  },
  {
    "service_request": "2026-1268574",
    "request_type": "Streetlights",
    "request_reason": "Streetlight Outage/Malfunction",
    "date_created": "2026-03-25T14:09:57.000",
    "date_modified": "2026-03-25T14:09:58.000",
    "request_status": "Pending",
    "responsible_agency": "Department of Public Works",
    "final_address": "706 Majestic Pl",
    "address_councildis": "C",
    "status": "Pending",
    "rowid": "1268574",
    "final_x": "3688162.23587",
    "final_y": "526290.61619",
    "longitude": "-90.047218776482",
    "latitude": "29.94091270226575",
    "geocoded_column": {
      "latitude": "29.94091270226575",
      "longitude": "-90.047218776482"
    }
  },
  {
    "service_request": "2026-1268573",
    "request_type": "Drainage",
    "request_reason": "Catch Basin Frame and Cover Missing or Damaged",
    "date_created": "2026-03-25T14:08:00.000",
    "date_modified": "2026-03-25T14:08:02.000",
    "request_status": "Pending",
    "responsible_agency": "Sewerage & Water Board",
    "final_address": "2101 Philip St",
    "address_councildis": "B",
    "status": "Pending",
    "rowid": "1268573",
    "final_x": "3676099.1124",
    "final_y": "524981.532477",
    "longitude": "-90.0853492620217",
    "latitude": "29.9376799417805",
    "geocoded_column": {
      "latitude": "29.9376799417805",
      "longitude": "-90.0853492620217"
    }
  },
  {
    "service_request": "2026-1268572",
    "request_type": "Trash/Recycling",
    "request_reason": "Request a Large Item Pick Up",
    "date_created": "2026-03-25T14:06:30.000",
    "date_modified": "2026-03-25T14:06:32.000",
    "request_status": "Pending",
    "responsible_agency": "Department of Sanitation",
    "final_address": "5441 Urquhart St",
    "address_councildis": "E",
    "status": "Assigned to Contractor",
    "contractor": "Waste Pro",
    "rowid": "1268572",
    "final_x": "3697705.59242",
    "final_y": "534643.904646",
    "longitude": "-90.01678585117743",
    "latitude": "29.963583323530717",
    "geocoded_column": {
      "latitude": "29.963583323530717",
      "longitude": "-90.01678585117743"
    }
  },
  {
    "service_request": "2026-1268571",
    "request_type": "Trash/Recycling",
    "request_reason": "Repair Trash Cart",
    "date_created": "2026-03-25T14:03:58.000",
    "date_modified": "2026-03-25T14:04:00.000",
    "request_status": "Pending",
    "responsible_agency": "Department of Sanitation",
    "final_address": "99 Camellia Trce",
    "address_councildis": "C",
    "status": "Assigned to Contractor",
    "contractor": "Richards Disposal",
    "rowid": "1268571",
    "final_x": "3697062.02487",
    "final_y": "523386.750203",
    "longitude": "-90.01922585147331",
    "latitude": "29.932650400683574",
    "geocoded_column": {
      "latitude": "29.932650400683574",
      "longitude": "-90.01922585147331"
    }
  },
  {
    "service_request": "2026-1268570",
    "request_type": "Trash/Recycling",
    "request_reason": "Replace Trash Cart",
    "date_created": "2026-03-25T14:03:47.000",
    "date_modified": "2026-03-25T14:03:49.000",
    "request_status": "Pending",
    "responsible_agency": "Department of Sanitation",
    "final_address": "500 State St",
    "address_councildis": "A",
    "status": "Assigned to Contractor",
    "contractor": "IV Waste",
    "rowid": "1268570",
    "final_x": "3664343.6992",
    "final_y": "518299.955126",
    "longitude": "-90.1226850370298",
    "latitude": "29.919654524439807",
    "geocoded_column": {
      "latitude": "29.919654524439807",
      "longitude": "-90.1226850370298"
    }
  },
  {
    "service_request": "2026-1268568",
    "request_type": "Parks & Parkways",
    "request_reason": "Park Maintenance/Clean Up",
    "date_created": "2026-03-25T14:01:51.000",
    "date_modified": "2026-03-25T14:01:53.000",
    "request_status": "Pending",
    "responsible_agency": "Department of Parks & Parkway",
    "final_address": "3600 BLK MacArthur Blvd",
    "address_councildis": "C",
    "status": "Pending",
    "rowid": "1268568",
    "final_x": "3696889.25317",
    "final_y": "520524.372781",
    "longitude": "-90.01987485578174",
    "latitude": "29.92478528954557",
    "geocoded_column": {
      "latitude": "29.92478528954557",
      "longitude": "-90.01987485578174"
    }
  },
  {
    "service_request": "2026-1268567",
    "request_type": "Trash/Recycling",
    "request_reason": "Request a Large Item Pick Up",
    "date_created": "2026-03-25T14:01:43.000",
    "date_modified": "2026-03-25T14:01:44.000",
    "request_status": "Pending",
    "responsible_agency": "Department of Sanitation",
    "final_address": "7021 Camberley Dr",
    "address_councildis": "E",
    "status": "Assigned to Contractor",
    "contractor": "Waste Pro",
    "rowid": "1268567",
    "final_x": "3713544.20863",
    "final_y": "564513.831201",
    "longitude": "-89.96564381326748",
    "latitude": "30.045204172250248",
    "geocoded_column": {
      "latitude": "30.045204172250248",
      "longitude": "-89.96564381326748"
    }
  },
  {
    "service_request": "2026-1268566",
    "request_type": "Abandoned Vehicles",
    "request_reason": "Abandoned/Junk Vehicles",
    "date_created": "2026-03-25T14:01:04.000",
    "date_modified": "2026-03-25T14:01:07.000",
    "request_status": "Pending",
    "responsible_agency": "Department of Public Works",
    "final_address": "1813 S Rampart St",
    "address_councildis": "B",
    "status": "Pending",
    "rowid": "1268566",
    "final_x": "3677188.25845",
    "final_y": "525674.679101",
    "longitude": "-90.08188684273539",
    "latitude": "29.939553204349146",
    "geocoded_column": {
      "latitude": "29.939553204349146",
      "longitude": "-90.08188684273539"
    }
  },
  {
    "service_request": "2026-1268565",
    "request_type": "General Services",
    "request_reason": "General Service Request",
    "date_created": "2026-03-25T13:58:58.000",
    "date_modified": "2026-03-25T14:02:49.000",
    "case_close_date": "2026-03-25T09:02:48.000",
    "request_status": "Closed",
    "responsible_agency": "Orleans Parish Communication District",
    "final_address": "609 Eleonore St",
    "address_councildis": "A",
    "status": "Referred to External Agency",
    "rowid": "1268565",
    "final_x": "3665134.981",
    "final_y": "518484.693558",
    "longitude": "-90.12018116679658",
    "latitude": "29.920139485356092",
    "geocoded_column": {
      "latitude": "29.920139485356092",
      "longitude": "-90.12018116679658"
    }
  },
  {
    "service_request": "2026-1268564",
    "request_type": "Streetlights",
    "request_reason": "Streetlight Outage/Malfunction",
    "date_created": "2026-03-25T13:57:33.000",
    "date_modified": "2026-03-25T13:57:35.000",
    "request_status": "Pending",
    "responsible_agency": "Department of Public Works",
    "final_address": "4100 BLK Vixen St",
    "address_councildis": "C",
    "status": "Pending",
    "rowid": "1268564",
    "final_x": "3698937.97151",
    "final_y": "520725.641407",
    "longitude": "-90.01340045203193",
    "latitude": "29.925273976748592",
    "geocoded_column": {
      "latitude": "29.925273976748592",
      "longitude": "-90.01340045203193"
    }
  },
  {
    "service_request": "2026-1268563",
    "request_type": "Trash/Recycling",
    "request_reason": "Request a Large Item Pick Up",
    "date_created": "2026-03-25T13:55:32.000",
    "date_modified": "2026-03-25T13:55:52.000",
    "request_status": "Pending",
    "responsible_agency": "Department of Sanitation",
    "final_address": "1304 Elizardi Blvd",
    "address_councildis": "C",
    "status": "Assigned to Contractor",
    "contractor": "Richards Disposal",
    "rowid": "1268563",
    "final_x": "3694825.19453",
    "final_y": "526405.387902",
    "longitude": "-90.02617859389169",
    "latitude": "29.94102096562474",
    "geocoded_column": {
      "latitude": "29.94102096562474",
      "longitude": "-90.02617859389169"
    }
  },
  {
    "service_request": "2026-1268562",
    "request_type": "Trash/Recycling",
    "request_reason": "Replace Trash Cart",
    "date_created": "2026-03-25T13:54:44.000",
    "date_modified": "2026-03-25T13:54:46.000",
    "request_status": "Pending",
    "responsible_agency": "Department of Sanitation",
    "final_address": "4211 Eden St",
    "address_councildis": "B",
    "status": "Assigned to Contractor",
    "contractor": "IV Waste",
    "rowid": "1268562",
    "final_x": "3670388.12878",
    "final_y": "530403.295234",
    "longitude": "-90.10319555839028",
    "latitude": "29.952757817743105",
    "geocoded_column": {
      "latitude": "29.952757817743105",
      "longitude": "-90.10319555839028"
    }
  },
  {
    "service_request": "2026-1268561",
    "request_type": "Trash/Recycling",
    "request_reason": "Order Trash Cart",
    "date_created": "2026-03-25T13:51:37.000",
    "date_modified": "2026-03-25T13:51:39.000",
    "request_status": "Pending",
    "responsible_agency": "Department of Sanitation",
    "final_address": "3412 Fourth St",
    "address_councildis": "B",
    "status": "Assigned to Contractor",
    "contractor": "IV Waste",
    "rowid": "1268561",
    "final_x": "3672566.51495",
    "final_y": "528108.579647",
    "longitude": "-90.09639539168934",
    "latitude": "29.946383621078393",
    "geocoded_column": {
      "latitude": "29.946383621078393",
      "longitude": "-90.09639539168934"
    }
  },