[
  {
    "service_request": "2023-1048109",
    "request_type": "Roads/Drainage",
    "request_reason": "Pothole",
    "date_created": "2023-11-05T01:00:05.000",
    "date_modified": "2023-11-05T01:00:05.000",
    "request_status": "Pending",
    "responsible_agency": "Department of Public Works",
    "final_address": "4200 Perrier St",
    "address_councildis": "B",
    "status": "Pending",
    "rowid": "1048109",
    "final_x": "3671579.76411",
    "final_y": "520095.16844",
    "longitude": "-90.09978329705561",
    "latitude": "29.924378584144126",
    "geocoded_column": {
      "latitude": "29.924378584144126",
      "longitude": "-90.09978329705561"
    }
  },
  {
    "service_request": "2023-1048108",
    "request_type": "Trash/Recycling",
    "request_reason": "Request a Large Item Pick Up",
    "date_created": "2023-11-05T00:51:53.000",
    "date_modified": "2023-11-05T00:51:54.000",
    "request_status": "Pending",
    "responsible_agency": "Department of Sanitation",
    "final_address": "1415 Constantinople St",
    "address_councildis": "B",
    "status": "Assigned to Contractor",
    "contractor": "Richards Disposal",
    "rowid": "1048108",
    "final_x": "3672389.11003",
    "final_y": "520600.754296",
    "longitude": "-90.09721124839871",
    "latitude": "29.925744800635343",
    "geocoded_column": {
      "latitude": "29.925744800635343",
      "longitude": "-90.09721124839871"
    }
  },
  {
    "service_request": "2023-1048107",
    "request_type": "Trash/Recycling",
    "request_reason": "Request a Large Item Pick Up",
    "date_created": "2023-11-05T00:08:34.000",
    "date_modified": "2023-11-05T00:08:35.000",
    "request_status": "Pending",
    "responsible_agency": "Department of Sanitation",
    "final_address": "816 Lizardi St",
    "address_councildis": "E",
    "status": "Assigned to Contractor",
    "contractor": "Waste Pro",
    "rowid": "1048107",
    "final_x": "3696215.64087",
    "final_y": "533155.881732",
    "longitude": "-90.02154473379403",
    "latitude": "29.959538775125345",
    "geocoded_column": {
      "latitude": "29.959538775125345",
      "longitude": "-90.02154473379403"
    }
  },
  {
    "service_request": "2023-1048106",
    "request_type": "Roads/Drainage",
    "request_reason": "Road Shoulder Repair",
    "date_created": "2023-11-05T00:05:37.000",
    "date_modified": "2023-11-05T00:05:37.000",
    "request_status": "Pending",
    "responsible_agency": "Department of Public Works",
    "final_address": "4018 Coliseum St",
    "address_councildis": "B",
    "status": "Pending",
    "rowid": "1048106",
    "final_x": "3672274.20046",
    "final_y": "519884.476152",
    "longitude": "-90.09759836869694",
    "latitude": "29.923778673092567",
    "geocoded_column": {
      "latitude": "29.923778673092567",
      "longitude": "-90.09759836869694"
    }
  },
  {
    "service_request": "2023-1048105",
    "request_type": "Roads/Drainage",
    "request_reason": "Pothole",
    "date_created": "2023-11-04T22:41:26.000",
    "date_modified": "2023-11-04T22:41:26.000",
    "request_status": "Pending",
    "responsible_agency": "Department of Public Works",
    "final_address": "1836 Valence St",
    "address_councildis": "B",
    "status": "Pending",
    "rowid": "1048105",
    "final_x": "3669548.88276",
    "final_y": "521749.076666",
    "longitude": "-90.10613819354518",
    "latitude": "29.928986265896693",
    "geocoded_column": {
      "latitude": "29.928986265896693",
      "longitude": "-90.10613819354518"
    }
  },
  {
    "service_request": "2023-1048104",
    "request_type": "Property Maintenance",
    "request_reason": "Property Maintenance",
    "date_created": "2023-11-04T22:16:35.000",
    "date_modified": "2023-11-04T22:16:35.000",
    "request_status": "Pending",
    "responsible_agency": "Department of Code Enforcement",
    "final_address": "4132 Erato St",
    "address_councildis": "B",
    "status": "Pending",
    "rowid": "1048104",
    "final_x": "3671172.51118",
    "final_y": "531269.09069",
    "longitude": "-90.10068941425241",
    "latitude": "29.95511529166113",
    "geocoded_column": {
      "latitude": "29.95511529166113",
      "longitude": "-90.10068941425241"
    }
  },
  {
    "service_request": "2023-1048103",
    "request_type": "Trash/Recycling",
    "request_reason": "Replace Trash Cart",
    "date_created": "2023-11-04T22:14:15.000",
    "date_modified": "2023-11-04T22:14:16.000",
    "request_status": "Pending",
    "responsible_agency": "Department of Sanitation",
    "final_address": "2522 Jefferson Ave",
    "address_councildis": "A",
    "status": "Assigned to Contractor",
    "contractor": "Richards Disposal",
    "rowid": "1048103",
    "final_x": "3668039.10708",
    "final_y": "524855.95622",
    "longitude": "-90.1107996285821",
    "latitude": "29.937573566434033",
    "geocoded_column": {
      "latitude": "29.937573566434033",
      "longitude": "-90.1107996285821"
    }
  },
  {
    "service_request": "2023-1048102",
    "request_type": "Roads/Drainage",
    "request_reason": "Pothole",
    "date_created": "2023-11-04T22:13:26.000",
    "date_modified": "2023-11-04T22:13:26.000",
    "request_status": "Pending",
    "responsible_agency": "Department of Public Works",
    "final_address": "4918 Warrington Dr",
    "address_councildis": "D",
    "status": "Pending",
    "rowid": "1048102",
    "final_x": "3680987.44456",
    "final_y": "550691.232532",
    "longitude": "-90.0690208378165",
    "latitude": "30.00822543108846",
    "geocoded_column": {
      "latitude": "30.00822543108846",
      "longitude": "-90.0690208378165"
    }
  },
  {
    "service_request": "2023-1048101",
    "request_type": "Trash/Recycling",
    "request_reason": "Repair Trash Cart",
    "date_created": "2023-11-04T21:35:35.000",
    "date_modified": "2023-11-04T21:35:36.000",
    "request_status": "Pending",
    "responsible_agency": "Department of Sanitation",
    "final_address": "2400 Palmer Ave",
    "address_councildis": "A",
    "status": "Assigned to Contractor",
    "contractor": "Richards Disposal",
    "rowid": "1048101",
    "final_x": "3666291.05741",
    "final_y": "525645.883453",
    "longitude": "-90.11629188180571",
    "latitude": "29.93979678034127",
    "geocoded_column": {
      "latitude": "29.93979678034127",
      "longitude": "-90.11629188180571"
    }
  },
  {
    "service_request": "2023-1048100",
    "request_type": "Trash/Recycling",
    "request_reason": "Repair Trash Cart",
    "date_created": "2023-11-04T21:35:27.000",
    "date_modified": "2023-11-04T21:35:27.000",
    "request_status": "Pending",
    "responsible_agency": "Department of Sanitation",
    "final_address": "2400 Palmer Ave",
    "address_councildis": "A",
    "status": "Assigned to Contractor",
    "contractor": "Richards Disposal",
    "rowid": "1048100",
    "final_x": "3666291.05741",
    "final_y": "525645.883453",
    "longitude": "-90.11629188180571",
    "latitude": "29.93979678034127",
    "geocoded_column": {
      "latitude": "29.93979678034127",
      "longitude": "-90.11629188180571"
    }
  },
  {
    "service_request": "2023-1048099",
    "request_type": "Traffic Signals/Signs/Striping/Streetlights",
    "request_reason": "Street Light Outage/Malfunction",
    "date_created": "2023-11-04T20:56:00.000",
    "date_modified": "2023-11-04T20:56:00.000",
    "request_status": "Pending",
    "responsible_agency": "Department of Public Works",
    "final_address": "3500 BLK Rue Denise",
    "address_councildis": "C",
    "status": "Assigned to Contractor",
    "contractor": "Legacy Professional Services",
    "rowid": "1048099",
    "final_x": "3704261.42904",
    "final_y": "517226.038498",
    "longitude": "-89.99672497331625",
    "latitude": "29.915481588044603",
    "geocoded_column": {
      "latitude": "29.915481588044603",
      "longitude": "-89.99672497331625"
    }
  },
  {
    "service_request": "2023-1048097",
    "request_type": "Trash/Recycling",
    "request_reason": "Order Recycling Cart",
    "date_created": "2023-11-04T19:23:13.000",
    "date_modified": "2023-11-04T19:23:13.000",
    "request_status": "Pending",
    "responsible_agency": "Department of Sanitation",
    "final_address": "1127 Congress St",
    "address_councildis": "C",
    "status": "Pending",
    "rowid": "1048097",
    "final_x": "3690829.76208",
    "final_y": "535874.401031",
    "longitude": "-90.03845501770586",
    "latitude": "29.96718219355232",
    "geocoded_column": {
      "latitude": "29.96718219355232",
      "longitude": "-90.03845501770586"
    }
  },
  {
    "service_request": "2023-1048096",
    "request_type": "Traffic Signals/Signs/Striping/Streetlights",
    "request_reason": "Street Light Outage/Malfunction",
    "date_created": "2023-11-04T18:53:49.000",
    "date_modified": "2023-11-04T18:53:50.000",
    "request_status": "Pending",
    "responsible_agency": "Department of Public Works",
    "final_address": "8400 Olive St",
    "address_councildis": "A",
    "status": "Assigned to Contractor",
    "contractor": "Legacy Professional Services",
    "rowid": "1048096",
    "final_x": "3666309.90836",
    "final_y": "534981.544902",
    "longitude": "-90.1159192152125",
    "latitude": "29.9654662596231",
    "geocoded_column": {
      "latitude": "29.9654662596231",
      "longitude": "-90.1159192152125"
    }
  },
  {
    "service_request": "2023-1048095",
    "request_type": "Trash/Recycling",
    "request_reason": "Request a Large Item Pick Up",
    "date_created": "2023-11-04T18:22:40.000",
    "date_modified": "2023-11-04T18:22:41.000",
    "request_status": "Pending",
    "responsible_agency": "Department of Sanitation",
    "final_address": "1425 Alvar St",
    "address_councildis": "D",
    "status": "Assigned to Contractor",
    "contractor": "IV Waste",
    "rowid": "1048095",
    "final_x": "3691861.06038",
    "final_y": "536703.238471",
    "longitude": "-90.03516852601503",
    "latitude": "29.969429118249334",
    "geocoded_column": {
      "latitude": "29.969429118249334",
      "longitude": "-90.03516852601503"
    }
  },
  {
    "service_request": "2023-1048094",
    "request_type": "Trash/Recycling",
    "request_reason": "Replace Trash Cart",
    "date_created": "2023-11-04T17:56:03.000",
    "date_modified": "2023-11-04T17:56:03.000",
    "request_status": "Pending",
    "responsible_agency": "Department of Sanitation",
    "final_address": "1108 Lowerline St",
    "address_councildis": "A",
    "status": "Assigned to Contractor",
    "contractor": "Richards Disposal",
    "rowid": "1048094",
    "final_x": "3663495.88429",
    "final_y": "526614.193662",
    "longitude": "-90.12508444879789",
    "latitude": "29.94254066255777",
    "geocoded_column": {
      "latitude": "29.94254066255777",
      "longitude": "-90.12508444879789"
    }
  },
  {
    "service_request": "2023-1048093",
    "request_type": "Trash/Recycling",
    "request_reason": "Replace Trash Cart",
    "date_created": "2023-11-04T17:52:53.000",
    "date_modified": "2023-11-04T17:52:54.000",
    "request_status": "Pending",
    "responsible_agency": "Department of Sanitation",
    "final_address": "512 S Telemachus St",
    "address_councildis": "B",
    "status": "Assigned to Contractor",
    "contractor": "Richards Disposal",
    "rowid": "1048093",
    "final_x": "3671314.19175",
    "final_y": "535993.711047",
    "longitude": "-90.10008147185886",
    "latitude": "29.968102232582574",
    "geocoded_column": {
      "latitude": "29.968102232582574",
      "longitude": "-90.10008147185886"
    }
  },
  {
    "service_request": "2023-1048092",
    "request_type": "Abandoned Vehicles",
    "request_reason": "Abandoned/Junk Vehicles",
    "date_created": "2023-11-04T17:39:34.000",
    "date_modified": "2023-11-04T17:39:34.000",
    "request_status": "Pending",
    "responsible_agency": "Department of Public Works",
    "final_address": "122 Lavergne St",
    "address_councildis": "C",
    "status": "Pending",
    "rowid": "1048092",
    "final_x": "3686476.28655",
    "final_y": "531181.809666",
    "longitude": "-90.0523689735205",
    "latitude": "29.95441374525521",
    "geocoded_column": {
      "latitude": "29.95441374525521",
      "longitude": "-90.0523689735205"
    }
  },
  {
    "service_request": "2023-1048091",
    "request_type": "Trash/Recycling",
    "request_reason": "Request a Large Item Pick Up",
    "date_created": "2023-11-04T15:39:54.000",
    "date_modified": "2023-11-04T15:39:55.000",
    "request_status": "Pending",
    "responsible_agency": "Department of Sanitation",
    "final_address": "7929 Freret St",
    "address_councildis": "A",
    "status": "Assigned to Contractor",
    "contractor": "Richards Disposal",
    "rowid": "1048091",
    "final_x": "3661926.85114",
    "final_y": "527522.518655",
    "longitude": "-90.13000815603785",
    "latitude": "29.9450836666227",
    "geocoded_column": {
      "latitude": "29.9450836666227",
      "longitude": "-90.13000815603785"
    }
  },
  {
    "service_request": "2023-1048090",
    "request_type": "Trash/Recycling",
    "request_reason": "Request a Large Item Pick Up",
    "date_created": "2023-11-04T15:17:33.000",
    "date_modified": "2023-11-04T15:17:34.000",
    "request_status": "Pending",
    "responsible_agency": "Department of Sanitation",
    "final_address": "414 40Th St",
    "address_councildis": "A",
    "status": "Assigned to Contractor",
    "contractor": "IV Waste",
    "rowid": "1048090",
    "final_x": "3664913.47719",
    "final_y": "553314.535895",
    "longitude": "-90.11971590752057",
    "latitude": "30.01591648090011",
    "geocoded_column": {
      "latitude": "30.01591648090011",
      "longitude": "-90.11971590752057"
    }
  },
  {
    "service_request": "2023-1048089",
    "request_type": "Trash/Recycling",
    "request_reason": "Order Recycling Cart",
    "date_created": "2023-11-04T14:45:51.000",
    "date_modified": "2023-11-04T14:45:51.000",
    "request_status": "Pending",
    "responsible_agency": "Department of Sanitation",
    "final_address": "3218 Constance St",
    "address_councildis": "B",
    "status": "Pending",
    "rowid": "1048089",
    "final_x": "3675839.40865",
    "final_y": "519558.193207",
    "longitude": "-90.08635549904402",
    "latitude": "29.92277529624708",
    "geocoded_column": {
      "latitude": "29.92277529624708",
      "longitude": "-90.08635549904402"
    }
  },
  {
    "service_request": "2023-1048088",
    "request_type": "Abandoned Vehicles",
    "request_reason": "Abandoned/Junk Vehicles",
    "date_created": "2023-11-04T14:30:05.000",
    "date_modified": "2023-11-04T14:30:05.000",
    "request_status": "Pending",
    "responsible_agency": "Department of Public Works",
    "final_address": "MACKENZIE ST & ZENITH ST",
    "address_councildis": "E",
    "status": "Inspected",
    "rowid": "1048088",
    "final_x": "3711195.3",
    "final_y": "565821.88",
    "longitude": "-89.97301834086585",
    "latitude": "30.04887766000586",
    "geocoded_column": {
      "latitude": "30.04887766000586",
      "longitude": "-89.97301834086585"
    }
  },
  {
    "service_request": "2023-1048087",
    "request_type": "Trash/Recycling",
    "request_reason": "Missed Trash Pick-Up",
    "date_created": "2023-11-04T14:27:17.000",
    "date_modified": "2023-11-04T14:27:18.000",
    "request_status": "Pending",
    "responsible_agency": "Department of Sanitation",
    "final_address": "6718 Lake Willow Dr",
    "address_councildis": "E",
    "status": "Assigned to Contractor",
    "contractor": "Waste Pro",
    "rowid": "1048087",
    "final_x": "3704093.68612",
    "final_y": "559481.657053",
    "longitude": "-89.99569743950792",
    "latitude": "30.03167444979784",
    "geocoded_column": {
      "latitude": "30.03167444979784",
      "longitude": "-89.99569743950792"
    }
  },
  {
    "service_request": "2023-1048086",
    "request_type": "Trash/Recycling",
    "request_reason": "Request a Large Item Pick Up",
    "date_created": "2023-11-04T14:24:01.000",
    "date_modified": "2023-11-04T14:24:01.000",
    "request_status": "Pending",
    "responsible_agency": "Department of Sanitation",
    "final_address": "2139 Mediamolle Dr",
    "address_councildis": "C",
    "status": "Assigned to Contractor",
    "contractor": "Richards Disposal",
    "rowid": "1048086",
    "final_x": "3699143.68618",
    "final_y": "523432.406651",
    "longitude": "-90.01265259839734",
    "latitude": "29.932710131741107",
    "geocoded_column": {
      "latitude": "29.932710131741107",
      "longitude": "-90.01265259839734"
    }
  },
  {
    "service_request": "2023-1048085",
    "request_type": "Trash/Recycling",
    "request_reason": "Repair Trash Cart",
    "date_created": "2023-11-04T14:15:05.000",
    "date_modified": "2023-11-04T14:15:06.000",
    "request_status": "Pending",
    "responsible_agency": "Department of Sanitation",
    "final_address": "919 Dublin St",
    "address_councildis": "A",
    "status": "Assigned to Contractor",
    "contractor": "Richards Disposal",
    "rowid": "1048085",
    "final_x": "3661134.81126",
    "final_y": "527931.771007",
    "longitude": "-90.13249534362994",
    "latitude": "29.946231827457982",
    "geocoded_column": {
      "latitude": "29.946231827457982",
      "longitude": "-90.13249534362994"
    }
  },
  {
    "service_request": "2023-1048084",
    "request_type": "Trash/Recycling",
    "request_reason": "Missed Trash Pick-Up",
    "date_created": "2023-11-04T14:05:58.000",
    "date_modified": "2023-11-04T14:05:59.000",
    "request_status": "Pending",
    "responsible_agency": "Department of Sanitation",
    "final_address": "6221 Tchoupitoulas St",
    "address_councildis": "A",
    "status": "Assigned to Contractor",
    "contractor": "Richards Disposal",
    "rowid": "1048084",
    "final_x": "3662964.33619",
    "final_y": "518051.559222",
    "longitude": "-90.12704728020587",
    "latitude": "29.91901151405797",
    "geocoded_column": {
      "latitude": "29.91901151405797",
      "longitude": "-90.12704728020587"
    }
  },
  {
    "service_request": "2023-1048083",
    "request_type": "Roads/Drainage",
    "request_reason": "Street Flooding / Drainage",
    "date_created": "2023-11-04T13:55:08.000",
    "date_modified": "2023-11-04T13:55:08.000",
    "request_status": "Pending",
    "responsible_agency": "Department of Public Works",
    "final_address": "5222 Arts St",
    "address_councildis": "D",
    "status": "Pending",
    "rowid": "1048083",
    "final_x": "3685718.08687",
    "final_y": "552353.021014",
    "longitude": "-90.05401668900672",
    "latitude": "30.012650370088004",
    "geocoded_column": {
      "latitude": "30.012650370088004",
      "longitude": "-90.05401668900672"
    }
  },
  {
    "service_request": "2023-1048082",
    "request_type": "Traffic Signals/Signs/Striping/Streetlights",
    "request_reason": "Street Light Knocked Down/Leaning",
    "date_created": "2023-11-04T13:52:39.000",
    "date_modified": "2023-11-04T13:52:40.000",
    "request_status": "Pending",
    "responsible_agency": "Department of Public Works",
    "final_address": "700 BLK Saint Charles Ave",
    "address_councildis": "B",
    "status": "Pending",
    "contractor": "Legacy Professional Services",
    "rowid": "1048082",
    "final_x": "3680460.68661",
    "final_y": "528288.055416",
    "longitude": "-90.07146448487465",
    "latitude": "29.946640437967677",
    "geocoded_column": {
      "latitude": "29.946640437967677",
      "longitude": "-90.07146448487465"
    }
  },
  {
    "service_request": "2023-1048081",
    "request_type": "Traffic Signals/Signs/Striping/Streetlights",
    "request_reason": "Street Light Knocked Down/Leaning",
    "date_created": "2023-11-04T13:51:45.000",
    "date_modified": "2023-11-04T13:51:45.000",
    "request_status": "Pending",
    "responsible_agency": "Department of Public Works",
    "final_address": "700 BLK Saint Charles Ave",
    "address_councildis": "B",
    "status": "Pending",
    "contractor": "Legacy Professional Services",
    "rowid": "1048081",
    "final_x": "3680460.68661",
    "final_y": "528288.055416",
    "longitude": "-90.07146448487465",
    "latitude": "29.946640437967677",
    "geocoded_column": {
      "latitude": "29.946640437967677",
      "longitude": "-90.07146448487465"
    }
  },
  {
    "service_request": "2023-1048080",
    "request_type": "Trash/Recycling",
    "request_reason": "Repair Recycling Cart",
    "date_created": "2023-11-04T13:46:26.000",
    "date_modified": "2023-11-04T13:46:26.000",
    "request_status": "Pending",
    "responsible_agency": "Department of Sanitation",
    "final_address": "922 Adams St",
    "address_councildis": "A",
    "status": "Pending",
    "rowid": "1048080",
    "final_x": "3662443.70746",
    "final_y": "526768.232062",
    "longitude": "-90.12840131542436",
    "latitude": "29.942994684292536",
    "geocoded_column": {
      "latitude": "29.942994684292536",
      "longitude": "-90.12840131542436"
    }
  },
  {
    "service_request": "2023-1048079",
    "request_type": "Roads/Drainage",
    "request_reason": "Street Subsidence (Sinking)",
    "date_created": "2023-11-04T13:44:44.000",
    "date_modified": "2023-11-04T13:44:44.000",
    "request_status": "Pending",
    "responsible_agency": "Department of Public Works",
    "final_address": "4117 Willow St",
    "address_councildis": "B",
    "status": "Pending",
    "rowid": "1048079",
    "final_x": "3671390.3243",
    "final_y": "525574.892861",
    "longitude": "-90.10019514005789",
    "latitude": "29.939451668518128",
    "geocoded_column": {
      "latitude": "29.939451668518128",
      "longitude": "-90.10019514005789"
    }
  },
  {
    "service_request": "2023-1048077",
    "request_type": "Trash/Recycling",
    "request_reason": "Repair Recycling Cart",
    "date_created": "2023-11-04T13:36:46.000",
    "date_modified": "2023-11-04T13:36:46.000",
    "request_status": "Pending",
    "responsible_agency": "Department of Sanitation",
    "final_address": "922 Adams St",
    "address_councildis": "A",
    "status": "Pending",
    "rowid": "1048077",
    "final_x": "3662443.70746",
    "final_y": "526768.232062",
    "longitude": "-90.12840131542436",
    "latitude": "29.942994684292536",
    "geocoded_column": {
      "latitude": "29.942994684292536",
      "longitude": "-90.12840131542436"
    }
  },
  {
    "service_request": "2023-1048076",
    "request_type": "Trash/Recycling",
    "request_reason": "Return Trash Cart",
    "date_created": "2023-11-04T13:34:36.000",
    "date_modified": "2023-11-04T13:34:37.000",
    "request_status": "Pending",
    "responsible_agency": "Department of Sanitation",
    "final_address": "1318 Nashville Ave",
    "address_councildis": "A",
    "status": "Assigned to Contractor",
    "contractor": "Richards Disposal",
    "rowid": "1048076",
    "final_x": "3665867.84429",
    "final_y": "520841.413625",
    "longitude": "-90.11778894303781",
    "latitude": "29.926598369111478",
    "geocoded_column": {
      "latitude": "29.926598369111478",
      "longitude": "-90.11778894303781"
    }
  },
  {
    "service_request": "2023-1048075",
    "request_type": "Trash/Recycling",
    "request_reason": "MIssed Recycling Pick-Up",
    "date_created": "2023-11-04T13:08:57.000",
    "date_modified": "2023-11-04T13:08:58.000",
    "request_status": "Pending",
    "responsible_agency": "Department of Sanitation",
    "final_address": "3118 Hamilton St",
    "address_councildis": "A",
    "status": "Assigned to Contractor",
    "contractor": "Richards Disposal",
    "rowid": "1048075",
    "final_x": "3664010.80244",
    "final_y": "535913.144903",
    "longitude": "-90.1231486503308",
    "latitude": "29.968094819180052",
    "geocoded_column": {
      "latitude": "29.968094819180052",
      "longitude": "-90.1231486503308"
    }
  },
  {
    "service_request": "2023-1048074",
    "request_type": "Trash/Recycling",
    "request_reason": "MIssed Recycling Pick-Up",
    "date_created": "2023-11-04T13:07:56.000",
    "date_modified": "2023-11-04T13:07:57.000",
    "request_status": "Pending",
    "responsible_agency": "Department of Sanitation",
    "final_address": "3122 Hamilton St",
    "address_councildis": "A",
    "status": "Assigned to Contractor",
    "contractor": "Richards Disposal",
    "rowid": "1048074",
    "final_x": "3664036.48359",
    "final_y": "535942.806919",
    "longitude": "-90.12306655849386",
    "latitude": "29.96817563412154",
    "geocoded_column": {
      "latitude": "29.96817563412154",
      "longitude": "-90.12306655849386"
    }
  },
  {
    "service_request": "2023-1048073",
    "request_type": "Roads/Drainage",
    "request_reason": "Road Shoulder Repair",
    "date_created": "2023-11-04T13:05:23.000",
    "date_modified": "2023-11-04T13:05:23.000",
    "request_status": "Pending",
    "responsible_agency": "Department of Public Works",
    "final_address": "1736 Valmont St",
    "address_councildis": "B",
    "status": "Pending",
    "rowid": "1048073",
    "final_x": "3667904.17389",
    "final_y": "522135.264762",
    "longitude": "-90.11131722851702",
    "latitude": "29.930096492868557",
    "geocoded_column": {
      "latitude": "29.930096492868557",
      "longitude": "-90.11131722851702"
    }
  },
  {
    "service_request": "2023-1048072",
    "request_type": "Roads/Drainage",
    "request_reason": "Pothole",
    "date_created": "2023-11-04T13:00:08.000",
    "date_modified": "2023-11-04T13:00:08.000",
    "request_status": "Pending",
    "responsible_agency": "Department of Public Works",
    "final_address": "4901 Dryades St",
    "address_councildis": "B",
    "status": "Pending",
    "rowid": "1048072",
    "final_x": "3669061.19386",
    "final_y": "521866.93529",
    "longitude": "-90.1076737554389",
    "latitude": "29.929324692464",
    "geocoded_column": {
      "latitude": "29.929324692464",
      "longitude": "-90.1076737554389"
    }
  },
  {
    "service_request": "2023-1048071",
    "request_type": "Roads/Drainage",
    "request_reason": "Road Shoulder Repair",
    "date_created": "2023-11-04T12:56:53.000",
    "date_modified": "2023-11-04T12:56:53.000",
    "request_status": "Pending",
    "responsible_agency": "Department of Public Works",
    "final_address": "4724 Danneel St",
    "address_councildis": "B",
    "status": "Pending",
    "rowid": "1048071",
    "final_x": "3669380.02023",
    "final_y": "522127.074298",
    "longitude": "-90.10665848612429",
    "latitude": "29.930030610399626",
    "geocoded_column": {
      "latitude": "29.930030610399626",
      "longitude": "-90.10665848612429"
    }
  },
  {
    "service_request": "2023-1048070",
    "request_type": "Traffic Signals/Signs/Striping/Streetlights",
    "request_reason": "Traffic Signal Malfunctioning/Damaged",
    "date_created": "2023-11-04T12:56:17.000",
    "date_modified": "2023-11-04T12:56:17.000",
    "request_status": "Pending",
    "responsible_agency": "Department of Public Works",
    "final_address": "5107 Dryades St",
    "address_councildis": "B",
    "status": "Pending",
    "rowid": "1048070",
    "final_x": "3668327.39854",
    "final_y": "521870.612282",
    "longitude": "-90.10999009292964",
    "latitude": "29.929356365141565",
    "geocoded_column": {
      "latitude": "29.929356365141565",
      "longitude": "-90.10999009292964"
    }
  },
  {
    "service_request": "2023-1048069",
    "request_type": "Roads/Drainage",
    "request_reason": "Street Subsidence (Sinking)",
    "date_created": "2023-11-04T12:37:22.000",
    "date_modified": "2023-11-04T12:37:22.000",
    "request_status": "Pending",
    "responsible_agency": "Department of Public Works",
    "final_address": "6100 Louisville St",
    "address_councildis": "A",
    "status": "Pending",
    "rowid": "1048069",
    "final_x": "3667715.56705",
    "final_y": "548061.830802",
    "longitude": "-90.1110395615917",
    "latitude": "30.0013914741055",
    "geocoded_column": {
      "latitude": "30.0013914741055",
      "longitude": "-90.1110395615917"
    }
  },
  {
    "service_request": "2023-1048068",
    "request_type": "Roads/Drainage",
    "request_reason": "Pothole",
    "date_created": "2023-11-04T12:36:15.000",
    "date_modified": "2023-11-04T12:36:15.000",
    "request_status": "Pending",
    "responsible_agency": "Department of Public Works",
    "final_address": "1525 Eleonore St",
    "address_councildis": "A",
    "status": "Pending",
    "rowid": "1048068",
    "final_x": "3665916.94823",
    "final_y": "521918.417722",
    "longitude": "-90.11759786279285",
    "latitude": "29.929558357498486",
    "geocoded_column": {
      "latitude": "29.929558357498486",
      "longitude": "-90.11759786279285"
    }
  },
  {
    "service_request": "2023-1048067",
    "request_type": "Roads/Drainage",
    "request_reason": "Pothole",
    "date_created": "2023-11-04T12:33:39.000",
    "date_modified": "2023-11-04T12:33:39.000",
    "request_status": "Pending",
    "responsible_agency": "Department of Public Works",
    "final_address": "6019 Chestnut St",
    "address_councildis": "A",
    "status": "Pending",
    "rowid": "1048067",
    "final_x": "3664762.62535",
    "final_y": "519948.884408",
    "longitude": "-90.12130763332809",
    "latitude": "29.92417638659354",
    "geocoded_column": {
      "latitude": "29.92417638659354",
      "longitude": "-90.12130763332809"
    }
  },
  {
    "service_request": "2023-1048066",
    "request_type": "Roads/Drainage",
    "request_reason": "Pothole",
    "date_created": "2023-11-04T12:29:28.000",
    "date_modified": "2023-11-04T12:29:28.000",
    "request_status": "Pending",
    "responsible_agency": "Department of Public Works",
    "final_address": "6125 Hurst St",
    "address_councildis": "A",
    "status": "Pending",
    "rowid": "1048066",
    "final_x": "3664895.78183",
    "final_y": "522126.382394",
    "longitude": "-90.1208145673127",
    "latitude": "29.930159946687763",
    "geocoded_column": {
      "latitude": "29.930159946687763",
      "longitude": "-90.1208145673127"
    }
  },
  {
    "service_request": "2023-1048065",
    "request_type": "Property Maintenance",
    "request_reason": "Property Maintenance",
    "date_created": "2023-11-04T12:25:10.000",
    "date_modified": "2023-11-04T12:25:10.000",
    "request_status": "Pending",
    "responsible_agency": "Department of Code Enforcement",
    "final_address": "5020 Magazine St",
    "address_councildis": "B",
    "status": "Pending",
    "rowid": "1048065",
    "final_x": "3668469.1177",
    "final_y": "518550.817719",
    "longitude": "-90.10965462958676",
    "latitude": "29.920223821291202",
    "geocoded_column": {
      "latitude": "29.920223821291202",
      "longitude": "-90.10965462958676"
    }
  },
  {
    "service_request": "2023-1048064",
    "request_type": "Property Maintenance",
    "request_reason": "Property Maintenance",
    "date_created": "2023-11-04T12:24:37.000",
    "date_modified": "2023-11-04T12:24:37.000",
    "request_status": "Pending",
    "responsible_agency": "Department of Code Enforcement",
    "final_address": "5020 Magazine St",
    "address_councildis": "B",
    "status": "Pending",
    "rowid": "1048064",
    "final_x": "3668469.1177",
    "final_y": "518550.817719",
    "longitude": "-90.10965462958676",
    "latitude": "29.920223821291202",
    "geocoded_column": {
      "latitude": "29.920223821291202",
      "longitude": "-90.10965462958676"
    }
  },
  {
    "service_request": "2023-1048063",
    "request_type": "Property Maintenance",
    "request_reason": "Property Maintenance",
    "date_created": "2023-11-04T12:23:38.000",
    "date_modified": "2023-11-04T12:23:38.000",
    "request_status": "Pending",
    "responsible_agency": "Department of Code Enforcement",
    "final_address": "5020 Magazine St",
    "address_councildis": "B",
    "status": "Pending",
    "rowid": "1048063",
    "final_x": "3668469.1177",
    "final_y": "518550.817719",
    "longitude": "-90.10965462958676",
    "latitude": "29.920223821291202",
    "geocoded_column": {
      "latitude": "29.920223821291202",
      "longitude": "-90.10965462958676"
    }
  },
  {
    "service_request": "2023-1048062",
    "request_type": "Property Maintenance",
    "request_reason": "Property Maintenance",
    "date_created": "2023-11-04T12:23:17.000",
    "date_modified": "2023-11-04T12:23:17.000",
    "request_status": "Pending",
    "responsible_agency": "Department of Code Enforcement",
    "final_address": "5020 Magazine St",
    "address_councildis": "B",
    "status": "Pending",
    "rowid": "1048062",
    "final_x": "3668469.1177",
    "final_y": "518550.817719",
    "longitude": "-90.10965462958676",
    "latitude": "29.920223821291202",
    "geocoded_column": {
      "latitude": "29.920223821291202",
      "longitude": "-90.10965462958676"
    }
  },
  {
    "service_request": "2023-1048061",
    "request_type": "Property Maintenance",
    "request_reason": "Property Maintenance",
    "date_created": "2023-11-04T12:22:12.000",
    "date_modified": "2023-11-04T12:22:12.000",
    "request_status": "Pending",
    "responsible_agency": "Department of Code Enforcement",
    "final_address": "5020 Magazine St",
    "address_councildis": "B",
    "status": "Pending",
    "rowid": "1048061",
    "final_x": "3668469.1177",
    "final_y": "518550.817719",
    "longitude": "-90.10965462958676",
    "latitude": "29.920223821291202",
    "geocoded_column": {
      "latitude": "29.920223821291202",
      "longitude": "-90.10965462958676"
    }
  },
  {
    "service_request": "2023-1048060",
    "request_type": "Trash/Recycling",
    "request_reason": "Request a Large Item Pick Up",
    "date_created": "2023-11-04T12:21:02.000",
    "date_modified": "2023-11-04T12:21:02.000",
    "request_status": "Pending",
    "responsible_agency": "Department of Sanitation",
    "final_address": "1425 Alvar St",
    "address_councildis": "D",
    "status": "Assigned to Contractor",
    "contractor": "IV Waste",
    "rowid": "1048060",
    "final_x": "3691861.06038",
    "final_y": "536703.238471",
    "longitude": "-90.03516852601503",
    "latitude": "29.969429118249334",
    "geocoded_column": {
      "latitude": "29.969429118249334",
      "longitude": "-90.03516852601503"
    }
  },
  {
    "service_request": "2023-1048059",
    "request_type": "Property Maintenance",
    "request_reason": "Property Maintenance",
    "date_created": "2023-11-04T12:19:35.000",
    "date_modified": "2023-11-04T12:19:35.000",
    "request_status": "Pending",
    "responsible_agency": "Department of Code Enforcement",
    "final_address": "4568 Laine Ave",
    "address_councildis": "E",
    "status": "Pending",
    "rowid": "1048059",
    "final_x": "3705738.45931",
    "final_y": "554317.086552",
    "longitude": "-89.99069114680827",
    "latitude": "30.017420989602584",
    "geocoded_column": {
      "latitude": "30.017420989602584",
      "longitude": "-89.99069114680827"
    }
  },
  {
    "service_request": "2023-1048058",
    "request_type": "Property Maintenance",
    "request_reason": "Property Maintenance",
    "date_created": "2023-11-04T12:18:44.000",
    "date_modified": "2023-11-04T12:18:44.000",
    "request_status": "Pending",
    "responsible_agency": "Department of Code Enforcement",
    "final_address": "4568 Laine Ave",
    "address_councildis": "E",
    "status": "Pending",
    "rowid": "1048058",
    "final_x": "3705738.45931",
    "final_y": "554317.086552",
    "longitude": "-89.99069114680827",
    "latitude": "30.017420989602584",
    "geocoded_column": {
      "latitude": "30.017420989602584",
      "longitude": "-89.99069114680827"
    }
  },
  {
    "service_request": "2023-1048055",
    "request_type": "Abandoned Vehicles",
    "request_reason": "Abandoned/Junk Vehicles",
    "date_created": "2023-11-04T11:40:22.000",
    "date_modified": "2023-11-04T11:40:22.000",
    "request_status": "Pending",
    "responsible_agency": "Department of Public Works",
    "final_address": "3516 Desaix Blvd",
    "address_councildis": "A",
    "status": "Pending",
    "rowid": "1048055",
    "final_x": "3676159.09224",
    "final_y": "543579.479246",
    "longitude": "-90.08451998404266",
    "latitude": "29.988816217927056",
    "geocoded_column": {
      "latitude": "29.988816217927056",
      "longitude": "-90.08451998404266"
    }
  },
  {
    "service_request": "2023-1048054",
    "request_type": "Trash/Recycling",
    "request_reason": "Missed Trash Pick-Up",
    "date_created": "2023-11-04T11:34:43.000",
    "date_modified": "2023-11-04T11:34:43.000",
    "request_status": "Pending",
    "responsible_agency": "Department of Sanitation",
    "final_address": "6220 Freret St",
    "address_councildis": "A",
    "status": "Assigned to Contractor",
    "contractor": "Richards Disposal",
    "rowid": "1048054",
    "final_x": "3665733.71892",
    "final_y": "524645.390204",
    "longitude": "-90.11808498670464",
    "latitude": "29.93706200929093",
    "geocoded_column": {
      "latitude": "29.93706200929093",
      "longitude": "-90.11808498670464"
    }
  },
  {
    "service_request": "2023-1048053",
    "request_type": "Trash/Recycling",
    "request_reason": "Request a Large Item Pick Up",
    "date_created": "2023-11-04T11:19:21.000",
    "date_modified": "2023-11-04T11:19:22.000",
    "request_status": "Pending",
    "responsible_agency": "Department of Sanitation",
    "final_address": "6269 Milne Blvd",
    "address_councildis": "A",
    "status": "Assigned to Contractor",
    "contractor": "IV Waste",
    "rowid": "1048053",
    "final_x": "3667283.88359",
    "final_y": "549205.741331",
    "longitude": "-90.11236478792354",
    "latitude": "30.0045494863506",
    "geocoded_column": {
      "latitude": "30.0045494863506",
      "longitude": "-90.11236478792354"
    }
  },
  {
    "service_request": "2023-1048052",
    "request_type": "Roads/Drainage",
    "request_reason": "Damaged Sidewalk",
    "date_created": "2023-11-04T11:10:24.000",
    "date_modified": "2023-11-04T11:10:24.000",
    "request_status": "Pending",
    "responsible_agency": "Department of Public Works",
    "final_address": "723 Valence St",
    "address_councildis": "B",
    "status": "Pending",
    "rowid": "1048052",
    "final_x": "3670046.30727",
    "final_y": "518139.795446",
    "longitude": "-90.10469009039598",
    "latitude": "29.919047232233638",
    "geocoded_column": {
      "latitude": "29.919047232233638",
      "longitude": "-90.10469009039598"
    }
  },
  {
    "service_request": "2023-1048051",
    "request_type": "Property Maintenance",
    "request_reason": "Property Maintenance",
    "date_created": "2023-11-04T10:58:53.000",
    "date_modified": "2023-11-04T10:58:53.000",
    "request_status": "Pending",
    "responsible_agency": "Department of Code Enforcement",
    "final_address": "5800 BLK Saint Claude Ave",
    "address_councildis": "E",
    "status": "Pending",
    "rowid": "1048051",
    "final_x": "3698764.23432",
    "final_y": "533574.223322",
    "longitude": "-90.01348169980157",
    "latitude": "29.960608592998856",
    "geocoded_column": {
      "latitude": "29.960608592998856",
      "longitude": "-90.01348169980157"
    }
  },
  {
    "service_request": "2023-1048048",
    "request_type": "Property Maintenance",
    "request_reason": "Property Maintenance",
    "date_created": "2023-11-04T10:50:21.000",
    "date_modified": "2023-11-04T10:50:21.000",
    "request_status": "Pending",
    "responsible_agency": "Department of Code Enforcement",
    "final_address": "2930 Annunciation St",
    "address_councildis": "B",
    "status": "Pending",
    "rowid": "1048048",
    "final_x": "3677023.78414",
    "final_y": "519448.265591",
    "longitude": "-90.08262067863652",
    "latitude": "29.922437536745804",
    "geocoded_column": {
      "latitude": "29.922437536745804",
      "longitude": "-90.08262067863652"
    }
  },
  {
    "service_request": "2023-1048047",
    "request_type": "Property Maintenance",
    "request_reason": "Property Maintenance",
    "date_created": "2023-11-04T10:49:03.000",
    "date_modified": "2023-11-04T10:49:03.000",
    "request_status": "Pending",
    "responsible_agency": "Department of Code Enforcement",
    "final_address": "604 Seventh St",
    "address_councildis": "B",
    "status": "Pending",
    "rowid": "1048047",
    "final_x": "3677317.14562",
    "final_y": "518885.433719",
    "longitude": "-90.08171406137319",
    "latitude": "29.920881122929323",
    "geocoded_column": {
      "latitude": "29.920881122929323",
      "longitude": "-90.08171406137319"
    }
  },
  {
    "service_request": "2023-1048046",
    "request_type": "Trash/Recycling",
    "request_reason": "Replace Trash Cart",
    "date_created": "2023-11-04T10:47:22.000",
    "date_modified": "2023-11-04T10:47:23.000",
    "request_status": "Pending",
    "responsible_agency": "Department of Sanitation",
    "final_address": "6101 Kingston Ct",
    "address_councildis": "C",
    "status": "Assigned to Contractor",
    "contractor": "Richards Disposal",
    "rowid": "1048046",
    "final_x": "3706523.09111",
    "final_y": "517689.952566",
    "longitude": "-89.98956921011201",
    "latitude": "29.916684455616814",
    "geocoded_column": {
      "latitude": "29.916684455616814",
      "longitude": "-89.98956921011201"
    }
  },
  {
    "service_request": "2023-1048045",
    "request_type": "Roads/Drainage",
    "request_reason": "Catch Basin - Clogged",
    "date_created": "2023-11-04T10:45:19.000",
    "date_modified": "2023-11-04T10:45:19.000",
    "request_status": "Pending",
    "responsible_agency": "Department of Public Works",
    "final_address": "630 Seventh St",
    "address_councildis": "B",
    "status": "Pending",
    "rowid": "1048045",
    "final_x": "3677203.72392",
    "final_y": "519049.775607",
    "longitude": "-90.08206641747336",
    "latitude": "29.921336416216292",
    "geocoded_column": {
      "latitude": "29.921336416216292",
      "longitude": "-90.08206641747336"
    }
  },
  {
    "service_request": "2023-1048044",
    "request_type": "Trash/Recycling",
    "request_reason": "Replace Trash Cart",
    "date_created": "2023-11-04T10:31:44.000",
    "date_modified": "2023-11-04T10:31:45.000",
    "request_status": "Pending",
    "responsible_agency": "Department of Sanitation",
    "final_address": "2030 Burgundy St",
    "address_councildis": "C",
    "status": "Assigned to Contractor",
    "contractor": "IV Waste",
    "rowid": "1048044",
    "final_x": "3684554.94524",
    "final_y": "535514.623814",
    "longitude": "-90.05828356108412",
    "latitude": "29.966386416183127",
    "geocoded_column": {
      "latitude": "29.966386416183127",
      "longitude": "-90.05828356108412"
    }
  },
  {
    "service_request": "2023-1048043",
    "request_type": "Trash/Recycling",
    "request_reason": "Repair Trash Cart",
    "date_created": "2023-11-04T10:27:07.000",
    "date_modified": "2023-11-04T10:27:08.000",
    "request_status": "Pending",
    "responsible_agency": "Department of Sanitation",
    "final_address": "8320 S Claiborne Ave",
    "address_councildis": "A",
    "status": "Assigned to Contractor",
    "contractor": "Richards Disposal",
    "rowid": "1048043",
    "final_x": "3664099.469",
    "final_y": "532081.427267",
    "longitude": "-90.12299645514642",
    "latitude": "29.95755627598538",
    "geocoded_column": {
      "latitude": "29.95755627598538",
      "longitude": "-90.12299645514642"
    }
  },
  {
    "service_request": "2023-1048042",
    "request_type": "Property Maintenance",
    "request_reason": "Property Maintenance",
    "date_created": "2023-11-04T10:20:37.000",
    "date_modified": "2023-11-04T10:20:37.000",
    "request_status": "Pending",
    "responsible_agency": "Department of Code Enforcement",
    "final_address": "4725 Crowder Blvd",
    "address_councildis": "E",
    "status": "Pending",
    "rowid": "1048042",
    "final_x": "3706541.38091",
    "final_y": "555632.403865",
    "longitude": "-89.98810546678577",
    "latitude": "30.021011709723457",
    "geocoded_column": {
      "latitude": "30.021011709723457",
      "longitude": "-89.98810546678577"
    }
  },
  {
    "service_request": "2023-1048041",
    "request_type": "Roads/Drainage",
    "request_reason": "Street Subsidence (Sinking)",
    "date_created": "2023-11-04T10:05:43.000",
    "date_modified": "2023-11-04T10:05:43.000",
    "request_status": "Pending",
    "responsible_agency": "Department of Public Works",
    "final_address": "85 Allard Blvd",
    "address_councildis": "A",
    "status": "Pending",
    "rowid": "1048041",
    "final_x": "3672766.23892",
    "final_y": "540290.684107",
    "longitude": "-90.09534922910164",
    "latitude": "29.97987439942383",
    "geocoded_column": {
      "latitude": "29.97987439942383",
      "longitude": "-90.09534922910164"
    }
  },
  {
    "service_request": "2023-1048040",
    "request_type": "Trash/Recycling",
    "request_reason": "Request a Large Item Pick Up",
    "date_created": "2023-11-04T09:49:33.000",
    "date_modified": "2023-11-04T09:49:34.000",
    "request_status": "Pending",
    "responsible_agency": "Department of Sanitation",
    "final_address": "7430 Camberley Dr",
    "address_councildis": "E",
    "status": "Assigned to Contractor",
    "contractor": "Waste Pro",
    "rowid": "1048040",
    "final_x": "3712692.96523",
    "final_y": "565553.582626",
    "longitude": "-89.96829497604182",
    "latitude": "30.04809097801865",
    "geocoded_column": {
      "latitude": "30.04809097801865",
      "longitude": "-89.96829497604182"
    }
  },
  {
    "service_request": "2023-1048039",
    "request_type": "Trash/Recycling",
    "request_reason": "Replace Trash Cart",
    "date_created": "2023-11-04T09:33:04.000",
    "date_modified": "2023-11-04T09:33:05.000",
    "request_status": "Pending",
    "responsible_agency": "Department of Sanitation",
    "final_address": "240 S Olympia St",
    "address_councildis": "A",
    "status": "Assigned to Contractor",
    "contractor": "Richards Disposal",
    "rowid": "1048039",
    "final_x": "3668979.9323",
    "final_y": "538993.140618",
    "longitude": "-90.10735182804287",
    "latitude": "29.97641853221242",
    "geocoded_column": {
      "latitude": "29.97641853221242",
      "longitude": "-90.10735182804287"
    }
  },
  {
    "service_request": "2023-1048038",
    "request_type": "Abandoned Vehicles",
    "request_reason": "Abandoned/Junk Vehicles",
    "date_created": "2023-11-04T09:31:45.000",
    "date_modified": "2023-11-04T09:31:45.000",
    "request_status": "Pending",
    "responsible_agency": "Department of Public Works",
    "final_address": "AMERICA ST & SELMA ST",
    "address_councildis": "E",
    "status": "Inspected",
    "rowid": "1048038",
    "final_x": "3699851.6",
    "final_y": "553648.38",
    "longitude": "-90.00931556513032",
    "latitude": "30.01577065487151",
    "geocoded_column": {
      "latitude": "30.01577065487151",
      "longitude": "-90.00931556513032"
    }
  },
  {
    "service_request": "2023-1048037",
    "request_type": "Trash/Recycling",
    "request_reason": "Request a Large Item Pick Up",
    "date_created": "2023-11-04T09:30:51.000",
    "date_modified": "2023-11-04T09:30:51.000",
    "request_status": "Pending",
    "responsible_agency": "Department of Sanitation",
    "final_address": "240 S Olympia St",
    "address_councildis": "A",
    "status": "Assigned to Contractor",
    "contractor": "Richards Disposal",
    "rowid": "1048037",
    "final_x": "3668979.9323",
    "final_y": "538993.140618",
    "longitude": "-90.10735182804287",
    "latitude": "29.97641853221242",
    "geocoded_column": {
      "latitude": "29.97641853221242",
      "longitude": "-90.10735182804287"
    }
  },
  {
    "service_request": "2023-1048036",
    "request_type": "Abandoned Vehicles",
    "request_reason": "Abandoned/Junk Vehicles",
    "date_created": "2023-11-04T09:28:10.000",
    "date_modified": "2023-11-04T09:28:10.000",
    "request_status": "Pending",
    "responsible_agency": "Department of Public Works",
    "final_address": "4422 America St",
    "address_councildis": "E",
    "status": "Inspected",
    "rowid": "1048036",
    "final_x": "3699827.78832",
    "final_y": "553312.188183",
    "longitude": "-90.00940307184027",
    "latitude": "30.014847011386752",
    "geocoded_column": {
      "latitude": "30.014847011386752",
      "longitude": "-90.00940307184027"
    }
  },
  {
    "service_request": "2023-1048035",
    "request_type": "Trash/Recycling",
    "request_reason": "Return Trash Cart",
    "date_created": "2023-11-04T09:23:37.000",
    "date_modified": "2023-11-04T09:23:38.000",
    "request_status": "Pending",
    "responsible_agency": "Department of Sanitation",
    "final_address": "3100 Monroe St",
    "address_councildis": "A",
    "status": "Assigned to Contractor",
    "contractor": "Richards Disposal",
    "rowid": "1048035",
    "final_x": "3664964.75271",
    "final_y": "534883.101062",
    "longitude": "-90.12017046623276",
    "latitude": "29.965234800534574",
    "geocoded_column": {
      "latitude": "29.965234800534574",
      "longitude": "-90.12017046623276"
    }
  },
  {
    "service_request": "2023-1048034",
    "request_type": "Abandoned Vehicles",
    "request_reason": "Abandoned/Junk Vehicles",
    "date_created": "2023-11-04T09:19:08.000",
    "date_modified": "2023-11-04T09:19:08.000",
    "request_status": "Pending",
    "responsible_agency": "Department of Public Works",
    "final_address": "AMERICA ST & RANSOM ST",
    "address_councildis": "E",
    "status": "Inspected",
    "rowid": "1048034",
    "final_x": "3699906.3",
    "final_y": "553105.88",
    "longitude": "-90.00916254709244",
    "latitude": "30.01427724752525",
    "geocoded_column": {
      "latitude": "30.01427724752525",
      "longitude": "-90.00916254709244"
    }
  },
  {
    "service_request": "2023-1048033",
    "request_type": "Abandoned Vehicles",
    "request_reason": "Abandoned/Junk Vehicles",
    "date_created": "2023-11-04T09:12:46.000",
    "date_modified": "2023-11-04T09:12:46.000",
    "request_status": "Pending",
    "responsible_agency": "Department of Public Works",
    "final_address": "4559 America St",
    "address_councildis": "E",
    "status": "Inspected",
    "rowid": "1048033",
    "final_x": "3699846.65258",
    "final_y": "554105.594456",
    "longitude": "-90.00931450442448",
    "latitude": "30.017027978206922",
    "geocoded_column": {
      "latitude": "30.017027978206922",
      "longitude": "-90.00931450442448"
    }
  },
  {
    "service_request": "2023-1048032",
    "request_type": "Trash/Recycling",
    "request_reason": "Request a Large Item Pick Up",
    "date_created": "2023-11-04T09:11:53.000",
    "date_modified": "2023-11-04T09:11:53.000",
    "request_status": "Pending",
    "responsible_agency": "Department of Sanitation",
    "final_address": "6726 Fleur-De-Lis Dr",
    "address_councildis": "A",
    "status": "Assigned to Contractor",
    "contractor": "IV Waste",
    "rowid": "1048032",
    "final_x": "3665356.01178",
    "final_y": "552952.074903",
    "longitude": "-90.11832983374639",
    "latitude": "30.014906944850942",
    "geocoded_column": {
      "latitude": "30.014906944850942",
      "longitude": "-90.11832983374639"
    }
  },
  {
    "service_request": "2023-1048031",
    "request_type": "Abandoned Vehicles",
    "request_reason": "Abandoned/Junk Vehicles",
    "date_created": "2023-11-04T09:11:12.000",
    "date_modified": "2023-11-04T09:11:12.000",
    "request_status": "Pending",
    "responsible_agency": "Department of Public Works",
    "final_address": "4327 America St",
    "address_councildis": "E",
    "status": "Inspected",
    "rowid": "1048031",
    "final_x": "3699973.03984",
    "final_y": "552805.97007",
    "longitude": "-90.00896263587734",
    "latitude": "30.01345048792716",
    "geocoded_column": {
      "latitude": "30.01345048792716",
      "longitude": "-90.00896263587734"
    }
  },
  {
    "service_request": "2023-1048030",
    "request_type": "Abandoned Vehicles",
    "request_reason": "Abandoned/Junk Vehicles",
    "date_created": "2023-11-04T09:08:17.000",
    "date_modified": "2023-11-04T09:08:17.000",
    "request_status": "Pending",
    "responsible_agency": "Department of Public Works",
    "final_address": "AMERICA ST & SELMA ST",
    "address_councildis": "E",
    "status": "Inspected",
    "rowid": "1048030",
    "final_x": "3699851.6",
    "final_y": "553648.38",
    "longitude": "-90.00931556513032",
    "latitude": "30.01577065487151",
    "geocoded_column": {
      "latitude": "30.01577065487151",
      "longitude": "-90.00931556513032"
    }
  },
  {
    "service_request": "2023-1048029",
    "request_type": "Trash/Recycling",
    "request_reason": "Return Recycling Cart",
    "date_created": "2023-11-04T09:08:14.000",
    "date_modified": "2023-11-04T09:08:14.000",
    "request_status": "Pending",
    "responsible_agency": "Department of Sanitation",
    "final_address": "4420 Bienville Ave",
    "address_councildis": "A",
    "status": "Pending",
    "rowid": "1048029",
    "final_x": "3670273.78958",
    "final_y": "539865.60193",
    "longitude": "-90.10323584382401",
    "latitude": "29.9787793771667",
    "geocoded_column": {
      "latitude": "29.9787793771667",
      "longitude": "-90.10323584382401"
    }
  },
  {
    "service_request": "2023-1048028",
    "request_type": "Abandoned Vehicles",
    "request_reason": "Abandoned/Junk Vehicles",
    "date_created": "2023-11-04T09:03:14.000",
    "date_modified": "2023-11-04T09:03:14.000",
    "request_status": "Pending",
    "responsible_agency": "Department of Public Works",
    "final_address": "4422 America St",
    "address_councildis": "E",
    "status": "Inspected",
    "rowid": "1048028",
    "final_x": "3699827.78832",
    "final_y": "553312.188183",
    "longitude": "-90.00940307184027",
    "latitude": "30.014847011386752",
    "geocoded_column": {
      "latitude": "30.014847011386752",
      "longitude": "-90.00940307184027"
    }
  },
  {
    "service_request": "2023-1048027",
    "request_type": "Abandoned Vehicles",
    "request_reason": "Abandoned/Junk Vehicles",
    "date_created": "2023-11-04T09:01:59.000",
    "date_modified": "2023-11-04T09:01:59.000",
    "request_status": "Pending",
    "responsible_agency": "Department of Public Works",
    "final_address": "4260 America St",
    "address_councildis": "E",
    "status": "Inspected",
    "rowid": "1048027",
    "final_x": "3699910.99965",
    "final_y": "552530.143766",
    "longitude": "-90.00916871990987",
    "latitude": "30.01269404146191",
    "geocoded_column": {
      "latitude": "30.01269404146191",
      "longitude": "-90.00916871990987"
    }
  },
  {
    "service_request": "2023-1048026",
    "request_type": "Abandoned Vehicles",
    "request_reason": "Abandoned/Junk Vehicles",
    "date_created": "2023-11-04T08:57:32.000",
    "date_modified": "2023-11-04T08:57:32.000",
    "request_status": "Pending",
    "responsible_agency": "Department of Public Works",
    "final_address": "AMERICA ST & RANSOM ST",
    "address_councildis": "E",
    "status": "Inspected",
    "rowid": "1048026",
    "final_x": "3699906.3",
    "final_y": "553105.88",
    "longitude": "-90.00916254709244",
    "latitude": "30.01427724752525",
    "geocoded_column": {
      "latitude": "30.01427724752525",
      "longitude": "-90.00916254709244"
    }
  },
  {
    "service_request": "2023-1048025",
    "request_type": "Abandoned Vehicles",
    "request_reason": "Abandoned/Junk Vehicles",
    "date_created": "2023-11-04T08:51:48.000",
    "date_modified": "2023-11-04T08:51:48.000",
    "request_status": "Pending",
    "responsible_agency": "Department of Public Works",
    "final_address": "AMERICA ST & WARFIELD ST",
    "address_councildis": "E",
    "status": "Inspected",
    "rowid": "1048025",
    "final_x": "3699956.6",
    "final_y": "552574.38",
    "longitude": "-90.0090230334738",
    "latitude": "30.012814225320593",
    "geocoded_column": {
      "latitude": "30.012814225320593",
      "longitude": "-90.0090230334738"
    }
  },
  {
    "service_request": "2023-1048024",
    "request_type": "Abandoned Vehicles",
    "request_reason": "Abandoned/Junk Vehicles",
    "date_created": "2023-11-04T08:25:12.000",
    "date_modified": "2023-11-04T08:28:07.000",
    "request_status": "Pending",
    "responsible_agency": "Department of Public Works",
    "final_address": "4229 Dale St",
    "address_councildis": "E",
    "status": "Inspected",
    "rowid": "1048024",
    "final_x": "3699734.12861",
    "final_y": "552252.127318",
    "longitude": "-90.00973767809745",
    "latitude": "30.011935220258966",
    "geocoded_column": {
      "latitude": "30.011935220258966",
      "longitude": "-90.00973767809745"
    }
  },
  {
    "service_request": "2023-1048023",
    "request_type": "Trash/Recycling",
    "request_reason": "MIssed Recycling Pick-Up",
    "date_created": "2023-11-04T08:20:07.000",
    "date_modified": "2023-11-04T08:20:07.000",
    "request_status": "Pending",
    "responsible_agency": "Department of Sanitation",
    "final_address": "1607 Pine St",
    "address_councildis": "A",
    "status": "Assigned to Contractor",
    "contractor": "Richards Disposal",
    "rowid": "1048023",
    "final_x": "3664786.37229",
    "final_y": "527884.623935",
    "longitude": "-90.1209676246815",
    "latitude": "29.945996457905007",
    "geocoded_column": {
      "latitude": "29.945996457905007",
      "longitude": "-90.1209676246815"
    }
  },
  {
    "service_request": "2023-1048022",
    "request_type": "Abandoned Vehicles",
    "request_reason": "Abandoned/Junk Vehicles",
    "date_created": "2023-11-04T08:19:34.000",
    "date_modified": "2023-11-04T08:19:34.000",
    "request_status": "Pending",
    "responsible_agency": "Department of Public Works",
    "final_address": "DALE ST & DREUX AVE",
    "address_councildis": "E",
    "status": "Pending",
    "rowid": "1048022",
    "final_x": "3699512.6",
    "final_y": "554158.08",
    "longitude": "-90.01036805164073",
    "latitude": "30.017182902811623",
    "geocoded_column": {
      "latitude": "30.017182902811623",
      "longitude": "-90.01036805164073"
    }
  },
  {
    "service_request": "2023-1048021",
    "request_type": "Trash/Recycling",
    "request_reason": "Order Recycling Cart",
    "date_created": "2023-11-04T08:19:10.000",
    "date_modified": "2023-11-04T08:19:10.000",
    "request_status": "Pending",
    "responsible_agency": "Department of Sanitation",
    "final_address": "3337 Nashville Ave",
    "address_councildis": "A",
    "status": "Pending",
    "rowid": "1048021",
    "final_x": "3668106.59188",
    "final_y": "528040.191871",
    "longitude": "-90.11047928801209",
    "latitude": "29.946327206133606",
    "geocoded_column": {
      "latitude": "29.946327206133606",
      "longitude": "-90.11047928801209"
    }
  },
  {
    "service_request": "2023-1048020",
    "request_type": "Trash/Recycling",
    "request_reason": "Replace Trash Cart",
    "date_created": "2023-11-04T08:02:42.000",
    "date_modified": "2023-11-04T08:02:43.000",
    "request_status": "Pending",
    "responsible_agency": "Department of Sanitation",
    "final_address": "7908 Pompano St",
    "address_councildis": "E",
    "status": "Assigned to Contractor",
    "contractor": "Waste Pro",
    "rowid": "1048020",
    "final_x": "3700156.99248",
    "final_y": "561481.863455",
    "longitude": "-90.00806441037162",
    "latitude": "30.03730001638885",
    "geocoded_column": {
      "latitude": "30.03730001638885",
      "longitude": "-90.00806441037162"
    }
  },
  {
    "service_request": "2023-1048019",
    "request_type": "Trash/Recycling",
    "request_reason": "Replace Trash Cart",
    "date_created": "2023-11-04T06:49:56.000",
    "date_modified": "2023-11-04T06:49:57.000",
    "request_status": "Pending",
    "responsible_agency": "Department of Sanitation",
    "final_address": "5710 Norland Ave",
    "address_councildis": "C",
    "status": "Assigned to Contractor",
    "contractor": "Richards Disposal",
    "rowid": "1048019",
    "final_x": "3704688.11652",
    "final_y": "520638.356345",
    "longitude": "-89.9952524234325",
    "latitude": "29.924850588694593",
    "geocoded_column": {
      "latitude": "29.924850588694593",
      "longitude": "-89.9952524234325"
    }
  },
  {
    "service_request": "2023-1048018",
    "request_type": "Roads/Drainage",
    "request_reason": "Pothole",
    "date_created": "2023-11-04T00:35:13.000",
    "date_modified": "2023-11-04T00:35:13.000",
    "request_status": "Pending",
    "responsible_agency": "Department of Public Works",
    "final_address": "4216 Chestnut St",
    "address_councildis": "B",
    "status": "Pending",
    "rowid": "1048018",
    "final_x": "3671574.31393",
    "final_y": "519539.203703",
    "longitude": "-90.09981939416457",
    "latitude": "29.922850019854593",
    "geocoded_column": {
      "latitude": "29.922850019854593",
      "longitude": "-90.09981939416457"
    }
  },
  {
    "service_request": "2023-1048017",
    "request_type": "Roads/Drainage",
    "request_reason": "Pothole",
    "date_created": "2023-11-03T23:40:46.000",
    "date_modified": "2023-11-04T12:27:30.000",
    "case_close_date": "2023-11-04T07:27:30.000",
    "request_status": "Closed",
    "responsible_agency": "Department of Public Works",
    "final_address": "1315 Peniston St",
    "address_councildis": "B",
    "status": "Duplicate Request",
    "rowid": "1048017",
    "final_x": "3673101.31451",
    "final_y": "520423.11276",
    "longitude": "-90.09496908964098",
    "latitude": "29.925235197927364",
    "geocoded_column": {
      "latitude": "29.925235197927364",
      "longitude": "-90.09496908964098"
    }
  },
  {
    "service_request": "2023-1048016",
    "request_type": "Roads/Drainage",
    "request_reason": "Pothole",
    "date_created": "2023-11-03T23:33:24.000",
    "date_modified": "2023-11-04T12:30:37.000",
    "case_close_date": "2023-11-04T07:30:37.000",
    "request_status": "Closed",
    "responsible_agency": "Department of Public Works",
    "final_address": "1312 Milan St",
    "address_councildis": "B",
    "status": "Duplicate Request",
    "rowid": "1048016",
    "final_x": "3671625.82823",
    "final_y": "520286.919608",
    "longitude": "-90.09963137110304",
    "latitude": "29.92490447494246",
    "geocoded_column": {
      "latitude": "29.92490447494246",
      "longitude": "-90.09963137110304"
    }
  },
  {
    "service_request": "2023-1048015",
    "request_type": "Traffic Signals/Signs/Striping/Streetlights",
    "request_reason": "Traffic Sign Missing/Damaged",
    "date_created": "2023-11-03T23:29:04.000",
    "date_modified": "2023-11-03T23:29:04.000",
    "request_status": "Pending",
    "responsible_agency": "Department of Public Works",
    "final_address": "CANAL ST & TREME ST",
    "address_councildis": "C",
    "status": "Pending",
    "rowid": "1048015",
    "final_x": "3679475.9",
    "final_y": "532037.68",
    "longitude": "-90.074443740717",
    "latitude": "29.956980429288485",
    "geocoded_column": {
      "latitude": "29.956980429288485",
      "longitude": "-90.074443740717"
    }
  },
  {
    "service_request": "2023-1048014",
    "request_type": "Traffic Signals/Signs/Striping/Streetlights",
    "request_reason": "Street Name Sign Damaged or Missing",
    "date_created": "2023-11-03T23:24:34.000",
    "date_modified": "2023-11-03T23:24:34.000",
    "request_status": "Pending",
    "responsible_agency": "Department of Public Works",
    "final_address": "ST JOSEPH ST & TCHOUPITOULAS ST",
    "address_councildis": "B",
    "status": "Pending",
    "rowid": "1048014",
    "final_x": "3681709.4",
    "final_y": "527106.68",
    "longitude": "-90.06756305478176",
    "latitude": "29.943354180318213",
    "geocoded_column": {
      "latitude": "29.943354180318213",
      "longitude": "-90.06756305478176"
    }
  },
  {
    "service_request": "2023-1048013",
    "request_type": "Traffic Signals/Signs/Striping/Streetlights",
    "request_reason": "Street Light Outage/Malfunction",
    "date_created": "2023-11-03T20:29:46.000",
    "date_modified": "2023-11-03T20:29:46.000",
    "request_status": "Pending",
    "responsible_agency": "Department of Public Works",
    "final_address": "8400 Olive St",
    "address_councildis": "A",
    "status": "Assigned to Contractor",
    "contractor": "Legacy Professional Services",
    "rowid": "1048013",
    "final_x": "3666309.90836",
    "final_y": "534981.544902",
    "longitude": "-90.1159192152125",
    "latitude": "29.9654662596231",
    "geocoded_column": {
      "latitude": "29.9654662596231",
      "longitude": "-90.1159192152125"
    }
  },
  {
    "service_request": "2023-1048012",
    "request_type": "Traffic Signals/Signs/Striping/Streetlights",
    "request_reason": "Street Light Outage/Malfunction",
    "date_created": "2023-11-03T20:22:22.000",
    "date_modified": "2023-11-03T20:22:22.000",
    "request_status": "Pending",
    "responsible_agency": "Department of Public Works",
    "final_address": "3420 Magazine St",
    "address_councildis": "B",
    "status": "Assigned to Contractor",
    "contractor": "Legacy Professional Services",
    "rowid": "1048012",
    "final_x": "3674888.07278",
    "final_y": "519450.676983",
    "longitude": "-90.08936217896168",
    "latitude": "29.92250809445694",
    "geocoded_column": {
      "latitude": "29.92250809445694",
      "longitude": "-90.08936217896168"
    }
  },
  {
    "service_request": "2023-1048011",
    "request_type": "Roads/Drainage",
    "request_reason": "Pothole",
    "date_created": "2023-11-03T20:20:13.000",
    "date_modified": "2023-11-03T20:20:13.000",
    "request_status": "Pending",
    "responsible_agency": "Department of Public Works",
    "final_address": "5823 Perrier St",
    "address_councildis": "A",
    "status": "Pending",
    "rowid": "1048011",
    "final_x": "3665601.07367",
    "final_y": "520421.208184",
    "longitude": "-90.11864512991228",
    "latitude": "29.92545071542357",
    "geocoded_column": {
      "latitude": "29.92545071542357",
      "longitude": "-90.11864512991228"
    }
  },
  {
    "service_request": "2023-1048010",
    "request_type": "Traffic Signals/Signs/Striping/Streetlights",
    "request_reason": "Street Light Outage/Malfunction",
    "date_created": "2023-11-03T20:18:31.000",
    "date_modified": "2023-11-03T20:18:32.000",
    "request_status": "Pending",
    "responsible_agency": "Department of Public Works",
    "final_address": "3500 BLK Rue Denise",
    "address_councildis": "C",
    "status": "Assigned to Contractor",
    "contractor": "Legacy Professional Services",
    "rowid": "1048010",
    "final_x": "3704261.42904",
    "final_y": "517226.038498",
    "longitude": "-89.99672497331625",
    "latitude": "29.915481588044603",
    "geocoded_column": {
      "latitude": "29.915481588044603",
      "longitude": "-89.99672497331625"
    }
  },
  {
    "service_request": "2023-1048009",
    "request_type": "Roads/Drainage",
    "request_reason": "Pothole",
    "date_created": "2023-11-03T20:03:37.000",
    "date_modified": "2023-11-04T12:31:53.000",
    "case_close_date": "2023-11-04T07:31:53.000",
    "request_status": "Closed",
    "responsible_agency": "Department of Public Works",
    "final_address": "1315 Milan St",
    "address_councildis": "B",
    "status": "Duplicate Request",
    "rowid": "1048009",
    "final_x": "3671703.18324",
    "final_y": "520260.436728",
    "longitude": "-90.09938808639757",
    "latitude": "29.924829365152263",
    "geocoded_column": {
      "latitude": "29.924829365152263",
      "longitude": "-90.09938808639757"
    }
  },
  {
    "service_request": "2023-1048008",
    "request_type": "Trash/Recycling",
    "request_reason": "Request a Large Item Pick Up",
    "date_created": "2023-11-03T19:28:44.000",
    "date_modified": "2023-11-03T19:28:45.000",
    "request_status": "Pending",
    "responsible_agency": "Department of Sanitation",
    "final_address": "3612 Upperline St",
    "address_councildis": "B",
    "status": "Assigned to Contractor",
    "contractor": "Richards Disposal",
    "rowid": "1048008",
    "final_x": "3669257.15047",
    "final_y": "528162.601152",
    "longitude": "-90.10684242432613",
    "latitude": "29.94662997876134",
    "geocoded_column": {
      "latitude": "29.94662997876134",
      "longitude": "-90.10684242432613"
    }
  },
  {
    "service_request": "2023-1048007",
    "request_type": "Safety & Permits",
    "request_reason": "Licenses & Permits",
    "date_created": "2023-11-03T19:24:27.000",
    "date_modified": "2023-11-03T19:24:27.000",
    "request_status": "Pending",
    "responsible_agency": "Safety and Permits",
    "final_address": "4523 Magazine St",
    "address_councildis": "B",
    "status": "Pending",
    "rowid": "1048007",
    "final_x": "3670459.91399",
    "final_y": "518764.599223",
    "longitude": "-90.10336337284775",
    "latitude": "29.920753043460966",
    "geocoded_column": {
      "latitude": "29.920753043460966",
      "longitude": "-90.10336337284775"
    }
  },
  {
    "service_request": "2023-1048006",
    "request_type": "Trash/Recycling",
    "request_reason": "Request a Large Item Pick Up",
    "date_created": "2023-11-03T19:02:05.000",
    "date_modified": "2023-11-03T19:02:06.000",
    "request_status": "Pending",
    "responsible_agency": "Department of Sanitation",
    "final_address": "439 Homer St",
    "address_councildis": "C",
    "status": "Assigned to Contractor",
    "contractor": "Richards Disposal",
    "rowid": "1048006",
    "final_x": "3686894.94671",
    "final_y": "528274.589824",
    "longitude": "-90.05114973445052",
    "latitude": "29.946407008145744",
    "geocoded_column": {
      "latitude": "29.946407008145744",
      "longitude": "-90.05114973445052"
    }
  },
  {
    "service_request": "2023-1048005",
    "request_type": "Roads/Drainage",
    "request_reason": "Pothole",
    "date_created": "2023-11-03T18:57:17.000",
    "date_modified": "2023-11-04T12:32:58.000",
    "case_close_date": "2023-11-04T07:32:58.000",
    "request_status": "Closed",
    "responsible_agency": "Department of Public Works",
    "final_address": "1423 General Pershing St",
    "address_councildis": "B",
    "status": "Duplicate Request",
    "rowid": "1048005",
    "final_x": "3671330.69185",
    "final_y": "520571.244024",
    "longitude": "-90.1005533659415",
    "latitude": "29.925695010510914",
    "geocoded_column": {
      "latitude": "29.925695010510914",
      "longitude": "-90.1005533659415"
    }
  },
  {
    "service_request": "2023-1048004",
    "request_type": "Trash/Recycling",
    "request_reason": "Order Recycling Cart",
    "date_created": "2023-11-03T18:56:57.000",
    "date_modified": "2023-11-03T18:56:57.000",
    "request_status": "Pending",
    "responsible_agency": "Department of Sanitation",
    "final_address": "8515 Palm St",
    "address_councildis": "A",
    "status": "Pending",
    "rowid": "1048004",
    "final_x": "3666584.98983",
    "final_y": "535789.917639",
    "longitude": "-90.11502337430775",
    "latitude": "29.96768097783227",
    "geocoded_column": {
      "latitude": "29.96768097783227",
      "longitude": "-90.11502337430775"
    }
  },
  {
    "service_request": "2023-1048003",
    "request_type": "Trash/Recycling",
    "request_reason": "Request a Large Item Pick Up",
    "date_created": "2023-11-03T18:53:16.000",
    "date_modified": "2023-11-03T18:53:17.000",
    "request_status": "Pending",
    "responsible_agency": "Department of Sanitation",
    "final_address": "8008 Belfast St",
    "address_councildis": "A",
    "status": "Assigned to Contractor",
    "contractor": "Richards Disposal",
    "rowid": "1048003",
    "final_x": "3665845.88845",
    "final_y": "532080.029763",
    "longitude": "-90.11748180244301",
    "latitude": "29.957501594087194",
    "geocoded_column": {
      "latitude": "29.957501594087194",
      "longitude": "-90.11748180244301"
    }
  },
  {
    "service_request": "2023-1048002",
    "request_type": "Roads/Drainage",
    "request_reason": "Pothole",
    "date_created": "2023-11-03T18:40:34.000",
    "date_modified": "2023-11-04T12:38:30.000",
    "case_close_date": "2023-11-04T07:38:30.000",
    "request_status": "Closed",
    "responsible_agency": "Department of Public Works",
    "final_address": "4216 Coliseum St",
    "address_councildis": "B",
    "status": "Duplicate Request",
    "rowid": "1048002",
    "final_x": "3671574.34702",
    "final_y": "519828.46828",
    "longitude": "-90.09980946002878",
    "latitude": "29.923645404197224",
    "geocoded_column": {
      "latitude": "29.923645404197224",
      "longitude": "-90.09980946002878"
    }
  },
  {
    "service_request": "2023-1048001",
    "request_type": "Roads/Drainage",
    "request_reason": "Pothole",
    "date_created": "2023-11-03T18:39:41.000",
    "date_modified": "2023-11-03T18:39:41.000",
    "request_status": "Pending",
    "responsible_agency": "Department of Public Works",
    "final_address": "6014 Pitt St",
    "address_councildis": "A",
    "status": "Pending",
    "rowid": "1048001",
    "final_x": "3665130.06368",
    "final_y": "521118.807673",
    "longitude": "-90.12010865234235",
    "latitude": "29.927382615383642",
    "geocoded_column": {
      "latitude": "29.927382615383642",
      "longitude": "-90.12010865234235"
    }
  },
  {
    "service_request": "2023-1048000",
    "request_type": "Traffic Signals/Signs/Striping/Streetlights",
    "request_reason": "Street Light Outage/Malfunction",
    "date_created": "2023-11-03T17:59:41.000",
    "date_modified": "2023-11-03T17:59:42.000",
    "request_status": "Pending",
    "responsible_agency": "Department of Public Works",
    "final_address": "8400 Olive St",
    "address_councildis": "A",
    "status": "Assigned to Contractor",
    "contractor": "Legacy Professional Services",
    "rowid": "1048000",
    "final_x": "3666309.90836",
    "final_y": "534981.544902",
    "longitude": "-90.1159192152125",
    "latitude": "29.9654662596231",
    "geocoded_column": {
      "latitude": "29.9654662596231",
      "longitude": "-90.1159192152125"
    }
  },
  {
    "service_request": "2023-1047999",
    "request_type": "Roads/Drainage",
    "request_reason": "Pothole",
    "date_created": "2023-11-03T17:43:30.000",
    "date_modified": "2023-11-03T17:43:30.000",
    "request_status": "Pending",
    "responsible_agency": "Department of Public Works",
    "final_address": "5924 Pitt St",
    "address_councildis": "A",
    "status": "Pending",
    "rowid": "1047999",
    "final_x": "3665467.7065",
    "final_y": "521009.245113",
    "longitude": "-90.11904645902852",
    "latitude": "29.9270715185238",
    "geocoded_column": {
      "latitude": "29.9270715185238",
      "longitude": "-90.11904645902852"
    }
  },
  {
    "service_request": "2023-1047998",
    "request_type": "Roads/Drainage",
    "request_reason": "Pothole",
    "date_created": "2023-11-03T17:23:35.000",
    "date_modified": "2023-11-03T17:23:35.000",
    "request_status": "Pending",
    "responsible_agency": "Department of Public Works",
    "final_address": "8400 Olive St",
    "address_councildis": "A",
    "status": "Pending",
    "rowid": "1047998",
    "final_x": "3666309.90836",
    "final_y": "534981.544902",
    "longitude": "-90.1159192152125",
    "latitude": "29.9654662596231",
    "geocoded_column": {
      "latitude": "29.9654662596231",
      "longitude": "-90.1159192152125"
    }
  },
  {
    "service_request": "2023-1047997",
    "request_type": "Traffic Signals/Signs/Striping/Streetlights",
    "request_reason": "Street Light Outage/Malfunction",
    "date_created": "2023-11-03T17:21:30.000",
    "date_modified": "2023-11-03T17:21:31.000",
    "request_status": "Pending",
    "responsible_agency": "Department of Public Works",
    "final_address": "8400 Olive St",
    "address_councildis": "A",
    "status": "Assigned to Contractor",
    "contractor": "Legacy Professional Services",
    "rowid": "1047997",
    "final_x": "3666309.90836",
    "final_y": "534981.544902",
    "longitude": "-90.1159192152125",
    "latitude": "29.9654662596231",
    "geocoded_column": {
      "latitude": "29.9654662596231",
      "longitude": "-90.1159192152125"
    }
  },
  {
    "service_request": "2023-1047996",
    "request_type": "Trash/Recycling",
    "request_reason": "Replace Trash Cart",
    "date_created": "2023-11-03T17:08:56.000",
    "date_modified": "2023-11-03T17:08:57.000",
    "request_status": "Pending",
    "responsible_agency": "Department of Sanitation",
    "final_address": "3537 Republic St",
    "address_councildis": "D",
    "status": "Assigned to Contractor",
    "contractor": "IV Waste",
    "rowid": "1047996",
    "final_x": "3680505.59976",
    "final_y": "545487.173648",
    "longitude": "-90.07072430093648",
    "latitude": "29.993930734999136",
    "geocoded_column": {
      "latitude": "29.993930734999136",
      "longitude": "-90.07072430093648"
    }
  },
  {
    "service_request": "2023-1047995",
    "request_type": "Parks & Parkways",
    "request_reason": "Request Tree Service (Right of Way/Public Property)",
    "date_created": "2023-11-03T16:54:45.000",
    "date_modified": "2023-11-03T16:54:46.000",
    "request_status": "Pending",
    "responsible_agency": "Department of Parks & Parkway",
    "final_address": "2443 Laharpe St",
    "address_councildis": "D",
    "status": "Pending",
    "rowid": "1047995",
    "final_x": "3679456.65775",
    "final_y": "539453.228362",
    "longitude": "-90.07424719944933",
    "latitude": "29.977371233014768",
    "geocoded_column": {
      "latitude": "29.977371233014768",
      "longitude": "-90.07424719944933"
    }
  },
  {
    "service_request": "2023-1047994",
    "request_type": "Abandoned Vehicles",
    "request_reason": "Abandoned/Junk Vehicles",
    "date_created": "2023-11-03T16:40:07.000",
    "date_modified": "2023-11-04T10:17:50.000",
    "request_status": "Pending",
    "responsible_agency": "Department of Public Works",
    "final_address": "923 Octavia St",
    "address_councildis": "A",
    "status": "Inspected",
    "rowid": "1047994",
    "final_x": "3666606.10759",
    "final_y": "519412.460215",
    "longitude": "-90.11550638154603",
    "latitude": "29.922647642576003",
    "geocoded_column": {
      "latitude": "29.922647642576003",
      "longitude": "-90.11550638154603"
    }
  },
  {
    "service_request": "2023-1047993",
    "request_type": "Trash/Recycling",
    "request_reason": "Replace Trash Cart",
    "date_created": "2023-11-03T16:36:15.000",
    "date_modified": "2023-11-03T16:36:16.000",
    "request_status": "Pending",
    "responsible_agency": "Department of Sanitation",
    "final_address": "5500 Samovar Dr",
    "address_councildis": "E",
    "status": "Assigned to Contractor",
    "contractor": "Waste Pro",
    "rowid": "1047993",
    "final_x": "3703738.17066",
    "final_y": "556309.091034",
    "longitude": "-89.99693780526998",
    "latitude": "30.02296253077885",
    "geocoded_column": {
      "latitude": "30.02296253077885",
      "longitude": "-89.99693780526998"
    }
  },
  {
    "service_request": "2023-1047992",
    "request_type": "Trash/Recycling",
    "request_reason": "Order Recycling Cart",
    "date_created": "2023-11-03T16:29:08.000",
    "date_modified": "2023-11-03T16:29:09.000",
    "request_status": "Pending",
    "responsible_agency": "Department of Sanitation",
    "final_address": "918 Piety St",
    "address_councildis": "C",
    "status": "Pending",
    "rowid": "1047992",
    "final_x": "3689649.359",
    "final_y": "535173.424518",
    "longitude": "-90.04220767387437",
    "latitude": "29.96529137944127",
    "geocoded_column": {
      "latitude": "29.96529137944127",
      "longitude": "-90.04220767387437"
    }
  },
  {
    "service_request": "2023-1047991",
    "request_type": "Trash/Recycling",
    "request_reason": "Order Trash Cart",
    "date_created": "2023-11-03T16:28:50.000",
    "date_modified": "2023-11-03T16:28:51.000",
    "request_status": "Pending",
    "responsible_agency": "Department of Sanitation",
    "final_address": "918 Piety St",
    "address_councildis": "C",
    "status": "Assigned to Contractor",
    "contractor": "IV Waste",
    "rowid": "1047991",
    "final_x": "3689649.359",
    "final_y": "535173.424518",
    "longitude": "-90.04220767387437",
    "latitude": "29.96529137944127",
    "geocoded_column": {
      "latitude": "29.96529137944127",
      "longitude": "-90.04220767387437"
    }
  },
  {
    "service_request": "2023-1047990",
    "request_type": "Trash/Recycling",
    "request_reason": "Order Recycling Cart",
    "date_created": "2023-11-03T16:28:46.000",
    "date_modified": "2023-11-03T16:28:46.000",
    "request_status": "Pending",
    "responsible_agency": "Department of Sanitation",
    "final_address": "1024 Clouet St",
    "address_councildis": "C",
    "status": "Pending",
    "rowid": "1047990",
    "final_x": "3688905.01494",
    "final_y": "535764.371399",
    "longitude": "-90.04453727807817",
    "latitude": "29.966939317833926",
    "geocoded_column": {
      "latitude": "29.966939317833926",
      "longitude": "-90.04453727807817"
    }
  },
  {
    "service_request": "2023-1047989",
    "request_type": "Roads/Drainage",
    "request_reason": "Street Subsidence (Sinking)",
    "date_created": "2023-11-03T16:27:11.000",
    "date_modified": "2023-11-03T16:27:11.000",
    "request_status": "Pending",
    "responsible_agency": "Department of Public Works",
    "final_address": "4421 Baronne St",
    "address_councildis": "B",
    "status": "Pending",
    "rowid": "1047989",
    "final_x": "3670532.25499",
    "final_y": "521610.726777",
    "longitude": "-90.10303856405554",
    "latitude": "29.928576852009456",
    "geocoded_column": {
      "latitude": "29.928576852009456",
      "longitude": "-90.10303856405554"
    }
  },
  {
    "service_request": "2023-1047988",
    "request_type": "Roads/Drainage",
    "request_reason": "Street Subsidence (Sinking)",
    "date_created": "2023-11-03T16:19:58.000",
    "date_modified": "2023-11-03T16:19:58.000",
    "request_status": "Pending",
    "responsible_agency": "Department of Public Works",
    "final_address": "4421 Baronne St",
    "address_councildis": "B",
    "status": "Pending",
    "rowid": "1047988",
    "final_x": "3670532.25499",
    "final_y": "521610.726777",
    "longitude": "-90.10303856405554",
    "latitude": "29.928576852009456",
    "geocoded_column": {
      "latitude": "29.928576852009456",
      "longitude": "-90.10303856405554"
    }
  },
  {
    "service_request": "2023-1047987",
    "request_type": "Trash/Recycling",
    "request_reason": "Return Trash Cart",
    "date_created": "2023-11-03T16:19:15.000",
    "date_modified": "2023-11-03T16:19:16.000",
    "request_status": "Pending",
    "responsible_agency": "Department of Sanitation",
    "final_address": "6863 Memphis St",
    "address_councildis": "A",
    "status": "Assigned to Contractor",
    "contractor": "IV Waste",
    "rowid": "1047987",
    "final_x": "3669855.17652",
    "final_y": "553095.424279",
    "longitude": "-90.10410973029308",
    "latitude": "30.015169159427643",
    "geocoded_column": {
      "latitude": "30.015169159427643",
      "longitude": "-90.10410973029308"
    }
  },
  {
    "service_request": "2023-1047986",
    "request_type": "Trash/Recycling",
    "request_reason": "Request a Large Item Pick Up",
    "date_created": "2023-11-03T16:14:07.000",
    "date_modified": "2023-11-03T16:14:08.000",
    "request_status": "Pending",
    "responsible_agency": "Department of Sanitation",
    "final_address": "2209 Bienville Ave",
    "address_councildis": "B",
    "status": "Assigned to Contractor",
    "contractor": "Richards Disposal",
    "rowid": "1047986",
    "final_x": "3677365.40578",
    "final_y": "534630.44487",
    "longitude": "-90.0810185451714",
    "latitude": "29.964173245454223",
    "geocoded_column": {
      "latitude": "29.964173245454223",
      "longitude": "-90.0810185451714"
    }
  },
  {
    "service_request": "2023-1047985",
    "request_type": "Traffic Signals/Signs/Striping/Streetlights",
    "request_reason": "Additional signage",
    "date_created": "2023-11-03T16:12:41.000",
    "date_modified": "2023-11-03T16:12:41.000",
    "request_status": "Pending",
    "responsible_agency": "Department of Public Works",
    "final_address": "5704 Wilton Dr",
    "address_councildis": "D",
    "status": "Pending",
    "rowid": "1047985",
    "final_x": "3681742.70306",
    "final_y": "553796.696343",
    "longitude": "-90.06652627574172",
    "latitude": "30.01674139519802",
    "geocoded_column": {
      "latitude": "30.01674139519802",
      "longitude": "-90.06652627574172"
    }
  },
  {
    "service_request": "2023-1047984",
    "request_type": "Trash/Recycling",
    "request_reason": "Illegal Dumping",
    "date_created": "2023-11-03T16:09:40.000",
    "date_modified": "2023-11-03T16:10:51.000",
    "request_status": "Pending",
    "responsible_agency": "Department of Sanitation",
    "final_address": "2125 Toledano St",
    "address_councildis": "B",
    "status": "Pending",
    "rowid": "1047984",
    "final_x": "3673793.16065",
    "final_y": "523558.152379",
    "longitude": "-90.09267799513756",
    "latitude": "29.93383496640882",
    "geocoded_column": {
      "latitude": "29.93383496640882",
      "longitude": "-90.09267799513756"
    }
  },
  {
    "service_request": "2023-1047983",
    "request_type": "Traffic Signals/Signs/Striping/Streetlights",
    "request_reason": "Additional signage",
    "date_created": "2023-11-03T16:09:13.000",
    "date_modified": "2023-11-03T16:09:13.000",
    "request_status": "Pending",
    "responsible_agency": "Department of Public Works",
    "final_address": "5704 Wilton Dr",
    "address_councildis": "D",
    "status": "Pending",
    "rowid": "1047983",
    "final_x": "3681742.70306",
    "final_y": "553796.696343",
    "longitude": "-90.06652627574172",
    "latitude": "30.01674139519802",
    "geocoded_column": {
      "latitude": "30.01674139519802",
      "longitude": "-90.06652627574172"
    }
  },
  {
    "service_request": "2023-1047982",
    "request_type": "Roads/Drainage",
    "request_reason": "Man hole cover issue",
    "date_created": "2023-11-03T16:07:23.000",
    "date_modified": "2023-11-03T16:07:49.000",
    "request_status": "Pending",
    "responsible_agency": "Department of Public Works",
    "final_address": "OLIVE ST & CAMPHOR ST",
    "address_councildis": "A",
    "status": "Pending",
    "rowid": "1047982",
    "final_x": "3663436.9",
    "final_y": "537651.68",
    "longitude": "-90.12490316213713",
    "latitude": "29.972891870759565",
    "geocoded_column": {
      "latitude": "29.972891870759565",
      "longitude": "-90.12490316213713"
    }
  },
  {
    "service_request": "2023-1047981",
    "request_type": "Abandoned Vehicles",
    "request_reason": "Abandoned/Junk Vehicles",
    "date_created": "2023-11-03T16:01:33.000",
    "date_modified": "2023-11-03T16:01:34.000",
    "request_status": "Pending",
    "responsible_agency": "Department of Public Works",
    "final_address": "5704 Wilton Dr",
    "address_councildis": "D",
    "status": "Pending",
    "rowid": "1047981",
    "final_x": "3681742.70306",
    "final_y": "553796.696343",
    "longitude": "-90.06652627574172",
    "latitude": "30.01674139519802",
    "geocoded_column": {
      "latitude": "30.01674139519802",
      "longitude": "-90.06652627574172"
    }
  },
  {
    "service_request": "2023-1047980",
    "request_type": "Trash/Recycling",
    "request_reason": "Repair Recycling Cart",
    "date_created": "2023-11-03T15:55:50.000",
    "date_modified": "2023-11-03T15:55:51.000",
    "request_status": "Pending",
    "responsible_agency": "Department of Sanitation",
    "final_address": "6105 Erin Dr",
    "address_councildis": "E",
    "status": "Pending",
    "rowid": "1047980",
    "final_x": "3695862.2527",
    "final_y": "558588.792284",
    "longitude": "-90.02174136090976",
    "latitude": "30.029481062466576",
    "geocoded_column": {
      "latitude": "30.029481062466576",
      "longitude": "-90.02174136090976"
    }
  },
  {
    "service_request": "2023-1047979",
    "request_type": "Traffic Signals/Signs/Striping/Streetlights",
    "request_reason": "Street Light Outage/Malfunction",
    "date_created": "2023-11-03T15:54:53.000",
    "date_modified": "2023-11-03T15:54:54.000",
    "request_status": "Pending",
    "responsible_agency": "Department of Public Works",
    "final_address": "8600 BLK Olive St",
    "address_councildis": "A",
    "status": "Assigned to Contractor",
    "contractor": "Legacy Professional Services",
    "rowid": "1047979",
    "final_x": "3665802.3242",
    "final_y": "535489.386158",
    "longitude": "-90.11750513276345",
    "latitude": "29.966877474203958",
    "geocoded_column": {
      "latitude": "29.966877474203958",
      "longitude": "-90.11750513276345"
    }
  },
  {
    "service_request": "2023-1047978",
    "request_type": "Trash/Recycling",
    "request_reason": "Request a Large Item Pick Up",
    "date_created": "2023-11-03T15:51:18.000",
    "date_modified": "2023-11-03T15:51:19.000",
    "request_status": "Pending",
    "responsible_agency": "Department of Sanitation",
    "final_address": "1537 Pine St",
    "address_councildis": "A",
    "status": "Assigned to Contractor",
    "contractor": "Richards Disposal",
    "rowid": "1047978",
    "final_x": "3664727.176",
    "final_y": "527764.032767",
    "longitude": "-90.12115855615998",
    "latitude": "29.9456665930559",
    "geocoded_column": {
      "latitude": "29.9456665930559",
      "longitude": "-90.12115855615998"
    }
  },
  {
    "service_request": "2023-1047977",
    "request_type": "Trash/Recycling",
    "request_reason": "Missed Trash Pick-Up",
    "date_created": "2023-11-03T15:48:09.000",
    "date_modified": "2023-11-03T15:48:10.000",
    "request_status": "Pending",
    "responsible_agency": "Department of Sanitation",
    "final_address": "5434 N Tonti St",
    "address_councildis": "E",
    "status": "Assigned to Contractor",
    "contractor": "Waste Pro",
    "rowid": "1047977",
    "final_x": "3698722.59306",
    "final_y": "538343.385609",
    "longitude": "-90.01343971726627",
    "latitude": "29.973723399103985",
    "geocoded_column": {
      "latitude": "29.973723399103985",
      "longitude": "-90.01343971726627"
    }
  },
  {
    "service_request": "2023-1047976",
    "request_type": "Roads/Drainage",
    "request_reason": "Damaged Sidewalk",
    "date_created": "2023-11-03T15:47:50.000",
    "date_modified": "2023-11-04T08:50:10.000",
    "request_status": "Pending",
    "responsible_agency": "Department of Public Works",
    "final_address": "2439 Prentiss Ave",
    "address_councildis": "D",
    "status": "Inspected",
    "rowid": "1047976",
    "final_x": "3685482.26908",
    "final_y": "554077.25148",
    "longitude": "-90.05470095252564",
    "latitude": "30.01739860887074",
    "geocoded_column": {
      "latitude": "30.01739860887074",
      "longitude": "-90.05470095252564"
    }
  },
  {
    "service_request": "2023-1047975",
    "request_type": "Abandoned Vehicles",
    "request_reason": "Abandoned/Junk Vehicles",
    "date_created": "2023-11-03T15:47:01.000",
    "date_modified": "2023-11-03T15:47:01.000",
    "request_status": "Pending",
    "responsible_agency": "Department of Public Works",
    "final_address": "1634 Congress St",
    "address_councildis": "D",
    "status": "Inspected",
    "rowid": "1047975",
    "final_x": "3691207.58256",
    "final_y": "537726.754696",
    "longitude": "-90.03719569095796",
    "latitude": "29.97226376712419",
    "geocoded_column": {
      "latitude": "29.97226376712419",
      "longitude": "-90.03719569095796"
    }
  },
  {
    "service_request": "2023-1047973",
    "request_type": "Roads/Drainage",
    "request_reason": "Pothole",
    "date_created": "2023-11-03T15:43:23.000",
    "date_modified": "2023-11-03T15:43:23.000",
    "request_status": "Pending",
    "responsible_agency": "Department of Public Works",
    "final_address": "2642 Elysian Fields Ave",
    "address_councildis": "D",
    "status": "Pending",
    "rowid": "1047973",
    "final_x": "3684408.96124",
    "final_y": "542126.538253",
    "longitude": "-90.0585122686791",
    "latitude": "29.984571336816888",
    "geocoded_column": {
      "latitude": "29.984571336816888",
      "longitude": "-90.0585122686791"
    }
  },
  {
    "service_request": "2023-1047972",
    "request_type": "Property Maintenance",
    "request_reason": "Property Maintenance",
    "date_created": "2023-11-03T15:38:50.000",
    "date_modified": "2023-11-03T15:38:50.000",
    "request_status": "Pending",
    "responsible_agency": "Department of Code Enforcement",
    "final_address": "1495 Gardena Dr",
    "address_councildis": "D",
    "status": "Pending",
    "rowid": "1047972",
    "final_x": "3678501.30658",
    "final_y": "551591.062997",
    "longitude": "-90.07684414447127",
    "latitude": "30.010774835785686",
    "geocoded_column": {
      "latitude": "30.010774835785686",
      "longitude": "-90.07684414447127"
    }
  },
  {
    "service_request": "2023-1047971",
    "request_type": "Roads/Drainage",
    "request_reason": "Pothole",
    "date_created": "2023-11-03T15:37:09.000",
    "date_modified": "2023-11-03T15:37:09.000",
    "request_status": "Pending",
    "responsible_agency": "Department of Public Works",
    "final_address": "8620 Gervais St",
    "address_councildis": "E",
    "status": "Pending",
    "rowid": "1047971",
    "final_x": "3704029.3722",
    "final_y": "562731.296736",
    "longitude": "-89.99578080201496",
    "latitude": "30.04061174883874",
    "geocoded_column": {
      "latitude": "30.04061174883874",
      "longitude": "-89.99578080201496"
    }
  },
  {
    "service_request": "2023-1047970",
    "request_type": "Abandoned Vehicles",
    "request_reason": "Abandoned/Junk Vehicles",
    "date_created": "2023-11-03T15:36:08.000",
    "date_modified": "2023-11-03T15:36:08.000",
    "request_status": "Pending",
    "responsible_agency": "Department of Public Works",
    "final_address": "1228 Burdette St",
    "address_councildis": "A",
    "status": "Pending",
    "rowid": "1047970",
    "final_x": "3662935.40679",
    "final_y": "527831.977919",
    "longitude": "-90.12681352933679",
    "latitude": "29.94590541877539",
    "geocoded_column": {
      "latitude": "29.94590541877539",
      "longitude": "-90.12681352933679"
    }
  },
  {
    "service_request": "2023-1047969",
    "request_type": "Trash/Recycling",
    "request_reason": "Missed Trash Pick-Up",
    "date_created": "2023-11-03T15:28:23.000",
    "date_modified": "2023-11-03T15:28:24.000",
    "request_status": "Pending",
    "responsible_agency": "Department of Sanitation",
    "final_address": "1514 Sumner St",
    "address_councildis": "C",
    "status": "Assigned to Contractor",
    "contractor": "Richards Disposal",
    "rowid": "1047969",
    "final_x": "3691055.65936",
    "final_y": "525766.997629",
    "longitude": "-90.03810244199117",
    "latitude": "29.939383313679215",
    "geocoded_column": {
      "latitude": "29.939383313679215",
      "longitude": "-90.03810244199117"
    }
  },
  {
    "service_request": "2023-1047968",
    "request_type": "Roads/Drainage",
    "request_reason": "Man hole cover issue",
    "date_created": "2023-11-03T15:20:35.000",
    "date_modified": "2023-11-03T15:20:35.000",
    "request_status": "Pending",
    "responsible_agency": "Department of Public Works",
    "final_address": "2600 BLK Piety St",
    "address_councildis": "D",
    "status": "Pending",
    "rowid": "1047968",
    "final_x": "3691314.2466",
    "final_y": "541698.70412",
    "longitude": "-90.03671688201653",
    "latitude": "29.9831818954967",
    "geocoded_column": {
      "latitude": "29.9831818954967",
      "longitude": "-90.03671688201653"
    }
  },
  {
    "service_request": "2023-1047967",
    "request_type": "Trash/Recycling",
    "request_reason": "Repair Trash Cart",
    "date_created": "2023-11-03T15:14:23.000",
    "date_modified": "2023-11-03T15:14:24.000",
    "request_status": "Pending",
    "responsible_agency": "Department of Sanitation",
    "final_address": "4409 Laine Ave",
    "address_councildis": "E",
    "status": "Assigned to Contractor",
    "contractor": "Waste Pro",
    "rowid": "1047967",
    "final_x": "3705995.8202",
    "final_y": "553417.242967",
    "longitude": "-89.98991132994112",
    "latitude": "30.014938471826355",
    "geocoded_column": {
      "latitude": "30.014938471826355",
      "longitude": "-89.98991132994112"
    }
  },
  {
    "service_request": "2023-1047966",
    "request_type": "Traffic Signals/Signs/Striping/Streetlights",
    "request_reason": "Street Light Outage/Malfunction",
    "date_created": "2023-11-03T15:08:04.000",
    "date_modified": "2023-11-03T15:08:05.000",
    "request_status": "Pending",
    "responsible_agency": "Department of Public Works",
    "final_address": "421 W Harrison Ave",
    "address_councildis": "A",
    "status": "Assigned to Contractor",
    "contractor": "Legacy Professional Services",
    "rowid": "1047966",
    "final_x": "3664647.72436",
    "final_y": "549715.205396",
    "longitude": "-90.12067592567496",
    "latitude": "30.00602731075628",
    "geocoded_column": {
      "latitude": "30.00602731075628",
      "longitude": "-90.12067592567496"
    }
  },
  {
    "service_request": "2023-1047965",
    "request_type": "Trash/Recycling",
    "request_reason": "Missed Trash Pick-Up",
    "date_created": "2023-11-03T15:08:00.000",
    "date_modified": "2023-11-03T15:08:01.000",
    "request_status": "Pending",
    "responsible_agency": "Department of Sanitation",
    "final_address": "7707 Downman Rd",
    "address_councildis": "D",
    "status": "Assigned to Contractor",
    "contractor": "Waste Pro",
    "rowid": "1047965",
    "final_x": "3694625.9848",
    "final_y": "558779.065052",
    "longitude": "-90.0256410655267",
    "latitude": "30.03004309211574",
    "geocoded_column": {
      "latitude": "30.03004309211574",
      "longitude": "-90.0256410655267"
    }
  },
  {
    "service_request": "2023-1047964",
    "request_type": "Roads/Drainage",
    "request_reason": "Catch Basin - Broken/Damage",
    "date_created": "2023-11-03T15:06:21.000",
    "date_modified": "2023-11-04T11:34:56.000",
    "request_status": "Pending",
    "responsible_agency": "Department of Public Works",
    "final_address": "13519 N Lemans St",
    "address_councildis": "E",
    "status": "Inspected",
    "rowid": "1047964",
    "final_x": "3725605.62265",
    "final_y": "563142.031456",
    "longitude": "-89.92757770015146",
    "latitude": "30.041030923145378",
    "geocoded_column": {
      "latitude": "30.041030923145378",
      "longitude": "-89.92757770015146"
    }
  },