[
  {
    "service_request": "2025-1205106",
    "request_type": "Property Maintenance",
    "request_reason": "Property Maintenance",
    "date_created": "2025-06-29T23:56:08.000",
    "date_modified": "2025-06-29T23:56:10.000",
    "request_status": "Pending",
    "responsible_agency": "Department of Code Enforcement",
    "final_address": "1032 Deslonde St",
    "address_councildis": "E",
    "status": "Pending",
    "rowid": "1205106",
    "final_x": "3695293.28048",
    "final_y": "534245.183173",
    "longitude": "-90.02441802631043",
    "latitude": "29.96256297216016",
    "geocoded_column": {
      "latitude": "29.96256297216016",
      "longitude": "-90.02441802631043"
    }
  },
  {
    "service_request": "2025-1205105",
    "request_type": "Roads and Streets",
    "request_reason": "Sidewalk Damaged or Missing",
    "date_created": "2025-06-29T23:50:02.000",
    "date_modified": "2025-06-29T23:50:04.000",
    "request_status": "Pending",
    "responsible_agency": "Department of Public Works",
    "final_address": "1033 Jourdan Ave",
    "address_councildis": "E",
    "status": "Pending",
    "rowid": "1205105",
    "final_x": "3695029.5224",
    "final_y": "534303.476229",
    "longitude": "-90.02524883280513",
    "latitude": "29.96273153942836",
    "geocoded_column": {
      "latitude": "29.96273153942836",
      "longitude": "-90.02524883280513"
    }
  },
  {
    "service_request": "2025-1205104",
    "request_type": "Streetlights",
    "request_reason": "Streetlight Outage/Malfunction",
    "date_created": "2025-06-29T23:05:25.000",
    "date_modified": "2025-06-29T23:05:27.000",
    "request_status": "Pending",
    "responsible_agency": "Department of Public Works",
    "final_address": "5550 Cherlyn Dr",
    "address_councildis": "A",
    "status": "Pending",
    "contractor": "Legacy Professional Services",
    "rowid": "1205104",
    "final_x": "3665094.80455",
    "final_y": "544799.758543",
    "longitude": "-90.11942800179942",
    "latitude": "29.99249850137802",
    "geocoded_column": {
      "latitude": "29.99249850137802",
      "longitude": "-90.11942800179942"
    }
  },
  {
    "service_request": "2025-1205103",
    "request_type": "Trash/Recycling",
    "request_reason": "Missed Trash Pick-Up",
    "date_created": "2025-06-29T22:52:17.000",
    "date_modified": "2025-06-29T22:52:19.000",
    "request_status": "Pending",
    "responsible_agency": "Department of Sanitation",
    "final_address": "4646 Rosalia dr ",
    "address_councildis": "E",
    "status": "Assigned to Contractor",
    "contractor": "Waste Pro",
    "rowid": "1205103",
    "final_x": "3711174.15179",
    "final_y": "555431.182873",
    "longitude": "-89.97347492745033",
    "latitude": "30.02030806713717",
    "geocoded_column": {
      "latitude": "30.02030806713717",
      "longitude": "-89.97347492745033"
    }
  },
  {
    "service_request": "2025-1205102",
    "request_type": "Drainage",
    "request_reason": "Catch Basin Clogged",
    "date_created": "2025-06-29T22:43:27.000",
    "date_modified": "2025-06-29T22:43:28.000",
    "request_status": "Pending",
    "responsible_agency": "Sewerage & Water Board",
    "final_address": "8430 Apple St",
    "address_councildis": "A",
    "status": "Pending",
    "rowid": "1205102",
    "final_x": "3664300.56525",
    "final_y": "533014.209156",
    "longitude": "-90.1223303200947",
    "latitude": "29.960115279583455",
    "geocoded_column": {
      "latitude": "29.960115279583455",
      "longitude": "-90.1223303200947"
    }
  },
  {
    "service_request": "2025-1205101",
    "request_type": "Health Related Request",
    "request_reason": "Noise Ordinance Complaint",
    "date_created": "2025-06-29T22:15:40.000",
    "date_modified": "2025-06-29T22:15:42.000",
    "request_status": "Pending",
    "responsible_agency": "Health Department",
    "final_address": "833 Dauphine Street ",
    "address_councildis": "C",
    "status": "Pending",
    "rowid": "1205101",
    "final_x": "3687691.35439",
    "final_y": "535137.151942",
    "longitude": "-90.04839222277353",
    "latitude": "29.965252161981578",
    "geocoded_column": {
      "latitude": "29.965252161981578",
      "longitude": "-90.04839222277353"
    }
  },
  {
    "service_request": "2025-1205100",
    "request_type": "Parks & Parkways",
    "request_reason": "Request Tree Service (Right of Way/Public Property)",
    "date_created": "2025-06-29T22:08:34.000",
    "date_modified": "2025-06-29T22:08:37.000",
    "request_status": "Pending",
    "responsible_agency": "Department of Parks & Parkway",
    "final_address": "3915 Clermont Dr",
    "address_councildis": "D",
    "status": "Pending",
    "rowid": "1205100",
    "final_x": "3685296.00591",
    "final_y": "546905.010257",
    "longitude": "-90.05554217852949",
    "latitude": "29.997683265516383",
    "geocoded_column": {
      "latitude": "29.997683265516383",
      "longitude": "-90.05554217852949"
    }
  },
  {
    "service_request": "2025-1205099",
    "request_type": "Property Maintenance",
    "request_reason": "Property Maintenance",
    "date_created": "2025-06-29T21:39:31.000",
    "date_modified": "2025-06-29T21:39:32.000",
    "request_status": "Pending",
    "responsible_agency": "Department of Code Enforcement",
    "final_address": "6401 Argonne Blvd",
    "address_councildis": "A",
    "status": "Pending",
    "rowid": "1205099",
    "final_x": "3670475.55995",
    "final_y": "549960.880916",
    "longitude": "-90.10225600966695",
    "latitude": "30.006531955783043",
    "geocoded_column": {
      "latitude": "30.006531955783043",
      "longitude": "-90.10225600966695"
    }
  },
  {
    "service_request": "2025-1205098",
    "request_type": "Abandoned Vehicles",
    "request_reason": "Abandoned/Junk Vehicles",
    "date_created": "2025-06-29T21:29:53.000",
    "date_modified": "2025-06-29T21:29:55.000",
    "request_status": "Pending",
    "responsible_agency": "Department of Public Works",
    "final_address": "8125 St Charles Ave",
    "address_councildis": "A",
    "status": "Pending",
    "rowid": "1205098",
    "final_x": "3660479.97658",
    "final_y": "526999.853182",
    "longitude": "-90.13459367758568",
    "latitude": "29.94368820355176",
    "geocoded_column": {
      "latitude": "29.94368820355176",
      "longitude": "-90.13459367758568"
    }
  },
  {
    "service_request": "2025-1205097",
    "request_type": "Drainage",
    "request_reason": "Street Flooding",
    "date_created": "2025-06-29T21:26:52.000",
    "date_modified": "2025-06-29T21:26:54.000",
    "request_status": "Pending",
    "responsible_agency": "Sewerage & Water Board",
    "final_address": "1133 S Carrollton Ave",
    "address_councildis": "A",
    "status": "Pending",
    "rowid": "1205097",
    "final_x": "3662032.99719",
    "final_y": "528199.24832",
    "longitude": "-90.12965057322",
    "latitude": "29.946941391404337",
    "geocoded_column": {
      "latitude": "29.946941391404337",
      "longitude": "-90.12965057322"
    }
  },
  {
    "service_request": "2025-1205096",
    "request_type": "Trash/Recycling",
    "request_reason": "Damaged Caused By Contractor",
    "date_created": "2025-06-29T21:18:00.000",
    "date_modified": "2025-06-29T21:18:01.000",
    "request_status": "Pending",
    "responsible_agency": "Department of Sanitation",
    "final_address": "2000 BLK Comet St",
    "address_councildis": "C",
    "status": "Assigned to Contractor",
    "contractor": "Richards Disposal",
    "rowid": "1205096",
    "final_x": "3700222.71336",
    "final_y": "523367.80443",
    "longitude": "-90.00924857578394",
    "latitude": "29.932498257083445",
    "geocoded_column": {
      "latitude": "29.932498257083445",
      "longitude": "-90.00924857578394"
    }
  },
  {
    "service_request": "2025-1205095",
    "request_type": "General Services",
    "request_reason": "General Service Request",
    "date_created": "2025-06-29T21:14:53.000",
    "date_modified": "2025-06-29T21:14:54.000",
    "request_status": "Pending",
    "responsible_agency": "Orleans Parish Communication District",
    "final_address": "2133 Easter Ln",
    "address_councildis": "C",
    "status": "Pending",
    "rowid": "1205095",
    "final_x": "3699386.59658",
    "final_y": "523431.631163",
    "longitude": "-90.01188578294688",
    "latitude": "29.93270029879647",
    "geocoded_column": {
      "latitude": "29.93270029879647",
      "longitude": "-90.01188578294688"
    }
  },
  {
    "service_request": "2025-1205094",
    "request_type": "Safety & Permits",
    "request_reason": "Zoning Enforcement",
    "date_created": "2025-06-29T21:08:54.000",
    "date_modified": "2025-06-29T21:08:56.000",
    "request_status": "Pending",
    "responsible_agency": "Safety and Permits",
    "final_address": "4043 S Inwood Ave",
    "address_councildis": "C",
    "status": "Pending",
    "rowid": "1205094",
    "final_x": "3705075.17406",
    "final_y": "513134.414642",
    "longitude": "-89.99430743049646",
    "latitude": "29.90420489926468",
    "geocoded_column": {
      "latitude": "29.90420489926468",
      "longitude": "-89.99430743049646"
    }
  },
  {
    "service_request": "2025-1205093",
    "request_type": "General Services",
    "request_reason": "General Service Request",
    "date_created": "2025-06-29T21:05:31.000",
    "date_modified": "2025-06-29T21:05:33.000",
    "request_status": "Pending",
    "responsible_agency": "Orleans Parish Communication District",
    "final_address": "4200 BLK MacArthur Blvd",
    "address_councildis": "C",
    "status": "Pending",
    "rowid": "1205093",
    "final_x": "3699711.12285",
    "final_y": "520353.436771",
    "longitude": "-90.01097343243623",
    "latitude": "29.924226030043013",
    "geocoded_column": {
      "latitude": "29.924226030043013",
      "longitude": "-90.01097343243623"
    }
  },
  {
    "service_request": "2025-1205092",
    "request_type": "Trash/Recycling",
    "request_reason": "Repair Trash Cart",
    "date_created": "2025-06-29T20:51:38.000",
    "date_modified": "2025-06-29T20:51:41.000",
    "request_status": "Pending",
    "responsible_agency": "Department of Sanitation",
    "final_address": "3724 Napoleon Ave",
    "address_councildis": "B",
    "status": "Assigned to Contractor",
    "contractor": "IV Waste",
    "rowid": "1205092",
    "final_x": "3669967.59706",
    "final_y": "528356.067648",
    "longitude": "-90.10459273253215",
    "latitude": "29.94714101947418",
    "geocoded_column": {
      "latitude": "29.94714101947418",
      "longitude": "-90.10459273253215"
    }
  },
  {
    "service_request": "2025-1205091",
    "request_type": "Healthy Homes",
    "request_reason": "Healthy Homes",
    "date_created": "2025-06-29T20:31:13.000",
    "date_modified": "2025-06-29T20:31:14.000",
    "request_status": "Pending",
    "responsible_agency": "Department of Code Enforcement",
    "final_address": "511 S Scott St",
    "address_councildis": "B",
    "status": "Pending",
    "rowid": "1205091",
    "final_x": "3670704.53351",
    "final_y": "536483.105031",
    "longitude": "-90.1019901926179",
    "latitude": "29.969465930192417",
    "geocoded_column": {
      "latitude": "29.969465930192417",
      "longitude": "-90.1019901926179"
    }
  },
  {
    "service_request": "2025-1205090",
    "request_type": "Property Maintenance",
    "request_reason": "Property Maintenance",
    "date_created": "2025-06-29T20:26:57.000",
    "date_modified": "2025-06-29T20:26:58.000",
    "request_status": "Pending",
    "responsible_agency": "Department of Code Enforcement",
    "final_address": "1521 N Roman St",
    "address_councildis": "D",
    "status": "Pending",
    "rowid": "1205090",
    "final_x": "3681251.67272",
    "final_y": "537801.559688",
    "longitude": "-90.06863552555546",
    "latitude": "29.97277535968913",
    "geocoded_column": {
      "latitude": "29.97277535968913",
      "longitude": "-90.06863552555546"
    }
  },
  {
    "service_request": "2025-1205089",
    "request_type": "General Services",
    "request_reason": "General Service Request",
    "date_created": "2025-06-29T20:24:16.000",
    "date_modified": "2025-06-29T20:24:19.000",
    "request_status": "Pending",
    "responsible_agency": "Orleans Parish Communication District",
    "final_address": "1527 N Roman St",
    "address_councildis": "D",
    "status": "Pending",
    "rowid": "1205089",
    "final_x": "3681272.41327",
    "final_y": "537831.454985",
    "longitude": "-90.06856898092649",
    "latitude": "29.972856931956223",
    "geocoded_column": {
      "latitude": "29.972856931956223",
      "longitude": "-90.06856898092649"
    }
  },
  {
    "service_request": "2025-1205088",
    "request_type": "Property Maintenance",
    "request_reason": "Property Maintenance",
    "date_created": "2025-06-29T20:01:26.000",
    "date_modified": "2025-06-29T20:01:28.000",
    "request_status": "Pending",
    "responsible_agency": "Department of Code Enforcement",
    "final_address": "1401 Nashville Ave",
    "address_councildis": "A",
    "status": "Pending",
    "rowid": "1205088",
    "final_x": "3666030.47303",
    "final_y": "521020.281273",
    "longitude": "-90.11726957427481",
    "latitude": "29.927085453870735",
    "geocoded_column": {
      "latitude": "29.927085453870735",
      "longitude": "-90.11726957427481"
    }
  },
  {
    "service_request": "2025-1205087",
    "request_type": "Trash/Recycling",
    "request_reason": "Missed Trash Pick-Up",
    "date_created": "2025-06-29T19:49:44.000",
    "date_modified": "2025-06-29T19:49:46.000",
    "request_status": "Pending",
    "responsible_agency": "Department of Sanitation",
    "final_address": "1427 Esplanade Ave Apt D",
    "address_councildis": "C",
    "status": "Assigned to Contractor",
    "contractor": "IV Waste",
    "rowid": "1205087",
    "final_x": "3681691.95093",
    "final_y": "536368.240519",
    "longitude": "-90.06729506113913",
    "latitude": "29.968820857519077",
    "geocoded_column": {
      "latitude": "29.968820857519077",
      "longitude": "-90.06729506113913"
    }
  },
  {
    "service_request": "2025-1205086",
    "request_type": "Trash/Recycling",
    "request_reason": "Order Second Trash Cart",
    "date_created": "2025-06-29T19:46:18.000",
    "date_modified": "2025-06-29T19:46:19.000",
    "request_status": "Pending",
    "responsible_agency": "Department of Sanitation",
    "final_address": "4567 Viola St",
    "address_councildis": "E",
    "status": "Assigned to Contractor",
    "contractor": "Waste Pro",
    "rowid": "1205086",
    "final_x": "3704137.24074",
    "final_y": "554058.446936",
    "longitude": "-89.99575985778762",
    "latitude": "30.016761322194686",
    "geocoded_column": {
      "latitude": "30.016761322194686",
      "longitude": "-89.99575985778762"
    }
  },
  {
    "service_request": "2025-1205085",
    "request_type": "Trash/Recycling",
    "request_reason": "Damaged Caused By Contractor",
    "date_created": "2025-06-29T19:42:34.000",
    "date_modified": "2025-06-29T19:42:37.000",
    "request_status": "Pending",
    "responsible_agency": "Department of Sanitation",
    "final_address": "4538 Constance St",
    "address_councildis": "B",
    "status": "Assigned to Contractor",
    "contractor": "IV Waste",
    "rowid": "1205085",
    "final_x": "3670386.55316",
    "final_y": "518312.25919",
    "longitude": "-90.10361026349695",
    "latitude": "29.919511416800685",
    "geocoded_column": {
      "latitude": "29.919511416800685",
      "longitude": "-90.10361026349695"
    }
  },
  {
    "service_request": "2025-1205084",
    "request_type": "Property Maintenance",
    "request_reason": "Property Maintenance",
    "date_created": "2025-06-29T19:32:26.000",
    "date_modified": "2025-06-29T19:32:28.000",
    "request_status": "Pending",
    "responsible_agency": "Department of Code Enforcement",
    "final_address": "5612 Hawthorne Pl",
    "address_councildis": "A",
    "status": "Pending",
    "rowid": "1205084",
    "final_x": "3667788.35476",
    "final_y": "544735.861455",
    "longitude": "-90.11092170963295",
    "latitude": "29.992244068560925",
    "geocoded_column": {
      "latitude": "29.992244068560925",
      "longitude": "-90.11092170963295"
    }
  },
  {
    "service_request": "2025-1205083",
    "request_type": "Trash/Recycling",
    "request_reason": "Return Trash Cart",
    "date_created": "2025-06-29T19:21:14.000",
    "date_modified": "2025-06-29T19:21:17.000",
    "request_status": "Pending",
    "responsible_agency": "Department of Sanitation",
    "final_address": "310 Dauphine St",
    "address_councildis": "C",
    "status": "Assigned to Contractor",
    "contractor": "IV Waste",
    "rowid": "1205083",
    "final_x": "3681177.48808",
    "final_y": "531799.357635",
    "longitude": "-90.06907896474065",
    "latitude": "29.956273609896247",
    "geocoded_column": {
      "latitude": "29.956273609896247",
      "longitude": "-90.06907896474065"
    }
  },
  {
    "service_request": "2025-1205082",
    "request_type": "Trash/Recycling",
    "request_reason": "Order Trash Cart",
    "date_created": "2025-06-29T19:13:29.000",
    "date_modified": "2025-06-29T19:13:31.000",
    "request_status": "Pending",
    "responsible_agency": "Department of Sanitation",
    "final_address": "304 Walnut St",
    "address_councildis": "A",
    "status": "Assigned to Contractor",
    "contractor": "IV Waste",
    "rowid": "1205082",
    "final_x": "3661780.95994",
    "final_y": "521970.826106",
    "longitude": "-90.1306527617991",
    "latitude": "29.929822479664672",
    "geocoded_column": {
      "latitude": "29.929822479664672",
      "longitude": "-90.1306527617991"
    }
  },
  {
    "service_request": "2025-1205081",
    "request_type": "Alley Ways",
    "request_reason": "Alley Way Regrading",
    "date_created": "2025-06-29T18:59:14.000",
    "date_modified": "2025-06-29T18:59:16.000",
    "request_status": "Pending",
    "responsible_agency": "Department of Public Works",
    "final_address": "7008 Catina St",
    "address_councildis": "A",
    "status": "Pending",
    "rowid": "1205081",
    "final_x": "3667089.74906",
    "final_y": "554198.89404",
    "longitude": "-90.11281007372499",
    "latitude": "30.018284595362697",
    "geocoded_column": {
      "latitude": "30.018284595362697",
      "longitude": "-90.11281007372499"
    }
  },
  {
    "service_request": "2025-1205080",
    "request_type": "Property Maintenance",
    "request_reason": "Property Maintenance",
    "date_created": "2025-06-29T18:49:41.000",
    "date_modified": "2025-06-29T18:49:44.000",
    "request_status": "Pending",
    "responsible_agency": "Department of Code Enforcement",
    "final_address": "4950 Bundy Rd",
    "address_councildis": "E",
    "status": "Pending",
    "rowid": "1205080",
    "final_x": "3709011.56836",
    "final_y": "556956.389786",
    "longitude": "-89.98025105306185",
    "latitude": "30.024572182655188",
    "geocoded_column": {
      "latitude": "30.024572182655188",
      "longitude": "-89.98025105306185"
    }
  },
  {
    "service_request": "2025-1205079",
    "request_type": "Trash/Recycling",
    "request_reason": "Request a Large Item Pick Up",
    "date_created": "2025-06-29T18:44:23.000",
    "date_modified": "2025-06-29T18:44:25.000",
    "request_status": "Pending",
    "responsible_agency": "Department of Sanitation",
    "final_address": "8001 Buffalo St",
    "address_councildis": "E",
    "status": "Assigned to Contractor",
    "contractor": "Waste Pro",
    "rowid": "1205079",
    "final_x": "3719256.63052",
    "final_y": "574255.456874",
    "longitude": "-89.94721760197734",
    "latitude": "30.071800871220113",
    "geocoded_column": {
      "latitude": "30.071800871220113",
      "longitude": "-89.94721760197734"
    }
  },
  {
    "service_request": "2025-1205078",
    "request_type": "Trash/Recycling",
    "request_reason": "Request a Large Item Pick Up",
    "date_created": "2025-06-29T17:58:00.000",
    "date_modified": "2025-06-29T17:58:03.000",
    "request_status": "Pending",
    "responsible_agency": "Department of Sanitation",
    "final_address": "2726 Ramsey Dr",
    "address_councildis": "C",
    "status": "Assigned to Contractor",
    "contractor": "Richards Disposal",
    "rowid": "1205078",
    "final_x": "3703166.26423",
    "final_y": "520746.148921",
    "longitude": "-90.00005241462672",
    "latitude": "29.925195759672615",
    "geocoded_column": {
      "latitude": "29.925195759672615",
      "longitude": "-90.00005241462672"
    }
  },
  {
    "service_request": "2025-1205077",
    "request_type": "General Services",
    "request_reason": "General Service Request",
    "date_created": "2025-06-29T17:26:51.000",
    "date_modified": "2025-06-29T17:26:53.000",
    "request_status": "Pending",
    "responsible_agency": "Orleans Parish Communication District",
    "final_address": "710 Carondelet St",
    "address_councildis": "B",
    "status": "Pending",
    "rowid": "1205077",
    "final_x": "3680136.93077",
    "final_y": "528528.766656",
    "longitude": "-90.07247833525285",
    "latitude": "29.947312112983724",
    "geocoded_column": {
      "latitude": "29.947312112983724",
      "longitude": "-90.07247833525285"
    }
  },
  {
    "service_request": "2025-1205076",
    "request_type": "Healthy Homes",
    "request_reason": "Healthy Homes",
    "date_created": "2025-06-29T17:21:47.000",
    "date_modified": "2025-06-29T17:21:48.000",
    "request_status": "Pending",
    "responsible_agency": "Department of Code Enforcement",
    "final_address": "2005 Marigny St",
    "address_councildis": "D",
    "status": "Pending",
    "rowid": "1205076",
    "final_x": "3685186.11676",
    "final_y": "539725.901002",
    "longitude": "-90.0561420982863",
    "latitude": "29.97794663286106",
    "geocoded_column": {
      "latitude": "29.97794663286106",
      "longitude": "-90.0561420982863"
    }
  },
  {
    "service_request": "2025-1205075",
    "request_type": "Trash/Recycling",
    "request_reason": "Request a Large Item Pick Up",
    "date_created": "2025-06-29T17:20:04.000",
    "date_modified": "2025-06-29T17:20:06.000",
    "request_status": "Pending",
    "responsible_agency": "Department of Sanitation",
    "final_address": "6394 Milne Blvd",
    "address_councildis": "A",
    "status": "Assigned to Contractor",
    "contractor": "IV Waste",
    "rowid": "1205075",
    "final_x": "3667192.29447",
    "final_y": "550231.673236",
    "longitude": "-90.11261960757761",
    "latitude": "30.007373125526822",
    "geocoded_column": {
      "latitude": "30.007373125526822",
      "longitude": "-90.11261960757761"
    }
  },
  {
    "service_request": "2025-1205074",
    "request_type": "Abandoned Vehicles",
    "request_reason": "Abandoned/Junk Vehicles",
    "date_created": "2025-06-29T17:17:06.000",
    "date_modified": "2025-06-29T17:17:12.000",
    "request_status": "Pending",
    "responsible_agency": "Department of Public Works",
    "final_address": "2838 Coliseum St",
    "address_councildis": "B",
    "status": "Pending",
    "rowid": "1205074",
    "final_x": "3676225.42248",
    "final_y": "521485.445753",
    "longitude": "-90.08507073116475",
    "latitude": "29.928063060555644",
    "geocoded_column": {
      "latitude": "29.928063060555644",
      "longitude": "-90.08507073116475"
    }
  },
  {
    "service_request": "2025-1205073",
    "request_type": "Healthy Homes",
    "request_reason": "Healthy Homes",
    "date_created": "2025-06-29T17:13:13.000",
    "date_modified": "2025-06-29T17:13:15.000",
    "request_status": "Pending",
    "responsible_agency": "Department of Code Enforcement",
    "final_address": "511 S Scott St",
    "address_councildis": "B",
    "status": "Pending",
    "rowid": "1205073",
    "final_x": "3670704.53351",
    "final_y": "536483.105031",
    "longitude": "-90.1019901926179",
    "latitude": "29.969465930192417",
    "geocoded_column": {
      "latitude": "29.969465930192417",
      "longitude": "-90.1019901926179"
    }
  },
  {
    "service_request": "2025-1205072",
    "request_type": "General Services",
    "request_reason": "General Service Request",
    "date_created": "2025-06-29T16:35:48.000",
    "date_modified": "2025-06-29T16:35:50.000",
    "request_status": "Pending",
    "responsible_agency": "Orleans Parish Communication District",
    "final_address": "7600 BLK Oak St",
    "address_councildis": "A",
    "status": "Pending",
    "rowid": "1205072",
    "final_x": "3663175.12637",
    "final_y": "527267.532851",
    "longitude": "-90.1260754270574",
    "latitude": "29.944346432820446",
    "geocoded_column": {
      "latitude": "29.944346432820446",
      "longitude": "-90.1260754270574"
    }
  },
  {
    "service_request": "2025-1205071",
    "request_type": "Alley Ways",
    "request_reason": "Alley Way Regrading",
    "date_created": "2025-06-29T16:27:52.000",
    "date_modified": "2025-06-29T16:27:54.000",
    "request_status": "Pending",
    "responsible_agency": "Department of Public Works",
    "final_address": "6127 Milne Blvd",
    "address_councildis": "A",
    "status": "Pending",
    "rowid": "1205071",
    "final_x": "3667168.36301",
    "final_y": "548360.369618",
    "longitude": "-90.11275818986977",
    "latitude": "30.002228391322394",
    "geocoded_column": {
      "latitude": "30.002228391322394",
      "longitude": "-90.11275818986977"
    }
  },
  {
    "service_request": "2025-1205070",
    "request_type": "Trash/Recycling",
    "request_reason": "Damaged Caused By Contractor",
    "date_created": "2025-06-29T16:21:38.000",
    "date_modified": "2025-06-29T16:21:40.000",
    "request_status": "Pending",
    "responsible_agency": "Department of Sanitation",
    "final_address": "7540 Crestmont Rd",
    "address_councildis": "E",
    "status": "Assigned to Contractor",
    "contractor": "Waste Pro",
    "rowid": "1205070",
    "final_x": "3699632.64765",
    "final_y": "560122.269725",
    "longitude": "-90.00977108067818",
    "latitude": "30.033578325825655",
    "geocoded_column": {
      "latitude": "30.033578325825655",
      "longitude": "-90.00977108067818"
    }
  },
  {
    "service_request": "2025-1205069",
    "request_type": "Trash/Recycling",
    "request_reason": "Request a Large Item Pick Up",
    "date_created": "2025-06-29T16:18:00.000",
    "date_modified": "2025-06-29T16:18:01.000",
    "request_status": "Pending",
    "responsible_agency": "Department of Sanitation",
    "final_address": "5237 Camp St",
    "address_councildis": "B",
    "status": "Assigned to Contractor",
    "contractor": "IV Waste",
    "rowid": "1205069",
    "final_x": "3667749.381",
    "final_y": "519023.379255",
    "longitude": "-90.11191060322707",
    "latitude": "29.921544331862417",
    "geocoded_column": {
      "latitude": "29.921544331862417",
      "longitude": "-90.11191060322707"
    }
  },
  {
    "service_request": "2025-1205068",
    "request_type": "Trash/Recycling",
    "request_reason": "Repair Trash Cart",
    "date_created": "2025-06-29T16:15:32.000",
    "date_modified": "2025-06-29T16:15:33.000",
    "request_status": "Pending",
    "responsible_agency": "Department of Sanitation",
    "final_address": "5237 Camp St",
    "address_councildis": "B",
    "status": "Assigned to Contractor",
    "contractor": "IV Waste",
    "rowid": "1205068",
    "final_x": "3667749.381",
    "final_y": "519023.379255",
    "longitude": "-90.11191060322707",
    "latitude": "29.921544331862417",
    "geocoded_column": {
      "latitude": "29.921544331862417",
      "longitude": "-90.11191060322707"
    }
  },
  {
    "service_request": "2025-1205067",
    "request_type": "Trash/Recycling",
    "request_reason": "Request a Large Item Pick Up",
    "date_created": "2025-06-29T16:15:07.000",
    "date_modified": "2025-06-29T16:15:09.000",
    "request_status": "Pending",
    "responsible_agency": "Department of Sanitation",
    "final_address": "416 S Gayoso St",
    "address_councildis": "B",
    "status": "Assigned to Contractor",
    "contractor": "IV Waste",
    "rowid": "1205067",
    "final_x": "3673533.81665",
    "final_y": "534734.080838",
    "longitude": "-90.09311485435438",
    "latitude": "29.964572798886934",
    "geocoded_column": {
      "latitude": "29.964572798886934",
      "longitude": "-90.09311485435438"
    }
  },
  {
    "service_request": "2025-1205066",
    "request_type": "Trash/Recycling",
    "request_reason": "Request a Large Item Pick Up",
    "date_created": "2025-06-29T16:05:46.000",
    "date_modified": "2025-06-29T16:05:48.000",
    "request_status": "Pending",
    "responsible_agency": "Department of Sanitation",
    "final_address": "129 N Scott St",
    "address_councildis": "A",
    "status": "Assigned to Contractor",
    "contractor": "IV Waste",
    "rowid": "1205066",
    "final_x": "3671888.46958",
    "final_y": "538117.056585",
    "longitude": "-90.09819559427868",
    "latitude": "29.973923709075006",
    "geocoded_column": {
      "latitude": "29.973923709075006",
      "longitude": "-90.09819559427868"
    }
  },
  {
    "service_request": "2025-1205065",
    "request_type": "Trash/Recycling",
    "request_reason": "Order Trash Cart",
    "date_created": "2025-06-29T15:58:42.000",
    "date_modified": "2025-06-29T15:58:43.000",
    "request_status": "Pending",
    "responsible_agency": "Department of Sanitation",
    "final_address": "3100 Magazine St Apt 2C",
    "address_councildis": "B",
    "status": "Assigned to Contractor",
    "contractor": "IV Waste",
    "rowid": "1205065",
    "final_x": "3676103.4308",
    "final_y": "520124.561656",
    "longitude": "-90.08550261531951",
    "latitude": "29.924324723493427",
    "geocoded_column": {
      "latitude": "29.924324723493427",
      "longitude": "-90.08550261531951"
    }
  },
  {
    "service_request": "2025-1205064",
    "request_type": "Trash/Recycling",
    "request_reason": "Missed Trash Pick-Up",
    "date_created": "2025-06-29T15:41:58.000",
    "date_modified": "2025-06-29T15:42:00.000",
    "request_status": "Pending",
    "responsible_agency": "Department of Sanitation",
    "final_address": "806 Audubon St, New Orleans, Louisiana, 70118",
    "address_councildis": "A",
    "status": "Assigned to Contractor",
    "contractor": "IV Waste",
    "rowid": "1205064",
    "final_x": "3663658.32864",
    "final_y": "525267.925437",
    "longitude": "-90.12461640949482",
    "latitude": "29.938834143305783",
    "geocoded_column": {
      "latitude": "29.938834143305783",
      "longitude": "-90.12461640949482"
    }
  },
  {
    "service_request": "2025-1205063",
    "request_type": "Abandoned Vehicles",
    "request_reason": "Abandoned/Junk Vehicles",
    "date_created": "2025-06-29T15:40:23.000",
    "date_modified": "2025-06-29T15:40:25.000",
    "request_status": "Pending",
    "responsible_agency": "Department of Public Works",
    "final_address": "1033 Washington Ave",
    "address_councildis": "B",
    "status": "Pending",
    "rowid": "1205063",
    "final_x": "3677126.09154",
    "final_y": "520759.873785",
    "longitude": "-90.0822525307249",
    "latitude": "29.92604096349436",
    "geocoded_column": {
      "latitude": "29.92604096349436",
      "longitude": "-90.0822525307249"
    }
  },
  {
    "service_request": "2025-1205062",
    "request_type": "Drainage",
    "request_reason": "Street Flooding",
    "date_created": "2025-06-29T15:39:06.000",
    "date_modified": "2025-06-29T15:39:08.000",
    "request_status": "Pending",
    "responsible_agency": "Sewerage & Water Board",
    "final_address": "1628 Elizardi Blvd",
    "address_councildis": "C",
    "status": "Pending",
    "rowid": "1205062",
    "final_x": "3694744.33066",
    "final_y": "525108.449085",
    "longitude": "-90.02648059505415",
    "latitude": "29.937457366581793",
    "geocoded_column": {
      "latitude": "29.937457366581793",
      "longitude": "-90.02648059505415"
    }
  },
  {
    "service_request": "2025-1205061",
    "request_type": "Trash/Recycling",
    "request_reason": "Replace Trash Cart",
    "date_created": "2025-06-29T15:20:44.000",
    "date_modified": "2025-06-29T15:20:45.000",
    "request_status": "Pending",
    "responsible_agency": "Department of Sanitation",
    "final_address": "2436 Gravier St",
    "address_councildis": "B",
    "status": "Assigned to Contractor",
    "contractor": "IV Waste",
    "rowid": "1205061",
    "final_x": "3674921.31662",
    "final_y": "532830.104836",
    "longitude": "-90.0887985299005",
    "latitude": "29.959296137939038",
    "geocoded_column": {
      "latitude": "29.959296137939038",
      "longitude": "-90.0887985299005"
    }
  },
  {
    "service_request": "2025-1205060",
    "request_type": "General Services",
    "request_reason": "General Service Request",
    "date_created": "2025-06-29T14:44:27.000",
    "date_modified": "2025-06-29T14:44:29.000",
    "request_status": "Pending",
    "responsible_agency": "Orleans Parish Communication District",
    "final_address": "1435 De Battista Pl",
    "address_councildis": "C",
    "status": "Pending",
    "rowid": "1205060",
    "final_x": "3699725.98813",
    "final_y": "525778.626557",
    "longitude": "-90.01072883568067",
    "latitude": "29.939142954240587",
    "geocoded_column": {
      "latitude": "29.939142954240587",
      "longitude": "-90.01072883568067"
    }
  },
  {
    "service_request": "2025-1205059",
    "request_type": "Property Maintenance",
    "request_reason": "Property Maintenance",
    "date_created": "2025-06-29T14:40:06.000",
    "date_modified": "2025-06-29T14:40:08.000",
    "request_status": "Pending",
    "responsible_agency": "Department of Code Enforcement",
    "final_address": "4234 Alfred St",
    "address_councildis": "D",
    "status": "Pending",
    "rowid": "1205059",
    "final_x": "3677557.75355",
    "final_y": "547875.939922",
    "longitude": "-90.07995358911155",
    "latitude": "30.000587986176445",
    "geocoded_column": {
      "latitude": "30.000587986176445",
      "longitude": "-90.07995358911155"
    }
  },
  {
    "service_request": "2025-1205058",
    "request_type": "General Services",
    "request_reason": "General Service Request",
    "date_created": "2025-06-29T14:02:21.000",
    "date_modified": "2025-06-29T14:02:23.000",
    "request_status": "Pending",
    "responsible_agency": "Orleans Parish Communication District",
    "final_address": "3197 Desaix Blvd",
    "address_councildis": "D",
    "status": "Pending",
    "rowid": "1205058",
    "final_x": "3678319.52219",
    "final_y": "543672.706958",
    "longitude": "-90.07769261693035",
    "latitude": "29.989007641909453",
    "geocoded_column": {
      "latitude": "29.989007641909453",
      "longitude": "-90.07769261693035"
    }
  },
  {
    "service_request": "2025-1205057",
    "request_type": "Trash/Recycling",
    "request_reason": "Request a Large Item Pick Up",
    "date_created": "2025-06-29T13:58:09.000",
    "date_modified": "2025-06-29T13:58:12.000",
    "request_status": "Pending",
    "responsible_agency": "Department of Sanitation",
    "final_address": "45 Neron Pl",
    "address_councildis": "A",
    "status": "Assigned to Contractor",
    "contractor": "IV Waste",
    "rowid": "1205057",
    "final_x": "3665506.46138",
    "final_y": "530438.817346",
    "longitude": "-90.11860855704514",
    "latitude": "29.952998693768492",
    "geocoded_column": {
      "latitude": "29.952998693768492",
      "longitude": "-90.11860855704514"
    }
  },
  {
    "service_request": "2025-1205056",
    "request_type": "Trash/Recycling",
    "request_reason": "Order Recycling Cart",
    "date_created": "2025-06-29T13:26:18.000",
    "date_modified": "2025-06-29T13:26:19.000",
    "request_status": "Pending",
    "responsible_agency": "Department of Sanitation",
    "final_address": "5230 Tchoupitoulas St",
    "address_councildis": "B",
    "status": "Pending",
    "rowid": "1205056",
    "final_x": "3667737.20698",
    "final_y": "517143.647157",
    "longitude": "-90.11201227511778",
    "latitude": "29.916376016273656",
    "geocoded_column": {
      "latitude": "29.916376016273656",
      "longitude": "-90.11201227511778"
    }
  },
  {
    "service_request": "2025-1205055",
    "request_type": "Abandoned Vehicles",
    "request_reason": "Abandoned/Junk Vehicles",
    "date_created": "2025-06-29T13:25:18.000",
    "date_modified": "2025-06-29T13:25:19.000",
    "request_status": "Pending",
    "responsible_agency": "Department of Public Works",
    "final_address": "7206 Fig St",
    "address_councildis": "B",
    "status": "Pending",
    "rowid": "1205055",
    "final_x": "3667625.53236",
    "final_y": "531895.856835",
    "longitude": "-90.11186839492642",
    "latitude": "29.95694313486228",
    "geocoded_column": {
      "latitude": "29.95694313486228",
      "longitude": "-90.11186839492642"
    }
  },
  {
    "service_request": "2025-1205054",
    "request_type": "Trash/Recycling",
    "request_reason": "Order Second Trash Cart",
    "date_created": "2025-06-29T13:25:10.000",
    "date_modified": "2025-06-29T13:25:11.000",
    "request_status": "Pending",
    "responsible_agency": "Department of Sanitation",
    "final_address": "5230 Tchoupitoulas St",
    "address_councildis": "B",
    "status": "Assigned to Contractor",
    "contractor": "IV Waste",
    "rowid": "1205054",
    "final_x": "3667737.20698",
    "final_y": "517143.647157",
    "longitude": "-90.11201227511778",
    "latitude": "29.916376016273656",
    "geocoded_column": {
      "latitude": "29.916376016273656",
      "longitude": "-90.11201227511778"
    }
  },
  {
    "service_request": "2025-1205053",
    "request_type": "Trash/Recycling",
    "request_reason": "Order Second Trash Cart",
    "date_created": "2025-06-29T13:23:52.000",
    "date_modified": "2025-06-29T13:23:54.000",
    "request_status": "Pending",
    "responsible_agency": "Department of Sanitation",
    "final_address": "5228 Tchoupitoulas St",
    "address_councildis": "B",
    "status": "Assigned to Contractor",
    "contractor": "IV Waste",
    "rowid": "1205053",
    "final_x": "3667752.83194",
    "final_y": "517145.730485",
    "longitude": "-90.11196288619225",
    "latitude": "29.91638128682531",
    "geocoded_column": {
      "latitude": "29.91638128682531",
      "longitude": "-90.11196288619225"
    }
  },
  {
    "service_request": "2025-1205052",
    "request_type": "Trash/Recycling",
    "request_reason": "Replace Trash Cart",
    "date_created": "2025-06-29T13:18:29.000",
    "date_modified": "2025-06-29T13:18:30.000",
    "request_status": "Pending",
    "responsible_agency": "Department of Sanitation",
    "final_address": "1742 Florida Ave",
    "address_councildis": "D",
    "status": "Assigned to Contractor",
    "contractor": "IV Waste",
    "rowid": "1205052",
    "final_x": "3681039.23592",
    "final_y": "543678.220046",
    "longitude": "-90.06910166813462",
    "latitude": "29.988940571983726",
    "geocoded_column": {
      "latitude": "29.988940571983726",
      "longitude": "-90.06910166813462"
    }
  },
  {
    "service_request": "2025-1205051",
    "request_type": "Trash/Recycling",
    "request_reason": "Replace Trash Cart",
    "date_created": "2025-06-29T13:18:28.000",
    "date_modified": "2025-06-29T13:18:30.000",
    "request_status": "Pending",
    "responsible_agency": "Department of Sanitation",
    "final_address": "1742 Florida Ave",
    "address_councildis": "D",
    "status": "Assigned to Contractor",
    "contractor": "IV Waste",
    "rowid": "1205051",
    "final_x": "3681039.23592",
    "final_y": "543678.220046",
    "longitude": "-90.06910166813462",
    "latitude": "29.988940571983726",
    "geocoded_column": {
      "latitude": "29.988940571983726",
      "longitude": "-90.06910166813462"
    }
  },
  {
    "service_request": "2025-1205050",
    "request_type": "Roads and Streets",
    "request_reason": "ADA Ramps Damaged or Missing",
    "date_created": "2025-06-29T13:16:10.000",
    "date_modified": "2025-06-29T13:16:12.000",
    "request_status": "Pending",
    "responsible_agency": "Department of Public Works",
    "final_address": "1800 Louisa St",
    "address_councildis": "D",
    "status": "Pending",
    "rowid": "1205050",
    "final_x": "3690188.16195",
    "final_y": "538534.132105",
    "longitude": "-90.04038641237028",
    "latitude": "29.974515437495494",
    "geocoded_column": {
      "latitude": "29.974515437495494",
      "longitude": "-90.04038641237028"
    }
  },
  {
    "service_request": "2025-1205049",
    "request_type": "Street and Traffic Signs",
    "request_reason": "One Way Sign Missing or Damaged",
    "date_created": "2025-06-29T12:57:45.000",
    "date_modified": "2025-06-29T12:57:47.000",
    "request_status": "Pending",
    "responsible_agency": "Department of Public Works",
    "final_address": "1501 Mandeville St",
    "address_councildis": "C",
    "status": "Pending",
    "rowid": "1205049",
    "final_x": "3685693.2742",
    "final_y": "537873.872585",
    "longitude": "-90.05460559774029",
    "latitude": "29.972838650290722",
    "geocoded_column": {
      "latitude": "29.972838650290722",
      "longitude": "-90.05460559774029"
    }
  },
  {
    "service_request": "2025-1205048",
    "request_type": "Trash/Recycling",
    "request_reason": "Repair Trash Cart",
    "date_created": "2025-06-29T12:57:13.000",
    "date_modified": "2025-06-29T12:57:14.000",
    "request_status": "Pending",
    "responsible_agency": "Department of Sanitation",
    "final_address": "2610 Palmer Ave",
    "address_councildis": "A",
    "status": "Assigned to Contractor",
    "contractor": "IV Waste",
    "rowid": "1205048",
    "final_x": "3666573.03252",
    "final_y": "526336.116734",
    "longitude": "-90.11537847948775",
    "latitude": "29.94168646192928",
    "geocoded_column": {
      "latitude": "29.94168646192928",
      "longitude": "-90.11537847948775"
    }
  },
  {
    "service_request": "2025-1205047",
    "request_type": "Trash/Recycling",
    "request_reason": "Request a Large Item Pick Up",
    "date_created": "2025-06-29T12:55:52.000",
    "date_modified": "2025-06-29T12:55:54.000",
    "request_status": "Pending",
    "responsible_agency": "Department of Sanitation",
    "final_address": "425 second street 70130",
    "status": "Assigned to Contractor",
    "rowid": "1205047",
    "longitude": "0.0",
    "latitude": "0.0",
    "geocoded_column": {
      "latitude": "0.0",
      "longitude": "0.0"
    }
  },
  {
    "service_request": "2025-1205046",
    "request_type": "Abandoned Vehicles",
    "request_reason": "Abandoned/Junk Vehicles",
    "date_created": "2025-06-29T12:37:56.000",
    "date_modified": "2025-06-29T12:37:57.000",
    "request_status": "Pending",
    "responsible_agency": "Department of Public Works",
    "final_address": "2441 Ap Tureaud Ave",
    "address_councildis": "D",
    "status": "Pending",
    "rowid": "1205046",
    "final_x": "3681656.08335",
    "final_y": "541196.039948",
    "longitude": "-90.06723986744643",
    "latitude": "29.9820967201669",
    "geocoded_column": {
      "latitude": "29.9820967201669",
      "longitude": "-90.06723986744643"
    }
  },
  {
    "service_request": "2025-1205045",
    "request_type": "Abandoned Vehicles",
    "request_reason": "Abandoned/Junk Vehicles",
    "date_created": "2025-06-29T12:36:02.000",
    "date_modified": "2025-06-29T12:36:04.000",
    "request_status": "Pending",
    "responsible_agency": "Department of Public Works",
    "final_address": "2740 Ap Tureaud Ave",
    "address_councildis": "D",
    "status": "Pending",
    "rowid": "1205045",
    "final_x": "3681366.06549",
    "final_y": "542605.596237",
    "longitude": "-90.06810672376969",
    "latitude": "29.985981314454726",
    "geocoded_column": {
      "latitude": "29.985981314454726",
      "longitude": "-90.06810672376969"
    }
  },
  {
    "service_request": "2025-1205044",
    "request_type": "Abandoned Vehicles",
    "request_reason": "Abandoned/Junk Vehicles",
    "date_created": "2025-06-29T12:31:42.000",
    "date_modified": "2025-06-29T12:31:45.000",
    "request_status": "Pending",
    "responsible_agency": "Department of Public Works",
    "final_address": "2740 Ap Tureaud Ave",
    "address_councildis": "D",
    "status": "Pending",
    "rowid": "1205044",
    "final_x": "3681366.06549",
    "final_y": "542605.596237",
    "longitude": "-90.06810672376969",
    "latitude": "29.985981314454726",
    "geocoded_column": {
      "latitude": "29.985981314454726",
      "longitude": "-90.06810672376969"
    }
  },
  {
    "service_request": "2025-1205043",
    "request_type": "Drainage",
    "request_reason": "Street Flooding",
    "date_created": "2025-06-29T12:15:50.000",
    "date_modified": "2025-06-29T12:15:54.000",
    "request_status": "Pending",
    "responsible_agency": "Sewerage & Water Board",
    "final_address": "5881 Bellaire Dr",
    "address_councildis": "A",
    "status": "Pending",
    "rowid": "1205043",
    "final_x": "3664276.74208",
    "final_y": "546965.773137",
    "longitude": "-90.12193978337716",
    "latitude": "29.99847810763874",
    "geocoded_column": {
      "latitude": "29.99847810763874",
      "longitude": "-90.12193978337716"
    }
  },
  {
    "service_request": "2025-1205042",
    "request_type": "Trash/Recycling",
    "request_reason": "Request a Large Item Pick Up",
    "date_created": "2025-06-29T12:13:06.000",
    "date_modified": "2025-06-29T12:13:08.000",
    "request_status": "Pending",
    "responsible_agency": "Department of Sanitation",
    "final_address": "5446 Chartres St",
    "address_councildis": "E",
    "status": "Assigned to Contractor",
    "contractor": "Waste Pro",
    "rowid": "1205042",
    "final_x": "3697036.29207",
    "final_y": "532000.766339",
    "longitude": "-90.01899516173607",
    "latitude": "29.956336757231963",
    "geocoded_column": {
      "latitude": "29.956336757231963",
      "longitude": "-90.01899516173607"
    }
  },
  {
    "service_request": "2025-1205041",
    "request_type": "Trash/Recycling",
    "request_reason": "Request a Large Item Pick Up",
    "date_created": "2025-06-29T11:38:03.000",
    "date_modified": "2025-06-29T11:38:05.000",
    "request_status": "Pending",
    "responsible_agency": "Department of Sanitation",
    "final_address": "7880 Means Ave",
    "address_councildis": "E",
    "status": "Assigned to Contractor",
    "contractor": "Waste Pro",
    "rowid": "1205041",
    "final_x": "3707611.89572",
    "final_y": "565449.050274",
    "longitude": "-89.98435781075472",
    "latitude": "30.047969013102396",
    "geocoded_column": {
      "latitude": "30.047969013102396",
      "longitude": "-89.98435781075472"
    }
  },
  {
    "service_request": "2025-1205040",
    "request_type": "Trash/Recycling",
    "request_reason": "Order Trash Cart",
    "date_created": "2025-06-29T11:35:21.000",
    "date_modified": "2025-06-29T11:35:23.000",
    "request_status": "Pending",
    "responsible_agency": "Department of Sanitation",
    "final_address": "2724 Burgundy St",
    "address_councildis": "C",
    "status": "Assigned to Contractor",
    "contractor": "IV Waste",
    "rowid": "1205040",
    "final_x": "3687415.00572",
    "final_y": "535525.509702",
    "longitude": "-90.04925117173454",
    "latitude": "29.966328528841657",
    "geocoded_column": {
      "latitude": "29.966328528841657",
      "longitude": "-90.04925117173454"
    }
  },
  {
    "service_request": "2025-1205039",
    "request_type": "Traffic Signals",
    "request_reason": "Traffic Signal Malfunctioning or Damaged",
    "date_created": "2025-06-29T11:19:44.000",
    "date_modified": "2025-06-29T11:19:46.000",
    "request_status": "Pending",
    "responsible_agency": "Department of Public Works",
    "final_address": "1300 BLK Tchoupitoulas St",
    "address_councildis": "B",
    "status": "Pending",
    "rowid": "1205039",
    "final_x": "3682007.18582",
    "final_y": "525026.545535",
    "longitude": "-90.06669546836032",
    "latitude": "29.937625456501774",
    "geocoded_column": {
      "latitude": "29.937625456501774",
      "longitude": "-90.06669546836032"
    }
  },
  {
    "service_request": "2025-1205037",
    "request_type": "Property Maintenance",
    "request_reason": "Property Maintenance",
    "date_created": "2025-06-29T10:42:47.000",
    "date_modified": "2025-06-29T10:42:49.000",
    "request_status": "Pending",
    "responsible_agency": "Department of Code Enforcement",
    "final_address": "5612 Hawthorne Pl",
    "address_councildis": "A",
    "status": "Pending",
    "rowid": "1205037",
    "final_x": "3667788.35476",
    "final_y": "544735.861455",
    "longitude": "-90.11092170963295",
    "latitude": "29.992244068560925",
    "geocoded_column": {
      "latitude": "29.992244068560925",
      "longitude": "-90.11092170963295"
    }
  },
  {
    "service_request": "2025-1205036",
    "request_type": "Trash/Recycling",
    "request_reason": "Request a Large Item Pick Up",
    "date_created": "2025-06-29T10:42:28.000",
    "date_modified": "2025-06-29T10:42:30.000",
    "request_status": "Pending",
    "responsible_agency": "Department of Sanitation",
    "final_address": "4834 Magazine St",
    "address_councildis": "B",
    "status": "Assigned to Contractor",
    "contractor": "IV Waste",
    "rowid": "1205036",
    "final_x": "3669309.50452",
    "final_y": "518569.969271",
    "longitude": "-90.10700127337553",
    "latitude": "29.92025177757357",
    "geocoded_column": {
      "latitude": "29.92025177757357",
      "longitude": "-90.10700127337553"
    }
  },
  {
    "service_request": "2025-1205035",
    "request_type": "Property Maintenance",
    "request_reason": "Property Maintenance",
    "date_created": "2025-06-29T10:40:52.000",
    "date_modified": "2025-06-29T10:40:56.000",
    "request_status": "Pending",
    "responsible_agency": "Department of Code Enforcement",
    "final_address": "5612 Hawthorne Pl",
    "address_councildis": "A",
    "status": "Pending",
    "rowid": "1205035",
    "final_x": "3667788.35476",
    "final_y": "544735.861455",
    "longitude": "-90.11092170963295",
    "latitude": "29.992244068560925",
    "geocoded_column": {
      "latitude": "29.992244068560925",
      "longitude": "-90.11092170963295"
    }
  },
  {
    "service_request": "2025-1205034",
    "request_type": "Trash/Recycling",
    "request_reason": "Request a Large Item Pick Up",
    "date_created": "2025-06-29T10:11:34.000",
    "date_modified": "2025-06-29T10:11:36.000",
    "request_status": "Pending",
    "responsible_agency": "Department of Sanitation",
    "final_address": "1217 Saint Roch Ave, New Orleans, Louisiana, 70117",
    "status": "Assigned to Contractor",
    "rowid": "1205034",
    "longitude": "0.0",
    "latitude": "0.0",
    "geocoded_column": {
      "latitude": "0.0",
      "longitude": "0.0"
    }
  },
  {
    "service_request": "2025-1205033",
    "request_type": "Trash/Recycling",
    "request_reason": "Request a Large Item Pick Up",
    "date_created": "2025-06-29T10:10:39.000",
    "date_modified": "2025-06-29T13:25:21.000",
    "request_status": "Pending",
    "responsible_agency": "Department of Sanitation",
    "final_address": "414 Florida Blvd",
    "address_councildis": "A",
    "status": "Assigned to Contractor",
    "contractor": "IV Waste",
    "rowid": "1205033",
    "final_x": "3667371.77031",
    "final_y": "545391.092368",
    "longitude": "-90.11221556530052",
    "latitude": "29.994057942663677",
    "geocoded_column": {
      "latitude": "29.994057942663677",
      "longitude": "-90.11221556530052"
    }
  },
  {
    "service_request": "2025-1205032",
    "request_type": "Trash/Recycling",
    "request_reason": "Order Recycling Cart",
    "date_created": "2025-06-29T09:41:36.000",
    "date_modified": "2025-06-29T09:41:38.000",
    "request_status": "Pending",
    "responsible_agency": "Department of Sanitation",
    "final_address": "813 Joseph St",
    "address_councildis": "A",
    "status": "Pending",
    "rowid": "1205032",
    "final_x": "3666232.79476",
    "final_y": "519059.426551",
    "longitude": "-90.11669661811551",
    "latitude": "29.92168781545025",
    "geocoded_column": {
      "latitude": "29.92168781545025",
      "longitude": "-90.11669661811551"
    }
  },
  {
    "service_request": "2025-1205031",
    "request_type": "Trash/Recycling",
    "request_reason": "Replace Trash Cart",
    "date_created": "2025-06-29T09:37:19.000",
    "date_modified": "2025-06-29T09:37:21.000",
    "request_status": "Pending",
    "responsible_agency": "Department of Sanitation",
    "final_address": "4035 Banks St",
    "address_councildis": "A",
    "status": "Assigned to Contractor",
    "contractor": "IV Waste",
    "rowid": "1205031",
    "final_x": "3670563.79796",
    "final_y": "537317.602952",
    "longitude": "-90.10240633704508",
    "latitude": "29.971764676889716",
    "geocoded_column": {
      "latitude": "29.971764676889716",
      "longitude": "-90.10240633704508"
    }
  },
  {
    "service_request": "2025-1205030",
    "request_type": "Drainage",
    "request_reason": "Catch Basin Clogged",
    "date_created": "2025-06-29T09:32:41.000",
    "date_modified": "2025-06-29T09:32:43.000",
    "request_status": "Pending",
    "responsible_agency": "Sewerage & Water Board",
    "final_address": "5400 BLK Garfield St",
    "address_councildis": "A",
    "status": "Pending",
    "rowid": "1205030",
    "final_x": "3667090.8295",
    "final_y": "521077.314917",
    "longitude": "-90.11392037520632",
    "latitude": "29.927211292506133",
    "geocoded_column": {
      "latitude": "29.927211292506133",
      "longitude": "-90.11392037520632"
    }
  },
  {
    "service_request": "2025-1205029",
    "request_type": "Graffiti Removal",
    "request_reason": "Graffiti Removal",
    "date_created": "2025-06-29T09:28:36.000",
    "date_modified": "2025-06-29T09:28:38.000",
    "request_status": "Pending",
    "responsible_agency": "Department of Code Enforcement",
    "final_address": "604 Baronne St",
    "address_councildis": "B",
    "status": "Pending",
    "rowid": "1205029",
    "final_x": "3679846.2557",
    "final_y": "529049.281344",
    "longitude": "-90.07337803564837",
    "latitude": "29.948752145727198",
    "geocoded_column": {
      "latitude": "29.948752145727198",
      "longitude": "-90.07337803564837"
    }
  },
  {
    "service_request": "2025-1205028",
    "request_type": "Streetlights",
    "request_reason": "Streetlight Outage/Malfunction",
    "date_created": "2025-06-29T09:24:23.000",
    "date_modified": "2025-06-29T09:24:24.000",
    "request_status": "Pending",
    "responsible_agency": "Department of Public Works",
    "final_address": "832 Lafayette St",
    "address_councildis": "B",
    "status": "Pending",
    "contractor": "Legacy Professional Services",
    "rowid": "1205028",
    "final_x": "3679949.49352",
    "final_y": "529042.4672",
    "longitude": "-90.07305230652852",
    "latitude": "29.94873028731025",
    "geocoded_column": {
      "latitude": "29.94873028731025",
      "longitude": "-90.07305230652852"
    }
  },
  {
    "service_request": "2025-1205027",
    "request_type": "Property Maintenance",
    "request_reason": "Property Maintenance",
    "date_created": "2025-06-29T09:22:54.000",
    "date_modified": "2025-06-29T09:22:56.000",
    "request_status": "Pending",
    "responsible_agency": "Department of Code Enforcement",
    "final_address": "627 LeeS Ln",
    "address_councildis": "C",
    "status": "Pending",
    "rowid": "1205027",
    "final_x": "3697396.19543",
    "final_y": "525356.654397",
    "longitude": "-90.0180995270224",
    "latitude": "29.938056415269546",
    "geocoded_column": {
      "latitude": "29.938056415269546",
      "longitude": "-90.0180995270224"
    }
  },
  {
    "service_request": "2025-1205026",
    "request_type": "Trash/Recycling",
    "request_reason": "Order Trash Cart",
    "date_created": "2025-06-29T09:19:16.000",
    "date_modified": "2025-06-29T09:19:17.000",
    "request_status": "Pending",
    "responsible_agency": "Department of Sanitation",
    "final_address": "3725 Willow St",
    "address_councildis": "B",
    "status": "Assigned to Contractor",
    "contractor": "IV Waste",
    "rowid": "1205026",
    "final_x": "3671779.69191",
    "final_y": "525635.675709",
    "longitude": "-90.09896378499141",
    "latitude": "29.93960727384354",
    "geocoded_column": {
      "latitude": "29.93960727384354",
      "longitude": "-90.09896378499141"
    }
  },
  {
    "service_request": "2025-1205025",
    "request_type": "Property Maintenance",
    "request_reason": "Property Maintenance",
    "date_created": "2025-06-29T09:15:24.000",
    "date_modified": "2025-06-29T09:15:26.000",
    "request_status": "Pending",
    "responsible_agency": "Department of Code Enforcement",
    "final_address": "428 Stafford Pl",
    "address_councildis": "A",
    "status": "Pending",
    "rowid": "1205025",
    "final_x": "3664811.17242",
    "final_y": "553886.599383",
    "longitude": "-90.12002000722883",
    "latitude": "30.017492434035677",
    "geocoded_column": {
      "latitude": "30.017492434035677",
      "longitude": "-90.12002000722883"
    }
  },
  {
    "service_request": "2025-1205024",
    "request_type": "Property Maintenance",
    "request_reason": "Property Maintenance",
    "date_created": "2025-06-29T09:08:44.000",
    "date_modified": "2025-06-29T09:08:46.000",
    "request_status": "Pending",
    "responsible_agency": "Department of Code Enforcement",
    "final_address": "641 LeeS Ln",
    "address_councildis": "C",
    "status": "Pending",
    "rowid": "1205024",
    "final_x": "3697387.78333",
    "final_y": "525157.978173",
    "longitude": "-90.01813328406685",
    "latitude": "29.937510389887606",
    "geocoded_column": {
      "latitude": "29.937510389887606",
      "longitude": "-90.01813328406685"
    }
  },
  {
    "service_request": "2025-1205023",
    "request_type": "Abandoned Vehicles",
    "request_reason": "Abandoned/Junk Vehicles",
    "date_created": "2025-06-29T09:00:55.000",
    "date_modified": "2025-06-29T09:00:56.000",
    "request_status": "Pending",
    "responsible_agency": "Department of Public Works",
    "final_address": "1432 Euterpe St",
    "address_councildis": "B",
    "status": "Pending",
    "rowid": "1205023",
    "final_x": "3679465.75432",
    "final_y": "524606.888828",
    "longitude": "-90.07473350916707",
    "latitude": "29.93654854256797",
    "geocoded_column": {
      "latitude": "29.93654854256797",
      "longitude": "-90.07473350916707"
    }
  },
  {
    "service_request": "2025-1205022",
    "request_type": "Trash/Recycling",
    "request_reason": "Request a Large Item Pick Up",
    "date_created": "2025-06-29T08:45:25.000",
    "date_modified": "2025-06-29T13:23:56.000",
    "request_status": "Pending",
    "responsible_agency": "Department of Sanitation",
    "final_address": "830 Ida St",
    "address_councildis": "A",
    "status": "Assigned to Contractor",
    "contractor": "IV Waste",
    "rowid": "1205022",
    "final_x": "3673133.96206",
    "final_y": "540201.169803",
    "longitude": "-90.09419086344707",
    "latitude": "29.979617336338613",
    "geocoded_column": {
      "latitude": "29.979617336338613",
      "longitude": "-90.09419086344707"
    }
  },
  {
    "service_request": "2025-1205021",
    "request_type": "Graffiti Removal",
    "request_reason": "Graffiti Removal",
    "date_created": "2025-06-29T08:41:55.000",
    "date_modified": "2025-06-29T08:41:56.000",
    "request_status": "Pending",
    "responsible_agency": "Department of Code Enforcement",
    "final_address": "823 Valence St",
    "address_councildis": "B",
    "status": "Pending",
    "rowid": "1205021",
    "final_x": "3670023.51342",
    "final_y": "518509.158711",
    "longitude": "-90.10474953825944",
    "latitude": "29.920063536378578",
    "geocoded_column": {
      "latitude": "29.920063536378578",
      "longitude": "-90.10474953825944"
    }
  },
  {
    "service_request": "2025-1205020",
    "request_type": "Trash/Recycling",
    "request_reason": "Order Recycling Cart",
    "date_created": "2025-06-29T08:21:44.000",
    "date_modified": "2025-06-29T08:21:47.000",
    "request_status": "Pending",
    "responsible_agency": "Department of Sanitation",
    "final_address": "925 Port St",
    "address_councildis": "C",
    "status": "Pending",
    "rowid": "1205020",
    "final_x": "3687296.19542",
    "final_y": "535795.797767",
    "longitude": "-90.04961680896284",
    "latitude": "29.96707538735209",
    "geocoded_column": {
      "latitude": "29.96707538735209",
      "longitude": "-90.04961680896284"
    }
  },
  {
    "service_request": "2025-1205019",
    "request_type": "Trash/Recycling",
    "request_reason": "Request a Large Item Pick Up",
    "date_created": "2025-06-29T08:14:06.000",
    "date_modified": "2025-06-29T08:14:09.000",
    "request_status": "Pending",
    "responsible_agency": "Department of Sanitation",
    "final_address": "1452 Pressburg St",
    "address_councildis": "D",
    "status": "Assigned to Contractor",
    "contractor": "IV Waste",
    "rowid": "1205019",
    "final_x": "3677904.59355",
    "final_y": "553901.682199",
    "longitude": "-90.07864945846532",
    "latitude": "30.017146185286805",
    "geocoded_column": {
      "latitude": "30.017146185286805",
      "longitude": "-90.07864945846532"
    }
  },
  {
    "service_request": "2025-1205018",
    "request_type": "Trash/Recycling",
    "request_reason": "Order Recycling Cart",
    "date_created": "2025-06-29T08:07:17.000",
    "date_modified": "2025-06-29T08:07:19.000",
    "request_status": "Pending",
    "responsible_agency": "Department of Sanitation",
    "final_address": "2808 Seine St",
    "address_councildis": "C",
    "status": "Pending",
    "rowid": "1205018",
    "final_x": "3693363.14576",
    "final_y": "521041.724089",
    "longitude": "-90.03098699779967",
    "latitude": "29.926318499274164",
    "geocoded_column": {
      "latitude": "29.926318499274164",
      "longitude": "-90.03098699779967"
    }
  },
  {
    "service_request": "2025-1205017",
    "request_type": "Trash/Recycling",
    "request_reason": "Replace Trash Cart",
    "date_created": "2025-06-29T08:06:01.000",
    "date_modified": "2025-06-29T08:06:03.000",
    "request_status": "Pending",
    "responsible_agency": "Department of Sanitation",
    "final_address": "620 Fourth St",
    "address_councildis": "B",
    "status": "Assigned to Contractor",
    "contractor": "IV Waste",
    "rowid": "1205017",
    "final_x": "3678191.43778",
    "final_y": "519589.774264",
    "longitude": "-90.07892997867108",
    "latitude": "29.922791542859454",
    "geocoded_column": {
      "latitude": "29.922791542859454",
      "longitude": "-90.07892997867108"
    }
  },
  {
    "service_request": "2025-1205016",
    "request_type": "Safety & Permits",
    "request_reason": "Zoning Enforcement",
    "date_created": "2025-06-29T07:43:26.000",
    "date_modified": "2025-06-29T07:43:28.000",
    "request_status": "Pending",
    "responsible_agency": "Safety and Permits",
    "final_address": "2621 St Ann St",
    "address_councildis": "D",
    "status": "Pending",
    "rowid": "1205016",
    "final_x": "3677246.49595",
    "final_y": "537026.376776",
    "longitude": "-90.08131137965368",
    "latitude": "29.970764816021465",
    "geocoded_column": {
      "latitude": "29.970764816021465",
      "longitude": "-90.08131137965368"
    }
  },
  {
    "service_request": "2025-1205015",
    "request_type": "Roads and Streets",
    "request_reason": "Pothole",
    "date_created": "2025-06-29T07:33:44.000",
    "date_modified": "2025-06-29T07:33:46.000",
    "request_status": "Pending",
    "responsible_agency": "Department of Public Works",
    "final_address": "641 LeeS Ln",
    "address_councildis": "C",
    "status": "Pending",
    "rowid": "1205015",
    "final_x": "3697387.78333",
    "final_y": "525157.978173",
    "longitude": "-90.01813328406685",
    "latitude": "29.937510389887606",
    "geocoded_column": {
      "latitude": "29.937510389887606",
      "longitude": "-90.01813328406685"
    }
  },
  {
    "service_request": "2025-1205014",
    "request_type": "Abandoned Vehicles",
    "request_reason": "Abandoned/Junk Vehicles",
    "date_created": "2025-06-29T07:33:00.000",
    "date_modified": "2025-06-29T07:33:03.000",
    "request_status": "Pending",
    "responsible_agency": "Department of Public Works",
    "final_address": "2220 Music St",
    "address_councildis": "D",
    "status": "Pending",
    "rowid": "1205014",
    "final_x": "3686478.93116",
    "final_y": "540694.587147",
    "longitude": "-90.05202473490448",
    "latitude": "29.980570492001625",
    "geocoded_column": {
      "latitude": "29.980570492001625",
      "longitude": "-90.05202473490448"
    }
  },
  {
    "service_request": "2025-1205013",
    "request_type": "Trash/Recycling",
    "request_reason": "Request a Large Item Pick Up",
    "date_created": "2025-06-29T06:06:20.000",
    "date_modified": "2025-06-29T06:06:28.000",
    "request_status": "Pending",
    "responsible_agency": "Department of Sanitation",
    "final_address": "5422 Seminary Pl",
    "address_councildis": "D",
    "status": "Assigned to Contractor",
    "contractor": "IV Waste",
    "rowid": "1205013",
    "final_x": "3688592.32028",
    "final_y": "553223.238679",
    "longitude": "-90.0449048047616",
    "latitude": "30.014954597407172",
    "geocoded_column": {
      "latitude": "30.014954597407172",
      "longitude": "-90.0449048047616"
    }
  },
  {
    "service_request": "2025-1205012",
    "request_type": "Property Maintenance",
    "request_reason": "Property Maintenance",
    "date_created": "2025-06-29T05:04:44.000",
    "date_modified": "2025-06-29T05:04:46.000",
    "request_status": "Pending",
    "responsible_agency": "Department of Code Enforcement",
    "final_address": "5612 Hawthorne Pl",
    "address_councildis": "A",
    "status": "Pending",
    "rowid": "1205012",
    "final_x": "3667788.35476",
    "final_y": "544735.861455",
    "longitude": "-90.11092170963295",
    "latitude": "29.992244068560925",
    "geocoded_column": {
      "latitude": "29.992244068560925",
      "longitude": "-90.11092170963295"
    }
  },
  {
    "service_request": "2025-1205011",
    "request_type": "Roads and Streets",
    "request_reason": "Street Subsidence (Sinking)",
    "date_created": "2025-06-29T04:32:26.000",
    "date_modified": "2025-06-29T04:32:28.000",
    "request_status": "Pending",
    "responsible_agency": "Department of Public Works",
    "final_address": "2837 Livaudais St",
    "address_councildis": "B",
    "status": "Pending",
    "rowid": "1205011",
    "final_x": "3677924.57794",
    "final_y": "518927.179063",
    "longitude": "-90.07979523159263",
    "latitude": "29.920977650839923",
    "geocoded_column": {
      "latitude": "29.920977650839923",
      "longitude": "-90.07979523159263"
    }
  },
  {
    "service_request": "2025-1205010",
    "request_type": "Safety & Permits",
    "request_reason": "Zoning Enforcement",
    "date_created": "2025-06-29T03:44:49.000",
    "date_modified": "2025-06-29T03:44:52.000",
    "request_status": "Pending",
    "responsible_agency": "Safety and Permits",
    "final_address": "1113 Monroe St",
    "address_councildis": "A",
    "status": "Pending",
    "rowid": "1205010",
    "final_x": "3660259.31923",
    "final_y": "529619.450561",
    "longitude": "-90.13520387341575",
    "latitude": "29.950897607175616",
    "geocoded_column": {
      "latitude": "29.950897607175616",
      "longitude": "-90.13520387341575"
    }
  },
  {
    "service_request": "2025-1205009",
    "request_type": "Street and Traffic Signs",
    "request_reason": "Traffic or Parking Sign Damaged or Missing",
    "date_created": "2025-06-29T01:55:27.000",
    "date_modified": "2025-06-29T01:55:28.000",
    "request_status": "Pending",
    "responsible_agency": "Department of Public Works",
    "final_address": "4300 Woodland Dr",
    "address_councildis": "C",
    "status": "Pending",
    "rowid": "1205009",
    "final_x": "3705454.11499",
    "final_y": "514660.898291",
    "longitude": "-89.99305514502453",
    "latitude": "29.90839002564698",
    "geocoded_column": {
      "latitude": "29.90839002564698",
      "longitude": "-89.99305514502453"
    }
  },
  {
    "service_request": "2025-1205008",
    "request_type": "Trash/Recycling",
    "request_reason": "Return Trash Cart",
    "date_created": "2025-06-28T23:25:13.000",
    "date_modified": "2025-06-28T23:25:15.000",
    "request_status": "Pending",
    "responsible_agency": "Department of Sanitation",
    "final_address": "2013 Piety St",
    "address_councildis": "D",
    "status": "Assigned to Contractor",
    "contractor": "IV Waste",
    "rowid": "1205008",
    "final_x": "3690749.60188",
    "final_y": "539251.034378",
    "longitude": "-90.0385876717874",
    "latitude": "29.976469232908915",
    "geocoded_column": {
      "latitude": "29.976469232908915",
      "longitude": "-90.0385876717874"
    }
  },
  {
    "service_request": "2025-1205007",
    "request_type": "Mosquito, Termite & Rodent Control",
    "request_reason": "Mosquito Complaint",
    "date_created": "2025-06-28T22:29:49.000",
    "date_modified": "2025-06-28T22:29:51.000",
    "request_status": "Pending",
    "responsible_agency": "Mosquito, Termite & Rodent Control Board",
    "final_address": "2465 Prancer St",
    "address_councildis": "C",
    "status": "Pending",
    "rowid": "1205007",
    "final_x": "3699734.54743",
    "final_y": "522116.379514",
    "longitude": "-90.01083526016376",
    "latitude": "29.929072772836637",
    "geocoded_column": {
      "latitude": "29.929072772836637",
      "longitude": "-90.01083526016376"
    }
  },
  {
    "service_request": "2025-1205006",
    "request_type": "Streetlights",
    "request_reason": "Streetlight Outage/Malfunction",
    "date_created": "2025-06-28T21:11:40.000",
    "date_modified": "2025-06-28T21:11:42.000",
    "request_status": "Pending",
    "responsible_agency": "Department of Public Works",
    "final_address": "107 Maumus Ave",
    "address_councildis": "C",
    "status": "Pending",
    "contractor": "Legacy Professional Services",
    "rowid": "1205006",
    "final_x": "3705780.47204",
    "final_y": "516704.332021",
    "longitude": "-89.99194962192549",
    "latitude": "29.913998265246065",
    "geocoded_column": {
      "latitude": "29.913998265246065",
      "longitude": "-89.99194962192549"
    }
  },
  {
    "service_request": "2025-1205005",
    "request_type": "General Services",
    "request_reason": "General Service Request",
    "date_created": "2025-06-28T20:57:20.000",
    "date_modified": "2025-06-28T20:57:21.000",
    "request_status": "Pending",
    "responsible_agency": "Orleans Parish Communication District",
    "final_address": "700 Eleonore St, New Orleans, Louisiana, 70115",
    "address_councildis": "A",
    "status": "Pending",
    "rowid": "1205005",
    "final_x": "3665122.49901",
    "final_y": "518771.368887",
    "longitude": "-90.12021098630993",
    "latitude": "29.92092811621476",
    "geocoded_column": {
      "latitude": "29.92092811621476",
      "longitude": "-90.12021098630993"
    }
  },
  {
    "service_request": "2025-1205004",
    "request_type": "Trash/Recycling",
    "request_reason": "Request a Large Item Pick Up",
    "date_created": "2025-06-28T20:50:24.000",
    "date_modified": "2025-06-28T20:50:26.000",
    "request_status": "Pending",
    "responsible_agency": "Department of Sanitation",
    "final_address": "1414 Jena St",
    "address_councildis": "B",
    "status": "Assigned to Contractor",
    "contractor": "IV Waste",
    "rowid": "1205004",
    "final_x": "3670408.52404",
    "final_y": "520428.078456",
    "longitude": "-90.1034692289033",
    "latitude": "29.925328599171092",
    "geocoded_column": {
      "latitude": "29.925328599171092",
      "longitude": "-90.1034692289033"
    }
  },
  {
    "service_request": "2025-1205003",
    "request_type": "Trash/Recycling",
    "request_reason": "Request a Large Item Pick Up",
    "date_created": "2025-06-28T20:48:11.000",
    "date_modified": "2025-06-29T07:52:10.000",
    "request_status": "Pending",
    "responsible_agency": "Department of Sanitation",
    "final_address": "108 Hathaway Pl",
    "address_councildis": "D",
    "status": "Assigned to Contractor",
    "contractor": "IV Waste",
    "rowid": "1205003",
    "final_x": "3678342.69346",
    "final_y": "543975.365518",
    "longitude": "-90.07760894893431",
    "latitude": "29.98983914883667",
    "geocoded_column": {
      "latitude": "29.98983914883667",
      "longitude": "-90.07760894893431"
    }
  },
  {
    "service_request": "2025-1205002",
    "request_type": "Drainage",
    "request_reason": "Drainage Manhole Cover Missing or Damaged",
    "date_created": "2025-06-28T20:33:14.000",
    "date_modified": "2025-06-28T20:33:15.000",
    "request_status": "Pending",
    "responsible_agency": "Sewerage & Water Board",
    "final_address": "608 French St",
    "address_councildis": "A",
    "status": "Pending",
    "rowid": "1205002",
    "final_x": "3668314.18708",
    "final_y": "548557.964627",
    "longitude": "-90.10913171402845",
    "latitude": "30.002738098206525",
    "geocoded_column": {
      "latitude": "30.002738098206525",
      "longitude": "-90.10913171402845"
    }
  },
  {
    "service_request": "2025-1205001",
    "request_type": "Trash/Recycling",
    "request_reason": "Request a Large Item Pick Up",
    "date_created": "2025-06-28T20:32:47.000",
    "date_modified": "2025-06-28T20:32:49.000",
    "request_status": "Pending",
    "responsible_agency": "Department of Sanitation",
    "final_address": "6477 Louis Xiv St",
    "address_councildis": "A",
    "status": "Assigned to Contractor",
    "contractor": "IV Waste",
    "rowid": "1205001",
    "final_x": "3668476.87495",
    "final_y": "550679.822612",
    "longitude": "-90.10854610849285",
    "latitude": "30.00856768765306",
    "geocoded_column": {
      "latitude": "30.00856768765306",
      "longitude": "-90.10854610849285"
    }
  },
  {
    "service_request": "2025-1205000",
    "request_type": "Streetlights",
    "request_reason": "Streetlight Outage/Malfunction",
    "date_created": "2025-06-28T20:31:44.000",
    "date_modified": "2025-06-28T20:31:45.000",
    "request_status": "Pending",
    "responsible_agency": "Department of Public Works",
    "final_address": "4751 Major Dr",
    "address_councildis": "E",
    "status": "Pending",
    "contractor": "Legacy Professional Services",
    "rowid": "1205000",
    "final_x": "3718278.33253",
    "final_y": "557009.417946",
    "longitude": "-89.95096802253137",
    "latitude": "30.024413847568635",
    "geocoded_column": {
      "latitude": "30.024413847568635",
      "longitude": "-89.95096802253137"
    }
  },
  {
    "service_request": "2025-1204999",
    "request_type": "Safety & Permits",
    "request_reason": "Licenses & Permits",
    "date_created": "2025-06-28T20:30:14.000",
    "date_modified": "2025-06-28T20:30:15.000",
    "request_status": "Pending",
    "responsible_agency": "Safety and Permits",
    "final_address": "2320 Wirth Pl",
    "address_councildis": "A",
    "status": "Pending",
    "rowid": "1204999",
    "final_x": "3667123.05242",
    "final_y": "524670.47558",
    "longitude": "-90.11369792325203",
    "latitude": "29.937090396742903",
    "geocoded_column": {
      "latitude": "29.937090396742903",
      "longitude": "-90.11369792325203"
    }
  },
  {
    "service_request": "2025-1204998",
    "request_type": "Safety & Permits",
    "request_reason": "Construction permit",
    "date_created": "2025-06-28T20:29:12.000",
    "date_modified": "2025-06-28T20:29:14.000",
    "request_status": "Pending",
    "responsible_agency": "Safety and Permits",
    "final_address": "5530 Willow St Apt 2A",
    "address_councildis": "A",
    "status": "Pending",
    "rowid": "1204998",
    "final_x": "3667634.77421",
    "final_y": "525344.369277",
    "longitude": "-90.11205970666266",
    "latitude": "29.93892840123578",
    "geocoded_column": {
      "latitude": "29.93892840123578",
      "longitude": "-90.11205970666266"
    }
  },
  {
    "service_request": "2025-1204997",
    "request_type": "Abandoned Vehicles",
    "request_reason": "Abandoned/Junk Vehicles",
    "date_created": "2025-06-28T19:55:58.000",
    "date_modified": "2025-06-28T19:56:01.000",
    "request_status": "Pending",
    "responsible_agency": "Department of Public Works",
    "final_address": "3000 Palmer Ave",
    "address_councildis": "A",
    "status": "Pending",
    "rowid": "1204997",
    "final_x": "3667046.59687",
    "final_y": "527521.686527",
    "longitude": "-90.11384349850496",
    "latitude": "29.944932546922274",
    "geocoded_column": {
      "latitude": "29.944932546922274",
      "longitude": "-90.11384349850496"
    }
  },
  {
    "service_request": "2025-1204996",
    "request_type": "Trash/Recycling",
    "request_reason": "Request a Large Item Pick Up",
    "date_created": "2025-06-28T19:33:31.000",
    "date_modified": "2025-06-28T19:33:33.000",
    "request_status": "Pending",
    "responsible_agency": "Department of Sanitation",
    "final_address": "4673 Nottingham Dr",
    "address_councildis": "E",
    "status": "Assigned to Contractor",
    "contractor": "Waste Pro",
    "rowid": "1204996",
    "final_x": "3716506.37452",
    "final_y": "556580.917722",
    "longitude": "-89.95658329664846",
    "latitude": "30.023294302826834",
    "geocoded_column": {
      "latitude": "30.023294302826834",
      "longitude": "-89.95658329664846"
    }
  },
  {
    "service_request": "2025-1204995",
    "request_type": "Roads and Streets",
    "request_reason": "Curb Damage",
    "date_created": "2025-06-28T19:30:20.000",
    "date_modified": "2025-06-28T19:30:22.000",
    "request_status": "Pending",
    "responsible_agency": "Department of Public Works",
    "final_address": "1435 De Battista Pl",
    "address_councildis": "C",
    "status": "Pending",
    "rowid": "1204995",
    "final_x": "3699725.98813",
    "final_y": "525778.626557",
    "longitude": "-90.01072883568067",
    "latitude": "29.939142954240587",
    "geocoded_column": {
      "latitude": "29.939142954240587",
      "longitude": "-90.01072883568067"
    }
  },
  {
    "service_request": "2025-1204994",
    "request_type": "Parks & Parkways",
    "request_reason": "Request Tree Service (Right of Way/Public Property)",
    "date_created": "2025-06-28T19:26:13.000",
    "date_modified": "2025-06-28T19:26:14.000",
    "request_status": "Pending",
    "responsible_agency": "Department of Parks & Parkway",
    "final_address": "1435 De Battista Pl",
    "address_councildis": "C",
    "status": "Pending",
    "rowid": "1204994",
    "final_x": "3699725.98813",
    "final_y": "525778.626557",
    "longitude": "-90.01072883568067",
    "latitude": "29.939142954240587",
    "geocoded_column": {
      "latitude": "29.939142954240587",
      "longitude": "-90.01072883568067"
    }
  },
  {
    "service_request": "2025-1204992",
    "request_type": "Property Maintenance",
    "request_reason": "Property Maintenance",
    "date_created": "2025-06-28T19:17:21.000",
    "date_modified": "2025-06-28T19:17:22.000",
    "request_status": "Pending",
    "responsible_agency": "Department of Code Enforcement",
    "final_address": "5612 Hawthorne Pl",
    "address_councildis": "A",
    "status": "Pending",
    "rowid": "1204992",
    "final_x": "3667788.35476",
    "final_y": "544735.861455",
    "longitude": "-90.11092170963295",
    "latitude": "29.992244068560925",
    "geocoded_column": {
      "latitude": "29.992244068560925",
      "longitude": "-90.11092170963295"
    }
  },
  {
    "service_request": "2025-1204991",
    "request_type": "Street and Traffic Signs",
    "request_reason": "Crosswalk Signage Damaged or Missing",
    "date_created": "2025-06-28T19:12:10.000",
    "date_modified": "2025-06-28T19:12:12.000",
    "request_status": "Pending",
    "responsible_agency": "Department of Public Works",
    "final_address": "934 City Park Ave",
    "address_councildis": "A",
    "status": "Pending",
    "rowid": "1204991",
    "final_x": "3672199.11451",
    "final_y": "541549.475468",
    "longitude": "-90.0970975507627",
    "latitude": "29.98335248133385",
    "geocoded_column": {
      "latitude": "29.98335248133385",
      "longitude": "-90.0970975507627"
    }
  },
  {
    "service_request": "2025-1204990",
    "request_type": "Streetlights",
    "request_reason": "Streetlight Outage/Malfunction",
    "date_created": "2025-06-28T19:01:42.000",
    "date_modified": "2025-06-28T19:01:44.000",
    "request_status": "Pending",
    "responsible_agency": "Department of Public Works",
    "final_address": "1813 Third St",
    "address_councildis": "B",
    "status": "Pending",
    "contractor": "Legacy Professional Services",
    "rowid": "1204990",
    "final_x": "3675985.4955",
    "final_y": "523620.354939",
    "longitude": "-90.08575474859006",
    "latitude": "29.933940550911743",
    "geocoded_column": {
      "latitude": "29.933940550911743",
      "longitude": "-90.08575474859006"
    }
  },
  {
    "service_request": "2025-1204989",
    "request_type": "Abandoned Vehicles",
    "request_reason": "Abandoned/Junk Vehicles",
    "date_created": "2025-06-28T17:59:54.000",
    "date_modified": "2025-06-28T17:59:56.000",
    "request_status": "Pending",
    "responsible_agency": "Department of Public Works",
    "final_address": "4152 Bienville Ave",
    "address_councildis": "A",
    "status": "Pending",
    "rowid": "1204989",
    "final_x": "3671194.69588",
    "final_y": "539172.43905",
    "longitude": "-90.10035082541633",
    "latitude": "29.97684619857511",
    "geocoded_column": {
      "latitude": "29.97684619857511",
      "longitude": "-90.10035082541633"
    }
  },
  {
    "service_request": "2025-1204988",
    "request_type": "General Services",
    "request_reason": "General Service Request",
    "date_created": "2025-06-28T17:43:57.000",
    "date_modified": "2025-06-28T17:43:59.000",
    "request_status": "Pending",
    "responsible_agency": "Orleans Parish Communication District",
    "final_address": "704 Louisa St",
    "address_councildis": "C",
    "status": "Pending",
    "rowid": "1204988",
    "final_x": "3689170.48559",
    "final_y": "534434.462725",
    "longitude": "-90.04374619103072",
    "latitude": "29.96327432060402",
    "geocoded_column": {
      "latitude": "29.96327432060402",
      "longitude": "-90.04374619103072"
    }
  },
  {
    "service_request": "2025-1204987",
    "request_type": "General Services",
    "request_reason": "General Service Request",
    "date_created": "2025-06-28T17:16:32.000",
    "date_modified": "2025-06-28T17:16:33.000",
    "request_status": "Pending",
    "responsible_agency": "Orleans Parish Communication District",
    "final_address": "2820 Palmyra St",
    "address_councildis": "B",
    "status": "Pending",
    "rowid": "1204987",
    "final_x": "3674212.31668",
    "final_y": "534878.76583",
    "longitude": "-90.09096724353456",
    "latitude": "29.964950423365845",
    "geocoded_column": {
      "latitude": "29.964950423365845",
      "longitude": "-90.09096724353456"
    }
  },
  {
    "service_request": "2025-1204986",
    "request_type": "Roads and Streets",
    "request_reason": "Pothole",
    "date_created": "2025-06-28T17:15:00.000",
    "date_modified": "2025-06-28T17:15:02.000",
    "request_status": "Pending",
    "responsible_agency": "Department of Public Works",
    "final_address": "6451 Center St",
    "address_councildis": "A",
    "status": "Pending",
    "rowid": "1204986",
    "final_x": "3664968.37805",
    "final_y": "551081.742357",
    "longitude": "-90.11961716993954",
    "latitude": "30.009775478668725",
    "geocoded_column": {
      "latitude": "30.009775478668725",
      "longitude": "-90.11961716993954"
    }
  },
  {
    "service_request": "2025-1204985",
    "request_type": "Parks & Parkways",
    "request_reason": "Request Tree Service (Right of Way/Public Property)",
    "date_created": "2025-06-28T16:54:50.000",
    "date_modified": "2025-06-29T23:07:29.000",
    "request_status": "Pending",
    "responsible_agency": "Department of Parks & Parkway",
    "final_address": "6565 Wuerpel St",
    "address_councildis": "A",
    "status": "Pending",
    "rowid": "1204985",
    "final_x": "3667123.98951",
    "final_y": "551366.578453",
    "longitude": "-90.1127972107687",
    "latitude": "30.010495719554303",
    "geocoded_column": {
      "latitude": "30.010495719554303",
      "longitude": "-90.1127972107687"
    }
  },
  {
    "service_request": "2025-1204984",
    "request_type": "Roads and Streets",
    "request_reason": "Pothole",
    "date_created": "2025-06-28T16:49:45.000",
    "date_modified": "2025-06-28T16:49:47.000",
    "request_status": "Pending",
    "responsible_agency": "Department of Public Works",
    "final_address": "410 Nashville Ave Unit A",
    "address_councildis": "A",
    "status": "Pending",
    "rowid": "1204984",
    "final_x": "3665181.40308",
    "final_y": "517785.571254",
    "longitude": "-90.12005800060639",
    "latitude": "29.918215765866307",
    "geocoded_column": {
      "latitude": "29.918215765866307",
      "longitude": "-90.12005800060639"
    }
  },
  {
    "service_request": "2025-1204983",
    "request_type": "Roads and Streets",
    "request_reason": "Pothole",
    "date_created": "2025-06-28T16:48:38.000",
    "date_modified": "2025-06-28T16:48:40.000",
    "request_status": "Pending",
    "responsible_agency": "Department of Public Works",
    "final_address": "2011 State St",
    "address_councildis": "A",
    "status": "Pending",
    "rowid": "1204983",
    "final_x": "3666380.05626",
    "final_y": "524107.855484",
    "longitude": "-90.11606248345879",
    "latitude": "29.93556509602188",
    "geocoded_column": {
      "latitude": "29.93556509602188",
      "longitude": "-90.11606248345879"
    }
  },
  {
    "service_request": "2025-1204982",
    "request_type": "Trash/Recycling",
    "request_reason": "Request a Large Item Pick Up",
    "date_created": "2025-06-28T16:40:11.000",
    "date_modified": "2025-06-28T16:40:14.000",
    "request_status": "Pending",
    "responsible_agency": "Department of Sanitation",
    "final_address": "5042 Debore Cir",
    "address_councildis": "D",
    "status": "Assigned to Contractor",
    "contractor": "IV Waste",
    "rowid": "1204982",
    "final_x": "3692118.3992",
    "final_y": "553058.595351",
    "longitude": "-90.03377002358542",
    "latitude": "30.014392398921533",
    "geocoded_column": {
      "latitude": "30.014392398921533",
      "longitude": "-90.03377002358542"
    }
  },
  {
    "service_request": "2025-1204981",
    "request_type": "Drainage",
    "request_reason": "Street Flooding",
    "date_created": "2025-06-28T16:17:12.000",
    "date_modified": "2025-06-28T16:17:14.000",
    "request_status": "Pending",
    "responsible_agency": "Sewerage & Water Board",
    "final_address": "2551 Wisteria St",
    "address_councildis": "D",
    "status": "Pending",
    "rowid": "1204981",
    "final_x": "3686650.99234",
    "final_y": "548399.454226",
    "longitude": "-90.05120899555294",
    "latitude": "30.001750829355423",
    "geocoded_column": {
      "latitude": "30.001750829355423",
      "longitude": "-90.05120899555294"
    }
  },
  {
    "service_request": "2025-1204980",
    "request_type": "Parks & Parkways",
    "request_reason": "Request Tree Service (Right of Way/Public Property)",
    "date_created": "2025-06-28T15:57:36.000",
    "date_modified": "2025-06-28T15:57:38.000",
    "request_status": "Pending",
    "responsible_agency": "Department of Parks & Parkway",
    "final_address": "4845 Elysian Fields Ave",
    "address_councildis": "D",
    "status": "Pending",
    "rowid": "1204980",
    "final_x": "3683971.52981",
    "final_y": "550664.430932",
    "longitude": "-90.05959414471806",
    "latitude": "30.008060863659896",
    "geocoded_column": {
      "latitude": "30.008060863659896",
      "longitude": "-90.05959414471806"
    }
  },
  {
    "service_request": "2025-1204979",
    "request_type": "Trash/Recycling",
    "request_reason": "Request a Large Item Pick Up",
    "date_created": "2025-06-28T15:21:07.000",
    "date_modified": "2025-06-28T15:21:09.000",
    "request_status": "Pending",
    "responsible_agency": "Department of Sanitation",
    "final_address": "4533 Mendez St",
    "address_councildis": "D",
    "status": "Assigned to Contractor",
    "contractor": "IV Waste",
    "rowid": "1204979",
    "final_x": "3690492.53795",
    "final_y": "553911.546007",
    "longitude": "-90.03887647751424",
    "latitude": "30.01678829914333",
    "geocoded_column": {
      "latitude": "30.01678829914333",
      "longitude": "-90.03887647751424"
    }
  },
  {
    "service_request": "2025-1204978",
    "request_type": "Trash/Recycling",
    "request_reason": "Request a Large Item Pick Up",
    "date_created": "2025-06-28T15:01:03.000",
    "date_modified": "2025-06-28T15:01:04.000",
    "request_status": "Pending",
    "responsible_agency": "Department of Sanitation",
    "final_address": "5445 Grand Bayou Dr, New Orleans, Louisiana, 70129",
    "address_councildis": "E",
    "status": "Assigned to Contractor",
    "contractor": "Waste Pro",
    "rowid": "1204978",
    "final_x": "3725782.70931",
    "final_y": "563918.063905",
    "longitude": "-89.9269879519494",
    "latitude": "30.043158715755137",
    "geocoded_column": {
      "latitude": "30.043158715755137",
      "longitude": "-89.9269879519494"
    }
  },
  {
    "service_request": "2025-1204977",
    "request_type": "Abandoned Vehicles",
    "request_reason": "Abandoned/Junk Vehicles",
    "date_created": "2025-06-28T14:59:29.000",
    "date_modified": "2025-06-28T14:59:32.000",
    "request_status": "Pending",
    "responsible_agency": "Department of Public Works",
    "final_address": "242 Audubon St",
    "address_councildis": "A",
    "status": "Pending",
    "rowid": "1204977",
    "final_x": "3661153.83168",
    "final_y": "521554.493497",
    "longitude": "-90.13264628030232",
    "latitude": "29.928695779696355",
    "geocoded_column": {
      "latitude": "29.928695779696355",
      "longitude": "-90.13264628030232"
    }
  },
  {
    "service_request": "2025-1204976",
    "request_type": "Trash/Recycling",
    "request_reason": "Order Trash Cart",
    "date_created": "2025-06-28T14:40:52.000",
    "date_modified": "2025-06-28T14:40:53.000",
    "request_status": "Pending",
    "responsible_agency": "Department of Sanitation",
    "final_address": "1506 Treasure St",
    "address_councildis": "D",
    "status": "Assigned to Contractor",
    "contractor": "IV Waste",
    "rowid": "1204976",
    "final_x": "3679739.69365",
    "final_y": "543625.05531",
    "longitude": "-90.07320837648611",
    "latitude": "29.98883374847517",
    "geocoded_column": {
      "latitude": "29.98883374847517",
      "longitude": "-90.07320837648611"
    }
  },
  {
    "service_request": "2025-1204975",
    "request_type": "Abandoned Vehicles",
    "request_reason": "Abandoned/Junk Vehicles",
    "date_created": "2025-06-28T14:38:00.000",
    "date_modified": "2025-06-28T14:38:03.000",
    "request_status": "Pending",
    "responsible_agency": "Department of Public Works",
    "final_address": "1329 Gordon St",
    "address_councildis": "E",
    "status": "Pending",
    "rowid": "1204975",
    "final_x": "3699574.49616",
    "final_y": "534355.254213",
    "longitude": "-90.01089460527766",
    "latitude": "29.9627304614722",
    "geocoded_column": {
      "latitude": "29.9627304614722",
      "longitude": "-90.01089460527766"
    }
  },
  {
    "service_request": "2025-1204974",
    "request_type": "Abandoned Vehicles",
    "request_reason": "Abandoned/Junk Vehicles",
    "date_created": "2025-06-28T14:32:27.000",
    "date_modified": "2025-06-28T14:32:29.000",
    "request_status": "Pending",
    "responsible_agency": "Department of Public Works",
    "final_address": "1329 Gordon St",
    "address_councildis": "E",
    "status": "Pending",
    "rowid": "1204974",
    "final_x": "3699574.49616",
    "final_y": "534355.254213",
    "longitude": "-90.01089460527766",
    "latitude": "29.9627304614722",
    "geocoded_column": {
      "latitude": "29.9627304614722",
      "longitude": "-90.01089460527766"
    }
  },
  {
    "service_request": "2025-1204973",
    "request_type": "Roads and Streets",
    "request_reason": "Street Subsidence (Sinking)",
    "date_created": "2025-06-28T14:14:20.000",
    "date_modified": "2025-06-28T14:14:22.000",
    "request_status": "Pending",
    "responsible_agency": "Department of Public Works",
    "final_address": "5131 Bundy Rd",
    "address_councildis": "E",
    "status": "Pending",
    "rowid": "1204973",
    "final_x": "3709532.24446",
    "final_y": "557452.749851",
    "longitude": "-89.97858727878084",
    "latitude": "30.025920061882783",
    "geocoded_column": {
      "latitude": "30.025920061882783",
      "longitude": "-89.97858727878084"
    }
  },
  {
    "service_request": "2025-1204972",
    "request_type": "Trash/Recycling",
    "request_reason": "Request a Large Item Pick Up",
    "date_created": "2025-06-28T14:12:11.000",
    "date_modified": "2025-06-28T14:12:12.000",
    "request_status": "Pending",
    "responsible_agency": "Department of Sanitation",
    "final_address": "5401 Montegut Dr",
    "address_councildis": "D",
    "status": "Assigned to Contractor",
    "contractor": "IV Waste",
    "rowid": "1204972",
    "final_x": "3689735.2831",
    "final_y": "553243.428887",
    "longitude": "-90.04129288052063",
    "latitude": "30.014974725357302",
    "geocoded_column": {
      "latitude": "30.014974725357302",
      "longitude": "-90.04129288052063"
    }
  },
  {
    "service_request": "2025-1204971",
    "request_type": "Trash/Recycling",
    "request_reason": "Request a Large Item Pick Up",
    "date_created": "2025-06-28T14:10:15.000",
    "date_modified": "2025-06-28T14:10:17.000",
    "request_status": "Pending",
    "responsible_agency": "Department of Sanitation",
    "final_address": "8502 Chase St",
    "address_councildis": "E",
    "status": "Assigned to Contractor",
    "contractor": "Waste Pro",
    "rowid": "1204971",
    "final_x": "3703385.21668",
    "final_y": "563248.86352",
    "longitude": "-89.99779746942464",
    "latitude": "30.04205551309708",
    "geocoded_column": {
      "latitude": "30.04205551309708",
      "longitude": "-89.99779746942464"
    }
  },
  {
    "service_request": "2025-1204970",
    "request_type": "Traffic Signals",
    "request_reason": "Traffic Signal Malfunctioning or Damaged",
    "date_created": "2025-06-28T13:51:55.000",
    "date_modified": "2025-06-28T13:51:56.000",
    "request_status": "Pending",
    "responsible_agency": "Department of Public Works",
    "final_address": "ST CLAUDE AVE & FRENCHMEN ST",
    "address_councildis": "C",
    "status": "Pending",
    "rowid": "1204970",
    "final_x": "3684586.2",
    "final_y": "536320.78",
    "longitude": "-90.05815652732994",
    "latitude": "29.968602110151146",
    "geocoded_column": {
      "latitude": "29.968602110151146",
      "longitude": "-90.05815652732994"
    }
  },
  {
    "service_request": "2025-1204969",
    "request_type": "Property Maintenance",
    "request_reason": "Property Maintenance",
    "date_created": "2025-06-28T13:50:21.000",
    "date_modified": "2025-06-28T13:50:22.000",
    "request_status": "Pending",
    "responsible_agency": "Department of Code Enforcement",
    "final_address": "5612 Hawthorne Pl",
    "address_councildis": "A",
    "status": "Pending",
    "rowid": "1204969",
    "final_x": "3667788.35476",
    "final_y": "544735.861455",
    "longitude": "-90.11092170963295",
    "latitude": "29.992244068560925",
    "geocoded_column": {
      "latitude": "29.992244068560925",
      "longitude": "-90.11092170963295"
    }
  },
  {
    "service_request": "2025-1204968",
    "request_type": "Streetlights",
    "request_reason": "Streetlight Outage/Malfunction",
    "date_created": "2025-06-28T13:50:18.000",
    "date_modified": "2025-06-28T13:50:19.000",
    "request_status": "Pending",
    "responsible_agency": "Department of Public Works",
    "final_address": "ST CLAUDE AVE & FRENCHMEN ST",
    "address_councildis": "C",
    "status": "Pending",
    "contractor": "Legacy Professional Services",
    "rowid": "1204968",
    "final_x": "3684586.2",
    "final_y": "536320.78",
    "longitude": "-90.05815652732994",
    "latitude": "29.968602110151146",
    "geocoded_column": {
      "latitude": "29.968602110151146",
      "longitude": "-90.05815652732994"
    }
  },
  {
    "service_request": "2025-1204967",
    "request_type": "Property Maintenance",
    "request_reason": "Property Maintenance",
    "date_created": "2025-06-28T13:45:51.000",
    "date_modified": "2025-06-28T13:45:53.000",
    "request_status": "Pending",
    "responsible_agency": "Department of Code Enforcement",
    "final_address": "1ST ST & CHIPPEWA ST",
    "address_councildis": "B",
    "status": "Pending",
    "rowid": "1204967",
    "final_x": "3678888.1",
    "final_y": "520279.58",
    "longitude": "-90.07670701099386",
    "latitude": "29.924667295079296",
    "geocoded_column": {
      "latitude": "29.924667295079296",
      "longitude": "-90.07670701099386"
    }
  },
  {
    "service_request": "2025-1204966",
    "request_type": "Property Maintenance",
    "request_reason": "Property Maintenance",
    "date_created": "2025-06-28T13:29:45.000",
    "date_modified": "2025-06-28T13:29:47.000",
    "request_status": "Pending",
    "responsible_agency": "Department of Code Enforcement",
    "final_address": "1743 Holiday Dr",
    "address_councildis": "C",
    "status": "Pending",
    "rowid": "1204966",
    "final_x": "3698857.01802",
    "final_y": "524218.119484",
    "longitude": "-90.01352901097232",
    "latitude": "29.93487965239166",
    "geocoded_column": {
      "latitude": "29.93487965239166",
      "longitude": "-90.01352901097232"
    }
  },
  {
    "service_request": "2025-1204965",
    "request_type": "Trash/Recycling",
    "request_reason": "Request a Large Item Pick Up",
    "date_created": "2025-06-28T13:23:21.000",
    "date_modified": "2025-06-28T13:23:23.000",
    "request_status": "Pending",
    "responsible_agency": "Department of Sanitation",
    "final_address": "2336 State St",
    "address_councildis": "A",
    "status": "Assigned to Contractor",
    "contractor": "IV Waste",
    "rowid": "1204965",
    "final_x": "3666609.5769",
    "final_y": "525356.029757",
    "longitude": "-90.11529599407518",
    "latitude": "29.93899046935",
    "geocoded_column": {
      "latitude": "29.93899046935",
      "longitude": "-90.11529599407518"
    }
  },