[
  {
    "service_request": "2025-1241794",
    "request_type": "Roads and Streets",
    "request_reason": "Abandoned Service Cut",
    "date_created": "2025-11-21T23:52:30.000",
    "date_modified": "2025-11-21T23:52:32.000",
    "request_status": "Pending",
    "responsible_agency": "Department of Public Works",
    "final_address": "ST CLAUDE AVE & CONGRESS ST",
    "address_councildis": "C",
    "status": "Pending",
    "rowid": "1241794",
    "final_x": "3690736.5",
    "final_y": "535643.58",
    "longitude": "-90.03875777474886",
    "latitude": "29.966550414409586",
    "geocoded_column": {
      "latitude": "29.966550414409586",
      "longitude": "-90.03875777474886"
    }
  },
  {
    "service_request": "2025-1241793",
    "request_type": "Roads and Streets",
    "request_reason": "Pothole",
    "date_created": "2025-11-21T23:36:50.000",
    "date_modified": "2025-11-21T23:36:52.000",
    "request_status": "Pending",
    "responsible_agency": "Department of Public Works",
    "final_address": "ST CLAUDE AVE & MONTEGUT ST",
    "address_councildis": "C",
    "status": "Pending",
    "rowid": "1241793",
    "final_x": "3688432.8",
    "final_y": "536141.18",
    "longitude": "-90.04601516073829",
    "latitude": "29.96799000552181",
    "geocoded_column": {
      "latitude": "29.96799000552181",
      "longitude": "-90.04601516073829"
    }
  },
  {
    "service_request": "2025-1241792",
    "request_type": "Trash/Recycling",
    "request_reason": "Missed Trash Pick-Up",
    "date_created": "2025-11-21T23:19:35.000",
    "date_modified": "2025-11-21T23:19:37.000",
    "request_status": "Pending",
    "responsible_agency": "Department of Sanitation",
    "final_address": "8005 Lehigh St",
    "address_councildis": "E",
    "status": "Assigned to Contractor",
    "contractor": "Waste Pro",
    "rowid": "1241792",
    "final_x": "3709858.87217",
    "final_y": "566870.965796",
    "longitude": "-89.97720296796288",
    "latitude": "30.051805779269852",
    "geocoded_column": {
      "latitude": "30.051805779269852",
      "longitude": "-89.97720296796288"
    }
  },
  {
    "service_request": "2025-1241791",
    "request_type": "Road Striping",
    "request_reason": "Parking Lane",
    "date_created": "2025-11-21T22:56:54.000",
    "date_modified": "2025-11-21T22:56:56.000",
    "request_status": "Pending",
    "responsible_agency": "Department of Public Works",
    "final_address": "7602 Stoneridge Pl",
    "address_councildis": "D",
    "status": "Pending",
    "rowid": "1241791",
    "final_x": "3694356.52874",
    "final_y": "558185.870235",
    "longitude": "-90.02651392121611",
    "latitude": "30.028420484949617",
    "geocoded_column": {
      "latitude": "30.028420484949617",
      "longitude": "-90.02651392121611"
    }
  },
  {
    "service_request": "2025-1241790",
    "request_type": "Trash/Recycling",
    "request_reason": "Repair Trash Cart",
    "date_created": "2025-11-21T22:10:40.000",
    "date_modified": "2025-11-21T22:10:42.000",
    "request_status": "Pending",
    "responsible_agency": "Department of Sanitation",
    "final_address": "5521 Patio Way",
    "address_councildis": "E",
    "status": "Assigned to Contractor",
    "contractor": "Waste Pro",
    "rowid": "1241790",
    "final_x": "3725433.21203",
    "final_y": "564037.521057",
    "longitude": "-89.92808786239462",
    "latitude": "30.043498963333835",
    "geocoded_column": {
      "latitude": "30.043498963333835",
      "longitude": "-89.92808786239462"
    }
  },
  {
    "service_request": "2025-1241789",
    "request_type": "Health Related Request",
    "request_reason": "Noise Ordinance Complaint",
    "date_created": "2025-11-21T21:34:41.000",
    "date_modified": "2025-11-21T21:34:43.000",
    "request_status": "Pending",
    "responsible_agency": "Health Department",
    "final_address": "3501 Washington Ave",
    "address_councildis": "B",
    "status": "Pending",
    "rowid": "1241789",
    "final_x": "3672185.63105",
    "final_y": "528248.684736",
    "longitude": "-90.09759320793721",
    "latitude": "29.946780164302034",
    "geocoded_column": {
      "latitude": "29.946780164302034",
      "longitude": "-90.09759320793721"
    }
  },
  {
    "service_request": "2025-1241788",
    "request_type": "Streetlights",
    "request_reason": "New Streetlight Request",
    "date_created": "2025-11-21T21:18:41.000",
    "date_modified": "2025-11-21T21:18:43.000",
    "request_status": "Pending",
    "responsible_agency": "Department of Public Works",
    "final_address": "908 Josephine St",
    "address_councildis": "B",
    "status": "Pending",
    "rowid": "1241788",
    "final_x": "3679529.87439",
    "final_y": "521781.274874",
    "longitude": "-90.07462907195203",
    "latitude": "29.928777096814667",
    "geocoded_column": {
      "latitude": "29.928777096814667",
      "longitude": "-90.07462907195203"
    }
  },
  {
    "service_request": "2025-1241787",
    "request_type": "Trash/Recycling",
    "request_reason": "Request a Large Item Pick Up",
    "date_created": "2025-11-21T20:52:44.000",
    "date_modified": "2025-11-21T20:52:46.000",
    "request_status": "Pending",
    "responsible_agency": "Department of Sanitation",
    "final_address": "2228 Delachaise St",
    "address_councildis": "B",
    "status": "Assigned to Contractor",
    "contractor": "IV Waste",
    "rowid": "1241787",
    "final_x": "3672856.44219",
    "final_y": "523548.383739",
    "longitude": "-90.09563551161291",
    "latitude": "29.93383596055463",
    "geocoded_column": {
      "latitude": "29.93383596055463",
      "longitude": "-90.09563551161291"
    }
  },
  {
    "service_request": "2025-1241786",
    "request_type": "Property Maintenance",
    "request_reason": "Property Maintenance",
    "date_created": "2025-11-21T20:45:45.000",
    "date_modified": "2025-11-21T20:45:47.000",
    "request_status": "Pending",
    "responsible_agency": "Department of Code Enforcement",
    "final_address": "7110 E Laverne St",
    "address_councildis": "D",
    "status": "Pending",
    "rowid": "1241786",
    "final_x": "3697001.64528",
    "final_y": "557037.305434",
    "longitude": "-90.01819719019223",
    "latitude": "30.02517915614868",
    "geocoded_column": {
      "latitude": "30.02517915614868",
      "longitude": "-90.01819719019223"
    }
  },
  {
    "service_request": "2025-1241785",
    "request_type": "Trash/Recycling",
    "request_reason": "Illegal Dumping",
    "date_created": "2025-11-21T20:37:33.000",
    "date_modified": "2025-11-21T20:37:36.000",
    "request_status": "Pending",
    "responsible_agency": "Department of Sanitation",
    "final_address": "2629 S Derbigny St, New Orleans, Louisiana, 70125",
    "status": "Pending",
    "rowid": "1241785",
    "longitude": "0.0",
    "latitude": "0.0",
    "geocoded_column": {
      "latitude": "0.0",
      "longitude": "0.0"
    }
  },
  {
    "service_request": "2025-1241784",
    "request_type": "General Services",
    "request_reason": "General Service Request",
    "date_created": "2025-11-21T20:04:49.000",
    "date_modified": "2025-11-21T20:04:51.000",
    "request_status": "Pending",
    "responsible_agency": "Orleans Parish Communication District",
    "final_address": "740 Dauphine St",
    "address_councildis": "C",
    "status": "Pending",
    "rowid": "1241784",
    "final_x": "3682230.74101",
    "final_y": "533138.899716",
    "longitude": "-90.06570635447683",
    "latitude": "29.959924898440885",
    "geocoded_column": {
      "latitude": "29.959924898440885",
      "longitude": "-90.06570635447683"
    }
  },
  {
    "service_request": "2025-1241783",
    "request_type": "Streetlights",
    "request_reason": "Streetlight Outage/Malfunction",
    "date_created": "2025-11-21T20:01:34.000",
    "date_modified": "2025-11-21T20:01:36.000",
    "request_status": "Pending",
    "responsible_agency": "Department of Public Works",
    "final_address": "2916 St Ann St",
    "address_councildis": "A",
    "status": "Pending",
    "rowid": "1241783",
    "final_x": "3676052.62165",
    "final_y": "537836.848265",
    "longitude": "-90.08505390127335",
    "latitude": "29.973029151743436",
    "geocoded_column": {
      "latitude": "29.973029151743436",
      "longitude": "-90.08505390127335"
    }
  },
  {
    "service_request": "2025-1241782",
    "request_type": "Health Related Request",
    "request_reason": "Noise Ordinance Complaint",
    "date_created": "2025-11-21T19:56:16.000",
    "date_modified": "2025-11-21T19:56:19.000",
    "request_status": "Pending",
    "responsible_agency": "Health Department",
    "final_address": "1535 Port St",
    "address_councildis": "C",
    "status": "Pending",
    "rowid": "1241782",
    "final_x": "3687917.45225",
    "final_y": "538185.675337",
    "longitude": "-90.04757019257639",
    "latitude": "29.97362756100885",
    "geocoded_column": {
      "latitude": "29.97362756100885",
      "longitude": "-90.04757019257639"
    }
  },
  {
    "service_request": "2025-1241781",
    "request_type": "Trash/Recycling",
    "request_reason": "Illegal Dumping",
    "date_created": "2025-11-21T19:19:13.000",
    "date_modified": "2025-11-21T19:19:15.000",
    "request_status": "Pending",
    "responsible_agency": "Department of Sanitation",
    "final_address": "1958 N Rocheblave St",
    "address_councildis": "D",
    "status": "Pending",
    "rowid": "1241781",
    "final_x": "3682179.28853",
    "final_y": "540857.315851",
    "longitude": "-90.06559917153061",
    "latitude": "29.98114944093493",
    "geocoded_column": {
      "latitude": "29.98114944093493",
      "longitude": "-90.06559917153061"
    }
  },
  {
    "service_request": "2025-1241780",
    "request_type": "Trash/Recycling",
    "request_reason": "Replace Trash Cart",
    "date_created": "2025-11-21T18:42:19.000",
    "date_modified": "2025-11-21T18:42:20.000",
    "request_status": "Pending",
    "responsible_agency": "Department of Sanitation",
    "final_address": "7518 Zimple St",
    "address_councildis": "A",
    "status": "Assigned to Contractor",
    "contractor": "IV Waste",
    "rowid": "1241780",
    "final_x": "3663147.04288",
    "final_y": "526773.644478",
    "longitude": "-90.12618052300752",
    "latitude": "29.94298921120828",
    "geocoded_column": {
      "latitude": "29.94298921120828",
      "longitude": "-90.12618052300752"
    }
  },
  {
    "service_request": "2025-1241779",
    "request_type": "Trash/Recycling",
    "request_reason": "Replace Trash Cart",
    "date_created": "2025-11-21T18:40:47.000",
    "date_modified": "2025-11-21T18:40:48.000",
    "request_status": "Pending",
    "responsible_agency": "Department of Sanitation",
    "final_address": "1455 Calhoun St",
    "address_councildis": "A",
    "status": "Assigned to Contractor",
    "contractor": "IV Waste",
    "rowid": "1241779",
    "final_x": "3664471.07508",
    "final_y": "521994.577338",
    "longitude": "-90.12215970189986",
    "latitude": "29.92980987517998",
    "geocoded_column": {
      "latitude": "29.92980987517998",
      "longitude": "-90.12215970189986"
    }
  },
  {
    "service_request": "2025-1241778",
    "request_type": "Safety & Permits",
    "request_reason": "Zoning Enforcement",
    "date_created": "2025-11-21T18:34:23.000",
    "date_modified": "2025-11-21T18:34:25.000",
    "request_status": "Pending",
    "responsible_agency": "Safety and Permits",
    "final_address": "8927 Willow St",
    "address_councildis": "A",
    "status": "Pending",
    "rowid": "1241778",
    "final_x": "3660209.40627",
    "final_y": "530975.683074",
    "longitude": "-90.135316701187",
    "latitude": "29.95462824662377",
    "geocoded_column": {
      "latitude": "29.95462824662377",
      "longitude": "-90.135316701187"
    }
  },
  {
    "service_request": "2025-1241777",
    "request_type": "Streetlights",
    "request_reason": "Streetlight Outage/Malfunction",
    "date_created": "2025-11-21T17:09:46.000",
    "date_modified": "2025-11-21T17:09:47.000",
    "request_status": "Pending",
    "responsible_agency": "Department of Public Works",
    "final_address": "2335 Jay St",
    "address_councildis": "D",
    "status": "Pending",
    "rowid": "1241777",
    "final_x": "3684384.90908",
    "final_y": "557389.537307",
    "longitude": "-90.05805168806168",
    "latitude": "30.026539797712864",
    "geocoded_column": {
      "latitude": "30.026539797712864",
      "longitude": "-90.05805168806168"
    }
  },
  {
    "service_request": "2025-1241776",
    "request_type": "Trash/Recycling",
    "request_reason": "Repair Trash Cart",
    "date_created": "2025-11-21T17:08:06.000",
    "date_modified": "2025-11-21T17:08:07.000",
    "request_status": "Pending",
    "responsible_agency": "Department of Sanitation",
    "final_address": "2415 Valence St",
    "address_councildis": "B",
    "status": "Assigned to Contractor",
    "contractor": "IV Waste",
    "rowid": "1241776",
    "final_x": "3669493.33985",
    "final_y": "523728.590843",
    "longitude": "-90.10624661176269",
    "latitude": "29.934430931387126",
    "geocoded_column": {
      "latitude": "29.934430931387126",
      "longitude": "-90.10624661176269"
    }
  },
  {
    "service_request": "2025-1241775",
    "request_type": "Streetlights",
    "request_reason": "Streetlight Outage/Malfunction",
    "date_created": "2025-11-21T17:05:43.000",
    "date_modified": "2025-11-21T17:05:45.000",
    "request_status": "Pending",
    "responsible_agency": "Department of Public Works",
    "final_address": "2335 Jay St",
    "address_councildis": "D",
    "status": "Pending",
    "rowid": "1241775",
    "final_x": "3684384.90908",
    "final_y": "557389.537307",
    "longitude": "-90.05805168806168",
    "latitude": "30.026539797712864",
    "geocoded_column": {
      "latitude": "30.026539797712864",
      "longitude": "-90.05805168806168"
    }
  },
  {
    "service_request": "2025-1241774",
    "request_type": "Trash/Recycling",
    "request_reason": "Illegal Dumping",
    "date_created": "2025-11-21T16:55:07.000",
    "date_modified": "2025-11-21T16:55:08.000",
    "request_status": "Pending",
    "responsible_agency": "Department of Sanitation",
    "final_address": "POLK ST & MEMPHIS ST",
    "address_councildis": "A",
    "status": "Pending",
    "rowid": "1241774",
    "final_x": "3669186.7",
    "final_y": "547211.78",
    "longitude": "-90.10642085611552",
    "latitude": "29.999010897285196",
    "geocoded_column": {
      "latitude": "29.999010897285196",
      "longitude": "-90.10642085611552"
    }
  },
  {
    "service_request": "2025-1241773",
    "request_type": "Trash/Recycling",
    "request_reason": "Request a Large Item Pick Up",
    "date_created": "2025-11-21T16:52:54.000",
    "date_modified": "2025-11-21T16:52:57.000",
    "request_status": "Pending",
    "responsible_agency": "Department of Sanitation",
    "final_address": "5311 Norgate Dr",
    "address_councildis": "E",
    "status": "Assigned to Contractor",
    "contractor": "Waste Pro",
    "rowid": "1241773",
    "final_x": "3707427.74564",
    "final_y": "557586.185563",
    "longitude": "-89.9852322015007",
    "latitude": "30.026355205775673",
    "geocoded_column": {
      "latitude": "30.026355205775673",
      "longitude": "-89.9852322015007"
    }
  },
  {
    "service_request": "2025-1241772",
    "request_type": "Trash/Recycling",
    "request_reason": "Request a Large Item Pick Up",
    "date_created": "2025-11-21T16:42:03.000",
    "date_modified": "2025-11-21T16:42:56.000",
    "request_status": "Pending",
    "responsible_agency": "Department of Sanitation",
    "final_address": "4821 Pitt St",
    "address_councildis": "B",
    "status": "Assigned to Contractor",
    "contractor": "IV Waste",
    "rowid": "1241772",
    "final_x": "3669198.06938",
    "final_y": "520466.299128",
    "longitude": "-90.10728897424414",
    "latitude": "29.92546936262526",
    "geocoded_column": {
      "latitude": "29.92546936262526",
      "longitude": "-90.10728897424414"
    }
  },
  {
    "service_request": "2025-1241771",
    "request_type": "Trash/Recycling",
    "request_reason": "Request a Large Item Pick Up",
    "date_created": "2025-11-21T16:40:20.000",
    "date_modified": "2025-11-21T16:40:23.000",
    "request_status": "Pending",
    "responsible_agency": "Department of Sanitation",
    "final_address": "418 Aurora Oaks Dr",
    "address_councildis": "C",
    "status": "Assigned to Contractor",
    "contractor": "Richards Disposal",
    "rowid": "1241771",
    "final_x": "3701379.7057",
    "final_y": "522181.871546",
    "longitude": "-90.00563945806041",
    "latitude": "29.929200540139647",
    "geocoded_column": {
      "latitude": "29.929200540139647",
      "longitude": "-90.00563945806041"
    }
  },
  {
    "service_request": "2025-1241770",
    "request_type": "Trash/Recycling",
    "request_reason": "Repair Trash Cart",
    "date_created": "2025-11-21T16:39:09.000",
    "date_modified": "2025-11-21T16:39:10.000",
    "request_status": "Pending",
    "responsible_agency": "Department of Sanitation",
    "final_address": "5124 Dauphine St, New Orleans, Louisiana, 70117",
    "address_councildis": "E",
    "status": "Assigned to Contractor",
    "contractor": "Waste Pro",
    "rowid": "1241770",
    "final_x": "3696141.27504",
    "final_y": "532980.807044",
    "longitude": "-90.0217858905354",
    "latitude": "29.959059722275917",
    "geocoded_column": {
      "latitude": "29.959059722275917",
      "longitude": "-90.0217858905354"
    }
  },
  {
    "service_request": "2025-1241769",
    "request_type": "Trash/Recycling",
    "request_reason": "Request a Large Item Pick Up",
    "date_created": "2025-11-21T16:38:52.000",
    "date_modified": "2025-11-21T16:38:54.000",
    "request_status": "Pending",
    "responsible_agency": "Department of Sanitation",
    "final_address": "1236 Alvar St",
    "address_councildis": "D",
    "status": "Assigned to Contractor",
    "contractor": "IV Waste",
    "rowid": "1241769",
    "final_x": "3691615.8047",
    "final_y": "536049.223623",
    "longitude": "-90.03596644594789",
    "latitude": "29.967638445991263",
    "geocoded_column": {
      "latitude": "29.967638445991263",
      "longitude": "-90.03596644594789"
    }
  },
  {
    "service_request": "2025-1241768",
    "request_type": "Trash/Recycling",
    "request_reason": "Request a Large Item Pick Up",
    "date_created": "2025-11-21T16:37:08.000",
    "date_modified": "2025-11-21T16:37:09.000",
    "request_status": "Pending",
    "responsible_agency": "Department of Sanitation",
    "final_address": "7611 Alabama St",
    "address_councildis": "D",
    "status": "Assigned to Contractor",
    "contractor": "Waste Pro",
    "rowid": "1241768",
    "final_x": "3694998.7903",
    "final_y": "558436.992284",
    "longitude": "-90.02447535306874",
    "latitude": "30.029090818459075",
    "geocoded_column": {
      "latitude": "30.029090818459075",
      "longitude": "-90.02447535306874"
    }
  },
  {
    "service_request": "2025-1241767",
    "request_type": "Trash/Recycling",
    "request_reason": "Order Recycling Cart",
    "date_created": "2025-11-21T16:35:01.000",
    "date_modified": "2025-11-21T16:35:02.000",
    "request_status": "Pending",
    "responsible_agency": "Department of Sanitation",
    "final_address": "5124 Dauphine St, New Orleans, Louisiana, 70117",
    "address_councildis": "E",
    "status": "Pending",
    "rowid": "1241767",
    "final_x": "3696141.27504",
    "final_y": "532980.807044",
    "longitude": "-90.0217858905354",
    "latitude": "29.959059722275917",
    "geocoded_column": {
      "latitude": "29.959059722275917",
      "longitude": "-90.0217858905354"
    }
  },
  {
    "service_request": "2025-1241766",
    "request_type": "Abandoned Vehicles",
    "request_reason": "Abandoned/Junk Vehicles",
    "date_created": "2025-11-21T16:28:00.000",
    "date_modified": "2025-11-21T16:28:01.000",
    "request_status": "Pending",
    "responsible_agency": "Department of Public Works",
    "final_address": "5325 Warrington Dr",
    "address_councildis": "D",
    "status": "Pending",
    "rowid": "1241766",
    "final_x": "3680964.38056",
    "final_y": "552756.745622",
    "longitude": "-90.06902170118255",
    "latitude": "30.013905545686494",
    "geocoded_column": {
      "latitude": "30.013905545686494",
      "longitude": "-90.06902170118255"
    }
  },
  {
    "service_request": "2025-1241765",
    "request_type": "Trash/Recycling",
    "request_reason": "Request a Large Item Pick Up",
    "date_created": "2025-11-21T16:24:48.000",
    "date_modified": "2025-11-21T16:24:49.000",
    "request_status": "Pending",
    "responsible_agency": "Department of Sanitation",
    "final_address": "1931 River Oaks Dr",
    "address_councildis": "C",
    "status": "Assigned to Contractor",
    "contractor": "Richards Disposal",
    "rowid": "1241765",
    "final_x": "3701623.65047",
    "final_y": "523562.029115",
    "longitude": "-90.00481886188066",
    "latitude": "29.932987719740886",
    "geocoded_column": {
      "latitude": "29.932987719740886",
      "longitude": "-90.00481886188066"
    }
  },
  {
    "service_request": "2025-1241764",
    "request_type": "Trash/Recycling",
    "request_reason": "Illegal Dumping",
    "date_created": "2025-11-21T16:18:54.000",
    "date_modified": "2025-11-21T16:18:56.000",
    "request_status": "Pending",
    "responsible_agency": "Department of Sanitation",
    "final_address": "1912 Thalia St",
    "address_councildis": "B",
    "status": "Pending",
    "rowid": "1241764",
    "final_x": "3678006.72584",
    "final_y": "526578.758974",
    "longitude": "-90.07927159048283",
    "latitude": "29.942014520390977",
    "geocoded_column": {
      "latitude": "29.942014520390977",
      "longitude": "-90.07927159048283"
    }
  },
  {
    "service_request": "2025-1241763",
    "request_type": "Utility Poles",
    "request_reason": "Wires Sagging/Hanging Low",
    "date_created": "2025-11-21T16:18:44.000",
    "date_modified": "2025-11-21T16:18:47.000",
    "request_status": "Pending",
    "responsible_agency": "Utility Company Collective",
    "final_address": "2830 Banks St",
    "address_councildis": "B",
    "status": "Pending",
    "rowid": "1241763",
    "final_x": "3673902.3899",
    "final_y": "534613.198022",
    "longitude": "-90.0919550607097",
    "latitude": "29.96422943738853",
    "geocoded_column": {
      "latitude": "29.96422943738853",
      "longitude": "-90.0919550607097"
    }
  },
  {
    "service_request": "2025-1241762",
    "request_type": "Trash/Recycling",
    "request_reason": "Request a Large Item Pick Up",
    "date_created": "2025-11-21T16:12:28.000",
    "date_modified": "2025-11-21T16:12:30.000",
    "request_status": "Pending",
    "responsible_agency": "Department of Sanitation",
    "final_address": "28 Versailles Blvd",
    "address_councildis": "A",
    "status": "Assigned to Contractor",
    "contractor": "IV Waste",
    "rowid": "1241762",
    "final_x": "3667256.37997",
    "final_y": "529581.623361",
    "longitude": "-90.11311188628426",
    "latitude": "29.950590564122326",
    "geocoded_column": {
      "latitude": "29.950590564122326",
      "longitude": "-90.11311188628426"
    }
  },
  {
    "service_request": "2025-1241761",
    "request_type": "Roads and Streets",
    "request_reason": "Street Subsidence (Sinking)",
    "date_created": "2025-11-21T16:08:44.000",
    "date_modified": "2025-11-21T16:10:09.000",
    "request_status": "Pending",
    "responsible_agency": "Sewerage & Water Board",
    "final_address": "LAKE FOREST BLVD & FOXCROFT DR",
    "address_councildis": "E",
    "status": "Pending",
    "rowid": "1241761",
    "final_x": "3715588.0",
    "final_y": "561274.08",
    "longitude": "-89.95930730578051",
    "latitude": "30.036228932051763",
    "geocoded_column": {
      "latitude": "30.036228932051763",
      "longitude": "-89.95930730578051"
    }
  },
  {
    "service_request": "2025-1241760",
    "request_type": "Property Maintenance",
    "request_reason": "Property Maintenance",
    "date_created": "2025-11-21T16:02:03.000",
    "date_modified": "2025-11-21T16:02:04.000",
    "request_status": "Pending",
    "responsible_agency": "Department of Code Enforcement",
    "final_address": "2848 Fortin St",
    "address_councildis": "A",
    "status": "Pending",
    "rowid": "1241760",
    "final_x": "3677995.00309",
    "final_y": "540878.804683",
    "longitude": "-90.07881429728792",
    "latitude": "29.981335156879897",
    "geocoded_column": {
      "latitude": "29.981335156879897",
      "longitude": "-90.07881429728792"
    }
  },
  {
    "service_request": "2025-1241759",
    "request_type": "Roads and Streets",
    "request_reason": "Pothole",
    "date_created": "2025-11-21T15:55:20.000",
    "date_modified": "2025-11-21T15:55:22.000",
    "request_status": "Pending",
    "responsible_agency": "Department of Public Works",
    "final_address": "7421 W Laverne St",
    "address_councildis": "E",
    "status": "Pending",
    "rowid": "1241759",
    "final_x": "3695387.80541",
    "final_y": "558072.885147",
    "longitude": "-90.02325923780543",
    "latitude": "30.02807743864034",
    "geocoded_column": {
      "latitude": "30.02807743864034",
      "longitude": "-90.02325923780543"
    }
  },
  {
    "service_request": "2025-1241758",
    "request_type": "Abandoned Vehicles",
    "request_reason": "Abandoned/Junk Vehicles",
    "date_created": "2025-11-21T15:54:44.000",
    "date_modified": "2025-11-21T15:56:21.000",
    "request_status": "Pending",
    "responsible_agency": "Department of Public Works",
    "final_address": "4200 BLK Ray Ave",
    "address_councildis": "E",
    "status": "Pending",
    "rowid": "1241758",
    "final_x": "3698986.82312",
    "final_y": "552185.581768",
    "longitude": "-90.01210114481113",
    "latitude": "30.01177595973549",
    "geocoded_column": {
      "latitude": "30.01177595973549",
      "longitude": "-90.01210114481113"
    }
  },
  {
    "service_request": "2025-1241757",
    "request_type": "Trash/Recycling",
    "request_reason": "Repair Trash Cart",
    "date_created": "2025-11-21T15:52:23.000",
    "date_modified": "2025-11-21T15:52:25.000",
    "request_status": "Pending",
    "responsible_agency": "Department of Sanitation",
    "final_address": "4736 Shalimar Dr",
    "address_councildis": "D",
    "status": "Assigned to Contractor",
    "contractor": "Waste Pro",
    "rowid": "1241757",
    "final_x": "3697084.43626",
    "final_y": "554219.4182",
    "longitude": "-90.01803779359359",
    "latitude": "30.017428422422352",
    "geocoded_column": {
      "latitude": "30.017428422422352",
      "longitude": "-90.01803779359359"
    }
  },
  {
    "service_request": "2025-1241756",
    "request_type": "Trash/Recycling",
    "request_reason": "MIssed Recycling Pick-Up",
    "date_created": "2025-11-21T15:51:27.000",
    "date_modified": "2025-11-21T16:59:05.000",
    "case_close_date": "2025-11-21T10:59:04.000",
    "request_status": "Closed",
    "responsible_agency": "Department of Sanitation",
    "final_address": "2123 N Johnson St",
    "address_councildis": "D",
    "status": "Invalid Request",
    "contractor": "IV Waste",
    "contractor_action": "Invalid",
    "rowid": "1241756",
    "final_x": "3684482.99369",
    "final_y": "539708.286154",
    "longitude": "-90.05836342280374",
    "latitude": "29.97791972915184",
    "geocoded_column": {
      "latitude": "29.97791972915184",
      "longitude": "-90.05836342280374"
    }
  },
  {
    "service_request": "2025-1241755",
    "request_type": "Street and Traffic Signs",
    "request_reason": "Stop Sign Missing or Damaged",
    "date_created": "2025-11-21T15:49:55.000",
    "date_modified": "2025-11-21T15:49:57.000",
    "request_status": "Pending",
    "responsible_agency": "Department of Public Works",
    "final_address": "7421 W Laverne St",
    "address_councildis": "E",
    "status": "Pending",
    "rowid": "1241755",
    "final_x": "3695387.80541",
    "final_y": "558072.885147",
    "longitude": "-90.02325923780543",
    "latitude": "30.02807743864034",
    "geocoded_column": {
      "latitude": "30.02807743864034",
      "longitude": "-90.02325923780543"
    }
  },
  {
    "service_request": "2025-1241754",
    "request_type": "Abandoned Vehicles",
    "request_reason": "Abandoned/Junk Vehicles",
    "date_created": "2025-11-21T15:46:10.000",
    "date_modified": "2025-11-21T15:46:13.000",
    "request_status": "Pending",
    "responsible_agency": "Department of Public Works",
    "final_address": "2260 N Villere St",
    "address_councildis": "C",
    "status": "Pending",
    "rowid": "1241754",
    "final_x": "3685524.22191",
    "final_y": "537422.524296",
    "longitude": "-90.05515539647122",
    "latitude": "29.97160278637139",
    "geocoded_column": {
      "latitude": "29.97160278637139",
      "longitude": "-90.05515539647122"
    }
  },
  {
    "service_request": "2025-1241753",
    "request_type": "Trash/Recycling",
    "request_reason": "Replace Trash Cart",
    "date_created": "2025-11-21T15:42:36.000",
    "date_modified": "2025-11-21T15:42:38.000",
    "request_status": "Pending",
    "responsible_agency": "Department of Sanitation",
    "final_address": "2331 N Rampart St",
    "address_councildis": "C",
    "status": "Assigned to Contractor",
    "contractor": "IV Waste",
    "rowid": "1241753",
    "final_x": "3685701.96918",
    "final_y": "536028.225927",
    "longitude": "-90.05464318444446",
    "latitude": "29.967763498163094",
    "geocoded_column": {
      "latitude": "29.967763498163094",
      "longitude": "-90.05464318444446"
    }
  },
  {
    "service_request": "2025-1241752",
    "request_type": "Trash/Recycling",
    "request_reason": "Repair Recycling Cart",
    "date_created": "2025-11-21T15:32:59.000",
    "date_modified": "2025-11-21T15:33:51.000",
    "request_status": "Pending",
    "responsible_agency": "Department of Sanitation",
    "final_address": "4109 Burgundy St",
    "address_councildis": "C",
    "status": "Pending",
    "rowid": "1241752",
    "final_x": "3692023.08733",
    "final_y": "534486.434757",
    "longitude": "-90.0347361752866",
    "latitude": "29.963328640418066",
    "geocoded_column": {
      "latitude": "29.963328640418066",
      "longitude": "-90.0347361752866"
    }
  },
  {
    "service_request": "2025-1241751",
    "request_type": "Trash/Recycling",
    "request_reason": "Repair Trash Cart",
    "date_created": "2025-11-21T15:31:36.000",
    "date_modified": "2025-11-21T15:31:37.000",
    "request_status": "Pending",
    "responsible_agency": "Department of Sanitation",
    "final_address": "1820 Conti St",
    "address_councildis": "B",
    "status": "Assigned to Contractor",
    "contractor": "IV Waste",
    "rowid": "1241751",
    "final_x": "3678635.4781",
    "final_y": "534016.915333",
    "longitude": "-90.07702900723065",
    "latitude": "29.962448018758433",
    "geocoded_column": {
      "latitude": "29.962448018758433",
      "longitude": "-90.07702900723065"
    }
  },
  {
    "service_request": "2025-1241750",
    "request_type": "Parks & Parkways",
    "request_reason": "Request Tree Service (Right of Way/Public Property)",
    "date_created": "2025-11-21T15:31:22.000",
    "date_modified": "2025-11-21T15:31:24.000",
    "request_status": "Pending",
    "responsible_agency": "Department of Parks & Parkway",
    "final_address": "5819 Vicksburg St",
    "address_councildis": "A",
    "status": "Pending",
    "rowid": "1241750",
    "final_x": "3668853.27674",
    "final_y": "546078.09544",
    "longitude": "-90.10751246237432",
    "latitude": "29.995903468829738",
    "geocoded_column": {
      "latitude": "29.995903468829738",
      "longitude": "-90.10751246237432"
    }
  },
  {
    "service_request": "2025-1241749",
    "request_type": "Trash/Recycling",
    "request_reason": "Request a Large Item Pick Up",
    "date_created": "2025-11-21T15:30:15.000",
    "date_modified": "2025-11-21T15:30:17.000",
    "request_status": "Pending",
    "responsible_agency": "Department of Sanitation",
    "final_address": "3128 Fortin St",
    "address_councildis": "A",
    "status": "Assigned to Contractor",
    "contractor": "IV Waste",
    "rowid": "1241749",
    "final_x": "3676344.04059",
    "final_y": "540919.483723",
    "longitude": "-90.08402739617037",
    "latitude": "29.981496608267335",
    "geocoded_column": {
      "latitude": "29.981496608267335",
      "longitude": "-90.08402739617037"
    }
  },
  {
    "service_request": "2025-1241748",
    "request_type": "Trash/Recycling",
    "request_reason": "Order Trash Cart",
    "date_created": "2025-11-21T15:28:36.000",
    "date_modified": "2025-11-21T15:28:37.000",
    "request_status": "Pending",
    "responsible_agency": "Department of Sanitation",
    "final_address": "1822 Conti St",
    "address_councildis": "B",
    "status": "Assigned to Contractor",
    "contractor": "IV Waste",
    "rowid": "1241748",
    "final_x": "3678628.88085",
    "final_y": "534022.818117",
    "longitude": "-90.07704963605727",
    "latitude": "29.962464448299414",
    "geocoded_column": {
      "latitude": "29.962464448299414",
      "longitude": "-90.07704963605727"
    }
  },
  {
    "service_request": "2025-1241747",
    "request_type": "Trash/Recycling",
    "request_reason": "Order Recycling Cart",
    "date_created": "2025-11-21T15:27:15.000",
    "date_modified": "2025-11-21T15:27:18.000",
    "request_status": "Pending",
    "responsible_agency": "Department of Sanitation",
    "final_address": "1822 Conti St",
    "address_councildis": "B",
    "status": "Pending",
    "rowid": "1241747",
    "final_x": "3678628.88085",
    "final_y": "534022.818117",
    "longitude": "-90.07704963605727",
    "latitude": "29.962464448299414",
    "geocoded_column": {
      "latitude": "29.962464448299414",
      "longitude": "-90.07704963605727"
    }
  },
  {
    "service_request": "2025-1241746",
    "request_type": "Trash/Recycling",
    "request_reason": "Replace Trash Cart",
    "date_created": "2025-11-21T15:23:23.000",
    "date_modified": "2025-11-21T15:23:25.000",
    "request_status": "Pending",
    "responsible_agency": "Department of Sanitation",
    "final_address": "5530 Garfield St",
    "address_councildis": "A",
    "status": "Assigned to Contractor",
    "contractor": "IV Waste",
    "rowid": "1241746",
    "final_x": "3666713.60833",
    "final_y": "521137.557241",
    "longitude": "-90.11510914892322",
    "latitude": "29.927387972796637",
    "geocoded_column": {
      "latitude": "29.927387972796637",
      "longitude": "-90.11510914892322"
    }
  },
  {
    "service_request": "2025-1241745",
    "request_type": "Trash/Recycling",
    "request_reason": "Repair Recycling Cart",
    "date_created": "2025-11-21T15:13:50.000",
    "date_modified": "2025-11-21T15:13:52.000",
    "request_status": "Pending",
    "responsible_agency": "Department of Sanitation",
    "final_address": "1922 Cadiz St",
    "address_councildis": "B",
    "status": "Pending",
    "rowid": "1241745",
    "final_x": "3669931.49338",
    "final_y": "522055.78521",
    "longitude": "-90.10491998456405",
    "latitude": "29.929818343244776",
    "geocoded_column": {
      "latitude": "29.929818343244776",
      "longitude": "-90.10491998456405"
    }
  },
  {
    "service_request": "2025-1241744",
    "request_type": "Trash/Recycling",
    "request_reason": "Request a Large Item Pick Up",
    "date_created": "2025-11-21T15:02:33.000",
    "date_modified": "2025-11-21T15:02:34.000",
    "request_status": "Pending",
    "responsible_agency": "Department of Sanitation",
    "final_address": "1511 Charbonnet St",
    "address_councildis": "E",
    "status": "Assigned to Contractor",
    "contractor": "Waste Pro",
    "rowid": "1241744",
    "final_x": "3699079.28868",
    "final_y": "535179.338886",
    "longitude": "-90.01242839650976",
    "latitude": "29.96501210562088",
    "geocoded_column": {
      "latitude": "29.96501210562088",
      "longitude": "-90.01242839650976"
    }
  },
  {
    "service_request": "2025-1241743",
    "request_type": "Trash/Recycling",
    "request_reason": "Repair Recycling Cart",
    "date_created": "2025-11-21T14:54:39.000",
    "date_modified": "2025-11-21T14:54:41.000",
    "request_status": "Pending",
    "responsible_agency": "Department of Sanitation",
    "final_address": "7900 Lehigh St",
    "address_councildis": "E",
    "status": "Pending",
    "rowid": "1241743",
    "final_x": "3709934.26885",
    "final_y": "566604.271011",
    "longitude": "-89.97697464276442",
    "latitude": "30.051070022664042",
    "geocoded_column": {
      "latitude": "30.051070022664042",
      "longitude": "-89.97697464276442"
    }
  },
  {
    "service_request": "2025-1241742",
    "request_type": "Trash/Recycling",
    "request_reason": "Repair Recycling Cart",
    "date_created": "2025-11-21T14:51:04.000",
    "date_modified": "2025-11-21T14:51:06.000",
    "request_status": "Pending",
    "responsible_agency": "Department of Sanitation",
    "final_address": "2014 General Pershing St",
    "address_councildis": "B",
    "status": "Pending",
    "rowid": "1241742",
    "final_x": "3671009.30593",
    "final_y": "522447.101434",
    "longitude": "-90.10150422753624",
    "latitude": "29.930862521202947",
    "geocoded_column": {
      "latitude": "29.930862521202947",
      "longitude": "-90.10150422753624"
    }
  },
  {
    "service_request": "2025-1241741",
    "request_type": "Trash/Recycling",
    "request_reason": "Replace Recycling Cart",
    "date_created": "2025-11-21T14:41:24.000",
    "date_modified": "2025-11-21T14:41:26.000",
    "request_status": "Pending",
    "responsible_agency": "Department of Sanitation",
    "final_address": "3416 N Villere St",
    "address_councildis": "C",
    "status": "Pending",
    "rowid": "1241741",
    "final_x": "3690578.01104",
    "final_y": "536752.916104",
    "longitude": "-90.03921871352516",
    "latitude": "29.96960562121422",
    "geocoded_column": {
      "latitude": "29.96960562121422",
      "longitude": "-90.03921871352516"
    }
  },
  {
    "service_request": "2025-1241740",
    "request_type": "Trash/Recycling",
    "request_reason": "Repair Trash Cart",
    "date_created": "2025-11-21T14:39:32.000",
    "date_modified": "2025-11-21T14:39:33.000",
    "request_status": "Pending",
    "responsible_agency": "Department of Sanitation",
    "final_address": "2340 Constance St",
    "address_councildis": "B",
    "status": "Assigned to Contractor",
    "contractor": "IV Waste",
    "rowid": "1241740",
    "final_x": "3678509.87899",
    "final_y": "521311.979065",
    "longitude": "-90.07786522082498",
    "latitude": "29.927517456207898",
    "geocoded_column": {
      "latitude": "29.927517456207898",
      "longitude": "-90.07786522082498"
    }
  },
  {
    "service_request": "2025-1241739",
    "request_type": "Roads and Streets",
    "request_reason": "Debris in Driving Lanes",
    "date_created": "2025-11-21T14:39:09.000",
    "date_modified": "2025-11-21T14:39:10.000",
    "request_status": "Pending",
    "responsible_agency": "Department of Public Works",
    "final_address": "N WHITE ST & MAUREPAS ST",
    "address_councildis": "A",
    "status": "Pending",
    "rowid": "1241739",
    "final_x": "3677723.7",
    "final_y": "540709.48",
    "longitude": "-90.07967704827139",
    "latitude": "29.980877737239293",
    "geocoded_column": {
      "latitude": "29.980877737239293",
      "longitude": "-90.07967704827139"
    }
  },
  {
    "service_request": "2025-1241738",
    "request_type": "Trash/Recycling",
    "request_reason": "Request a Large Item Pick Up",
    "date_created": "2025-11-21T14:35:23.000",
    "date_modified": "2025-11-21T14:35:25.000",
    "request_status": "Pending",
    "responsible_agency": "Department of Sanitation",
    "final_address": "2621 Acacia St",
    "address_councildis": "D",
    "status": "Assigned to Contractor",
    "contractor": "IV Waste",
    "rowid": "1241738",
    "final_x": "3687350.18575",
    "final_y": "546406.086097",
    "longitude": "-90.04907075609731",
    "latitude": "29.996248257101833",
    "geocoded_column": {
      "latitude": "29.996248257101833",
      "longitude": "-90.04907075609731"
    }
  },
  {
    "service_request": "2025-1241737",
    "request_type": "Trash/Recycling",
    "request_reason": "Request a Large Item Pick Up",
    "date_created": "2025-11-21T14:33:43.000",
    "date_modified": "2025-11-21T14:33:45.000",
    "request_status": "Pending",
    "responsible_agency": "Department of Sanitation",
    "final_address": "427 Leboeuf St",
    "address_councildis": "C",
    "status": "Assigned to Contractor",
    "contractor": "Richards Disposal",
    "rowid": "1241737",
    "final_x": "3689790.86364",
    "final_y": "530029.864769",
    "longitude": "-90.0419438742041",
    "latitude": "29.95114399069553",
    "geocoded_column": {
      "latitude": "29.95114399069553",
      "longitude": "-90.0419438742041"
    }
  },
  {
    "service_request": "2025-1241736",
    "request_type": "Property Maintenance",
    "request_reason": "Property Maintenance",
    "date_created": "2025-11-21T14:31:50.000",
    "date_modified": "2025-11-21T15:01:12.000",
    "request_status": "Pending",
    "responsible_agency": "Department of Code Enforcement",
    "final_address": "2501 Bienville Ave",
    "address_councildis": "B",
    "status": "Pending",
    "rowid": "1241736",
    "final_x": "3676629.50011",
    "final_y": "535205.159942",
    "longitude": "-90.08332267518226",
    "latitude": "29.965775611905674",
    "geocoded_column": {
      "latitude": "29.965775611905674",
      "longitude": "-90.08332267518226"
    }
  },
  {
    "service_request": "2025-1241735",
    "request_type": "Trash/Recycling",
    "request_reason": "Repair Recycling Cart",
    "date_created": "2025-11-21T14:31:09.000",
    "date_modified": "2025-11-21T14:31:11.000",
    "request_status": "Pending",
    "responsible_agency": "Department of Sanitation",
    "final_address": "3621 Rue Nadine",
    "address_councildis": "C",
    "status": "Pending",
    "rowid": "1241735",
    "final_x": "3704693.23582",
    "final_y": "517012.090613",
    "longitude": "-89.99536992557061",
    "latitude": "29.914879447944678",
    "geocoded_column": {
      "latitude": "29.914879447944678",
      "longitude": "-89.99536992557061"
    }
  },
  {
    "service_request": "2025-1241734",
    "request_type": "Trash/Recycling",
    "request_reason": "Repair Trash Cart",
    "date_created": "2025-11-21T14:29:25.000",
    "date_modified": "2025-11-21T14:29:26.000",
    "request_status": "Pending",
    "responsible_agency": "Department of Sanitation",
    "final_address": "8812 Apple St",
    "address_councildis": "A",
    "status": "Assigned to Contractor",
    "contractor": "IV Waste",
    "rowid": "1241734",
    "final_x": "3663403.48",
    "final_y": "533830.897605",
    "longitude": "-90.12513594390201",
    "latitude": "29.962386945289197",
    "geocoded_column": {
      "latitude": "29.962386945289197",
      "longitude": "-90.12513594390201"
    }
  },
  {
    "service_request": "2025-1241733",
    "request_type": "Trash/Recycling",
    "request_reason": "Repair Recycling Cart",
    "date_created": "2025-11-21T14:28:11.000",
    "date_modified": "2025-11-21T14:28:12.000",
    "request_status": "Pending",
    "responsible_agency": "Department of Sanitation",
    "final_address": "5808 Tchoupitoulas St",
    "address_councildis": "A",
    "status": "Pending",
    "rowid": "1241733",
    "final_x": "3664993.11648",
    "final_y": "517243.671541",
    "longitude": "-90.12067042476868",
    "latitude": "29.91673119114161",
    "geocoded_column": {
      "latitude": "29.91673119114161",
      "longitude": "-90.12067042476868"
    }
  },
  {
    "service_request": "2025-1241732",
    "request_type": "Abandoned Vehicles",
    "request_reason": "Abandoned/Junk Vehicles",
    "date_created": "2025-11-21T14:26:57.000",
    "date_modified": "2025-11-21T14:26:58.000",
    "request_status": "Pending",
    "responsible_agency": "Department of Public Works",
    "final_address": "4640 Toulouse St",
    "address_councildis": "A",
    "status": "Pending",
    "rowid": "1241732",
    "final_x": "3670220.44257",
    "final_y": "541187.399564",
    "longitude": "-90.10335952154492",
    "latitude": "29.98241544631636",
    "geocoded_column": {
      "latitude": "29.98241544631636",
      "longitude": "-90.10335952154492"
    }
  },
  {
    "service_request": "2025-1241731",
    "request_type": "Trash/Recycling",
    "request_reason": "Request a Large Item Pick Up",
    "date_created": "2025-11-21T14:22:04.000",
    "date_modified": "2025-11-21T14:22:06.000",
    "request_status": "Pending",
    "responsible_agency": "Department of Sanitation",
    "final_address": "2119 Governor Nicholls St",
    "address_councildis": "D",
    "status": "Assigned to Contractor",
    "contractor": "IV Waste",
    "rowid": "1241731",
    "final_x": "3679636.22632",
    "final_y": "537062.226376",
    "longitude": "-90.07376307338191",
    "latitude": "29.97079137523397",
    "geocoded_column": {
      "latitude": "29.97079137523397",
      "longitude": "-90.07376307338191"
    }
  },
  {
    "service_request": "2025-1241730",
    "request_type": "Street and Traffic Signs",
    "request_reason": "Disabled Parking Sign Missing or Damaged",
    "date_created": "2025-11-21T14:18:51.000",
    "date_modified": "2025-11-21T14:18:52.000",
    "request_status": "Pending",
    "responsible_agency": "Department of Public Works",
    "final_address": "1923 Almonaster Ave",
    "address_councildis": "D",
    "status": "Pending",
    "rowid": "1241730",
    "final_x": "3687968.08374",
    "final_y": "539649.038666",
    "longitude": "-90.04735841968431",
    "latitude": "29.977649732137323",
    "geocoded_column": {
      "latitude": "29.977649732137323",
      "longitude": "-90.04735841968431"
    }
  },
  {
    "service_request": "2025-1241729",
    "request_type": "Street and Traffic Signs",
    "request_reason": "Additional Signage Request",
    "date_created": "2025-11-21T14:16:22.000",
    "date_modified": "2025-11-21T14:16:23.000",
    "request_status": "Pending",
    "responsible_agency": "Department of Public Works",
    "final_address": "1125 Kabel Dr",
    "address_councildis": "C",
    "status": "Pending",
    "rowid": "1241729",
    "final_x": "3700699.41015",
    "final_y": "523339.124795",
    "longitude": "-90.00774474323761",
    "latitude": "29.932404242880217",
    "geocoded_column": {
      "latitude": "29.932404242880217",
      "longitude": "-90.00774474323761"
    }
  },
  {
    "service_request": "2025-1241728",
    "request_type": "Trash/Recycling",
    "request_reason": "Request a Large Item Pick Up",
    "date_created": "2025-11-21T14:15:47.000",
    "date_modified": "2025-11-21T14:15:48.000",
    "request_status": "Pending",
    "responsible_agency": "Department of Sanitation",
    "final_address": "3827 Cleveland Ave",
    "address_councildis": "A",
    "status": "Assigned to Contractor",
    "contractor": "IV Waste",
    "rowid": "1241728",
    "final_x": "3671654.71617",
    "final_y": "537436.475784",
    "longitude": "-90.09895699644785",
    "latitude": "29.97205926800432",
    "geocoded_column": {
      "latitude": "29.97205926800432",
      "longitude": "-90.09895699644785"
    }
  },
  {
    "service_request": "2025-1241727",
    "request_type": "Healthy Homes",
    "request_reason": "Healthy Homes",
    "date_created": "2025-11-21T14:15:17.000",
    "date_modified": "2025-11-21T14:15:19.000",
    "request_status": "Pending",
    "responsible_agency": "Department of Code Enforcement",
    "final_address": "8815 Oleander St",
    "address_councildis": "A",
    "status": "Pending",
    "rowid": "1241727",
    "final_x": "3664852.48384",
    "final_y": "535461.852358",
    "longitude": "-90.12050566183896",
    "latitude": "29.966829443798314",
    "geocoded_column": {
      "latitude": "29.966829443798314",
      "longitude": "-90.12050566183896"
    }
  },
  {
    "service_request": "2025-1241726",
    "request_type": "Abandoned Vehicles",
    "request_reason": "Abandoned/Junk Vehicles",
    "date_created": "2025-11-21T14:12:39.000",
    "date_modified": "2025-11-21T14:12:41.000",
    "request_status": "Pending",
    "responsible_agency": "Department of Public Works",
    "final_address": "3946 Laurel St",
    "address_councildis": "B",
    "status": "Pending",
    "rowid": "1241726",
    "final_x": "3672849.36091",
    "final_y": "518134.61215",
    "longitude": "-90.09584244768487",
    "latitude": "29.918950037559963",
    "geocoded_column": {
      "latitude": "29.918950037559963",
      "longitude": "-90.09584244768487"
    }
  },
  {
    "service_request": "2025-1241725",
    "request_type": "Roads and Streets",
    "request_reason": "Sidewalk Damaged or Missing",
    "date_created": "2025-11-21T14:12:15.000",
    "date_modified": "2025-11-21T14:12:16.000",
    "request_status": "Pending",
    "responsible_agency": "Department of Public Works",
    "final_address": "2112 Coliseum St",
    "address_councildis": "B",
    "status": "Pending",
    "rowid": "1241725",
    "final_x": "3678471.58427",
    "final_y": "523019.006907",
    "longitude": "-90.07792706853823",
    "latitude": "29.932212378221042",
    "geocoded_column": {
      "latitude": "29.932212378221042",
      "longitude": "-90.07792706853823"
    }
  },
  {
    "service_request": "2025-1241724",
    "request_type": "Property Maintenance",
    "request_reason": "Property Maintenance",
    "date_created": "2025-11-21T14:09:37.000",
    "date_modified": "2025-11-21T14:09:38.000",
    "request_status": "Pending",
    "responsible_agency": "Department of Code Enforcement",
    "final_address": "5321 Wilton Dr",
    "address_councildis": "D",
    "status": "Pending",
    "rowid": "1241724",
    "final_x": "3681941.10767",
    "final_y": "552737.071574",
    "longitude": "-90.0659364325885",
    "latitude": "30.013821779817935",
    "geocoded_column": {
      "latitude": "30.013821779817935",
      "longitude": "-90.0659364325885"
    }
  },
  {
    "service_request": "2025-1241723",
    "request_type": "Trash/Recycling",
    "request_reason": "Order Trash Cart",
    "date_created": "2025-11-21T14:08:36.000",
    "date_modified": "2025-11-21T14:08:38.000",
    "request_status": "Pending",
    "responsible_agency": "Department of Sanitation",
    "final_address": "812 Homer St",
    "address_councildis": "C",
    "status": "Assigned to Contractor",
    "contractor": "Richards Disposal",
    "rowid": "1241723",
    "final_x": "3687911.41039",
    "final_y": "528383.94368",
    "longitude": "-90.04793653580664",
    "latitude": "29.946676379793374",
    "geocoded_column": {
      "latitude": "29.946676379793374",
      "longitude": "-90.04793653580664"
    }
  },
  {
    "service_request": "2025-1241722",
    "request_type": "Trash/Recycling",
    "request_reason": "Request a Large Item Pick Up",
    "date_created": "2025-11-21T14:07:43.000",
    "date_modified": "2025-11-21T14:07:45.000",
    "request_status": "Pending",
    "responsible_agency": "Department of Sanitation",
    "final_address": "2400 Chestnut St",
    "address_councildis": "B",
    "status": "Assigned to Contractor",
    "contractor": "IV Waste",
    "rowid": "1241722",
    "final_x": "3677617.07362",
    "final_y": "522032.384058",
    "longitude": "-90.08065872813258",
    "latitude": "29.929525202989222",
    "geocoded_column": {
      "latitude": "29.929525202989222",
      "longitude": "-90.08065872813258"
    }
  },
  {
    "service_request": "2025-1241721",
    "request_type": "Trash/Recycling",
    "request_reason": "Request a Large Item Pick Up",
    "date_created": "2025-11-21T14:05:46.000",
    "date_modified": "2025-11-21T15:16:48.000",
    "case_close_date": "2025-11-21T09:16:47.000",
    "request_status": "Closed",
    "responsible_agency": "Department of Sanitation",
    "final_address": "1500 BLK N Rocheblave St",
    "address_councildis": "D",
    "status": "Invalid Request",
    "contractor": "IV Waste",
    "contractor_action": "Invalid",
    "rowid": "1241721",
    "final_x": "3679602.65749",
    "final_y": "539063.23695",
    "longitude": "-90.07379962319196",
    "latitude": "29.976294479460574",
    "geocoded_column": {
      "latitude": "29.976294479460574",
      "longitude": "-90.07379962319196"
    }
  },
  {
    "service_request": "2025-1241720",
    "request_type": "Trash/Recycling",
    "request_reason": "Illegal Dumping",
    "date_created": "2025-11-21T14:04:44.000",
    "date_modified": "2025-11-21T14:04:46.000",
    "request_status": "Pending",
    "responsible_agency": "Department of Sanitation",
    "final_address": "2200 BLK Lapeyrouse St",
    "address_councildis": "D",
    "status": "Pending",
    "rowid": "1241720",
    "final_x": "3680353.62318",
    "final_y": "539181.813484",
    "longitude": "-90.0714237261251",
    "latitude": "29.976597804686424",
    "geocoded_column": {
      "latitude": "29.976597804686424",
      "longitude": "-90.0714237261251"
    }
  },
  {
    "service_request": "2025-1241719",
    "request_type": "Drainage",
    "request_reason": "Catch Basin Not Draining",
    "date_created": "2025-11-21T13:59:11.000",
    "date_modified": "2025-11-21T13:59:12.000",
    "request_status": "Pending",
    "responsible_agency": "Sewerage & Water Board",
    "final_address": "CITY PARK AVE & I 10 E & METAIRIE RD",
    "address_councildis": "A",
    "status": "Pending",
    "rowid": "1241719",
    "final_x": "3666908.3",
    "final_y": "540680.08",
    "longitude": "-90.11383798908375",
    "latitude": "29.981117832474713",
    "geocoded_column": {
      "latitude": "29.981117832474713",
      "longitude": "-90.11383798908375"
    }
  },
  {
    "service_request": "2025-1241718",
    "request_type": "Trash/Recycling",
    "request_reason": "Request a Large Item Pick Up",
    "date_created": "2025-11-21T13:54:44.000",
    "date_modified": "2025-11-21T13:54:45.000",
    "request_status": "Pending",
    "responsible_agency": "Department of Sanitation",
    "final_address": "7610 Morel St",
    "address_councildis": "E",
    "status": "Assigned to Contractor",
    "contractor": "Waste Pro",
    "rowid": "1241718",
    "final_x": "3718786.9925",
    "final_y": "571794.24356",
    "longitude": "-89.94879627630178",
    "latitude": "30.065049182063387",
    "geocoded_column": {
      "latitude": "30.065049182063387",
      "longitude": "-89.94879627630178"
    }
  },
  {
    "service_request": "2025-1241717",
    "request_type": "Trash/Recycling",
    "request_reason": "Request a Large Item Pick Up",
    "date_created": "2025-11-21T13:53:50.000",
    "date_modified": "2025-11-21T13:55:03.000",
    "request_status": "Pending",
    "responsible_agency": "Department of Sanitation",
    "final_address": "4419 Paris Ave",
    "address_councildis": "D",
    "status": "Assigned to Contractor",
    "contractor": "IV Waste",
    "rowid": "1241717",
    "final_x": "3679547.1924",
    "final_y": "548767.435987",
    "longitude": "-90.07363785717999",
    "latitude": "30.00297929645673",
    "geocoded_column": {
      "latitude": "30.00297929645673",
      "longitude": "-90.07363785717999"
    }
  },
  {
    "service_request": "2025-1241716",
    "request_type": "Trash/Recycling",
    "request_reason": "Request a Large Item Pick Up",
    "date_created": "2025-11-21T13:53:38.000",
    "date_modified": "2025-11-21T13:53:40.000",
    "request_status": "Pending",
    "responsible_agency": "Department of Sanitation",
    "final_address": "7701 Means Ave",
    "address_councildis": "E",
    "status": "Assigned to Contractor",
    "contractor": "Waste Pro",
    "rowid": "1241716",
    "final_x": "3708040.29688",
    "final_y": "564938.938658",
    "longitude": "-89.9830228311092",
    "latitude": "30.046552535999524",
    "geocoded_column": {
      "latitude": "30.046552535999524",
      "longitude": "-89.9830228311092"
    }
  },
  {
    "service_request": "2025-1241715",
    "request_type": "Roads and Streets",
    "request_reason": "Sidewalk Damaged or Missing",
    "date_created": "2025-11-21T13:53:11.000",
    "date_modified": "2025-11-21T13:53:12.000",
    "request_status": "Pending",
    "responsible_agency": "Department of Public Works",
    "final_address": "240 Pelican Ave",
    "address_councildis": "C",
    "status": "Pending",
    "rowid": "1241715",
    "final_x": "3686142.54665",
    "final_y": "530254.158913",
    "longitude": "-90.05345550826965",
    "latitude": "29.95187327769228",
    "geocoded_column": {
      "latitude": "29.95187327769228",
      "longitude": "-90.05345550826965"
    }
  },
  {
    "service_request": "2025-1241714",
    "request_type": "General Services",
    "request_reason": "General Service Request",
    "date_created": "2025-11-21T13:52:50.000",
    "date_modified": "2025-11-21T13:52:52.000",
    "request_status": "Pending",
    "responsible_agency": "Orleans Parish Communication District",
    "final_address": "3040 Louisiana Avenue Prkwy",
    "address_councildis": "B",
    "status": "Pending",
    "rowid": "1241714",
    "final_x": "3672013.65799",
    "final_y": "526498.38931",
    "longitude": "-90.09819576067521",
    "latitude": "29.941972522850715",
    "geocoded_column": {
      "latitude": "29.941972522850715",
      "longitude": "-90.09819576067521"
    }
  },
  {
    "service_request": "2025-1241713",
    "request_type": "Trash/Recycling",
    "request_reason": "Request a Large Item Pick Up",
    "date_created": "2025-11-21T13:52:05.000",
    "date_modified": "2025-11-21T13:52:06.000",
    "request_status": "Pending",
    "responsible_agency": "Department of Sanitation",
    "final_address": "1220 Delery St",
    "address_councildis": "E",
    "status": "Assigned to Contractor",
    "contractor": "Waste Pro",
    "rowid": "1241713",
    "final_x": "3700574.72906",
    "final_y": "533380.110916",
    "longitude": "-90.0077716455008",
    "latitude": "29.960017386562818",
    "geocoded_column": {
      "latitude": "29.960017386562818",
      "longitude": "-90.0077716455008"
    }
  },
  {
    "service_request": "2025-1241712",
    "request_type": "Trash/Recycling",
    "request_reason": "Request a Large Item Pick Up",
    "date_created": "2025-11-21T13:46:57.000",
    "date_modified": "2025-11-21T13:46:59.000",
    "request_status": "Pending",
    "responsible_agency": "Department of Sanitation",
    "final_address": "7160 Wayside Dr",
    "address_councildis": "E",
    "status": "Assigned to Contractor",
    "contractor": "Waste Pro",
    "rowid": "1241712",
    "final_x": "3717287.61516",
    "final_y": "568152.770789",
    "longitude": "-89.95367451570007",
    "latitude": "30.05508637351454",
    "geocoded_column": {
      "latitude": "30.05508637351454",
      "longitude": "-89.95367451570007"
    }
  },
  {
    "service_request": "2025-1241711",
    "request_type": "Trash/Recycling",
    "request_reason": "Repair Trash Cart",
    "date_created": "2025-11-21T13:42:13.000",
    "date_modified": "2025-11-21T13:42:15.000",
    "request_status": "Pending",
    "responsible_agency": "Department of Sanitation",
    "final_address": "281 Audubon Blvd",
    "address_councildis": "A",
    "status": "Assigned to Contractor",
    "contractor": "IV Waste",
    "rowid": "1241711",
    "final_x": "3666992.77076",
    "final_y": "529446.581825",
    "longitude": "-90.11394876895618",
    "latitude": "29.950226960083253",
    "geocoded_column": {
      "latitude": "29.950226960083253",
      "longitude": "-90.11394876895618"
    }
  },
  {
    "service_request": "2025-1241710",
    "request_type": "Trash/Recycling",
    "request_reason": "Request a Large Item Pick Up",
    "date_created": "2025-11-21T13:32:25.000",
    "date_modified": "2025-11-21T13:49:48.000",
    "request_status": "Pending",
    "responsible_agency": "Department of Sanitation",
    "final_address": "1021 Wilson Dr",
    "address_councildis": "A",
    "status": "Assigned to Contractor",
    "contractor": "IV Waste",
    "rowid": "1241710",
    "final_x": "3674392.06894",
    "final_y": "540649.353867",
    "longitude": "-90.09020189136714",
    "latitude": "29.980812218406793",
    "geocoded_column": {
      "latitude": "29.980812218406793",
      "longitude": "-90.09020189136714"
    }
  },
  {
    "service_request": "2025-1241709",
    "request_type": "Trash/Recycling",
    "request_reason": "Request a Large Item Pick Up",
    "date_created": "2025-11-21T13:30:45.000",
    "date_modified": "2025-11-21T13:30:46.000",
    "request_status": "Pending",
    "responsible_agency": "Department of Sanitation",
    "final_address": "3829 Louisiana Avenue Prkwy",
    "address_councildis": "B",
    "status": "Assigned to Contractor",
    "contractor": "IV Waste",
    "rowid": "1241709",
    "final_x": "3671270.32084",
    "final_y": "528965.86752",
    "longitude": "-90.1004588183925",
    "latitude": "29.948779292803533",
    "geocoded_column": {
      "latitude": "29.948779292803533",
      "longitude": "-90.1004588183925"
    }
  },
  {
    "service_request": "2025-1241708",
    "request_type": "Trash/Recycling",
    "request_reason": "Order Recycling Cart",
    "date_created": "2025-11-21T13:30:40.000",
    "date_modified": "2025-11-21T13:30:42.000",
    "request_status": "Pending",
    "responsible_agency": "Department of Sanitation",
    "final_address": "3647 Timber Bluff Ln",
    "address_councildis": "C",
    "status": "Pending",
    "rowid": "1241708",
    "final_x": "3704014.81444",
    "final_y": "510926.533551",
    "longitude": "-89.99773513902777",
    "latitude": "29.898168003983766",
    "geocoded_column": {
      "latitude": "29.898168003983766",
      "longitude": "-89.99773513902777"
    }
  },
  {
    "service_request": "2025-1241707",
    "request_type": "Trash/Recycling",
    "request_reason": "Request a Large Item Pick Up",
    "date_created": "2025-11-21T13:17:42.000",
    "date_modified": "2025-11-21T13:17:44.000",
    "request_status": "Pending",
    "responsible_agency": "Department of Sanitation",
    "final_address": "10101 Brookfield Dr",
    "address_councildis": "E",
    "status": "Assigned to Contractor",
    "contractor": "Waste Pro",
    "rowid": "1241707",
    "final_x": "3709862.14782",
    "final_y": "562819.341024",
    "longitude": "-89.97734415983236",
    "latitude": "30.040665333073868",
    "geocoded_column": {
      "latitude": "30.040665333073868",
      "longitude": "-89.97734415983236"
    }
  },
  {
    "service_request": "2025-1241706",
    "request_type": "Drainage",
    "request_reason": "Illegal Dumping (Sewer Odor)",
    "date_created": "2025-11-21T13:17:30.000",
    "date_modified": "2025-11-21T13:17:31.000",
    "request_status": "Pending",
    "responsible_agency": "Sewerage & Water Board",
    "final_address": "616 Seventh St",
    "address_councildis": "B",
    "status": "Pending",
    "rowid": "1241706",
    "final_x": "3677258.05",
    "final_y": "518966.761911",
    "longitude": "-90.0818977957304",
    "latitude": "29.921106524014785",
    "geocoded_column": {
      "latitude": "29.921106524014785",
      "longitude": "-90.0818977957304"
    }
  },
  {
    "service_request": "2025-1241705",
    "request_type": "Trash/Recycling",
    "request_reason": "Replace Trash Cart",
    "date_created": "2025-11-21T13:12:53.000",
    "date_modified": "2025-11-21T13:12:56.000",
    "request_status": "Pending",
    "responsible_agency": "Department of Sanitation",
    "final_address": "9101 S Claiborne Ave",
    "address_councildis": "A",
    "status": "Assigned to Contractor",
    "contractor": "IV Waste",
    "rowid": "1241705",
    "final_x": "3662259.6761",
    "final_y": "534025.900101",
    "longitude": "-90.12874145863245",
    "latitude": "29.962956251313706",
    "geocoded_column": {
      "latitude": "29.962956251313706",
      "longitude": "-90.12874145863245"
    }
  },
  {
    "service_request": "2025-1241704",
    "request_type": "Trash/Recycling",
    "request_reason": "Request a Large Item Pick Up",
    "date_created": "2025-11-21T13:10:33.000",
    "date_modified": "2025-11-21T13:10:34.000",
    "request_status": "Pending",
    "responsible_agency": "Department of Sanitation",
    "final_address": "10900 BLK S Hardy St",
    "address_councildis": "E",
    "status": "Assigned to Contractor",
    "contractor": "Waste Pro",
    "rowid": "1241704",
    "final_x": "3713152.47064",
    "final_y": "561756.6955",
    "longitude": "-89.96698578793536",
    "latitude": "30.03763601030391",
    "geocoded_column": {
      "latitude": "30.03763601030391",
      "longitude": "-89.96698578793536"
    }
  },
  {
    "service_request": "2025-1241703",
    "request_type": "Trash/Recycling",
    "request_reason": "Illegal Dumping",
    "date_created": "2025-11-21T13:08:16.000",
    "date_modified": "2025-11-21T13:09:10.000",
    "request_status": "Pending",
    "responsible_agency": "Department of Sanitation",
    "final_address": "7821 Sand St",
    "address_councildis": "E",
    "status": "Pending",
    "rowid": "1241703",
    "final_x": "3720329.15007",
    "final_y": "574202.05457",
    "longitude": "-89.94382911159397",
    "latitude": "30.071618319996265",
    "geocoded_column": {
      "latitude": "30.071618319996265",
      "longitude": "-89.94382911159397"
    }
  },
  {
    "service_request": "2025-1241702",
    "request_type": "Drainage",
    "request_reason": "Drainage Manhole Cover Missing or Damaged",
    "date_created": "2025-11-21T13:01:19.000",
    "date_modified": "2025-11-21T13:01:20.000",
    "request_status": "Pending",
    "responsible_agency": "Sewerage & Water Board",
    "final_address": "1532 S Norman C Francis Prkwy",
    "address_councildis": "B",
    "status": "Pending",
    "rowid": "1241702",
    "final_x": "3669620.02759",
    "final_y": "531287.353218",
    "longitude": "-90.10559097586228",
    "latitude": "29.955211338239256",
    "geocoded_column": {
      "latitude": "29.955211338239256",
      "longitude": "-90.10559097586228"
    }
  },
  {
    "service_request": "2025-1241701",
    "request_type": "Trash/Recycling",
    "request_reason": "Request a Large Item Pick Up",
    "date_created": "2025-11-21T12:57:14.000",
    "date_modified": "2025-11-21T12:57:16.000",
    "request_status": "Pending",
    "responsible_agency": "Department of Sanitation",
    "final_address": "9136 Oleander St",
    "address_councildis": "A",
    "status": "Assigned to Contractor",
    "contractor": "IV Waste",
    "rowid": "1241701",
    "final_x": "3663917.32781",
    "final_y": "536209.367239",
    "longitude": "-90.12343397034282",
    "latitude": "29.968912047162377",
    "geocoded_column": {
      "latitude": "29.968912047162377",
      "longitude": "-90.12343397034282"
    }
  },
  {
    "service_request": "2025-1241700",
    "request_type": "Trash/Recycling",
    "request_reason": "Return Recycling Cart",
    "date_created": "2025-11-21T12:54:38.000",
    "date_modified": "2025-11-21T12:58:19.000",
    "request_status": "Pending",
    "responsible_agency": "Department of Sanitation",
    "final_address": "5301 Annunciation St",
    "address_councildis": "B",
    "status": "Pending",
    "rowid": "1241700",
    "final_x": "3667317.22465",
    "final_y": "517623.600502",
    "longitude": "-90.11332178322662",
    "latitude": "29.91770803980382",
    "geocoded_column": {
      "latitude": "29.91770803980382",
      "longitude": "-90.11332178322662"
    }
  },
  {
    "service_request": "2025-1241699",
    "request_type": "Trash/Recycling",
    "request_reason": "Repair Trash Cart",
    "date_created": "2025-11-21T12:54:08.000",
    "date_modified": "2025-11-21T12:59:21.000",
    "request_status": "Pending",
    "responsible_agency": "Department of Sanitation",
    "final_address": "5303 Annunciation St",
    "address_councildis": "B",
    "status": "Assigned to Contractor",
    "contractor": "IV Waste",
    "rowid": "1241699",
    "final_x": "3667302.64129",
    "final_y": "517623.183862",
    "longitude": "-90.11336782896116",
    "latitude": "29.917707321118865",
    "geocoded_column": {
      "latitude": "29.917707321118865",
      "longitude": "-90.11336782896116"
    }
  },
  {
    "service_request": "2025-1241698",
    "request_type": "Trash/Recycling",
    "request_reason": "Repair Trash Cart",
    "date_created": "2025-11-21T12:53:51.000",
    "date_modified": "2025-11-21T12:57:06.000",
    "request_status": "Pending",
    "responsible_agency": "Department of Sanitation",
    "final_address": "5301 Annunciation St",
    "address_councildis": "B",
    "status": "Assigned to Contractor",
    "contractor": "IV Waste",
    "rowid": "1241698",
    "final_x": "3667317.22465",
    "final_y": "517623.600502",
    "longitude": "-90.11332178322662",
    "latitude": "29.91770803980382",
    "geocoded_column": {
      "latitude": "29.91770803980382",
      "longitude": "-90.11332178322662"
    }
  },
  {
    "service_request": "2025-1241697",
    "request_type": "Trash/Recycling",
    "request_reason": "Request a Large Item Pick Up",
    "date_created": "2025-11-21T12:47:37.000",
    "date_modified": "2025-11-21T12:47:38.000",
    "request_status": "Pending",
    "responsible_agency": "Department of Sanitation",
    "final_address": "5810 Pratt Dr",
    "address_councildis": "D",
    "status": "Assigned to Contractor",
    "contractor": "IV Waste",
    "rowid": "1241697",
    "final_x": "3680159.51439",
    "final_y": "554006.18204",
    "longitude": "-90.07152119517099",
    "latitude": "30.01736543739235",
    "geocoded_column": {
      "latitude": "30.01736543739235",
      "longitude": "-90.07152119517099"
    }
  },
  {
    "service_request": "2025-1241696",
    "request_type": "Trash/Recycling",
    "request_reason": "Request a Large Item Pick Up",
    "date_created": "2025-11-21T12:46:15.000",
    "date_modified": "2025-11-21T12:46:21.000",
    "request_status": "Pending",
    "responsible_agency": "Department of Sanitation",
    "final_address": "7169 E Tamaron Blvd",
    "address_councildis": "E",
    "status": "Assigned to Contractor",
    "contractor": "Waste Pro",
    "rowid": "1241696",
    "final_x": "3718405.1109",
    "final_y": "569381.41623",
    "longitude": "-89.9500955050098",
    "latitude": "30.058427594941723",
    "geocoded_column": {
      "latitude": "30.058427594941723",
      "longitude": "-89.9500955050098"
    }
  },
  {
    "service_request": "2025-1241695",
    "request_type": "Abandoned Vehicles",
    "request_reason": "Abandoned/Junk Vehicles",
    "date_created": "2025-11-21T12:41:28.000",
    "date_modified": "2025-11-21T12:41:30.000",
    "request_status": "Pending",
    "responsible_agency": "Department of Public Works",
    "final_address": "4803 Lynhuber Dr",
    "address_councildis": "D",
    "status": "Pending",
    "rowid": "1241695",
    "final_x": "3698065.72528",
    "final_y": "554626.51132",
    "longitude": "-90.01492253055115",
    "latitude": "30.018516765671976",
    "geocoded_column": {
      "latitude": "30.018516765671976",
      "longitude": "-90.01492253055115"
    }
  },
  {
    "service_request": "2025-1241694",
    "request_type": "Trash/Recycling",
    "request_reason": "Missed Trash Pick-Up",
    "date_created": "2025-11-21T12:41:27.000",
    "date_modified": "2025-11-21T13:54:33.000",
    "case_close_date": "2025-11-21T07:54:32.000",
    "request_status": "Closed",
    "responsible_agency": "Department of Sanitation",
    "final_address": "4611 Sierra Madre Dr",
    "address_councildis": "E",
    "status": "Invalid Request",
    "contractor": "Waste Pro",
    "contractor_action": "Invalid",
    "rowid": "1241694",
    "final_x": "3714045.76351",
    "final_y": "555685.905561",
    "longitude": "-89.96439200340096",
    "latitude": "30.020914435164194",
    "geocoded_column": {
      "latitude": "30.020914435164194",
      "longitude": "-89.96439200340096"
    }
  },
  {
    "service_request": "2025-1241693",
    "request_type": "Trash/Recycling",
    "request_reason": "Missed Trash Pick-Up",
    "date_created": "2025-11-21T12:40:46.000",
    "date_modified": "2025-11-21T13:15:35.000",
    "case_close_date": "2025-11-21T07:15:34.000",
    "request_status": "Closed",
    "responsible_agency": "Department of Sanitation",
    "final_address": "8535 Huntington Park Dr",
    "address_councildis": "E",
    "status": "Invalid Request",
    "contractor": "Waste Pro",
    "contractor_action": "Invalid",
    "rowid": "1241693",
    "final_x": "3705205.98788",
    "final_y": "560213.286173",
    "longitude": "-89.99215547540894",
    "latitude": "30.033650393046607",
    "geocoded_column": {
      "latitude": "30.033650393046607",
      "longitude": "-89.99215547540894"
    }
  },
  {
    "service_request": "2025-1241692",
    "request_type": "Abandoned Vehicles",
    "request_reason": "Abandoned/Junk Vehicles",
    "date_created": "2025-11-21T12:40:46.000",
    "date_modified": "2025-11-21T12:40:47.000",
    "request_status": "Pending",
    "responsible_agency": "Department of Public Works",
    "final_address": "4801 Lynhuber Dr",
    "address_councildis": "D",
    "status": "Pending",
    "rowid": "1241692",
    "final_x": "3698066.60048",
    "final_y": "554610.30524",
    "longitude": "-90.01492035442564",
    "latitude": "30.018472177405975",
    "geocoded_column": {
      "latitude": "30.018472177405975",
      "longitude": "-90.01492035442564"
    }
  },
  {
    "service_request": "2025-1241691",
    "request_type": "Trash/Recycling",
    "request_reason": "Order Trash Cart",
    "date_created": "2025-11-21T12:35:31.000",
    "date_modified": "2025-11-21T12:35:34.000",
    "request_status": "Pending",
    "responsible_agency": "Department of Sanitation",
    "final_address": "536 Abalon Ct",
    "address_councildis": "C",
    "status": "Assigned to Contractor",
    "contractor": "Richards Disposal",
    "rowid": "1241691",
    "final_x": "3688963.51715",
    "final_y": "530405.78061",
    "longitude": "-90.04454286443799",
    "latitude": "29.9522032429589",
    "geocoded_column": {
      "latitude": "29.9522032429589",
      "longitude": "-90.04454286443799"
    }
  },
  {
    "service_request": "2025-1241690",
    "request_type": "Trash/Recycling",
    "request_reason": "Repair Trash Cart",
    "date_created": "2025-11-21T12:31:20.000",
    "date_modified": "2025-11-21T12:31:22.000",
    "request_status": "Pending",
    "responsible_agency": "Department of Sanitation",
    "final_address": "1536 Virginia Marie St",
    "address_councildis": "D",
    "status": "Assigned to Contractor",
    "contractor": "IV Waste",
    "rowid": "1241690",
    "final_x": "3679193.31759",
    "final_y": "548733.261587",
    "longitude": "-90.07475698417159",
    "latitude": "30.002896021421243",
    "geocoded_column": {
      "latitude": "30.002896021421243",
      "longitude": "-90.07475698417159"
    }
  },
  {
    "service_request": "2025-1241689",
    "request_type": "Trash/Recycling",
    "request_reason": "Replace Trash Cart",
    "date_created": "2025-11-21T12:27:27.000",
    "date_modified": "2025-11-21T12:27:29.000",
    "request_status": "Pending",
    "responsible_agency": "Department of Sanitation",
    "final_address": "326 S Dorgenois St",
    "address_councildis": "B",
    "status": "Assigned to Contractor",
    "contractor": "IV Waste",
    "rowid": "1241689",
    "final_x": "3675266.48206",
    "final_y": "533879.618373",
    "longitude": "-90.08767255070225",
    "latitude": "29.962171634736226",
    "geocoded_column": {
      "latitude": "29.962171634736226",
      "longitude": "-90.08767255070225"
    }
  },
  {
    "service_request": "2025-1241688",
    "request_type": "Trash/Recycling",
    "request_reason": "Replace Trash Cart",
    "date_created": "2025-11-21T12:26:55.000",
    "date_modified": "2025-11-21T12:26:57.000",
    "request_status": "Pending",
    "responsible_agency": "Department of Sanitation",
    "final_address": "328 S Dorgenois St",
    "address_councildis": "B",
    "status": "Assigned to Contractor",
    "contractor": "IV Waste",
    "rowid": "1241688",
    "final_x": "3675258.72776",
    "final_y": "533867.690885",
    "longitude": "-90.08769744711303",
    "latitude": "29.962139069946648",
    "geocoded_column": {
      "latitude": "29.962139069946648",
      "longitude": "-90.08769744711303"
    }
  },
  {
    "service_request": "2025-1241687",
    "request_type": "Property Maintenance",
    "request_reason": "Property Maintenance",
    "date_created": "2025-11-21T12:26:50.000",
    "date_modified": "2025-11-21T12:26:52.000",
    "request_status": "Pending",
    "responsible_agency": "Department of Code Enforcement",
    "final_address": "2749 Carver Rams Way",
    "address_councildis": "D",
    "status": "Pending",
    "rowid": "1241687",
    "final_x": "3689812.23952",
    "final_y": "545197.399247",
    "longitude": "-90.0413363778655",
    "latitude": "29.992848699837275",
    "geocoded_column": {
      "latitude": "29.992848699837275",
      "longitude": "-90.0413363778655"
    }
  },
  {
    "service_request": "2025-1241686",
    "request_type": "Trash/Recycling",
    "request_reason": "Request a Large Item Pick Up",
    "date_created": "2025-11-21T12:26:11.000",
    "date_modified": "2025-11-21T12:26:12.000",
    "request_status": "Pending",
    "responsible_agency": "Department of Sanitation",
    "final_address": "2518 Joliet St",
    "address_councildis": "A",
    "status": "Assigned to Contractor",
    "contractor": "IV Waste",
    "rowid": "1241686",
    "final_x": "3664131.44295",
    "final_y": "532937.050884",
    "longitude": "-90.12286694844539",
    "latitude": "29.959908033205398",
    "geocoded_column": {
      "latitude": "29.959908033205398",
      "longitude": "-90.12286694844539"
    }
  },
  {
    "service_request": "2025-1241685",
    "request_type": "Trash/Recycling",
    "request_reason": "Request a Large Item Pick Up",
    "date_created": "2025-11-21T12:10:32.000",
    "date_modified": "2025-11-21T12:10:35.000",
    "request_status": "Pending",
    "responsible_agency": "Department of Sanitation",
    "final_address": "7422 Alabama St",
    "address_councildis": "D",
    "status": "Assigned to Contractor",
    "contractor": "Waste Pro",
    "rowid": "1241685",
    "final_x": "3695033.67606",
    "final_y": "557977.640795",
    "longitude": "-90.02438169726076",
    "latitude": "30.027826681049838",
    "geocoded_column": {
      "latitude": "30.027826681049838",
      "longitude": "-90.02438169726076"
    }
  },
  {
    "service_request": "2025-1241684",
    "request_type": "Trash/Recycling",
    "request_reason": "Request a Large Item Pick Up",
    "date_created": "2025-11-21T12:04:36.000",
    "date_modified": "2025-11-21T12:04:38.000",
    "request_status": "Pending",
    "responsible_agency": "Department of Sanitation",
    "final_address": "13961 Curran Rd",
    "address_councildis": "E",
    "status": "Assigned to Contractor",
    "contractor": "Waste Pro",
    "rowid": "1241684",
    "final_x": "3718404.55589",
    "final_y": "572190.654761",
    "longitude": "-89.94999005718488",
    "latitude": "30.066151847355943",
    "geocoded_column": {
      "latitude": "30.066151847355943",
      "longitude": "-89.94999005718488"
    }
  },
  {
    "service_request": "2025-1241683",
    "request_type": "Abandoned Vehicles",
    "request_reason": "Abandoned/Junk Vehicles",
    "date_created": "2025-11-21T12:01:06.000",
    "date_modified": "2025-11-21T12:01:07.000",
    "request_status": "Pending",
    "responsible_agency": "Department of Public Works",
    "final_address": "2309 Delachaise St",
    "address_councildis": "B",
    "status": "Pending",
    "rowid": "1241683",
    "final_x": "3672831.981",
    "final_y": "523780.729211",
    "longitude": "-90.09570481200666",
    "latitude": "29.934475561840387",
    "geocoded_column": {
      "latitude": "29.934475561840387",
      "longitude": "-90.09570481200666"
    }
  },
  {
    "service_request": "2025-1241682",
    "request_type": "Abandoned Vehicles",
    "request_reason": "Abandoned/Junk Vehicles",
    "date_created": "2025-11-21T11:56:18.000",
    "date_modified": "2025-11-21T12:00:36.000",
    "request_status": "Pending",
    "responsible_agency": "Department of Public Works",
    "final_address": "3400 Clouet St",
    "address_councildis": "D",
    "status": "Inspected",
    "rowid": "1241682",
    "final_x": "3691250.69552",
    "final_y": "545096.623567",
    "longitude": "-90.03679616986419",
    "latitude": "29.992526927293024",
    "geocoded_column": {
      "latitude": "29.992526927293024",
      "longitude": "-90.03679616986419"
    }
  },
  {
    "service_request": "2025-1241681",
    "request_type": "Road Striping",
    "request_reason": "Lane Striping or other Pavement Markings",
    "date_created": "2025-11-21T11:46:50.000",
    "date_modified": "2025-11-21T11:46:52.000",
    "request_status": "Pending",
    "responsible_agency": "Department of Public Works",
    "final_address": "7600 BLK Burthe St",
    "address_councildis": "A",
    "status": "Pending",
    "rowid": "1241681",
    "final_x": "3662465.96834",
    "final_y": "526490.226991",
    "longitude": "-90.12834026246901",
    "latitude": "29.94222961525247",
    "geocoded_column": {
      "latitude": "29.94222961525247",
      "longitude": "-90.12834026246901"
    }
  },
  {
    "service_request": "2025-1241680",
    "request_type": "Trash/Recycling",
    "request_reason": "Return Trash Cart",
    "date_created": "2025-11-21T11:45:59.000",
    "date_modified": "2025-11-21T11:46:00.000",
    "request_status": "Pending",
    "responsible_agency": "Department of Sanitation",
    "final_address": "4112 Magazine St",
    "address_councildis": "B",
    "status": "Assigned to Contractor",
    "contractor": "IV Waste",
    "rowid": "1241680",
    "final_x": "3672035.78587",
    "final_y": "518840.687351",
    "longitude": "-90.09838646944863",
    "latitude": "29.920915654664906",
    "geocoded_column": {
      "latitude": "29.920915654664906",
      "longitude": "-90.09838646944863"
    }
  },
  {
    "service_request": "2025-1241679",
    "request_type": "Streetlights",
    "request_reason": "Streetlight Outage/Malfunction",
    "date_created": "2025-11-21T11:41:51.000",
    "date_modified": "2025-11-21T11:41:53.000",
    "request_status": "Pending",
    "responsible_agency": "Department of Public Works",
    "final_address": "3530 Preston Pl",
    "address_councildis": "C",
    "status": "Pending",
    "rowid": "1241679",
    "final_x": "3708559.55236",
    "final_y": "517763.965302",
    "longitude": "-89.98313860503997",
    "latitude": "29.916822139557116",
    "geocoded_column": {
      "latitude": "29.916822139557116",
      "longitude": "-89.98313860503997"
    }
  },
  {
    "service_request": "2025-1241678",
    "request_type": "Roads and Streets",
    "request_reason": "Sidewalk Damaged or Missing",
    "date_created": "2025-11-21T11:40:55.000",
    "date_modified": "2025-11-21T11:40:57.000",
    "request_status": "Pending",
    "responsible_agency": "Department of Public Works",
    "final_address": "3044 Marais St",
    "address_councildis": "C",
    "status": "Pending",
    "rowid": "1241678",
    "final_x": "3688894.64649",
    "final_y": "536364.453255",
    "longitude": "-90.04454870689457",
    "latitude": "29.96858965351483",
    "geocoded_column": {
      "latitude": "29.96858965351483",
      "longitude": "-90.04454870689457"
    }
  },
  {
    "service_request": "2025-1241677",
    "request_type": "Utility Poles",
    "request_reason": "Utility Pole Leaning",
    "date_created": "2025-11-21T11:39:33.000",
    "date_modified": "2025-11-21T11:39:35.000",
    "request_status": "Pending",
    "responsible_agency": "Utility Company Collective",
    "final_address": "2011 Seventh St",
    "address_councildis": "B",
    "status": "Pending",
    "rowid": "1241677",
    "final_x": "3674424.90484",
    "final_y": "523390.120827",
    "longitude": "-90.09068935732729",
    "latitude": "29.933354110852612",
    "geocoded_column": {
      "latitude": "29.933354110852612",
      "longitude": "-90.09068935732729"
    }
  },
  {
    "service_request": "2025-1241676",
    "request_type": "Trash/Recycling",
    "request_reason": "Replace Trash Cart",
    "date_created": "2025-11-21T11:37:09.000",
    "date_modified": "2025-11-21T11:37:11.000",
    "request_status": "Pending",
    "responsible_agency": "Department of Sanitation",
    "final_address": "3044 Marais St",
    "address_councildis": "C",
    "status": "Assigned to Contractor",
    "contractor": "IV Waste",
    "rowid": "1241676",
    "final_x": "3688894.64649",
    "final_y": "536364.453255",
    "longitude": "-90.04454870689457",
    "latitude": "29.96858965351483",
    "geocoded_column": {
      "latitude": "29.96858965351483",
      "longitude": "-90.04454870689457"
    }
  },
  {
    "service_request": "2025-1241675",
    "request_type": "Abandoned Vehicles",
    "request_reason": "Abandoned/Junk Vehicles",
    "date_created": "2025-11-21T11:34:27.000",
    "date_modified": "2025-11-21T11:34:28.000",
    "request_status": "Pending",
    "responsible_agency": "Department of Public Works",
    "final_address": "1636 Second St",
    "address_councildis": "B",
    "status": "Pending",
    "rowid": "1241675",
    "final_x": "3676479.19861",
    "final_y": "523316.563323",
    "longitude": "-90.08420660238711",
    "latitude": "29.933090433433932",
    "geocoded_column": {
      "latitude": "29.933090433433932",
      "longitude": "-90.08420660238711"
    }
  },
  {
    "service_request": "2025-1241674",
    "request_type": "Street and Traffic Signs",
    "request_reason": "Stop Sign Missing or Damaged",
    "date_created": "2025-11-21T11:34:05.000",
    "date_modified": "2025-11-21T11:34:06.000",
    "request_status": "Pending",
    "responsible_agency": "Department of Public Works",
    "final_address": "1601 Burdette St",
    "address_councildis": "A",
    "status": "Pending",
    "rowid": "1241674",
    "final_x": "3663798.37754",
    "final_y": "528653.434176",
    "longitude": "-90.12406145590433",
    "latitude": "29.94813914582865",
    "geocoded_column": {
      "latitude": "29.94813914582865",
      "longitude": "-90.12406145590433"
    }
  },
  {
    "service_request": "2025-1241673",
    "request_type": "Trash/Recycling",
    "request_reason": "Replace Trash Cart",
    "date_created": "2025-11-21T11:33:48.000",
    "date_modified": "2025-11-21T11:33:51.000",
    "request_status": "Pending",
    "responsible_agency": "Department of Sanitation",
    "final_address": "1512 Clouet St",
    "address_councildis": "D",
    "status": "Assigned to Contractor",
    "contractor": "IV Waste",
    "rowid": "1241673",
    "final_x": "3689374.15151",
    "final_y": "537620.138632",
    "longitude": "-90.0429897526077",
    "latitude": "29.972027508675733",
    "geocoded_column": {
      "latitude": "29.972027508675733",
      "longitude": "-90.0429897526077"
    }
  },
  {
    "service_request": "2025-1241672",
    "request_type": "Abandoned Vehicles",
    "request_reason": "Abandoned/Junk Vehicles",
    "date_created": "2025-11-21T11:31:45.000",
    "date_modified": "2025-11-21T11:32:22.000",
    "request_status": "Pending",
    "responsible_agency": "Department of Public Works",
    "final_address": "4200 BLK Ulloa St",
    "address_councildis": "A",
    "status": "Inspected",
    "rowid": "1241672",
    "final_x": "3669015.47197",
    "final_y": "536964.593837",
    "longitude": "-90.10730813377968",
    "latitude": "29.97083966430311",
    "geocoded_column": {
      "latitude": "29.97083966430311",
      "longitude": "-90.10730813377968"
    }
  },
  {
    "service_request": "2025-1241671",
    "request_type": "Trash/Recycling",
    "request_reason": "Repair Trash Cart",
    "date_created": "2025-11-21T11:27:59.000",
    "date_modified": "2025-11-21T11:28:00.000",
    "request_status": "Pending",
    "responsible_agency": "Department of Sanitation",
    "final_address": "4501 Majestic Oaks Dr",
    "address_councildis": "D",
    "status": "Assigned to Contractor",
    "contractor": "Waste Pro",
    "rowid": "1241671",
    "final_x": "3697966.71101",
    "final_y": "552984.095831",
    "longitude": "-90.01529507065554",
    "latitude": "30.0140038761006",
    "geocoded_column": {
      "latitude": "30.0140038761006",
      "longitude": "-90.01529507065554"
    }
  },
  {
    "service_request": "2025-1241670",
    "request_type": "Trash/Recycling",
    "request_reason": "Repair Trash Cart",
    "date_created": "2025-11-21T11:27:51.000",
    "date_modified": "2025-11-21T11:27:53.000",
    "request_status": "Pending",
    "responsible_agency": "Department of Sanitation",
    "final_address": "7041 Curran Rd",
    "address_councildis": "E",
    "status": "Assigned to Contractor",
    "contractor": "Waste Pro",
    "rowid": "1241670",
    "final_x": "3699096.3048",
    "final_y": "560428.18979",
    "longitude": "-90.01145482131082",
    "latitude": "30.034436511520337",
    "geocoded_column": {
      "latitude": "30.034436511520337",
      "longitude": "-90.01145482131082"
    }
  },
  {
    "service_request": "2025-1241669",
    "request_type": "Trash/Recycling",
    "request_reason": "Repair Trash Cart",
    "date_created": "2025-11-21T11:25:31.000",
    "date_modified": "2025-11-21T11:25:33.000",
    "request_status": "Pending",
    "responsible_agency": "Department of Sanitation",
    "final_address": "1117 Alvar St",
    "address_councildis": "C",
    "status": "Assigned to Contractor",
    "contractor": "IV Waste",
    "rowid": "1241669",
    "final_x": "3691584.46518",
    "final_y": "535584.975814",
    "longitude": "-90.0360820148755",
    "latitude": "29.96636290362165",
    "geocoded_column": {
      "latitude": "29.96636290362165",
      "longitude": "-90.0360820148755"
    }
  },
  {
    "service_request": "2025-1241668",
    "request_type": "Roads and Streets",
    "request_reason": "Abandoned Service Cut",
    "date_created": "2025-11-21T11:23:41.000",
    "date_modified": "2025-11-21T11:26:04.000",
    "request_status": "Pending",
    "responsible_agency": "Department of Public Works",
    "final_address": "2318 S Johnson St",
    "address_councildis": "B",
    "status": "Pending",
    "rowid": "1241668",
    "final_x": "3673605.8571",
    "final_y": "528626.48544",
    "longitude": "-90.09309611832428",
    "latitude": "29.947776799994553",
    "geocoded_column": {
      "latitude": "29.947776799994553",
      "longitude": "-90.09309611832428"
    }
  },
  {
    "service_request": "2025-1241667",
    "request_type": "Trash/Recycling",
    "request_reason": "Request a Large Item Pick Up",
    "date_created": "2025-11-21T11:21:32.000",
    "date_modified": "2025-11-21T11:21:33.000",
    "request_status": "Pending",
    "responsible_agency": "Department of Sanitation",
    "final_address": "3530 Nashville Ave",
    "address_councildis": "A",
    "status": "Assigned to Contractor",
    "contractor": "IV Waste",
    "rowid": "1241667",
    "final_x": "3668199.37025",
    "final_y": "528795.201536",
    "longitude": "-90.11016090612682",
    "latitude": "29.948400514409663",
    "geocoded_column": {
      "latitude": "29.948400514409663",
      "longitude": "-90.11016090612682"
    }
  },
  {
    "service_request": "2025-1241666",
    "request_type": "Trash/Recycling",
    "request_reason": "Return Trash Cart",
    "date_created": "2025-11-21T11:21:23.000",
    "date_modified": "2025-11-21T11:21:25.000",
    "request_status": "Pending",
    "responsible_agency": "Department of Sanitation",
    "final_address": "6203 Wainwright Dr",
    "address_councildis": "D",
    "status": "Assigned to Contractor",
    "contractor": "IV Waste",
    "rowid": "1241666",
    "final_x": "3681428.52418",
    "final_y": "555671.529113",
    "longitude": "-90.06745350553365",
    "latitude": "30.021906047660696",
    "geocoded_column": {
      "latitude": "30.021906047660696",
      "longitude": "-90.06745350553365"
    }
  },
  {
    "service_request": "2025-1241665",
    "request_type": "Trash/Recycling",
    "request_reason": "Request a Large Item Pick Up",
    "date_created": "2025-11-21T11:21:13.000",
    "date_modified": "2025-11-21T11:21:15.000",
    "request_status": "Pending",
    "responsible_agency": "Department of Sanitation",
    "final_address": "4427 Fontainebleau Dr",
    "address_councildis": "B",
    "status": "Assigned to Contractor",
    "contractor": "IV Waste",
    "rowid": "1241665",
    "final_x": "3669073.95054",
    "final_y": "529726.091969",
    "longitude": "-90.107368037086",
    "latitude": "29.950934459029543",
    "geocoded_column": {
      "latitude": "29.950934459029543",
      "longitude": "-90.107368037086"
    }
  },
  {
    "service_request": "2025-1241664",
    "request_type": "Roads and Streets",
    "request_reason": "Debris in Driving Lanes",
    "date_created": "2025-11-21T11:20:40.000",
    "date_modified": "2025-11-21T11:20:41.000",
    "request_status": "Pending",
    "responsible_agency": "Department of Public Works",
    "final_address": "4219 Monroe St",
    "address_councildis": "A",
    "status": "Pending",
    "rowid": "1241664",
    "final_x": "3667688.89709",
    "final_y": "537769.534344",
    "longitude": "-90.11147053043253",
    "latitude": "29.97309194390993",
    "geocoded_column": {
      "latitude": "29.97309194390993",
      "longitude": "-90.11147053043253"
    }
  },
  {
    "service_request": "2025-1241663",
    "request_type": "Trash/Recycling",
    "request_reason": "Return Recycling Cart",
    "date_created": "2025-11-21T11:17:17.000",
    "date_modified": "2025-11-21T11:17:18.000",
    "request_status": "Pending",
    "responsible_agency": "Department of Sanitation",
    "final_address": "6201 Warrington Dr",
    "address_councildis": "D",
    "status": "Pending",
    "rowid": "1241663",
    "final_x": "3680891.40443",
    "final_y": "555605.981017",
    "longitude": "-90.06915294988005",
    "latitude": "30.02174211947043",
    "geocoded_column": {
      "latitude": "30.02174211947043",
      "longitude": "-90.06915294988005"
    }
  },
  {
    "service_request": "2025-1241662",
    "request_type": "Trash/Recycling",
    "request_reason": "Request a Large Item Pick Up",
    "date_created": "2025-11-21T11:15:50.000",
    "date_modified": "2025-11-21T11:15:51.000",
    "request_status": "Pending",
    "responsible_agency": "Department of Sanitation",
    "final_address": "7736 Keats St",
    "address_councildis": "E",
    "status": "Assigned to Contractor",
    "contractor": "Waste Pro",
    "rowid": "1241662",
    "final_x": "3696090.21872",
    "final_y": "559470.083549",
    "longitude": "-90.02098910068682",
    "latitude": "30.03189709923643",
    "geocoded_column": {
      "latitude": "30.03189709923643",
      "longitude": "-90.02098910068682"
    }
  },
  {
    "service_request": "2025-1241661",
    "request_type": "Abandoned Vehicles",
    "request_reason": "Abandoned/Junk Vehicles",
    "date_created": "2025-11-21T11:03:51.000",
    "date_modified": "2025-11-21T11:03:52.000",
    "request_status": "Pending",
    "responsible_agency": "Department of Public Works",
    "final_address": "6825 E Coronet Ct",
    "address_councildis": "E",
    "status": "Pending",
    "rowid": "1241661",
    "final_x": "3703536.96439",
    "final_y": "557612.017435",
    "longitude": "-89.99752557231521",
    "latitude": "30.026551525585607",
    "geocoded_column": {
      "latitude": "30.026551525585607",
      "longitude": "-89.99752557231521"
    }
  },
  {
    "service_request": "2025-1241660",
    "request_type": "Trash/Recycling",
    "request_reason": "Illegal Dumping",
    "date_created": "2025-11-21T11:03:41.000",
    "date_modified": "2025-11-21T11:03:43.000",
    "request_status": "Pending",
    "responsible_agency": "Department of Sanitation",
    "final_address": "4400 Peoples Ave, New Orleans, Louisiana, 70122",
    "status": "Pending",
    "rowid": "1241660",
    "longitude": "0.0",
    "latitude": "0.0",
    "geocoded_column": {
      "latitude": "0.0",
      "longitude": "0.0"
    }
  },
  {
    "service_request": "2025-1241659",
    "request_type": "Trash/Recycling",
    "request_reason": "Illegal Dumping",
    "date_created": "2025-11-21T11:03:20.000",
    "date_modified": "2025-11-21T11:14:09.000",
    "request_status": "Pending",
    "responsible_agency": "Department of Sanitation",
    "final_address": "3140 Jackson Ave",
    "address_councildis": "B",
    "status": "Pending",
    "rowid": "1241659",
    "final_x": "3673923.45524",
    "final_y": "528450.708608",
    "longitude": "-90.09209934575418",
    "latitude": "29.947284015525973",
    "geocoded_column": {
      "latitude": "29.947284015525973",
      "longitude": "-90.09209934575418"
    }
  },
  {
    "service_request": "2025-1241658",
    "request_type": "Property Maintenance",
    "request_reason": "Property Maintenance",
    "date_created": "2025-11-21T11:00:42.000",
    "date_modified": "2025-11-21T11:02:20.000",
    "request_status": "Pending",
    "responsible_agency": "Department of Code Enforcement",
    "final_address": "4545 Downman Rd",
    "address_councildis": "D",
    "status": "Pending",
    "rowid": "1241658",
    "final_x": "3696094.30224",
    "final_y": "553720.643863",
    "longitude": "-90.02118425201034",
    "latitude": "30.016088194949763",
    "geocoded_column": {
      "latitude": "30.016088194949763",
      "longitude": "-90.02118425201034"
    }
  },
  {
    "service_request": "2025-1241657",
    "request_type": "Streetlights",
    "request_reason": "Streetlight Outage/Malfunction",
    "date_created": "2025-11-21T10:59:12.000",
    "date_modified": "2025-11-21T10:59:14.000",
    "request_status": "Pending",
    "responsible_agency": "Department of Public Works",
    "final_address": "433 N Bernadotte St",
    "address_councildis": "A",
    "status": "Pending",
    "rowid": "1241657",
    "final_x": "3669616.25422",
    "final_y": "541212.019084",
    "longitude": "-90.10526701762241",
    "latitude": "29.98250096070414",
    "geocoded_column": {
      "latitude": "29.98250096070414",
      "longitude": "-90.10526701762241"
    }
  },
  {
    "service_request": "2025-1241656",
    "request_type": "Trash/Recycling",
    "request_reason": "Return Trash Cart",
    "date_created": "2025-11-21T10:56:57.000",
    "date_modified": "2025-11-21T10:56:59.000",
    "request_status": "Pending",
    "responsible_agency": "Department of Sanitation",
    "final_address": "338 N Bernadotte St",
    "address_councildis": "A",
    "status": "Assigned to Contractor",
    "contractor": "IV Waste",
    "rowid": "1241656",
    "final_x": "3669534.69319",
    "final_y": "540951.090379",
    "longitude": "-90.10553345935945",
    "latitude": "29.98178589873715",
    "geocoded_column": {
      "latitude": "29.98178589873715",
      "longitude": "-90.10553345935945"
    }
  },