[
  {
    "service_request": "2025-1180919",
    "request_type": "Trash/Recycling",
    "request_reason": "Return Recycling Cart",
    "date_created": "2025-04-02T23:18:52.000",
    "date_modified": "2025-04-02T23:18:53.000",
    "request_status": "Pending",
    "responsible_agency": "Department of Sanitation",
    "final_address": "7320 Cohn St",
    "address_councildis": "A",
    "status": "Pending",
    "rowid": "1180919",
    "final_x": "3665143.03648",
    "final_y": "528780.374144",
    "longitude": "-90.11981155765223",
    "latitude": "29.94844910078265",
    "geocoded_column": {
      "latitude": "29.94844910078265",
      "longitude": "-90.11981155765223"
    }
  },
  {
    "service_request": "2025-1180918",
    "request_type": "Trash/Recycling",
    "request_reason": "Return Trash Cart",
    "date_created": "2025-04-02T23:16:23.000",
    "date_modified": "2025-04-02T23:16:25.000",
    "request_status": "Pending",
    "responsible_agency": "Department of Sanitation",
    "final_address": "7320 Cohn St",
    "address_councildis": "A",
    "status": "Assigned to Contractor",
    "contractor": "IV Waste",
    "rowid": "1180918",
    "final_x": "3665143.03648",
    "final_y": "528780.374144",
    "longitude": "-90.11981155765223",
    "latitude": "29.94844910078265",
    "geocoded_column": {
      "latitude": "29.94844910078265",
      "longitude": "-90.11981155765223"
    }
  },
  {
    "service_request": "2025-1180917",
    "request_type": "Streetlights",
    "request_reason": "Streetlight Outage/Malfunction",
    "date_created": "2025-04-02T23:08:12.000",
    "date_modified": "2025-04-02T23:08:13.000",
    "request_status": "Pending",
    "responsible_agency": "Department of Public Works",
    "final_address": "2200 BLK Saint Anthony St",
    "address_councildis": "D",
    "status": "Pending",
    "contractor": "Legacy Professional Services",
    "rowid": "1180917",
    "final_x": "3683171.96826",
    "final_y": "540421.064943",
    "longitude": "-90.06247912626826",
    "latitude": "29.979919667545495",
    "geocoded_column": {
      "latitude": "29.979919667545495",
      "longitude": "-90.06247912626826"
    }
  },
  {
    "service_request": "2025-1180916",
    "request_type": "Street and Traffic Signs",
    "request_reason": "Traffic or Parking Sign Damaged or Missing",
    "date_created": "2025-04-02T22:45:15.000",
    "date_modified": "2025-04-02T22:45:17.000",
    "request_status": "Pending",
    "responsible_agency": "Department of Public Works",
    "final_address": "1115 Crete St",
    "address_councildis": "A",
    "status": "Pending",
    "rowid": "1180916",
    "final_x": "3677617.11163",
    "final_y": "538827.812617",
    "longitude": "-90.08007870441617",
    "latitude": "29.9757070068908",
    "geocoded_column": {
      "latitude": "29.9757070068908",
      "longitude": "-90.08007870441617"
    }
  },
  {
    "service_request": "2025-1180915",
    "request_type": "Streetlights",
    "request_reason": "Streetlight Outage/Malfunction",
    "date_created": "2025-04-02T22:41:17.000",
    "date_modified": "2025-04-02T22:41:20.000",
    "request_status": "Pending",
    "responsible_agency": "Department of Public Works",
    "final_address": "1115 Crete St",
    "address_councildis": "A",
    "status": "Pending",
    "contractor": "Legacy Professional Services",
    "rowid": "1180915",
    "final_x": "3677617.11163",
    "final_y": "538827.812617",
    "longitude": "-90.08007870441617",
    "latitude": "29.9757070068908",
    "geocoded_column": {
      "latitude": "29.9757070068908",
      "longitude": "-90.08007870441617"
    }
  },
  {
    "service_request": "2025-1180914",
    "request_type": "Streetlights",
    "request_reason": "Streetlight Outage/Malfunction",
    "date_created": "2025-04-02T22:39:43.000",
    "date_modified": "2025-04-02T22:39:45.000",
    "request_status": "Pending",
    "responsible_agency": "Department of Public Works",
    "final_address": "1115 Crete St",
    "address_councildis": "A",
    "status": "Pending",
    "contractor": "Legacy Professional Services",
    "rowid": "1180914",
    "final_x": "3677617.11163",
    "final_y": "538827.812617",
    "longitude": "-90.08007870441617",
    "latitude": "29.9757070068908",
    "geocoded_column": {
      "latitude": "29.9757070068908",
      "longitude": "-90.08007870441617"
    }
  },
  {
    "service_request": "2025-1180913",
    "request_type": "Streetlights",
    "request_reason": "Streetlight Outage/Malfunction",
    "date_created": "2025-04-02T22:37:59.000",
    "date_modified": "2025-04-02T22:38:01.000",
    "request_status": "Pending",
    "responsible_agency": "Department of Public Works",
    "final_address": "1115 Crete St",
    "address_councildis": "A",
    "status": "Pending",
    "contractor": "Legacy Professional Services",
    "rowid": "1180913",
    "final_x": "3677617.11163",
    "final_y": "538827.812617",
    "longitude": "-90.08007870441617",
    "latitude": "29.9757070068908",
    "geocoded_column": {
      "latitude": "29.9757070068908",
      "longitude": "-90.08007870441617"
    }
  },
  {
    "service_request": "2025-1180912",
    "request_type": "Trash/Recycling",
    "request_reason": "Order Recycling Cart",
    "date_created": "2025-04-02T22:31:16.000",
    "date_modified": "2025-04-02T22:31:18.000",
    "request_status": "Pending",
    "responsible_agency": "Department of Sanitation",
    "final_address": "4603 Banks St",
    "address_councildis": "A",
    "status": "Pending",
    "rowid": "1180912",
    "final_x": "3668691.26414",
    "final_y": "538759.430729",
    "longitude": "-90.10827142375277",
    "latitude": "29.97578439806157",
    "geocoded_column": {
      "latitude": "29.97578439806157",
      "longitude": "-90.10827142375277"
    }
  },
  {
    "service_request": "2025-1180911",
    "request_type": "Trash/Recycling",
    "request_reason": "Request a Large Item Pick Up",
    "date_created": "2025-04-02T22:29:12.000",
    "date_modified": "2025-04-02T22:29:14.000",
    "request_status": "Pending",
    "responsible_agency": "Department of Sanitation",
    "final_address": "4603 Banks St",
    "address_councildis": "A",
    "status": "Assigned to Contractor",
    "contractor": "IV Waste",
    "rowid": "1180911",
    "final_x": "3668691.26414",
    "final_y": "538759.430729",
    "longitude": "-90.10827142375277",
    "latitude": "29.97578439806157",
    "geocoded_column": {
      "latitude": "29.97578439806157",
      "longitude": "-90.10827142375277"
    }
  },
  {
    "service_request": "2025-1180910",
    "request_type": "Abandoned Vehicles",
    "request_reason": "Abandoned/Junk Vehicles",
    "date_created": "2025-04-02T22:21:05.000",
    "date_modified": "2025-04-02T22:21:07.000",
    "request_status": "Pending",
    "responsible_agency": "Department of Public Works",
    "final_address": "5601 Burgundy St",
    "address_councildis": "E",
    "status": "Pending",
    "rowid": "1180910",
    "final_x": "3697866.80919",
    "final_y": "532997.011076",
    "longitude": "-90.01633652383119",
    "latitude": "29.959049857057465",
    "geocoded_column": {
      "latitude": "29.959049857057465",
      "longitude": "-90.01633652383119"
    }
  },
  {
    "service_request": "2025-1180909",
    "request_type": "Abandoned Vehicles",
    "request_reason": "Abandoned/Junk Vehicles",
    "date_created": "2025-04-02T22:16:01.000",
    "date_modified": "2025-04-02T22:16:03.000",
    "request_status": "Pending",
    "responsible_agency": "Department of Public Works",
    "final_address": "5601 Burgundy St",
    "address_councildis": "E",
    "status": "Pending",
    "rowid": "1180909",
    "final_x": "3697866.80919",
    "final_y": "532997.011076",
    "longitude": "-90.01633652383119",
    "latitude": "29.959049857057465",
    "geocoded_column": {
      "latitude": "29.959049857057465",
      "longitude": "-90.01633652383119"
    }
  },
  {
    "service_request": "2025-1180908",
    "request_type": "Trash/Recycling",
    "request_reason": "Request a Large Item Pick Up",
    "date_created": "2025-04-02T22:08:59.000",
    "date_modified": "2025-04-02T22:09:00.000",
    "request_status": "Pending",
    "responsible_agency": "Department of Sanitation",
    "final_address": "2237 Octavia St",
    "address_councildis": "A",
    "status": "Assigned to Contractor",
    "contractor": "IV Waste",
    "rowid": "1180908",
    "final_x": "3667624.30241",
    "final_y": "524006.437692",
    "longitude": "-90.11213778543795",
    "latitude": "29.93524982542993",
    "geocoded_column": {
      "latitude": "29.93524982542993",
      "longitude": "-90.11213778543795"
    }
  },
  {
    "service_request": "2025-1180907",
    "request_type": "Trash/Recycling",
    "request_reason": "Request a Large Item Pick Up",
    "date_created": "2025-04-02T22:06:53.000",
    "date_modified": "2025-04-02T22:06:55.000",
    "request_status": "Pending",
    "responsible_agency": "Department of Sanitation",
    "final_address": "2237 Octavia St",
    "address_councildis": "A",
    "status": "Assigned to Contractor",
    "contractor": "IV Waste",
    "rowid": "1180907",
    "final_x": "3667624.30241",
    "final_y": "524006.437692",
    "longitude": "-90.11213778543795",
    "latitude": "29.93524982542993",
    "geocoded_column": {
      "latitude": "29.93524982542993",
      "longitude": "-90.11213778543795"
    }
  },
  {
    "service_request": "2025-1180906",
    "request_type": "Trash/Recycling",
    "request_reason": "Request a Large Item Pick Up",
    "date_created": "2025-04-02T21:17:03.000",
    "date_modified": "2025-04-02T21:17:05.000",
    "request_status": "Pending",
    "responsible_agency": "Department of Sanitation",
    "final_address": "911 Jourdan Ave",
    "address_councildis": "E",
    "status": "Assigned to Contractor",
    "contractor": "Waste Pro",
    "rowid": "1180906",
    "final_x": "3694898.63152",
    "final_y": "533805.146757",
    "longitude": "-90.02568012588394",
    "latitude": "29.961365417299344",
    "geocoded_column": {
      "latitude": "29.961365417299344",
      "longitude": "-90.02568012588394"
    }
  },
  {
    "service_request": "2025-1180905",
    "request_type": "Property Maintenance",
    "request_reason": "Property Maintenance",
    "date_created": "2025-04-02T21:15:18.000",
    "date_modified": "2025-04-02T21:15:20.000",
    "request_status": "Pending",
    "responsible_agency": "Department of Code Enforcement",
    "final_address": "1270 Foy St",
    "address_councildis": "D",
    "status": "Pending",
    "rowid": "1180905",
    "final_x": "3677228.09064",
    "final_y": "546391.208016",
    "longitude": "-90.08104627802766",
    "latitude": "29.996515408425143",
    "geocoded_column": {
      "latitude": "29.996515408425143",
      "longitude": "-90.08104627802766"
    }
  },
  {
    "service_request": "2025-1180904",
    "request_type": "Abandoned Vehicles",
    "request_reason": "Abandoned/Junk Vehicles",
    "date_created": "2025-04-02T20:56:55.000",
    "date_modified": "2025-04-02T20:56:56.000",
    "request_status": "Pending",
    "responsible_agency": "Department of Public Works",
    "final_address": "610 John Churchill Chase St",
    "address_councildis": "B",
    "status": "Pending",
    "rowid": "1180904",
    "final_x": "3681747.90805",
    "final_y": "526073.677502",
    "longitude": "-90.06747750567999",
    "latitude": "29.94051259892235",
    "geocoded_column": {
      "latitude": "29.94051259892235",
      "longitude": "-90.06747750567999"
    }
  },
  {
    "service_request": "2025-1180903",
    "request_type": "Mosquito, Termite & Rodent Control",
    "request_reason": "Mosquito Complaint",
    "date_created": "2025-04-02T20:45:30.000",
    "date_modified": "2025-04-02T20:45:32.000",
    "request_status": "Pending",
    "responsible_agency": "Mosquito, Termite & Rodent Control Board",
    "final_address": "2238 Fats Domino Ave",
    "address_councildis": "E",
    "status": "Pending",
    "rowid": "1180903",
    "final_x": "3699171.07658",
    "final_y": "538213.598665",
    "longitude": "-90.01202804449794",
    "latitude": "29.9733523193546",
    "geocoded_column": {
      "latitude": "29.9733523193546",
      "longitude": "-90.01202804449794"
    }
  },
  {
    "service_request": "2025-1180902",
    "request_type": "Streetlights",
    "request_reason": "Streetlight Knocked Down/Leaning",
    "date_created": "2025-04-02T20:41:02.000",
    "date_modified": "2025-04-02T20:41:04.000",
    "request_status": "Pending",
    "responsible_agency": "Department of Public Works",
    "final_address": "3143 Yupon St",
    "address_councildis": "D",
    "status": "Pending",
    "contractor": "Legacy Professional Services",
    "rowid": "1180902",
    "final_x": "3675687.96251",
    "final_y": "544050.819662",
    "longitude": "-90.08599193349272",
    "latitude": "29.990126350337864",
    "geocoded_column": {
      "latitude": "29.990126350337864",
      "longitude": "-90.08599193349272"
    }
  },
  {
    "service_request": "2025-1180901",
    "request_type": "Streetlights",
    "request_reason": "Streetlight Outage/Malfunction",
    "date_created": "2025-04-02T20:39:20.000",
    "date_modified": "2025-04-02T20:39:25.000",
    "request_status": "Pending",
    "responsible_agency": "Department of Public Works",
    "final_address": "3143 Yupon St",
    "address_councildis": "D",
    "status": "Pending",
    "contractor": "Legacy Professional Services",
    "rowid": "1180901",
    "final_x": "3675687.96251",
    "final_y": "544050.819662",
    "longitude": "-90.08599193349272",
    "latitude": "29.990126350337864",
    "geocoded_column": {
      "latitude": "29.990126350337864",
      "longitude": "-90.08599193349272"
    }
  },
  {
    "service_request": "2025-1180900",
    "request_type": "Trash/Recycling",
    "request_reason": "Replace Trash Cart",
    "date_created": "2025-04-02T20:30:37.000",
    "date_modified": "2025-04-02T20:30:39.000",
    "request_status": "Pending",
    "responsible_agency": "Department of Sanitation",
    "final_address": "2015 S Carrollton Ave",
    "address_councildis": "A",
    "status": "Assigned to Contractor",
    "contractor": "IV Waste",
    "rowid": "1180900",
    "final_x": "3664034.33261",
    "final_y": "530399.092994",
    "longitude": "-90.12325823885307",
    "latitude": "29.952932294656723",
    "geocoded_column": {
      "latitude": "29.952932294656723",
      "longitude": "-90.12325823885307"
    }
  },
  {
    "service_request": "2025-1180899",
    "request_type": "Streetlights",
    "request_reason": "New Streetlight Request",
    "date_created": "2025-04-02T19:49:41.000",
    "date_modified": "2025-04-02T19:49:43.000",
    "request_status": "Pending",
    "responsible_agency": "Department of Public Works",
    "final_address": "100 BLK N Carrollton Ave",
    "address_councildis": "A",
    "status": "Pending",
    "contractor": "Legacy Professional Services",
    "rowid": "1180899",
    "final_x": "3671209.18871",
    "final_y": "538468.700081",
    "longitude": "-90.10032896944338",
    "latitude": "29.97491072585336",
    "geocoded_column": {
      "latitude": "29.97491072585336",
      "longitude": "-90.10032896944338"
    }
  },
  {
    "service_request": "2025-1180898",
    "request_type": "Trash/Recycling",
    "request_reason": "Request a Large Item Pick Up",
    "date_created": "2025-04-02T19:47:29.000",
    "date_modified": "2025-04-02T19:47:31.000",
    "request_status": "Pending",
    "responsible_agency": "Department of Sanitation",
    "final_address": "1214 Numa St",
    "address_councildis": "C",
    "status": "Assigned to Contractor",
    "contractor": "Richards Disposal",
    "rowid": "1180898",
    "final_x": "3691850.48592",
    "final_y": "526901.850174",
    "longitude": "-90.03555250116433",
    "latitude": "29.942479041270524",
    "geocoded_column": {
      "latitude": "29.942479041270524",
      "longitude": "-90.03555250116433"
    }
  },
  {
    "service_request": "2025-1180897",
    "request_type": "Trash/Recycling",
    "request_reason": "Request a Large Item Pick Up",
    "date_created": "2025-04-02T19:43:34.000",
    "date_modified": "2025-04-02T19:43:36.000",
    "request_status": "Pending",
    "responsible_agency": "Department of Sanitation",
    "final_address": "2932 Ursulines Ave",
    "address_councildis": "A",
    "status": "Assigned to Contractor",
    "contractor": "IV Waste",
    "rowid": "1180897",
    "final_x": "3676566.37665",
    "final_y": "538877.741705",
    "longitude": "-90.08339550168891",
    "latitude": "29.97587585289125",
    "geocoded_column": {
      "latitude": "29.97587585289125",
      "longitude": "-90.08339550168891"
    }
  },
  {
    "service_request": "2025-1180896",
    "request_type": "Roads and Streets",
    "request_reason": "Pothole",
    "date_created": "2025-04-02T19:28:21.000",
    "date_modified": "2025-04-02T19:28:22.000",
    "request_status": "Pending",
    "responsible_agency": "Department of Public Works",
    "final_address": "2700 BLK General Ogden St",
    "address_councildis": "A",
    "status": "Pending",
    "rowid": "1180896",
    "final_x": "3663616.50213",
    "final_y": "534394.550749",
    "longitude": "-90.12444446838032",
    "latitude": "29.963930629016097",
    "geocoded_column": {
      "latitude": "29.963930629016097",
      "longitude": "-90.12444446838032"
    }
  },
  {
    "service_request": "2025-1180895",
    "request_type": "Abandoned Vehicles",
    "request_reason": "Abandoned/Junk Vehicles",
    "date_created": "2025-04-02T19:27:44.000",
    "date_modified": "2025-04-02T19:27:46.000",
    "request_status": "Pending",
    "responsible_agency": "Department of Public Works",
    "final_address": "926 Leontine St",
    "address_councildis": "B",
    "status": "Pending",
    "rowid": "1180895",
    "final_x": "3667147.66183",
    "final_y": "518930.159287",
    "longitude": "-90.11381310809263",
    "latitude": "29.92130562928771",
    "geocoded_column": {
      "latitude": "29.92130562928771",
      "longitude": "-90.11381310809263"
    }
  },
  {
    "service_request": "2025-1180894",
    "request_type": "Utility Poles",
    "request_reason": "Wires Sagging/Hanging Low",
    "date_created": "2025-04-02T19:26:09.000",
    "date_modified": "2025-04-02T19:26:11.000",
    "request_status": "Pending",
    "responsible_agency": "Utility Company Collective",
    "final_address": "701 Voisin St",
    "address_councildis": "A",
    "status": "Pending",
    "rowid": "1180894",
    "final_x": "3668274.67021",
    "final_y": "543309.763534",
    "longitude": "-90.10943364636667",
    "latitude": "29.98830851251086",
    "geocoded_column": {
      "latitude": "29.98830851251086",
      "longitude": "-90.10943364636667"
    }
  },
  {
    "service_request": "2025-1180893",
    "request_type": "Trash/Recycling",
    "request_reason": "Request a Large Item Pick Up",
    "date_created": "2025-04-02T19:25:31.000",
    "date_modified": "2025-04-02T19:25:32.000",
    "request_status": "Pending",
    "responsible_agency": "Department of Sanitation",
    "final_address": "7512 Garnet St",
    "address_councildis": "D",
    "status": "Assigned to Contractor",
    "contractor": "IV Waste",
    "rowid": "1180893",
    "final_x": "3667326.43969",
    "final_y": "556530.460122",
    "longitude": "-90.11198369319493",
    "latitude": "30.02468864100917",
    "geocoded_column": {
      "latitude": "30.02468864100917",
      "longitude": "-90.11198369319493"
    }
  },
  {
    "service_request": "2025-1180892",
    "request_type": "Trash/Recycling",
    "request_reason": "Order Recycling Cart",
    "date_created": "2025-04-02T19:21:54.000",
    "date_modified": "2025-04-02T19:21:55.000",
    "request_status": "Pending",
    "responsible_agency": "Department of Sanitation",
    "final_address": "5345 Magazine St",
    "address_councildis": "B",
    "status": "Pending",
    "rowid": "1180892",
    "final_x": "3667076.10183",
    "final_y": "518806.167543",
    "longitude": "-90.11404315699265",
    "latitude": "29.920966784996402",
    "geocoded_column": {
      "latitude": "29.920966784996402",
      "longitude": "-90.11404315699265"
    }
  },
  {
    "service_request": "2025-1180891",
    "request_type": "Trash/Recycling",
    "request_reason": "Replace Trash Cart",
    "date_created": "2025-04-02T19:18:10.000",
    "date_modified": "2025-04-02T19:18:12.000",
    "request_status": "Pending",
    "responsible_agency": "Department of Sanitation",
    "final_address": "1315 Pine St",
    "address_councildis": "A",
    "status": "Assigned to Contractor",
    "contractor": "IV Waste",
    "rowid": "1180891",
    "final_x": "3664228.72794",
    "final_y": "527036.265214",
    "longitude": "-90.12275660387338",
    "latitude": "29.943679955496346",
    "geocoded_column": {
      "latitude": "29.943679955496346",
      "longitude": "-90.12275660387338"
    }
  },
  {
    "service_request": "2025-1180890",
    "request_type": "Abandoned Vehicles",
    "request_reason": "Abandoned/Junk Vehicles",
    "date_created": "2025-04-02T19:00:02.000",
    "date_modified": "2025-04-02T19:00:04.000",
    "request_status": "Pending",
    "responsible_agency": "Department of Public Works",
    "final_address": "926 Leontine St",
    "address_councildis": "B",
    "status": "Pending",
    "rowid": "1180890",
    "final_x": "3667147.66183",
    "final_y": "518930.159287",
    "longitude": "-90.11381310809263",
    "latitude": "29.92130562928771",
    "geocoded_column": {
      "latitude": "29.92130562928771",
      "longitude": "-90.11381310809263"
    }
  },
  {
    "service_request": "2025-1180889",
    "request_type": "Abandoned Vehicles",
    "request_reason": "Abandoned/Junk Vehicles",
    "date_created": "2025-04-02T18:50:33.000",
    "date_modified": "2025-04-02T18:50:35.000",
    "request_status": "Pending",
    "responsible_agency": "Department of Public Works",
    "final_address": "926 Leontine St",
    "address_councildis": "B",
    "status": "Pending",
    "rowid": "1180889",
    "final_x": "3667147.66183",
    "final_y": "518930.159287",
    "longitude": "-90.11381310809263",
    "latitude": "29.92130562928771",
    "geocoded_column": {
      "latitude": "29.92130562928771",
      "longitude": "-90.11381310809263"
    }
  },
  {
    "service_request": "2025-1180888",
    "request_type": "Abandoned Vehicles",
    "request_reason": "Abandoned/Junk Vehicles",
    "date_created": "2025-04-02T18:49:00.000",
    "date_modified": "2025-04-02T18:49:02.000",
    "request_status": "Pending",
    "responsible_agency": "Department of Public Works",
    "final_address": "1028 St Philip St",
    "address_councildis": "C",
    "status": "Pending",
    "rowid": "1180888",
    "final_x": "3682162.55925",
    "final_y": "534133.411077",
    "longitude": "-90.06588691991348",
    "latitude": "29.96266153853878",
    "geocoded_column": {
      "latitude": "29.96266153853878",
      "longitude": "-90.06588691991348"
    }
  },
  {
    "service_request": "2025-1180887",
    "request_type": "Roads and Streets",
    "request_reason": "Abandoned Service Cut",
    "date_created": "2025-04-02T18:41:38.000",
    "date_modified": "2025-04-02T18:41:39.000",
    "request_status": "Pending",
    "responsible_agency": "Department of Public Works",
    "final_address": "2225 Tchoupitoulas St",
    "address_councildis": "B",
    "status": "Pending",
    "rowid": "1180887",
    "final_x": "3680304.30453",
    "final_y": "519717.63148",
    "longitude": "-90.07225605235607",
    "latitude": "29.923079338063165",
    "geocoded_column": {
      "latitude": "29.923079338063165",
      "longitude": "-90.07225605235607"
    }
  },
  {
    "service_request": "2025-1180886",
    "request_type": "Trash/Recycling",
    "request_reason": "Repair Trash Cart",
    "date_created": "2025-04-02T18:29:55.000",
    "date_modified": "2025-04-02T18:29:57.000",
    "request_status": "Pending",
    "responsible_agency": "Department of Sanitation",
    "final_address": "1806 Jena St",
    "address_councildis": "B",
    "status": "Assigned to Contractor",
    "contractor": "IV Waste",
    "rowid": "1180886",
    "final_x": "3670330.25351",
    "final_y": "521621.557689",
    "longitude": "-90.10367587475531",
    "latitude": "29.928612595778556",
    "geocoded_column": {
      "latitude": "29.928612595778556",
      "longitude": "-90.10367587475531"
    }
  },
  {
    "service_request": "2025-1180885",
    "request_type": "Utility Poles",
    "request_reason": "Utility Pole Leaning",
    "date_created": "2025-04-02T18:18:57.000",
    "date_modified": "2025-04-02T18:18:58.000",
    "request_status": "Pending",
    "responsible_agency": "Utility Company Collective",
    "final_address": "1139 Kerlerec St",
    "address_councildis": "C",
    "status": "Pending",
    "rowid": "1180885",
    "final_x": "3682866.32616",
    "final_y": "535831.512007",
    "longitude": "-90.0636050988241",
    "latitude": "29.967309308458706",
    "geocoded_column": {
      "latitude": "29.967309308458706",
      "longitude": "-90.0636050988241"
    }
  },
  {
    "service_request": "2025-1180884",
    "request_type": "Roads and Streets",
    "request_reason": "Sidewalk Damaged or Missing",
    "date_created": "2025-04-02T18:04:09.000",
    "date_modified": "2025-04-02T18:04:11.000",
    "request_status": "Pending",
    "responsible_agency": "Department of Public Works",
    "final_address": "1510 General Ogden St",
    "address_councildis": "A",
    "status": "Pending",
    "rowid": "1180884",
    "final_x": "3660617.7191",
    "final_y": "531156.654658",
    "longitude": "-90.13402141937048",
    "latitude": "29.95511411543864",
    "geocoded_column": {
      "latitude": "29.95511411543864",
      "longitude": "-90.13402141937048"
    }
  },
  {
    "service_request": "2025-1180883",
    "request_type": "Property Maintenance",
    "request_reason": "Property Maintenance",
    "date_created": "2025-04-02T17:52:59.000",
    "date_modified": "2025-04-02T17:53:01.000",
    "request_status": "Pending",
    "responsible_agency": "Department of Code Enforcement",
    "final_address": "3119 Frenchmen St",
    "address_councildis": "D",
    "status": "Pending",
    "rowid": "1180883",
    "final_x": "3684000.71458",
    "final_y": "544171.868046",
    "longitude": "-90.05972993215472",
    "latitude": "29.990207752646228",
    "geocoded_column": {
      "latitude": "29.990207752646228",
      "longitude": "-90.05972993215472"
    }
  },
  {
    "service_request": "2025-1180882",
    "request_type": "Trash/Recycling",
    "request_reason": "Order Recycling Cart",
    "date_created": "2025-04-02T17:34:21.000",
    "date_modified": "2025-04-02T17:34:23.000",
    "request_status": "Pending",
    "responsible_agency": "Department of Sanitation",
    "final_address": "2025 St Claude Ave",
    "address_councildis": "C",
    "status": "Pending",
    "rowid": "1180882",
    "final_x": "3684519.2998",
    "final_y": "536347.650823",
    "longitude": "-90.0583668572522",
    "latitude": "29.96867804258925",
    "geocoded_column": {
      "latitude": "29.96867804258925",
      "longitude": "-90.0583668572522"
    }
  },
  {
    "service_request": "2025-1180881",
    "request_type": "Trash/Recycling",
    "request_reason": "Order Second Trash Cart",
    "date_created": "2025-04-02T17:32:31.000",
    "date_modified": "2025-04-02T17:32:34.000",
    "request_status": "Pending",
    "responsible_agency": "Department of Sanitation",
    "final_address": "2025 St Claude Ave",
    "address_councildis": "C",
    "status": "Assigned to Contractor",
    "contractor": "IV Waste",
    "rowid": "1180881",
    "final_x": "3684519.2998",
    "final_y": "536347.650823",
    "longitude": "-90.0583668572522",
    "latitude": "29.96867804258925",
    "geocoded_column": {
      "latitude": "29.96867804258925",
      "longitude": "-90.0583668572522"
    }
  },
  {
    "service_request": "2025-1180880",
    "request_type": "Healthy Homes",
    "request_reason": "Healthy Homes",
    "date_created": "2025-04-02T17:18:55.000",
    "date_modified": "2025-04-02T17:18:57.000",
    "request_status": "Pending",
    "responsible_agency": "Department of Code Enforcement",
    "final_address": "2745 Audubon St",
    "address_councildis": "B",
    "status": "Pending",
    "rowid": "1180880",
    "final_x": "3667439.58663",
    "final_y": "530940.28877",
    "longitude": "-90.1124877041725",
    "latitude": "29.95432108472608",
    "geocoded_column": {
      "latitude": "29.95432108472608",
      "longitude": "-90.1124877041725"
    }
  },
  {
    "service_request": "2025-1180879",
    "request_type": "Abandoned Vehicles",
    "request_reason": "Abandoned/Junk Vehicles",
    "date_created": "2025-04-02T17:13:21.000",
    "date_modified": "2025-04-02T17:13:23.000",
    "request_status": "Pending",
    "responsible_agency": "Department of Public Works",
    "final_address": "3900 BLK Panama Ct",
    "address_councildis": "B",
    "status": "Pending",
    "rowid": "1180879",
    "final_x": "3668128.38746",
    "final_y": "530855.067015",
    "longitude": "-90.11031560981381",
    "latitude": "29.954066555347765",
    "geocoded_column": {
      "latitude": "29.954066555347765",
      "longitude": "-90.11031560981381"
    }
  },
  {
    "service_request": "2025-1180878",
    "request_type": "Property Maintenance",
    "request_reason": "Property Maintenance",
    "date_created": "2025-04-02T17:11:14.000",
    "date_modified": "2025-04-02T17:11:16.000",
    "request_status": "Pending",
    "responsible_agency": "Department of Code Enforcement",
    "final_address": "0 BLK Acadiana Pl",
    "address_councildis": "E",
    "status": "Pending",
    "rowid": "1180878",
    "final_x": "3725131.4083",
    "final_y": "564393.680055",
    "longitude": "-89.92902788187175",
    "latitude": "30.04448842646984",
    "geocoded_column": {
      "latitude": "30.04448842646984",
      "longitude": "-89.92902788187175"
    }
  },
  {
    "service_request": "2025-1180877",
    "request_type": "Trash/Recycling",
    "request_reason": "Replace Trash Cart",
    "date_created": "2025-04-02T17:05:10.000",
    "date_modified": "2025-04-02T17:05:12.000",
    "request_status": "Pending",
    "responsible_agency": "Department of Sanitation",
    "final_address": "2453 Madrid St",
    "address_councildis": "D",
    "status": "Assigned to Contractor",
    "contractor": "IV Waste",
    "rowid": "1180877",
    "final_x": "3685461.44726",
    "final_y": "555533.309657",
    "longitude": "-90.0547154044085",
    "latitude": "30.021402870972672",
    "geocoded_column": {
      "latitude": "30.021402870972672",
      "longitude": "-90.0547154044085"
    }
  },
  {
    "service_request": "2025-1180876",
    "request_type": "Roads and Streets",
    "request_reason": "Pothole",
    "date_created": "2025-04-02T16:58:27.000",
    "date_modified": "2025-04-02T16:58:29.000",
    "request_status": "Pending",
    "responsible_agency": "Department of Public Works",
    "final_address": "2418 Valence St",
    "address_councildis": "B",
    "status": "Pending",
    "rowid": "1180876",
    "final_x": "3669388.90113",
    "final_y": "523749.596795",
    "longitude": "-90.10657561302042",
    "latitude": "29.934491765938514",
    "geocoded_column": {
      "latitude": "29.934491765938514",
      "longitude": "-90.10657561302042"
    }
  },
  {
    "service_request": "2025-1180875",
    "request_type": "Streetlights",
    "request_reason": "Streetlight Outage/Malfunction",
    "date_created": "2025-04-02T16:58:12.000",
    "date_modified": "2025-04-02T16:58:14.000",
    "request_status": "Pending",
    "responsible_agency": "Department of Public Works",
    "final_address": "1301 L. B. Landry Ave",
    "address_councildis": "C",
    "status": "Pending",
    "contractor": "Legacy Professional Services",
    "rowid": "1180875",
    "final_x": "3690024.87363",
    "final_y": "526558.52083",
    "longitude": "-90.0413285788597",
    "latitude": "29.9415917310479",
    "geocoded_column": {
      "latitude": "29.9415917310479",
      "longitude": "-90.0413285788597"
    }
  },
  {
    "service_request": "2025-1180874",
    "request_type": "Trash/Recycling",
    "request_reason": "Request a Large Item Pick Up",
    "date_created": "2025-04-02T16:52:41.000",
    "date_modified": "2025-04-02T16:52:43.000",
    "request_status": "Pending",
    "responsible_agency": "Department of Sanitation",
    "final_address": "4626 Marigny St",
    "address_councildis": "D",
    "status": "Assigned to Contractor",
    "contractor": "IV Waste",
    "rowid": "1180874",
    "final_x": "3684379.48668",
    "final_y": "549654.663508",
    "longitude": "-90.0583407843333",
    "latitude": "30.005271893258648",
    "geocoded_column": {
      "latitude": "30.005271893258648",
      "longitude": "-90.0583407843333"
    }
  },
  {
    "service_request": "2025-1180873",
    "request_type": "Trash/Recycling",
    "request_reason": "Missed Trash Pick-Up",
    "date_created": "2025-04-02T16:48:08.000",
    "date_modified": "2025-04-02T16:48:09.000",
    "request_status": "Pending",
    "responsible_agency": "Department of Sanitation",
    "final_address": "3239 Gentilly Blvd",
    "address_councildis": "D",
    "status": "Assigned to Contractor",
    "contractor": "IV Waste",
    "rowid": "1180873",
    "final_x": "3684390.34172",
    "final_y": "547964.356882",
    "longitude": "-90.05836590917457",
    "latitude": "30.00062382751607",
    "geocoded_column": {
      "latitude": "30.00062382751607",
      "longitude": "-90.05836590917457"
    }
  },
  {
    "service_request": "2025-1180872",
    "request_type": "Abandoned Vehicles",
    "request_reason": "Abandoned/Junk Vehicles",
    "date_created": "2025-04-02T16:45:02.000",
    "date_modified": "2025-04-02T16:45:03.000",
    "request_status": "Pending",
    "responsible_agency": "Department of Public Works",
    "final_address": "0 BLK Acadiana Pl",
    "address_councildis": "E",
    "status": "Pending",
    "rowid": "1180872",
    "final_x": "3725131.4083",
    "final_y": "564393.680055",
    "longitude": "-89.92902788187175",
    "latitude": "30.04448842646984",
    "geocoded_column": {
      "latitude": "30.04448842646984",
      "longitude": "-89.92902788187175"
    }
  },
  {
    "service_request": "2025-1180871",
    "request_type": "Trash/Recycling",
    "request_reason": "Request a Large Item Pick Up",
    "date_created": "2025-04-02T16:44:20.000",
    "date_modified": "2025-04-02T16:44:21.000",
    "request_status": "Pending",
    "responsible_agency": "Department of Sanitation",
    "final_address": "2740 Potomac St",
    "address_councildis": "C",
    "status": "Assigned to Contractor",
    "contractor": "Richards Disposal",
    "rowid": "1180871",
    "final_x": "3692591.80374",
    "final_y": "519771.247672",
    "longitude": "-90.0334673925334",
    "latitude": "29.922849201061883",
    "geocoded_column": {
      "latitude": "29.922849201061883",
      "longitude": "-90.0334673925334"
    }
  },
  {
    "service_request": "2025-1180870",
    "request_type": "Traffic Signals",
    "request_reason": "Traffic Signal Malfunctioning or Damaged",
    "date_created": "2025-04-02T16:39:55.000",
    "date_modified": "2025-04-02T16:39:57.000",
    "request_status": "Pending",
    "responsible_agency": "Department of Public Works",
    "final_address": "1439 Filmore Ave",
    "address_councildis": "D",
    "status": "Pending",
    "rowid": "1180870",
    "final_x": "3677707.71157",
    "final_y": "551891.560726",
    "longitude": "-90.07934103172796",
    "latitude": "30.011625001084624",
    "geocoded_column": {
      "latitude": "30.011625001084624",
      "longitude": "-90.07934103172796"
    }
  },
  {
    "service_request": "2025-1180869",
    "request_type": "Drainage",
    "request_reason": "Catch Basin Clogged",
    "date_created": "2025-04-02T16:36:38.000",
    "date_modified": "2025-04-02T16:36:40.000",
    "request_status": "Pending",
    "responsible_agency": "Sewerage & Water Board ",
    "final_address": "1439 Filmore Ave",
    "address_councildis": "D",
    "status": "Pending",
    "rowid": "1180869",
    "final_x": "3677707.71157",
    "final_y": "551891.560726",
    "longitude": "-90.07934103172796",
    "latitude": "30.011625001084624",
    "geocoded_column": {
      "latitude": "30.011625001084624",
      "longitude": "-90.07934103172796"
    }
  },
  {
    "service_request": "2025-1180868",
    "request_type": "Trash/Recycling",
    "request_reason": "Request a Large Item Pick Up",
    "date_created": "2025-04-02T16:35:42.000",
    "date_modified": "2025-04-02T16:35:43.000",
    "request_status": "Pending",
    "responsible_agency": "Department of Sanitation",
    "final_address": "428 S Olympia St",
    "address_councildis": "A",
    "status": "Assigned to Contractor",
    "contractor": "IV Waste",
    "rowid": "1180868",
    "final_x": "3668533.90734",
    "final_y": "538407.864329",
    "longitude": "-90.10878026869892",
    "latitude": "29.974822333625113",
    "geocoded_column": {
      "latitude": "29.974822333625113",
      "longitude": "-90.10878026869892"
    }
  },
  {
    "service_request": "2025-1180867",
    "request_type": "Trash/Recycling",
    "request_reason": "Replace Recycling Cart",
    "date_created": "2025-04-02T16:34:30.000",
    "date_modified": "2025-04-02T16:34:32.000",
    "request_status": "Pending",
    "responsible_agency": "Department of Sanitation",
    "final_address": "1023 Desire St",
    "address_councildis": "C",
    "status": "Pending",
    "rowid": "1180867",
    "final_x": "3690152.76118",
    "final_y": "535446.75559",
    "longitude": "-90.04060822222704",
    "latitude": "29.966027337646153",
    "geocoded_column": {
      "latitude": "29.966027337646153",
      "longitude": "-90.04060822222704"
    }
  },
  {
    "service_request": "2025-1180866",
    "request_type": "Abandoned Vehicles",
    "request_reason": "Abandoned/Junk Vehicles",
    "date_created": "2025-04-02T16:33:55.000",
    "date_modified": "2025-04-02T16:33:56.000",
    "request_status": "Pending",
    "responsible_agency": "Department of Public Works",
    "final_address": "2016 N Rampart St",
    "address_councildis": "C",
    "status": "Pending",
    "rowid": "1180866",
    "final_x": "3684419.66197",
    "final_y": "535845.748551",
    "longitude": "-90.05869915065418",
    "latitude": "29.967301033255584",
    "geocoded_column": {
      "latitude": "29.967301033255584",
      "longitude": "-90.05869915065418"
    }
  },
  {
    "service_request": "2025-1180865",
    "request_type": "Streetlights",
    "request_reason": "Streetlight Knocked Down/Leaning",
    "date_created": "2025-04-02T16:33:24.000",
    "date_modified": "2025-04-02T16:33:26.000",
    "request_status": "Pending",
    "responsible_agency": "Department of Public Works",
    "final_address": "WILLOW ST & BROADWAY ST",
    "address_councildis": "A",
    "status": "Pending",
    "contractor": "Legacy Professional Services",
    "rowid": "1180865",
    "final_x": "3664542.8",
    "final_y": "527089.48",
    "longitude": "-90.12176321398",
    "latitude": "29.943817151500046",
    "geocoded_column": {
      "latitude": "29.943817151500046",
      "longitude": "-90.12176321398"
    }
  },
  {
    "service_request": "2025-1180864",
    "request_type": "Trash/Recycling",
    "request_reason": "Missed Trash Pick-Up",
    "date_created": "2025-04-02T16:28:52.000",
    "date_modified": "2025-04-02T16:28:53.000",
    "request_status": "Pending",
    "responsible_agency": "Department of Sanitation",
    "final_address": "6224 York St",
    "address_councildis": "A",
    "status": "Assigned to Contractor",
    "contractor": "IV Waste",
    "rowid": "1180864",
    "final_x": "3667677.82823",
    "final_y": "529008.88192",
    "longitude": "-90.11180044413365",
    "latitude": "29.949003364205133",
    "geocoded_column": {
      "latitude": "29.949003364205133",
      "longitude": "-90.11180044413365"
    }
  },
  {
    "service_request": "2025-1180863",
    "request_type": "Trash/Recycling",
    "request_reason": "Order Trash Cart",
    "date_created": "2025-04-02T16:27:23.000",
    "date_modified": "2025-04-02T16:27:25.000",
    "request_status": "Pending",
    "responsible_agency": "Department of Sanitation",
    "final_address": "5560 Maple Ridge Dr",
    "address_councildis": "E",
    "status": "Assigned to Contractor",
    "contractor": "Waste Pro",
    "rowid": "1180863",
    "final_x": "3724370.56774",
    "final_y": "563985.516577",
    "longitude": "-89.93144823422779",
    "latitude": "30.043391763074496",
    "geocoded_column": {
      "latitude": "30.043391763074496",
      "longitude": "-89.93144823422779"
    }
  },
  {
    "service_request": "2025-1180862",
    "request_type": "Trash/Recycling",
    "request_reason": "Request a Large Item Pick Up",
    "date_created": "2025-04-02T16:27:11.000",
    "date_modified": "2025-04-02T16:27:12.000",
    "request_status": "Pending",
    "responsible_agency": "Department of Sanitation",
    "final_address": "4608 Francis Dr",
    "address_councildis": "D",
    "status": "Assigned to Contractor",
    "contractor": "Waste Pro",
    "rowid": "1180862",
    "final_x": "3698263.16919",
    "final_y": "553583.717207",
    "longitude": "-90.01433661100569",
    "latitude": "30.015643228584963",
    "geocoded_column": {
      "latitude": "30.015643228584963",
      "longitude": "-90.01433661100569"
    }
  },
  {
    "service_request": "2025-1180861",
    "request_type": "Trash/Recycling",
    "request_reason": "Request a Large Item Pick Up",
    "date_created": "2025-04-02T16:26:12.000",
    "date_modified": "2025-04-02T16:26:17.000",
    "request_status": "Pending",
    "responsible_agency": "Department of Sanitation",
    "final_address": "5560 Maple Ridge Dr",
    "address_councildis": "E",
    "status": "Assigned to Contractor",
    "contractor": "Waste Pro",
    "rowid": "1180861",
    "final_x": "3724370.56774",
    "final_y": "563985.516577",
    "longitude": "-89.93144823422779",
    "latitude": "30.043391763074496",
    "geocoded_column": {
      "latitude": "30.043391763074496",
      "longitude": "-89.93144823422779"
    }
  },
  {
    "service_request": "2025-1180860",
    "request_type": "Property Maintenance",
    "request_reason": "Property Maintenance",
    "date_created": "2025-04-02T16:25:18.000",
    "date_modified": "2025-04-02T16:26:04.000",
    "request_status": "Pending",
    "responsible_agency": "Department of Code Enforcement",
    "final_address": "601 Congress St",
    "address_councildis": "C",
    "status": "Pending",
    "rowid": "1180860",
    "final_x": "3690301.23337",
    "final_y": "533745.181701",
    "longitude": "-90.04019999524186",
    "latitude": "29.96134399784388",
    "geocoded_column": {
      "latitude": "29.96134399784388",
      "longitude": "-90.04019999524186"
    }
  },
  {
    "service_request": "2025-1180859",
    "request_type": "Drainage",
    "request_reason": "Street Flooding",
    "date_created": "2025-04-02T16:24:06.000",
    "date_modified": "2025-04-02T16:24:08.000",
    "request_status": "Pending",
    "responsible_agency": "Sewerage & Water Board ",
    "final_address": "1350 Bourbon St",
    "address_councildis": "C",
    "status": "Pending",
    "rowid": "1180859",
    "final_x": "3683700.26441",
    "final_y": "534514.026181",
    "longitude": "-90.06101771273805",
    "latitude": "29.963661240674625",
    "geocoded_column": {
      "latitude": "29.963661240674625",
      "longitude": "-90.06101771273805"
    }
  },
  {
    "service_request": "2025-1180858",
    "request_type": "Parks & Parkways",
    "request_reason": "Request Tree Service (Right of Way/Public Property)",
    "date_created": "2025-04-02T16:22:22.000",
    "date_modified": "2025-04-02T16:22:23.000",
    "request_status": "Pending",
    "responsible_agency": "Department of Parks & Parkway",
    "final_address": "7701 Hickman St",
    "address_councildis": "E",
    "status": "Pending",
    "rowid": "1180858",
    "final_x": "3706111.6291",
    "final_y": "563527.04144",
    "longitude": "-89.98917072657608",
    "latitude": "30.04273273345314",
    "geocoded_column": {
      "latitude": "30.04273273345314",
      "longitude": "-89.98917072657608"
    }
  },
  {
    "service_request": "2025-1180857",
    "request_type": "Trash/Recycling",
    "request_reason": "Request a Large Item Pick Up",
    "date_created": "2025-04-02T16:21:28.000",
    "date_modified": "2025-04-02T16:21:29.000",
    "request_status": "Pending",
    "responsible_agency": "Department of Sanitation",
    "final_address": "4320 S Liberty St",
    "address_councildis": "B",
    "status": "Assigned to Contractor",
    "contractor": "IV Waste",
    "rowid": "1180857",
    "final_x": "3670847.39028",
    "final_y": "523329.802235",
    "longitude": "-90.10198542885165",
    "latitude": "29.933294449843462",
    "geocoded_column": {
      "latitude": "29.933294449843462",
      "longitude": "-90.10198542885165"
    }
  },
  {
    "service_request": "2025-1180856",
    "request_type": "Drainage",
    "request_reason": "Catch Basin Clogged",
    "date_created": "2025-04-02T16:20:39.000",
    "date_modified": "2025-04-02T16:20:41.000",
    "request_status": "Pending",
    "responsible_agency": "Sewerage & Water Board ",
    "final_address": "1350 Bourbon St",
    "address_councildis": "C",
    "status": "Pending",
    "rowid": "1180856",
    "final_x": "3683700.26441",
    "final_y": "534514.026181",
    "longitude": "-90.06101771273805",
    "latitude": "29.963661240674625",
    "geocoded_column": {
      "latitude": "29.963661240674625",
      "longitude": "-90.06101771273805"
    }
  },
  {
    "service_request": "2025-1180855",
    "request_type": "Trash/Recycling",
    "request_reason": "Missed Trash Pick-Up",
    "date_created": "2025-04-02T16:19:49.000",
    "date_modified": "2025-04-02T16:19:52.000",
    "request_status": "Pending",
    "responsible_agency": "Department of Sanitation",
    "final_address": "620 Opelousas Ave Apt 205",
    "address_councildis": "C",
    "status": "Assigned to Contractor",
    "contractor": "Richards Disposal",
    "rowid": "1180855",
    "final_x": "3687453.75663",
    "final_y": "529243.882433",
    "longitude": "-90.04935108553944",
    "latitude": "29.9490550266023",
    "geocoded_column": {
      "latitude": "29.9490550266023",
      "longitude": "-90.04935108553944"
    }
  },
  {
    "service_request": "2025-1180854",
    "request_type": "Drainage",
    "request_reason": "Catch Basin Clogged",
    "date_created": "2025-04-02T16:17:35.000",
    "date_modified": "2025-04-02T16:17:36.000",
    "request_status": "Pending",
    "responsible_agency": "Sewerage & Water Board ",
    "final_address": "1326 Josephine St",
    "address_councildis": "B",
    "status": "Pending",
    "rowid": "1180854",
    "final_x": "3678541.05019",
    "final_y": "523066.036411",
    "longitude": "-90.07770614436996",
    "latitude": "29.932339601023358",
    "geocoded_column": {
      "latitude": "29.932339601023358",
      "longitude": "-90.07770614436996"
    }
  },
  {
    "service_request": "2025-1180853",
    "request_type": "Trash/Recycling",
    "request_reason": "Request a Large Item Pick Up",
    "date_created": "2025-04-02T16:16:25.000",
    "date_modified": "2025-04-02T16:16:27.000",
    "request_status": "Pending",
    "responsible_agency": "Department of Sanitation",
    "final_address": "7731 Shubert St",
    "address_councildis": "E",
    "status": "Assigned to Contractor",
    "contractor": "Waste Pro",
    "rowid": "1180853",
    "final_x": "3695670.96861",
    "final_y": "559212.648092",
    "longitude": "-90.02232325685563",
    "latitude": "30.03120244653476",
    "geocoded_column": {
      "latitude": "30.03120244653476",
      "longitude": "-90.02232325685563"
    }
  },
  {
    "service_request": "2025-1180852",
    "request_type": "General Services",
    "request_reason": "General Service Request",
    "date_created": "2025-04-02T16:15:17.000",
    "date_modified": "2025-04-02T16:21:44.000",
    "case_close_date": "2025-04-02T11:21:43.000",
    "request_status": "Closed",
    "responsible_agency": "Orleans Parish Communication District",
    "final_address": "3601 Conti St",
    "address_councildis": "B",
    "status": "Question Answered.",
    "rowid": "1180852",
    "final_x": "3673355.81339",
    "final_y": "538436.863433",
    "longitude": "-90.09355045873869",
    "latitude": "29.974759496447952",
    "geocoded_column": {
      "latitude": "29.974759496447952",
      "longitude": "-90.09355045873869"
    }
  },
  {
    "service_request": "2025-1180851",
    "request_type": "Trash/Recycling",
    "request_reason": "Repair Trash Cart",
    "date_created": "2025-04-02T16:14:45.000",
    "date_modified": "2025-04-02T16:14:46.000",
    "request_status": "Pending",
    "responsible_agency": "Department of Sanitation",
    "final_address": "4107 Elba St",
    "address_councildis": "B",
    "status": "Assigned to Contractor",
    "contractor": "IV Waste",
    "rowid": "1180851",
    "final_x": "3670601.29044",
    "final_y": "529964.734081",
    "longitude": "-90.10253736188432",
    "latitude": "29.95154562461931",
    "geocoded_column": {
      "latitude": "29.95154562461931",
      "longitude": "-90.10253736188432"
    }
  },
  {
    "service_request": "2025-1180850",
    "request_type": "Trash/Recycling",
    "request_reason": "Request a Large Item Pick Up",
    "date_created": "2025-04-02T16:11:22.000",
    "date_modified": "2025-04-02T16:11:23.000",
    "request_status": "Pending",
    "responsible_agency": "Department of Sanitation",
    "final_address": "3609 Iberville St",
    "address_councildis": "B",
    "status": "Assigned to Contractor",
    "contractor": "IV Waste",
    "rowid": "1180850",
    "final_x": "3672806.27118",
    "final_y": "537632.047112",
    "longitude": "-90.09531351644901",
    "latitude": "29.972562862314856",
    "geocoded_column": {
      "latitude": "29.972562862314856",
      "longitude": "-90.09531351644901"
    }
  },
  {
    "service_request": "2025-1180849",
    "request_type": "Drainage",
    "request_reason": "Catch Basin Clogged",
    "date_created": "2025-04-02T16:09:43.000",
    "date_modified": "2025-04-02T16:09:45.000",
    "request_status": "Pending",
    "responsible_agency": "Sewerage & Water Board ",
    "final_address": "1301 Jackson Ave",
    "address_councildis": "B",
    "status": "Pending",
    "rowid": "1180849",
    "final_x": "3678427.34229",
    "final_y": "522733.803642",
    "longitude": "-90.07807659957138",
    "latitude": "29.931429495457124",
    "geocoded_column": {
      "latitude": "29.931429495457124",
      "longitude": "-90.07807659957138"
    }
  },
  {
    "service_request": "2025-1180848",
    "request_type": "Trash/Recycling",
    "request_reason": "Repair Trash Cart",
    "date_created": "2025-04-02T16:06:38.000",
    "date_modified": "2025-04-02T16:06:40.000",
    "request_status": "Pending",
    "responsible_agency": "Department of Sanitation",
    "final_address": "3211 Gravier St",
    "address_councildis": "B",
    "status": "Assigned to Contractor",
    "contractor": "IV Waste",
    "rowid": "1180848",
    "final_x": "3672254.57204",
    "final_y": "534327.491525",
    "longitude": "-90.09716847599354",
    "latitude": "29.963492824470087",
    "geocoded_column": {
      "latitude": "29.963492824470087",
      "longitude": "-90.09716847599354"
    }
  },
  {
    "service_request": "2025-1180847",
    "request_type": "Trash/Recycling",
    "request_reason": "Replace Recycling Cart",
    "date_created": "2025-04-02T16:04:51.000",
    "date_modified": "2025-04-02T16:04:53.000",
    "request_status": "Pending",
    "responsible_agency": "Department of Sanitation",
    "final_address": "5125 Paris Ave",
    "address_councildis": "D",
    "status": "Pending",
    "rowid": "1180847",
    "final_x": "3679341.28731",
    "final_y": "551305.489877",
    "longitude": "-90.07420023232005",
    "latitude": "30.00996425887031",
    "geocoded_column": {
      "latitude": "30.00996425887031",
      "longitude": "-90.07420023232005"
    }
  },
  {
    "service_request": "2025-1180846",
    "request_type": "Trash/Recycling",
    "request_reason": "Replace Trash Cart",
    "date_created": "2025-04-02T16:04:03.000",
    "date_modified": "2025-04-02T16:04:04.000",
    "request_status": "Pending",
    "responsible_agency": "Department of Sanitation",
    "final_address": "5125 Paris Ave",
    "address_councildis": "D",
    "status": "Assigned to Contractor",
    "contractor": "IV Waste",
    "rowid": "1180846",
    "final_x": "3679341.28731",
    "final_y": "551305.489877",
    "longitude": "-90.07420023232005",
    "latitude": "30.00996425887031",
    "geocoded_column": {
      "latitude": "30.00996425887031",
      "longitude": "-90.07420023232005"
    }
  },
  {
    "service_request": "2025-1180845",
    "request_type": "Trash/Recycling",
    "request_reason": "Repair Trash Cart",
    "date_created": "2025-04-02T16:04:02.000",
    "date_modified": "2025-04-02T16:04:04.000",
    "request_status": "Pending",
    "responsible_agency": "Department of Sanitation",
    "final_address": "622 N St Patrick St",
    "address_councildis": "A",
    "status": "Assigned to Contractor",
    "contractor": "IV Waste",
    "rowid": "1180845",
    "final_x": "3670344.06286",
    "final_y": "541390.962828",
    "longitude": "-90.10296216297091",
    "latitude": "29.982971526666176",
    "geocoded_column": {
      "latitude": "29.982971526666176",
      "longitude": "-90.10296216297091"
    }
  },
  {
    "service_request": "2025-1180844",
    "request_type": "Trash/Recycling",
    "request_reason": "Repair Trash Cart",
    "date_created": "2025-04-02T16:02:42.000",
    "date_modified": "2025-04-02T16:02:44.000",
    "request_status": "Pending",
    "responsible_agency": "Department of Sanitation",
    "final_address": "620 N St Patrick St",
    "address_councildis": "A",
    "status": "Assigned to Contractor",
    "contractor": "IV Waste",
    "rowid": "1180844",
    "final_x": "3670332.46042",
    "final_y": "541373.788684",
    "longitude": "-90.10299939193247",
    "latitude": "29.982924646178514",
    "geocoded_column": {
      "latitude": "29.982924646178514",
      "longitude": "-90.10299939193247"
    }
  },
  {
    "service_request": "2025-1180843",
    "request_type": "Trash/Recycling",
    "request_reason": "Request a Large Item Pick Up",
    "date_created": "2025-04-02T16:02:10.000",
    "date_modified": "2025-04-02T16:02:14.000",
    "request_status": "Pending",
    "responsible_agency": "Department of Sanitation",
    "final_address": "3818 Delachaise St",
    "address_councildis": "B",
    "status": "Assigned to Contractor",
    "contractor": "IV Waste",
    "rowid": "1180843",
    "final_x": "3671028.13953",
    "final_y": "528744.834112",
    "longitude": "-90.10123099454022",
    "latitude": "29.948178686146218",
    "geocoded_column": {
      "latitude": "29.948178686146218",
      "longitude": "-90.10123099454022"
    }
  },
  {
    "service_request": "2025-1180842",
    "request_type": "Property Maintenance",
    "request_reason": "Property Maintenance",
    "date_created": "2025-04-02T16:01:59.000",
    "date_modified": "2025-04-02T16:02:01.000",
    "request_status": "Pending",
    "responsible_agency": "Department of Code Enforcement",
    "final_address": "1450 Josephine St",
    "address_councildis": "B",
    "status": "Pending",
    "rowid": "1180842",
    "final_x": "3678247.27253",
    "final_y": "523444.999739",
    "longitude": "-90.07862047326248",
    "latitude": "29.933390474531205",
    "geocoded_column": {
      "latitude": "29.933390474531205",
      "longitude": "-90.07862047326248"
    }
  },
  {
    "service_request": "2025-1180841",
    "request_type": "Trash/Recycling",
    "request_reason": "Request a Large Item Pick Up",
    "date_created": "2025-04-02T16:01:26.000",
    "date_modified": "2025-04-02T16:01:28.000",
    "request_status": "Pending",
    "responsible_agency": "Department of Sanitation",
    "final_address": "4665 Dart St",
    "address_councildis": "B",
    "status": "Assigned to Contractor",
    "contractor": "IV Waste",
    "rowid": "1180841",
    "final_x": "3668830.38926",
    "final_y": "531865.012035",
    "longitude": "-90.10806486523028",
    "latitude": "29.95682295076294",
    "geocoded_column": {
      "latitude": "29.95682295076294",
      "longitude": "-90.10806486523028"
    }
  },
  {
    "service_request": "2025-1180840",
    "request_type": "Parks & Parkways",
    "request_reason": "Request Tree Service (Right of Way/Public Property)",
    "date_created": "2025-04-02T16:00:05.000",
    "date_modified": "2025-04-02T16:00:06.000",
    "request_status": "Pending",
    "responsible_agency": "Department of Parks & Parkway",
    "final_address": "5859 Memphis St",
    "address_councildis": "A",
    "status": "Pending",
    "rowid": "1180840",
    "final_x": "3669193.653",
    "final_y": "546347.458",
    "longitude": "-90.10642812719522",
    "latitude": "29.99663410605",
    "geocoded_column": {
      "latitude": "29.99663410605",
      "longitude": "-90.10642812719522"
    }
  },
  {
    "service_request": "2025-1180839",
    "request_type": "Parks & Parkways",
    "request_reason": "Request Tree Service (Right of Way/Public Property)",
    "date_created": "2025-04-02T15:59:59.000",
    "date_modified": "2025-04-02T16:00:05.000",
    "request_status": "Pending",
    "responsible_agency": "Department of Parks & Parkway",
    "final_address": "3718 Gentilly Blvd",
    "address_councildis": "D",
    "status": "Pending",
    "rowid": "1180839",
    "final_x": "3687162.05449",
    "final_y": "548762.998803",
    "longitude": "-90.04958163390052",
    "latitude": "30.002734711447655",
    "geocoded_column": {
      "latitude": "30.002734711447655",
      "longitude": "-90.04958163390052"
    }
  },
  {
    "service_request": "2025-1180838",
    "request_type": "Traffic Signals",
    "request_reason": "Traffic Signal Malfunctioning or Damaged",
    "date_created": "2025-04-02T15:59:20.000",
    "date_modified": "2025-04-02T15:59:22.000",
    "request_status": "Pending",
    "responsible_agency": "Department of Public Works",
    "final_address": "GENERAL MEYER AVE & WOODLAND DR & WOODLAND PL",
    "address_councildis": "C",
    "status": "Pending",
    "rowid": "1180838",
    "final_x": "3705605.3",
    "final_y": "521490.58",
    "longitude": "-89.99232571732016",
    "latitude": "29.92716442391466",
    "geocoded_column": {
      "latitude": "29.92716442391466",
      "longitude": "-89.99232571732016"
    }
  },
  {
    "service_request": "2025-1180837",
    "request_type": "Streetlights",
    "request_reason": "Streetlight Outage/Malfunction",
    "date_created": "2025-04-02T15:55:29.000",
    "date_modified": "2025-04-02T15:55:30.000",
    "request_status": "Pending",
    "responsible_agency": "Department of Public Works",
    "final_address": "15030 Curran Rd",
    "address_councildis": "E",
    "status": "Pending",
    "contractor": "Legacy Professional Services",
    "rowid": "1180837",
    "final_x": "3721017.11846",
    "final_y": "574262.008106",
    "longitude": "-89.94165195149267",
    "latitude": "30.07176020987764",
    "geocoded_column": {
      "latitude": "30.07176020987764",
      "longitude": "-89.94165195149267"
    }
  },
  {
    "service_request": "2025-1180836",
    "request_type": "Trash/Recycling",
    "request_reason": "Illegal Dumping",
    "date_created": "2025-04-02T15:54:37.000",
    "date_modified": "2025-04-02T15:54:39.000",
    "request_status": "Pending",
    "responsible_agency": "Department of Sanitation",
    "final_address": "17600 Paris Rd",
    "address_councildis": "E",
    "status": "Pending",
    "rowid": "1180836",
    "final_x": "3721049.61516",
    "final_y": "574670.481579",
    "longitude": "-89.94153353534014",
    "latitude": "30.07288225329255",
    "geocoded_column": {
      "latitude": "30.07288225329255",
      "longitude": "-89.94153353534014"
    }
  },
  {
    "service_request": "2025-1180835",
    "request_type": "Abandoned Vehicles",
    "request_reason": "Abandoned/Junk Vehicles",
    "date_created": "2025-04-02T15:54:29.000",
    "date_modified": "2025-04-02T15:54:31.000",
    "request_status": "Pending",
    "responsible_agency": "Department of Public Works",
    "final_address": "1735 Short St",
    "address_councildis": "A",
    "status": "Pending",
    "rowid": "1180835",
    "final_x": "3663703.23911",
    "final_y": "529550.163457",
    "longitude": "-90.12433197391621",
    "latitude": "29.950607622898126",
    "geocoded_column": {
      "latitude": "29.950607622898126",
      "longitude": "-90.12433197391621"
    }
  },
  {
    "service_request": "2025-1180834",
    "request_type": "Streetlights",
    "request_reason": "Streetlight Outage/Malfunction",
    "date_created": "2025-04-02T15:51:29.000",
    "date_modified": "2025-04-02T15:51:30.000",
    "request_status": "Pending",
    "responsible_agency": "Department of Public Works",
    "final_address": "3000 St Philip St",
    "address_councildis": "A",
    "status": "Pending",
    "contractor": "Legacy Professional Services",
    "rowid": "1180834",
    "final_x": "3676375.51035",
    "final_y": "538592.843529",
    "longitude": "-90.08400812288387",
    "latitude": "29.97509820409866",
    "geocoded_column": {
      "latitude": "29.97509820409866",
      "longitude": "-90.08400812288387"
    }
  },
  {
    "service_request": "2025-1180833",
    "request_type": "Trash/Recycling",
    "request_reason": "Request a Large Item Pick Up",
    "date_created": "2025-04-02T15:49:41.000",
    "date_modified": "2025-04-02T15:49:42.000",
    "request_status": "Pending",
    "responsible_agency": "Department of Sanitation",
    "final_address": "14311 Sai Gon Dr",
    "address_councildis": "E",
    "status": "Assigned to Contractor",
    "contractor": "Waste Pro",
    "rowid": "1180833",
    "final_x": "3729639.65536",
    "final_y": "563055.20752",
    "longitude": "-89.91483235429105",
    "latitude": "30.040655495786627",
    "geocoded_column": {
      "latitude": "30.040655495786627",
      "longitude": "-89.91483235429105"
    }
  },
  {
    "service_request": "2025-1180832",
    "request_type": "Property Maintenance",
    "request_reason": "Property Maintenance",
    "date_created": "2025-04-02T15:47:42.000",
    "date_modified": "2025-04-02T15:47:43.000",
    "request_status": "Pending",
    "responsible_agency": "Department of Code Enforcement",
    "final_address": "5100 BLK Eastern St",
    "address_councildis": "D",
    "status": "Pending",
    "rowid": "1180832",
    "final_x": "3687900.39614",
    "final_y": "552000.502742",
    "longitude": "-90.04713431359501",
    "latitude": "30.011613898362143",
    "geocoded_column": {
      "latitude": "30.011613898362143",
      "longitude": "-90.04713431359501"
    }
  },
  {
    "service_request": "2025-1180831",
    "request_type": "Trash/Recycling",
    "request_reason": "Request a Large Item Pick Up",
    "date_created": "2025-04-02T15:46:19.000",
    "date_modified": "2025-04-02T15:46:20.000",
    "request_status": "Pending",
    "responsible_agency": "Department of Sanitation",
    "final_address": "1526 Music St",
    "address_councildis": "C",
    "status": "Assigned to Contractor",
    "contractor": "IV Waste",
    "rowid": "1180831",
    "final_x": "3686678.61769",
    "final_y": "538144.768969",
    "longitude": "-90.05148413320353",
    "latitude": "29.973553247972845",
    "geocoded_column": {
      "latitude": "29.973553247972845",
      "longitude": "-90.05148413320353"
    }
  },
  {
    "service_request": "2025-1180830",
    "request_type": "Trash/Recycling",
    "request_reason": "Request a Large Item Pick Up",
    "date_created": "2025-04-02T15:40:04.000",
    "date_modified": "2025-04-02T15:40:06.000",
    "request_status": "Pending",
    "responsible_agency": "Department of Sanitation",
    "final_address": "8522 Fordham Ct",
    "address_councildis": "E",
    "status": "Assigned to Contractor",
    "contractor": "Waste Pro",
    "rowid": "1180830",
    "final_x": "3704942.55742",
    "final_y": "560224.710877",
    "longitude": "-89.99298751687205",
    "latitude": "30.033690282030165",
    "geocoded_column": {
      "latitude": "30.033690282030165",
      "longitude": "-89.99298751687205"
    }
  },
  {
    "service_request": "2025-1180829",
    "request_type": "Trash/Recycling",
    "request_reason": "Request a Large Item Pick Up",
    "date_created": "2025-04-02T15:31:47.000",
    "date_modified": "2025-04-02T15:31:50.000",
    "request_status": "Pending",
    "responsible_agency": "Department of Sanitation",
    "final_address": "7 Marlborough Gate Pl",
    "address_councildis": "B",
    "status": "Assigned to Contractor",
    "contractor": "IV Waste",
    "rowid": "1180829",
    "final_x": "3669013.66894",
    "final_y": "523789.163259",
    "longitude": "-90.10775887941415",
    "latitude": "29.934611601956675",
    "geocoded_column": {
      "latitude": "29.934611601956675",
      "longitude": "-90.10775887941415"
    }
  },
  {
    "service_request": "2025-1180828",
    "request_type": "Trash/Recycling",
    "request_reason": "MIssed Recycling Pick-Up",
    "date_created": "2025-04-02T15:28:08.000",
    "date_modified": "2025-04-02T15:28:10.000",
    "request_status": "Pending",
    "responsible_agency": "Department of Sanitation",
    "final_address": "11218 Curran Rd",
    "address_councildis": "E",
    "status": "Assigned to Contractor",
    "contractor": "Waste Pro",
    "rowid": "1180828",
    "final_x": "3711024.90577",
    "final_y": "566383.622627",
    "longitude": "-89.97353581347413",
    "latitude": "30.050427786009813",
    "geocoded_column": {
      "latitude": "30.050427786009813",
      "longitude": "-89.97353581347413"
    }
  },
  {
    "service_request": "2025-1180827",
    "request_type": "Trash/Recycling",
    "request_reason": "Request a Large Item Pick Up",
    "date_created": "2025-04-02T15:25:06.000",
    "date_modified": "2025-04-02T15:25:07.000",
    "request_status": "Pending",
    "responsible_agency": "Department of Sanitation",
    "final_address": "4054 Fairmont Dr",
    "address_councildis": "D",
    "status": "Assigned to Contractor",
    "contractor": "IV Waste",
    "rowid": "1180827",
    "final_x": "3684584.4029",
    "final_y": "547300.264721",
    "longitude": "-90.05777621171484",
    "latitude": "29.998791874033913",
    "geocoded_column": {
      "latitude": "29.998791874033913",
      "longitude": "-90.05777621171484"
    }
  },
  {
    "service_request": "2025-1180826",
    "request_type": "Trash/Recycling",
    "request_reason": "Request a Large Item Pick Up",
    "date_created": "2025-04-02T15:24:29.000",
    "date_modified": "2025-04-02T15:24:30.000",
    "request_status": "Pending",
    "responsible_agency": "Department of Sanitation",
    "final_address": "6017 Chartres St",
    "address_councildis": "E",
    "status": "Assigned to Contractor",
    "contractor": "Waste Pro",
    "rowid": "1180826",
    "final_x": "3698597.9466",
    "final_y": "531681.635139",
    "longitude": "-90.01407560934719",
    "latitude": "29.955409912387754",
    "geocoded_column": {
      "latitude": "29.955409912387754",
      "longitude": "-90.01407560934719"
    }
  },
  {
    "service_request": "2025-1180825",
    "request_type": "Utility Poles",
    "request_reason": "Utility Pole Down",
    "date_created": "2025-04-02T15:23:15.000",
    "date_modified": "2025-04-02T15:23:17.000",
    "request_status": "Pending",
    "responsible_agency": "Utility Company Collective",
    "final_address": "CITY PARK AVE & CANAL BLVD",
    "address_councildis": "A",
    "status": "Pending",
    "rowid": "1180825",
    "final_x": "3667986.9",
    "final_y": "541076.58",
    "longitude": "-90.11041790697185",
    "latitude": "29.982176465066654",
    "geocoded_column": {
      "latitude": "29.982176465066654",
      "longitude": "-90.11041790697185"
    }
  },
  {
    "service_request": "2025-1180824",
    "request_type": "Abandoned Vehicles",
    "request_reason": "Abandoned/Junk Vehicles",
    "date_created": "2025-04-02T15:21:42.000",
    "date_modified": "2025-04-02T15:21:44.000",
    "request_status": "Pending",
    "responsible_agency": "Department of Public Works",
    "final_address": "825 N Roman St",
    "address_councildis": "D",
    "status": "Pending",
    "rowid": "1180824",
    "final_x": "3679515.7796",
    "final_y": "535516.489094",
    "longitude": "-90.07419710206243",
    "latitude": "29.966544767236204",
    "geocoded_column": {
      "latitude": "29.966544767236204",
      "longitude": "-90.07419710206243"
    }
  },
  {
    "service_request": "2025-1180823",
    "request_type": "Traffic Signals",
    "request_reason": "Traffic Signal Malfunctioning or Damaged",
    "date_created": "2025-04-02T15:20:37.000",
    "date_modified": "2025-04-02T15:20:39.000",
    "request_status": "Pending",
    "responsible_agency": "Department of Public Works",
    "final_address": "FOUNDERS RD & LEON C SIMON DR",
    "address_councildis": "D",
    "status": "Pending",
    "rowid": "1180823",
    "final_x": "3681059.2",
    "final_y": "556318.48",
    "longitude": "-90.06859791113672",
    "latitude": "30.023696139297975",
    "geocoded_column": {
      "latitude": "30.023696139297975",
      "longitude": "-90.06859791113672"
    }
  },
  {
    "service_request": "2025-1180822",
    "request_type": "Trash/Recycling",
    "request_reason": "Return Trash Cart",
    "date_created": "2025-04-02T15:14:57.000",
    "date_modified": "2025-04-02T15:15:02.000",
    "request_status": "Pending",
    "responsible_agency": "Department of Sanitation",
    "final_address": "1410 Governor Nicholls St",
    "address_councildis": "C",
    "status": "Assigned to Contractor",
    "contractor": "IV Waste",
    "rowid": "1180822",
    "final_x": "3681605.05589",
    "final_y": "535523.858886",
    "longitude": "-90.06759893709368",
    "latitude": "29.96650173807345",
    "geocoded_column": {
      "latitude": "29.96650173807345",
      "longitude": "-90.06759893709368"
    }
  },
  {
    "service_request": "2025-1180821",
    "request_type": "Trash/Recycling",
    "request_reason": "Request a Large Item Pick Up",
    "date_created": "2025-04-02T15:14:40.000",
    "date_modified": "2025-04-02T15:14:42.000",
    "request_status": "Pending",
    "responsible_agency": "Department of Sanitation",
    "final_address": "3811 General Pershing St",
    "address_councildis": "B",
    "status": "Assigned to Contractor",
    "contractor": "IV Waste",
    "rowid": "1180821",
    "final_x": "3670523.12622",
    "final_y": "528657.647616",
    "longitude": "-90.10282848818947",
    "latitude": "29.94795387372545",
    "geocoded_column": {
      "latitude": "29.94795387372545",
      "longitude": "-90.10282848818947"
    }
  },
  {
    "service_request": "2025-1180820",
    "request_type": "Trash/Recycling",
    "request_reason": "Order Trash Cart",
    "date_created": "2025-04-02T15:12:07.000",
    "date_modified": "2025-04-02T15:12:12.000",
    "request_status": "Pending",
    "responsible_agency": "Department of Sanitation",
    "final_address": "4121 Magazine St",
    "address_councildis": "B",
    "status": "Assigned to Contractor",
    "contractor": "IV Waste",
    "rowid": "1180820",
    "final_x": "3671961.82324",
    "final_y": "518922.095735",
    "longitude": "-90.09861716739871",
    "latitude": "29.92114169347312",
    "geocoded_column": {
      "latitude": "29.92114169347312",
      "longitude": "-90.09861716739871"
    }
  },
  {
    "service_request": "2025-1180819",
    "request_type": "Parks & Parkways",
    "request_reason": "Request Tree Service (Right of Way/Public Property)",
    "date_created": "2025-04-02T15:11:47.000",
    "date_modified": "2025-04-02T15:11:49.000",
    "request_status": "Pending",
    "responsible_agency": "Department of Parks & Parkway",
    "final_address": "4172 Bienville Ave",
    "address_councildis": "A",
    "status": "Pending",
    "rowid": "1180819",
    "final_x": "3671079.19719",
    "final_y": "539261.803018",
    "longitude": "-90.10071257146589",
    "latitude": "29.977095336037312",
    "geocoded_column": {
      "latitude": "29.977095336037312",
      "longitude": "-90.10071257146589"
    }
  },
  {
    "service_request": "2025-1180818",
    "request_type": "Parks & Parkways",
    "request_reason": "Request Tree Service (Right of Way/Public Property)",
    "date_created": "2025-04-02T15:11:42.000",
    "date_modified": "2025-04-02T15:11:44.000",
    "request_status": "Pending",
    "responsible_agency": "Department of Parks & Parkway",
    "final_address": "5015 Magazine St",
    "address_councildis": "B",
    "status": "Pending",
    "rowid": "1180818",
    "final_x": "3668508.33281",
    "final_y": "518688.399159",
    "longitude": "-90.1095262074521",
    "latitude": "29.920600975251716",
    "geocoded_column": {
      "latitude": "29.920600975251716",
      "longitude": "-90.1095262074521"
    }
  },
  {
    "service_request": "2025-1180817",
    "request_type": "Property Maintenance",
    "request_reason": "Property Maintenance",
    "date_created": "2025-04-02T15:09:57.000",
    "date_modified": "2025-04-02T15:09:58.000",
    "request_status": "Pending",
    "responsible_agency": "Department of Code Enforcement",
    "final_address": "1107 Louisa St",
    "address_councildis": "C",
    "status": "Pending",
    "rowid": "1180817",
    "final_x": "3689624.65839",
    "final_y": "535988.174855",
    "longitude": "-90.0422566863142",
    "latitude": "29.96753242282984",
    "geocoded_column": {
      "latitude": "29.96753242282984",
      "longitude": "-90.0422566863142"
    }
  },
  {
    "service_request": "2025-1180816",
    "request_type": "Trash/Recycling",
    "request_reason": "Request a Large Item Pick Up",
    "date_created": "2025-04-02T15:09:16.000",
    "date_modified": "2025-04-02T15:09:18.000",
    "request_status": "Pending",
    "responsible_agency": "Department of Sanitation",
    "final_address": "2258 Urquhart St",
    "address_councildis": "C",
    "status": "Assigned to Contractor",
    "contractor": "IV Waste",
    "rowid": "1180816",
    "final_x": "3685570.81718",
    "final_y": "536986.82836",
    "longitude": "-90.05502359261119",
    "latitude": "29.970403345146195",
    "geocoded_column": {
      "latitude": "29.970403345146195",
      "longitude": "-90.05502359261119"
    }
  },
  {
    "service_request": "2025-1180815",
    "request_type": "Trash/Recycling",
    "request_reason": "Repair Trash Cart",
    "date_created": "2025-04-02T15:08:19.000",
    "date_modified": "2025-04-02T15:08:20.000",
    "request_status": "Pending",
    "responsible_agency": "Department of Sanitation",
    "final_address": "6952 Pontchartrain Blvd",
    "address_councildis": "A",
    "status": "Assigned to Contractor",
    "contractor": "IV Waste",
    "rowid": "1180815",
    "final_x": "3666350.65133",
    "final_y": "554090.435928",
    "longitude": "-90.11514899969855",
    "latitude": "30.018008000154285",
    "geocoded_column": {
      "latitude": "30.018008000154285",
      "longitude": "-90.11514899969855"
    }
  },
  {
    "service_request": "2025-1180814",
    "request_type": "Trash/Recycling",
    "request_reason": "Replace Recycling Cart",
    "date_created": "2025-04-02T15:08:05.000",
    "date_modified": "2025-04-02T15:08:06.000",
    "request_status": "Pending",
    "responsible_agency": "Department of Sanitation",
    "final_address": "4909 Carondelet St",
    "address_councildis": "B",
    "status": "Pending",
    "rowid": "1180814",
    "final_x": "3668967.87502",
    "final_y": "521173.868281",
    "longitude": "-90.10799174322814",
    "latitude": "29.927421723435902",
    "geocoded_column": {
      "latitude": "29.927421723435902",
      "longitude": "-90.10799174322814"
    }
  },
  {
    "service_request": "2025-1180813",
    "request_type": "Trash/Recycling",
    "request_reason": "Repair Recycling Cart",
    "date_created": "2025-04-02T15:07:38.000",
    "date_modified": "2025-04-02T15:07:40.000",
    "request_status": "Pending",
    "responsible_agency": "Department of Sanitation",
    "final_address": "1430 N Tonti St",
    "address_councildis": "D",
    "status": "Pending",
    "rowid": "1180813",
    "final_x": "3679643.65935",
    "final_y": "538389.384585",
    "longitude": "-90.0736935230288",
    "latitude": "29.974440378808865",
    "geocoded_column": {
      "latitude": "29.974440378808865",
      "longitude": "-90.0736935230288"
    }
  },
  {
    "service_request": "2025-1180812",
    "request_type": "Trash/Recycling",
    "request_reason": "Repair Trash Cart",
    "date_created": "2025-04-02T15:07:07.000",
    "date_modified": "2025-04-02T15:07:09.000",
    "request_status": "Pending",
    "responsible_agency": "Department of Sanitation",
    "final_address": "4224 Alfred St",
    "address_councildis": "D",
    "status": "Assigned to Contractor",
    "contractor": "IV Waste",
    "rowid": "1180812",
    "final_x": "3677563.58587",
    "final_y": "547782.82261",
    "longitude": "-90.07993838216743",
    "latitude": "30.000331771100882",
    "geocoded_column": {
      "latitude": "30.000331771100882",
      "longitude": "-90.07993838216743"
    }
  },
  {
    "service_request": "2025-1180811",
    "request_type": "Trash/Recycling",
    "request_reason": "Repair Recycling Cart",
    "date_created": "2025-04-02T15:03:27.000",
    "date_modified": "2025-04-02T15:03:29.000",
    "request_status": "Pending",
    "responsible_agency": "Department of Sanitation",
    "final_address": "37 Sullivan Pl",
    "address_councildis": "C",
    "status": "Pending",
    "rowid": "1180811",
    "final_x": "3702202.29636",
    "final_y": "521881.863482",
    "longitude": "-90.00305371085959",
    "latitude": "29.928349388185993",
    "geocoded_column": {
      "latitude": "29.928349388185993",
      "longitude": "-90.00305371085959"
    }
  },
  {
    "service_request": "2025-1180810",
    "request_type": "Trash/Recycling",
    "request_reason": "Repair Recycling Cart",
    "date_created": "2025-04-02T15:02:09.000",
    "date_modified": "2025-04-02T15:02:12.000",
    "request_status": "Pending",
    "responsible_agency": "Department of Sanitation",
    "final_address": "7801 Jeannette St",
    "address_councildis": "A",
    "status": "Pending",
    "rowid": "1180810",
    "final_x": "3663501.25952",
    "final_y": "528449.725184",
    "longitude": "-90.12500636552154",
    "latitude": "29.947587630267172",
    "geocoded_column": {
      "latitude": "29.947587630267172",
      "longitude": "-90.12500636552154"
    }
  },
  {
    "service_request": "2025-1180809",
    "request_type": "Trash/Recycling",
    "request_reason": "Return Trash Cart",
    "date_created": "2025-04-02T14:58:23.000",
    "date_modified": "2025-04-02T14:58:25.000",
    "request_status": "Pending",
    "responsible_agency": "Department of Sanitation",
    "final_address": "8337 Apricot St",
    "address_councildis": "A",
    "status": "Assigned to Contractor",
    "contractor": "IV Waste",
    "rowid": "1180809",
    "final_x": "3665079.64013",
    "final_y": "533346.952964",
    "longitude": "-90.11985903040403",
    "latitude": "29.961007552872505",
    "geocoded_column": {
      "latitude": "29.961007552872505",
      "longitude": "-90.11985903040403"
    }
  },
  {
    "service_request": "2025-1180808",
    "request_type": "Trash/Recycling",
    "request_reason": "Request a Large Item Pick Up",
    "date_created": "2025-04-02T14:57:36.000",
    "date_modified": "2025-04-02T14:57:38.000",
    "request_status": "Pending",
    "responsible_agency": "Department of Sanitation",
    "final_address": "16 Seaward Ct",
    "address_councildis": "C",
    "status": "Assigned to Contractor",
    "contractor": "Richards Disposal",
    "rowid": "1180808",
    "final_x": "3704521.04254",
    "final_y": "522596.583994",
    "longitude": "-89.99570765591268",
    "latitude": "29.930240395938224",
    "geocoded_column": {
      "latitude": "29.930240395938224",
      "longitude": "-89.99570765591268"
    }
  },
  {
    "service_request": "2025-1180807",
    "request_type": "Trash/Recycling",
    "request_reason": "Request a Large Item Pick Up",
    "date_created": "2025-04-02T14:55:37.000",
    "date_modified": "2025-04-02T14:55:39.000",
    "request_status": "Pending",
    "responsible_agency": "Department of Sanitation",
    "final_address": "941 Marigny St",
    "address_councildis": "C",
    "status": "Assigned to Contractor",
    "contractor": "IV Waste",
    "rowid": "1180807",
    "final_x": "3685481.66697",
    "final_y": "535941.854535",
    "longitude": "-90.05534194589755",
    "latitude": "29.96753276485136",
    "geocoded_column": {
      "latitude": "29.96753276485136",
      "longitude": "-90.05534194589755"
    }
  },
  {
    "service_request": "2025-1180806",
    "request_type": "Trash/Recycling",
    "request_reason": "Replace Trash Cart",
    "date_created": "2025-04-02T14:55:33.000",
    "date_modified": "2025-04-02T14:55:40.000",
    "request_status": "Pending",
    "responsible_agency": "Department of Sanitation",
    "final_address": "509 Olivier St",
    "address_councildis": "C",
    "status": "Assigned to Contractor",
    "contractor": "Richards Disposal",
    "rowid": "1180806",
    "final_x": "3687226.60534",
    "final_y": "529834.844673",
    "longitude": "-90.05004740202222",
    "latitude": "29.950686967732675",
    "geocoded_column": {
      "latitude": "29.950686967732675",
      "longitude": "-90.05004740202222"
    }
  },
  {
    "service_request": "2025-1180805",
    "request_type": "Trash/Recycling",
    "request_reason": "Order Recycling Cart",
    "date_created": "2025-04-02T14:55:03.000",
    "date_modified": "2025-04-02T14:55:05.000",
    "request_status": "Pending",
    "responsible_agency": "Department of Sanitation",
    "final_address": "5905 Argonne Blvd",
    "address_councildis": "A",
    "status": "Pending",
    "rowid": "1180805",
    "final_x": "3670151.83994",
    "final_y": "546522.463249",
    "longitude": "-90.10339532785684",
    "latitude": "29.99708706435225",
    "geocoded_column": {
      "latitude": "29.99708706435225",
      "longitude": "-90.10339532785684"
    }
  },
  {
    "service_request": "2025-1180804",
    "request_type": "Abandoned Vehicles",
    "request_reason": "Abandoned/Junk Vehicles",
    "date_created": "2025-04-02T14:52:38.000",
    "date_modified": "2025-04-02T14:52:39.000",
    "request_status": "Pending",
    "responsible_agency": "Department of Public Works",
    "final_address": "1200 BLK Marais St",
    "address_councildis": "C",
    "status": "Pending",
    "rowid": "1180804",
    "final_x": "3681804.22691",
    "final_y": "535611.926923",
    "longitude": "-90.06696688414502",
    "latitude": "29.966737843855206",
    "geocoded_column": {
      "latitude": "29.966737843855206",
      "longitude": "-90.06696688414502"
    }
  },
  {
    "service_request": "2025-1180803",
    "request_type": "Abandoned Vehicles",
    "request_reason": "Abandoned/Junk Vehicles",
    "date_created": "2025-04-02T14:44:32.000",
    "date_modified": "2025-04-02T14:44:34.000",
    "request_status": "Pending",
    "responsible_agency": "Department of Public Works",
    "final_address": "PARIS RD & HAYNE BLVD",
    "address_councildis": "E",
    "status": "Pending",
    "rowid": "1180803",
    "final_x": "3720222.1",
    "final_y": "575571.38",
    "longitude": "-89.94411504343758",
    "latitude": "30.075386952979446",
    "geocoded_column": {
      "latitude": "30.075386952979446",
      "longitude": "-89.94411504343758"
    }
  },
  {
    "service_request": "2025-1180802",
    "request_type": "Trash/Recycling",
    "request_reason": "Request a Large Item Pick Up",
    "date_created": "2025-04-02T14:38:39.000",
    "date_modified": "2025-04-02T14:38:40.000",
    "request_status": "Pending",
    "responsible_agency": "Department of Sanitation",
    "final_address": "7040 Crowder Blvd",
    "address_councildis": "E",
    "status": "Assigned to Contractor",
    "contractor": "Waste Pro",
    "rowid": "1180802",
    "final_x": "3704304.90295",
    "final_y": "559611.840029",
    "longitude": "-89.99502518370585",
    "latitude": "30.032025620679985",
    "geocoded_column": {
      "latitude": "30.032025620679985",
      "longitude": "-89.99502518370585"
    }
  },
  {
    "service_request": "2025-1180801",
    "request_type": "Street and Traffic Signs",
    "request_reason": "Additional Signage Request",
    "date_created": "2025-04-02T14:37:59.000",
    "date_modified": "2025-04-02T14:38:00.000",
    "request_status": "Pending",
    "responsible_agency": "Department of Public Works",
    "final_address": "3801 S Carrollton Ave",
    "address_councildis": "B",
    "status": "Pending",
    "rowid": "1180801",
    "final_x": "3668367.20506",
    "final_y": "535149.924102",
    "longitude": "-90.10941666327855",
    "latitude": "29.965868983904162",
    "geocoded_column": {
      "latitude": "29.965868983904162",
      "longitude": "-90.10941666327855"
    }
  },
  {
    "service_request": "2025-1180800",
    "request_type": "Trash/Recycling",
    "request_reason": "Request a Large Item Pick Up",
    "date_created": "2025-04-02T14:37:06.000",
    "date_modified": "2025-04-02T14:37:07.000",
    "request_status": "Pending",
    "responsible_agency": "Department of Sanitation",
    "final_address": "7020 Crowder Blvd",
    "address_councildis": "E",
    "status": "Assigned to Contractor",
    "contractor": "Waste Pro",
    "rowid": "1180800",
    "final_x": "3704343.54481",
    "final_y": "559531.185309",
    "longitude": "-89.99490605105444",
    "latitude": "30.031802610664503",
    "geocoded_column": {
      "latitude": "30.031802610664503",
      "longitude": "-89.99490605105444"
    }
  },
  {
    "service_request": "2025-1180799",
    "request_type": "Trash/Recycling",
    "request_reason": "Request a Large Item Pick Up",
    "date_created": "2025-04-02T14:36:05.000",
    "date_modified": "2025-04-02T14:36:06.000",
    "request_status": "Pending",
    "responsible_agency": "Department of Sanitation",
    "final_address": "8000 Dorsett Dr",
    "address_councildis": "E",
    "status": "Assigned to Contractor",
    "contractor": "Waste Pro",
    "rowid": "1180799",
    "final_x": "3712119.05848",
    "final_y": "568347.088421",
    "longitude": "-89.97000378237844",
    "latitude": "30.055790769540238",
    "geocoded_column": {
      "latitude": "30.055790769540238",
      "longitude": "-89.97000378237844"
    }
  },
  {
    "service_request": "2025-1180797",
    "request_type": "Trash/Recycling",
    "request_reason": "Request a Large Item Pick Up",
    "date_created": "2025-04-02T14:35:10.000",
    "date_modified": "2025-04-02T14:35:12.000",
    "request_status": "Pending",
    "responsible_agency": "Department of Sanitation",
    "final_address": "7702 Dorsett Dr",
    "address_councildis": "E",
    "status": "Assigned to Contractor",
    "contractor": "Waste Pro",
    "rowid": "1180797",
    "final_x": "3712632.20146",
    "final_y": "567613.909412",
    "longitude": "-89.9684094539456",
    "latitude": "30.05375802919173",
    "geocoded_column": {
      "latitude": "30.05375802919173",
      "longitude": "-89.9684094539456"
    }
  },
  {
    "service_request": "2025-1180798",
    "request_type": "Safety & Permits",
    "request_reason": "Licenses & Permits",
    "date_created": "2025-04-02T14:35:10.000",
    "date_modified": "2025-04-02T14:35:45.000",
    "request_status": "Pending",
    "responsible_agency": "Safety and Permits",
    "final_address": "325 Pacific Ave",
    "address_councildis": "C",
    "status": "Pending",
    "rowid": "1180798",
    "final_x": "3688492.33526",
    "final_y": "530529.903106",
    "longitude": "-90.04602623078246",
    "latitude": "29.952559100967342",
    "geocoded_column": {
      "latitude": "29.952559100967342",
      "longitude": "-90.04602623078246"
    }
  },
  {
    "service_request": "2025-1180796",
    "request_type": "Roads and Streets",
    "request_reason": "Pothole",
    "date_created": "2025-04-02T14:32:18.000",
    "date_modified": "2025-04-02T14:32:20.000",
    "request_status": "Pending",
    "responsible_agency": "Department of Public Works",
    "final_address": "401 Jackson Ave",
    "address_councildis": "B",
    "status": "Pending",
    "rowid": "1180796",
    "final_x": "3680594.77397",
    "final_y": "519900.537912",
    "longitude": "-90.07133279372636",
    "latitude": "29.923573477639128",
    "geocoded_column": {
      "latitude": "29.923573477639128",
      "longitude": "-90.07133279372636"
    }
  },
  {
    "service_request": "2025-1180795",
    "request_type": "Property Maintenance",
    "request_reason": "Property Maintenance",
    "date_created": "2025-04-02T14:29:56.000",
    "date_modified": "2025-04-02T14:29:58.000",
    "request_status": "Pending",
    "responsible_agency": "Department of Code Enforcement",
    "final_address": "2801 Marigny St",
    "address_councildis": "D",
    "status": "Pending",
    "rowid": "1180795",
    "final_x": "3684924.59855",
    "final_y": "543007.718669",
    "longitude": "-90.056852594196",
    "latitude": "29.986978486812138",
    "geocoded_column": {
      "latitude": "29.986978486812138",
      "longitude": "-90.056852594196"
    }
  },
  {
    "service_request": "2025-1180794",
    "request_type": "Property Maintenance",
    "request_reason": "Property Maintenance",
    "date_created": "2025-04-02T14:27:45.000",
    "date_modified": "2025-04-02T14:27:47.000",
    "request_status": "Pending",
    "responsible_agency": "Department of Code Enforcement",
    "final_address": "1936 N Johnson St",
    "address_councildis": "D",
    "status": "Pending",
    "rowid": "1180794",
    "final_x": "3683208.41116",
    "final_y": "539348.02305",
    "longitude": "-90.06240161564783",
    "latitude": "29.976968065971576",
    "geocoded_column": {
      "latitude": "29.976968065971576",
      "longitude": "-90.06240161564783"
    }
  },
  {
    "service_request": "2025-1180793",
    "request_type": "Property Maintenance",
    "request_reason": "Property Maintenance",
    "date_created": "2025-04-02T14:26:59.000",
    "date_modified": "2025-04-02T14:27:01.000",
    "request_status": "Pending",
    "responsible_agency": "Department of Code Enforcement",
    "final_address": "1932 N Johnson St",
    "address_councildis": "D",
    "status": "Pending",
    "rowid": "1180793",
    "final_x": "3683177.50216",
    "final_y": "539455.516618",
    "longitude": "-90.06249547068461",
    "latitude": "29.977264578407954",
    "geocoded_column": {
      "latitude": "29.977264578407954",
      "longitude": "-90.06249547068461"
    }
  },
  {
    "service_request": "2025-1180792",
    "request_type": "Healthy Homes",
    "request_reason": "Healthy Homes",
    "date_created": "2025-04-02T14:26:47.000",
    "date_modified": "2025-04-02T14:26:49.000",
    "request_status": "Pending",
    "responsible_agency": "Department of Code Enforcement",
    "final_address": "3935 Tchoupitoulas St B",
    "address_councildis": "B",
    "status": "Pending",
    "rowid": "1180792",
    "final_x": "3673119.01153",
    "final_y": "517702.286006",
    "longitude": "-90.09500604604567",
    "latitude": "29.91775326802546",
    "geocoded_column": {
      "latitude": "29.91775326802546",
      "longitude": "-90.09500604604567"
    }
  },
  {
    "service_request": "2025-1180791",
    "request_type": "Healthy Homes",
    "request_reason": "Healthy Homes",
    "date_created": "2025-04-02T14:26:20.000",
    "date_modified": "2025-04-02T14:26:21.000",
    "request_status": "Pending",
    "responsible_agency": "Department of Code Enforcement",
    "final_address": "3935 Tchoupitoulas St A",
    "address_councildis": "B",
    "status": "Pending",
    "rowid": "1180791",
    "final_x": "3673130.46984",
    "final_y": "517700.940598",
    "longitude": "-90.09496992433752",
    "latitude": "29.917749228079384",
    "geocoded_column": {
      "latitude": "29.917749228079384",
      "longitude": "-90.09496992433752"
    }
  },
  {
    "service_request": "2025-1180790",
    "request_type": "Healthy Homes",
    "request_reason": "Healthy Homes",
    "date_created": "2025-04-02T14:25:52.000",
    "date_modified": "2025-04-02T14:25:55.000",
    "request_status": "Pending",
    "responsible_agency": "Department of Code Enforcement",
    "final_address": "3935 Tchoupitoulas St C",
    "address_councildis": "B",
    "status": "Pending",
    "rowid": "1180790",
    "final_x": "3673125.42529",
    "final_y": "517763.405046",
    "longitude": "-90.0949837163773",
    "latitude": "29.917921135336197",
    "geocoded_column": {
      "latitude": "29.917921135336197",
      "longitude": "-90.0949837163773"
    }
  },
  {
    "service_request": "2025-1180788",
    "request_type": "Property Maintenance",
    "request_reason": "Property Maintenance",
    "date_created": "2025-04-02T14:18:49.000",
    "date_modified": "2025-04-02T14:18:51.000",
    "request_status": "Pending",
    "responsible_agency": "Department of Code Enforcement",
    "final_address": "3935 Tchoupitoulas St A",
    "address_councildis": "B",
    "status": "Pending",
    "rowid": "1180788",
    "final_x": "3673130.46984",
    "final_y": "517700.940598",
    "longitude": "-90.09496992433752",
    "latitude": "29.917749228079384",
    "geocoded_column": {
      "latitude": "29.917749228079384",
      "longitude": "-90.09496992433752"
    }
  },
  {
    "service_request": "2025-1180787",
    "request_type": "Trash/Recycling",
    "request_reason": "Request a Large Item Pick Up",
    "date_created": "2025-04-02T14:18:12.000",
    "date_modified": "2025-04-02T14:18:14.000",
    "request_status": "Pending",
    "responsible_agency": "Department of Sanitation",
    "final_address": "7721 S Coronet Ct Apt B",
    "address_councildis": "E",
    "status": "Assigned to Contractor",
    "contractor": "Waste Pro",
    "rowid": "1180787",
    "final_x": "3702579.98468",
    "final_y": "557292.795355",
    "longitude": "-90.00056123333327",
    "latitude": "30.02570442931495",
    "geocoded_column": {
      "latitude": "30.02570442931495",
      "longitude": "-90.00056123333327"
    }
  },
  {
    "service_request": "2025-1180786",
    "request_type": "Roads and Streets",
    "request_reason": "Pothole",
    "date_created": "2025-04-02T14:17:39.000",
    "date_modified": "2025-04-02T14:17:41.000",
    "request_status": "Pending",
    "responsible_agency": "Department of Public Works",
    "final_address": "3800 Howard Ave",
    "address_councildis": "B",
    "status": "Pending",
    "rowid": "1180786",
    "final_x": "3673268.733",
    "final_y": "531920.916611",
    "longitude": "-90.09404805327173",
    "latitude": "29.956845424232803",
    "geocoded_column": {
      "latitude": "29.956845424232803",
      "longitude": "-90.09404805327173"
    }
  },
  {
    "service_request": "2025-1180785",
    "request_type": "Trash/Recycling",
    "request_reason": "Repair Trash Cart",
    "date_created": "2025-04-02T14:17:05.000",
    "date_modified": "2025-04-02T14:17:08.000",
    "request_status": "Pending",
    "responsible_agency": "Department of Sanitation",
    "final_address": "7721 S Coronet Ct Apt B",
    "address_councildis": "E",
    "status": "Assigned to Contractor",
    "contractor": "Waste Pro",
    "rowid": "1180785",
    "final_x": "3702579.98468",
    "final_y": "557292.795355",
    "longitude": "-90.00056123333327",
    "latitude": "30.02570442931495",
    "geocoded_column": {
      "latitude": "30.02570442931495",
      "longitude": "-90.00056123333327"
    }
  },
  {
    "service_request": "2025-1180784",
    "request_type": "Trash/Recycling",
    "request_reason": "Request a Large Item Pick Up",
    "date_created": "2025-04-02T14:12:15.000",
    "date_modified": "2025-04-02T14:12:17.000",
    "request_status": "Pending",
    "responsible_agency": "Department of Sanitation",
    "final_address": "7721 Alabama St",
    "address_councildis": "D",
    "status": "Assigned to Contractor",
    "contractor": "Waste Pro",
    "rowid": "1180784",
    "final_x": "3694833.8689",
    "final_y": "558921.358492",
    "longitude": "-90.02497902065419",
    "latitude": "30.030427819723226",
    "geocoded_column": {
      "latitude": "30.030427819723226",
      "longitude": "-90.02497902065419"
    }
  },
  {
    "service_request": "2025-1180783",
    "request_type": "Trash/Recycling",
    "request_reason": "Illegal Dumping",
    "date_created": "2025-04-02T14:12:01.000",
    "date_modified": "2025-04-02T14:12:03.000",
    "request_status": "Pending",
    "responsible_agency": "Department of Sanitation",
    "final_address": "14500 BLK Morrison Rd",
    "address_councildis": "E",
    "status": "Pending",
    "rowid": "1180783",
    "final_x": "3720741.3554",
    "final_y": "572568.103667",
    "longitude": "-89.94258871091535",
    "latitude": "30.06711189505254",
    "geocoded_column": {
      "latitude": "30.06711189505254",
      "longitude": "-89.94258871091535"
    }
  },
  {
    "service_request": "2025-1180782",
    "request_type": "Parks & Parkways",
    "request_reason": "Request Tree Service (Right of Way/Public Property)",
    "date_created": "2025-04-02T14:10:58.000",
    "date_modified": "2025-04-02T14:11:00.000",
    "request_status": "Pending",
    "responsible_agency": "Department of Parks & Parkway",
    "final_address": "3904 Toledano St",
    "address_councildis": "B",
    "status": "Pending",
    "rowid": "1180782",
    "final_x": "3671326.44359",
    "final_y": "529167.3632",
    "longitude": "-90.10027476811725",
    "latitude": "29.949331679263693",
    "geocoded_column": {
      "latitude": "29.949331679263693",
      "longitude": "-90.10027476811725"
    }
  },
  {
    "service_request": "2025-1180781",
    "request_type": "Trash/Recycling",
    "request_reason": "Request a Large Item Pick Up",
    "date_created": "2025-04-02T14:09:29.000",
    "date_modified": "2025-04-02T19:10:11.000",
    "case_close_date": "2025-04-02T14:10:10.000",
    "request_status": "Closed",
    "responsible_agency": "Department of Sanitation",
    "final_address": "7601 Berg Rd",
    "address_councildis": "E",
    "status": "Duplicate Request",
    "contractor": "Waste Pro",
    "contractor_action": "Duplicate",
    "rowid": "1180781",
    "final_x": "3712142.36107",
    "final_y": "566511.358755",
    "longitude": "-89.96999916537659",
    "latitude": "30.050742498190353",
    "geocoded_column": {
      "latitude": "30.050742498190353",
      "longitude": "-89.96999916537659"
    }
  },
  {
    "service_request": "2025-1180780",
    "request_type": "Trash/Recycling",
    "request_reason": "Request a Large Item Pick Up",
    "date_created": "2025-04-02T14:09:28.000",
    "date_modified": "2025-04-02T14:09:30.000",
    "request_status": "Pending",
    "responsible_agency": "Department of Sanitation",
    "final_address": "7601 Berg Rd",
    "address_councildis": "E",
    "status": "Assigned to Contractor",
    "contractor": "Waste Pro",
    "rowid": "1180780",
    "final_x": "3712142.36107",
    "final_y": "566511.358755",
    "longitude": "-89.96999916537659",
    "latitude": "30.050742498190353",
    "geocoded_column": {
      "latitude": "30.050742498190353",
      "longitude": "-89.96999916537659"
    }
  },