[
  {
    "service_request": "2024-1151798",
    "request_type": "Trash/Recycling",
    "request_reason": "Return Trash Cart",
    "date_created": "2024-11-27T22:08:30.000",
    "date_modified": "2024-11-27T22:08:31.000",
    "request_status": "Pending",
    "responsible_agency": "Department of Sanitation",
    "final_address": "2300 Bristol Pl",
    "address_councildis": "C",
    "status": "Assigned to Contractor",
    "contractor": "Richards Disposal",
    "rowid": "1151798",
    "final_x": "3702686.35281",
    "final_y": "522508.838714",
    "longitude": "-90.0015026569236",
    "latitude": "29.93005789097889",
    "geocoded_column": {
      "latitude": "29.93005789097889",
      "longitude": "-90.0015026569236"
    }
  },
  {
    "service_request": "2024-1151797",
    "request_type": "Trash/Recycling",
    "request_reason": "Request a Large Item Pick Up",
    "date_created": "2024-11-27T21:34:27.000",
    "date_modified": "2024-11-27T21:34:28.000",
    "request_status": "Pending",
    "responsible_agency": "Department of Sanitation",
    "final_address": "819 Eliza St",
    "address_councildis": "C",
    "status": "Assigned to Contractor",
    "contractor": "Richards Disposal",
    "rowid": "1151797",
    "final_x": "3688039.02991",
    "final_y": "529868.660609",
    "longitude": "-90.0474809901212",
    "latitude": "29.950754906436263",
    "geocoded_column": {
      "latitude": "29.950754906436263",
      "longitude": "-90.0474809901212"
    }
  },
  {
    "service_request": "2024-1151796",
    "request_type": "Abandoned Vehicles",
    "request_reason": "Abandoned/Junk Vehicles",
    "date_created": "2024-11-27T20:07:37.000",
    "date_modified": "2024-11-27T20:07:37.000",
    "request_status": "Pending",
    "responsible_agency": "Department of Public Works",
    "final_address": "1410 Japonica St",
    "address_councildis": "D",
    "status": "Pending",
    "rowid": "1151796",
    "final_x": "3693926.31472",
    "final_y": "536047.561479",
    "longitude": "-90.02866989235584",
    "latitude": "29.967561740994427",
    "geocoded_column": {
      "latitude": "29.967561740994427",
      "longitude": "-90.02866989235584"
    }
  },
  {
    "service_request": "2024-1151795",
    "request_type": "Healthy Homes",
    "request_reason": "Healthy Homes",
    "date_created": "2024-11-27T19:37:27.000",
    "date_modified": "2024-11-27T19:37:27.000",
    "request_status": "Pending",
    "responsible_agency": "Department of Code Enforcement",
    "final_address": "1612 St Roch Ave",
    "address_councildis": "D",
    "status": "Pending",
    "rowid": "1151795",
    "final_x": "3686246.88578",
    "final_y": "538388.129289",
    "longitude": "-90.05283904186567",
    "latitude": "29.974235676756845",
    "geocoded_column": {
      "latitude": "29.974235676756845",
      "longitude": "-90.05283904186567"
    }
  },
  {
    "service_request": "2024-1151794",
    "request_type": "Abandoned Vehicles",
    "request_reason": "Vehicle Blocking Your Driveway",
    "date_created": "2024-11-27T19:35:41.000",
    "date_modified": "2024-11-27T19:35:41.000",
    "request_status": "Pending",
    "responsible_agency": "Department of Public Works",
    "final_address": "537 Deslonde St.",
    "address_councildis": "E",
    "status": "Pending",
    "rowid": "1151794",
    "final_x": "3694889.07651",
    "final_y": "532529.398404",
    "longitude": "-90.02575627102678",
    "latitude": "29.95785785829471",
    "geocoded_column": {
      "latitude": "29.95785785829471",
      "longitude": "-90.02575627102678"
    }
  },
  {
    "service_request": "2024-1151793",
    "request_type": "Trash/Recycling",
    "request_reason": "Repair Trash Cart",
    "date_created": "2024-11-27T19:32:53.000",
    "date_modified": "2024-11-27T19:32:55.000",
    "request_status": "Pending",
    "responsible_agency": "Department of Sanitation",
    "final_address": "604 S Alexander St",
    "address_councildis": "A",
    "status": "Assigned to Contractor",
    "contractor": "IV Waste",
    "rowid": "1151793",
    "final_x": "3668792.90945",
    "final_y": "537527.987464",
    "longitude": "-90.10799198913746",
    "latitude": "29.972395354181273",
    "geocoded_column": {
      "latitude": "29.972395354181273",
      "longitude": "-90.10799198913746"
    }
  },
  {
    "service_request": "2024-1151792",
    "request_type": "Trash/Recycling",
    "request_reason": "Replace Recycling Cart",
    "date_created": "2024-11-27T19:17:49.000",
    "date_modified": "2024-11-27T19:17:49.000",
    "request_status": "Pending",
    "responsible_agency": "Department of Sanitation",
    "final_address": "432 Calhoun St",
    "address_councildis": "A",
    "status": "Pending",
    "rowid": "1151792",
    "final_x": "3662958.84058",
    "final_y": "518679.226359",
    "longitude": "-90.12704376964851",
    "latitude": "29.92073756267605",
    "geocoded_column": {
      "latitude": "29.92073756267605",
      "longitude": "-90.12704376964851"
    }
  },
  {
    "service_request": "2024-1151791",
    "request_type": "Trash/Recycling",
    "request_reason": "Replace Trash Cart",
    "date_created": "2024-11-27T19:16:41.000",
    "date_modified": "2024-11-27T19:16:42.000",
    "request_status": "Pending",
    "responsible_agency": "Department of Sanitation",
    "final_address": "432 Calhoun St",
    "address_councildis": "A",
    "status": "Assigned to Contractor",
    "contractor": "IV Waste",
    "rowid": "1151791",
    "final_x": "3662958.84058",
    "final_y": "518679.226359",
    "longitude": "-90.12704376964851",
    "latitude": "29.92073756267605",
    "geocoded_column": {
      "latitude": "29.92073756267605",
      "longitude": "-90.12704376964851"
    }
  },
  {
    "service_request": "2024-1151790",
    "request_type": "Streetlights",
    "request_reason": "Streetlight Outage/Malfunction",
    "date_created": "2024-11-27T18:37:05.000",
    "date_modified": "2024-11-27T18:37:07.000",
    "request_status": "Pending",
    "responsible_agency": "Department of Public Works",
    "final_address": "5515 Woodlawn Pl",
    "address_councildis": "A",
    "status": "Pending",
    "contractor": "Legacy Professional Services",
    "rowid": "1151790",
    "final_x": "3667511.45812",
    "final_y": "544122.398094",
    "longitude": "-90.1118170325795",
    "latitude": "29.990565373621934",
    "geocoded_column": {
      "latitude": "29.990565373621934",
      "longitude": "-90.1118170325795"
    }
  },
  {
    "service_request": "2024-1151788",
    "request_type": "Streetlights",
    "request_reason": "Streetlight Outage/Malfunction",
    "date_created": "2024-11-27T18:23:04.000",
    "date_modified": "2024-11-27T18:23:05.000",
    "request_status": "Pending",
    "responsible_agency": "Department of Public Works",
    "final_address": "412 Spencer Ave",
    "address_councildis": "A",
    "status": "Pending",
    "contractor": "Legacy Professional Services",
    "rowid": "1151788",
    "final_x": "3664986.75232",
    "final_y": "553614.034711",
    "longitude": "-90.11947436533278",
    "latitude": "30.016737863515253",
    "geocoded_column": {
      "latitude": "30.016737863515253",
      "longitude": "-90.11947436533278"
    }
  },
  {
    "service_request": "2024-1151787",
    "request_type": "Roads and Streets",
    "request_reason": "Push-up/Pavement Expansion",
    "date_created": "2024-11-27T17:56:10.000",
    "date_modified": "2024-11-27T17:56:10.000",
    "request_status": "Pending",
    "responsible_agency": "Department of Public Works",
    "final_address": "5316 Michoud Blvd",
    "address_councildis": "E",
    "status": "Pending",
    "rowid": "1151787",
    "final_x": "3724591.7422",
    "final_y": "563496.421856",
    "longitude": "-89.93076816003688",
    "latitude": "30.042039512735908",
    "geocoded_column": {
      "latitude": "30.042039512735908",
      "longitude": "-89.93076816003688"
    }
  },
  {
    "service_request": "2024-1151786",
    "request_type": "Roads and Streets",
    "request_reason": "Push-up/Pavement Expansion",
    "date_created": "2024-11-27T17:52:12.000",
    "date_modified": "2024-11-27T17:52:12.000",
    "request_status": "Pending",
    "responsible_agency": "Department of Public Works",
    "final_address": "5132 Michoud Blvd",
    "address_councildis": "E",
    "status": "Pending",
    "rowid": "1151786",
    "final_x": "3724703.08595",
    "final_y": "562278.950943",
    "longitude": "-89.93046338393621",
    "latitude": "30.038688222375367",
    "geocoded_column": {
      "latitude": "30.038688222375367",
      "longitude": "-89.93046338393621"
    }
  },
  {
    "service_request": "2024-1151785",
    "request_type": "General Services",
    "request_reason": "General Service Request",
    "date_created": "2024-11-27T17:40:23.000",
    "date_modified": "2024-11-27T17:40:23.000",
    "request_status": "Pending",
    "responsible_agency": "Orleans Parish Communication District",
    "final_address": "3431 Parkview Pl",
    "address_councildis": "A",
    "status": "Pending",
    "rowid": "1151785",
    "final_x": "3675656.68264",
    "final_y": "543421.941006",
    "longitude": "-90.08611236063754",
    "latitude": "29.988398088898556",
    "geocoded_column": {
      "latitude": "29.988398088898556",
      "longitude": "-90.08611236063754"
    }
  },
  {
    "service_request": "2024-1151784",
    "request_type": "Drainage",
    "request_reason": "Catch Basin Clogged",
    "date_created": "2024-11-27T17:25:49.000",
    "date_modified": "2024-11-27T17:25:49.000",
    "request_status": "Pending",
    "responsible_agency": "Department of Public Works",
    "final_address": "816 Burdette St",
    "address_councildis": "A",
    "status": "Pending",
    "rowid": "1151784",
    "final_x": "3661930.72583",
    "final_y": "526726.89075",
    "longitude": "-90.13002230280019",
    "latitude": "29.94289583160839",
    "geocoded_column": {
      "latitude": "29.94289583160839",
      "longitude": "-90.13002230280019"
    }
  },
  {
    "service_request": "2024-1151783",
    "request_type": "Graffiti Removal",
    "request_reason": "Graffiti Removal",
    "date_created": "2024-11-27T17:25:08.000",
    "date_modified": "2024-11-27T17:25:08.000",
    "request_status": "Pending",
    "responsible_agency": "Department of Code Enforcement",
    "final_address": "800 BLK Barracks St",
    "address_councildis": "C",
    "status": "Pending",
    "rowid": "1151783",
    "final_x": "3683443.16851",
    "final_y": "534528.90842",
    "longitude": "-90.06182907288749",
    "latitude": "29.963710008756966",
    "geocoded_column": {
      "latitude": "29.963710008756966",
      "longitude": "-90.06182907288749"
    }
  },
  {
    "service_request": "2024-1151782",
    "request_type": "Streetlights",
    "request_reason": "Streetlight Outage/Malfunction",
    "date_created": "2024-11-27T17:21:35.000",
    "date_modified": "2024-11-27T17:21:36.000",
    "request_status": "Pending",
    "responsible_agency": "Department of Public Works",
    "final_address": "1000 BLK Fern St",
    "address_councildis": "A",
    "status": "Pending",
    "contractor": "Legacy Professional Services",
    "rowid": "1151782",
    "final_x": "3662181.95874",
    "final_y": "527459.436995",
    "longitude": "-90.12920479108021",
    "latitude": "29.94490284320474",
    "geocoded_column": {
      "latitude": "29.94490284320474",
      "longitude": "-90.12920479108021"
    }
  },
  {
    "service_request": "2024-1151781",
    "request_type": "Streetlights",
    "request_reason": "Streetlight Outage/Malfunction",
    "date_created": "2024-11-27T17:19:42.000",
    "date_modified": "2024-11-27T17:19:43.000",
    "request_status": "Pending",
    "responsible_agency": "Department of Public Works",
    "final_address": "8000 BLK Maple St",
    "address_councildis": "A",
    "status": "Pending",
    "contractor": "Legacy Professional Services",
    "rowid": "1151781",
    "final_x": "3661227.74444",
    "final_y": "527142.067551",
    "longitude": "-90.13222805608432",
    "latitude": "29.944057716241023",
    "geocoded_column": {
      "latitude": "29.944057716241023",
      "longitude": "-90.13222805608432"
    }
  },
  {
    "service_request": "2024-1151780",
    "request_type": "Traffic Signals",
    "request_reason": "Traffic Signal Malfunctioning or Damaged",
    "date_created": "2024-11-27T17:16:46.000",
    "date_modified": "2024-11-27T17:16:46.000",
    "request_status": "Pending",
    "responsible_agency": "Department of Public Works",
    "final_address": "450 S Claiborne Ave",
    "address_councildis": "B",
    "status": "Pending",
    "rowid": "1151780",
    "final_x": "3677456.56398",
    "final_y": "531294.549186",
    "longitude": "-90.08084582474136",
    "latitude": "29.954997917723286",
    "geocoded_column": {
      "latitude": "29.954997917723286",
      "longitude": "-90.08084582474136"
    }
  },
  {
    "service_request": "2024-1151779",
    "request_type": "Streetlights",
    "request_reason": "Streetlight Outage/Malfunction",
    "date_created": "2024-11-27T17:16:18.000",
    "date_modified": "2024-11-27T17:16:20.000",
    "request_status": "Pending",
    "responsible_agency": "Department of Public Works",
    "final_address": "8017 Maple St",
    "address_councildis": "A",
    "status": "Pending",
    "contractor": "Legacy Professional Services",
    "rowid": "1151779",
    "final_x": "3661266.51949",
    "final_y": "527175.684927",
    "longitude": "-90.13210451911905",
    "latitude": "29.94414903565893",
    "geocoded_column": {
      "latitude": "29.94414903565893",
      "longitude": "-90.13210451911905"
    }
  },
  {
    "service_request": "2024-1151778",
    "request_type": "Streetlights",
    "request_reason": "Streetlight Outage/Malfunction",
    "date_created": "2024-11-27T17:12:48.000",
    "date_modified": "2024-11-27T17:12:49.000",
    "request_status": "Pending",
    "responsible_agency": "Department of Public Works",
    "final_address": "7820 Maple St",
    "address_councildis": "A",
    "status": "Pending",
    "contractor": "Legacy Professional Services",
    "rowid": "1151778",
    "final_x": "3661678.26202",
    "final_y": "526690.139262",
    "longitude": "-90.13082061381996",
    "latitude": "29.942802064399064",
    "geocoded_column": {
      "latitude": "29.942802064399064",
      "longitude": "-90.13082061381996"
    }
  },
  {
    "service_request": "2024-1151777",
    "request_type": "Streetlights",
    "request_reason": "Streetlight Outage/Malfunction",
    "date_created": "2024-11-27T17:09:30.000",
    "date_modified": "2024-11-27T17:11:23.000",
    "request_status": "Pending",
    "responsible_agency": "Department of Public Works",
    "final_address": "7813 Maple St",
    "address_councildis": "A",
    "status": "Pending",
    "contractor": "Legacy Professional Services",
    "rowid": "1151777",
    "final_x": "3661784.94854",
    "final_y": "526697.301694",
    "longitude": "-90.130483539929",
    "latitude": "29.942818679757288",
    "geocoded_column": {
      "latitude": "29.942818679757288",
      "longitude": "-90.130483539929"
    }
  },
  {
    "service_request": "2024-1151776",
    "request_type": "Trash/Recycling",
    "request_reason": "Request a Large Item Pick Up",
    "date_created": "2024-11-27T17:08:09.000",
    "date_modified": "2024-11-27T17:08:17.000",
    "request_status": "Pending",
    "responsible_agency": "Department of Sanitation",
    "final_address": "7416 Edward St",
    "address_councildis": "E",
    "status": "Assigned to Contractor",
    "contractor": "Waste Pro",
    "rowid": "1151776",
    "final_x": "3701192.91805",
    "final_y": "560327.220893",
    "longitude": "-90.00483297536326",
    "latitude": "30.03409221390936",
    "geocoded_column": {
      "latitude": "30.03409221390936",
      "longitude": "-90.00483297536326"
    }
  },
  {
    "service_request": "2024-1151775",
    "request_type": "Streetlights",
    "request_reason": "Streetlight Outage/Malfunction",
    "date_created": "2024-11-27T17:05:00.000",
    "date_modified": "2024-11-27T17:05:57.000",
    "request_status": "Pending",
    "responsible_agency": "Department of Public Works",
    "final_address": "7800 BLK Maple St",
    "address_councildis": "A",
    "status": "Pending",
    "contractor": "Legacy Professional Services",
    "rowid": "1151775",
    "final_x": "3661721.38748",
    "final_y": "526691.635709",
    "longitude": "-90.13068440617222",
    "latitude": "29.94280493462387",
    "geocoded_column": {
      "latitude": "29.94280493462387",
      "longitude": "-90.13068440617222"
    }
  },
  {
    "service_request": "2024-1151774",
    "request_type": "Roads and Streets",
    "request_reason": "Street Subsidence (Sinking)",
    "date_created": "2024-11-27T17:04:20.000",
    "date_modified": "2024-11-27T17:04:20.000",
    "request_status": "Pending",
    "responsible_agency": "Department of Public Works",
    "final_address": "1343 St Maurice Ave",
    "address_councildis": "E",
    "status": "Pending",
    "rowid": "1151774",
    "final_x": "3700296.17712",
    "final_y": "534148.704581",
    "longitude": "-90.00862318713975",
    "latitude": "29.962139602096446",
    "geocoded_column": {
      "latitude": "29.962139602096446",
      "longitude": "-90.00862318713975"
    }
  },
  {
    "service_request": "2024-1151773",
    "request_type": "Roads and Streets",
    "request_reason": "Pothole",
    "date_created": "2024-11-27T16:55:36.000",
    "date_modified": "2024-11-27T16:55:36.000",
    "request_status": "Pending",
    "responsible_agency": "Department of Public Works",
    "final_address": "727 Louque Pl",
    "address_councildis": "A",
    "status": "Pending",
    "rowid": "1151773",
    "final_x": "3668465.65966",
    "final_y": "543580.667534",
    "longitude": "-90.10882122566056",
    "latitude": "29.98904779530509",
    "geocoded_column": {
      "latitude": "29.98904779530509",
      "longitude": "-90.10882122566056"
    }
  },
  {
    "service_request": "2024-1151772",
    "request_type": "Trash/Recycling",
    "request_reason": "Replace Trash Cart",
    "date_created": "2024-11-27T16:44:43.000",
    "date_modified": "2024-11-27T16:45:19.000",
    "request_status": "Pending",
    "responsible_agency": "Department of Sanitation",
    "final_address": "633 Herald St",
    "address_councildis": "C",
    "status": "Assigned to Contractor",
    "contractor": "Richards Disposal",
    "rowid": "1151772",
    "final_x": "3702241.16196",
    "final_y": "520292.959224",
    "longitude": "-90.00298925612825",
    "latitude": "29.923979210483452",
    "geocoded_column": {
      "latitude": "29.923979210483452",
      "longitude": "-90.00298925612825"
    }
  },
  {
    "service_request": "2024-1151771",
    "request_type": "Trash/Recycling",
    "request_reason": "Request a Large Item Pick Up",
    "date_created": "2024-11-27T16:41:35.000",
    "date_modified": "2024-11-27T16:41:36.000",
    "request_status": "Pending",
    "responsible_agency": "Department of Sanitation",
    "final_address": "1504 Prytania St",
    "address_councildis": "B",
    "status": "Assigned to Contractor",
    "contractor": "IV Waste",
    "rowid": "1151771",
    "final_x": "3679639.51215",
    "final_y": "525166.466109",
    "longitude": "-90.0741655354196",
    "latitude": "29.93808194596031",
    "geocoded_column": {
      "latitude": "29.93808194596031",
      "longitude": "-90.0741655354196"
    }
  },
  {
    "service_request": "2024-1151770",
    "request_type": "Abandoned Vehicles",
    "request_reason": "Abandoned/Junk Vehicles",
    "date_created": "2024-11-27T16:39:47.000",
    "date_modified": "2024-11-27T16:39:47.000",
    "request_status": "Pending",
    "responsible_agency": "Department of Public Works",
    "final_address": "133 N Rocheblave St",
    "address_councildis": "B",
    "status": "Pending",
    "rowid": "1151770",
    "final_x": "3676232.7547",
    "final_y": "534853.56039",
    "longitude": "-90.08458768507013",
    "latitude": "29.964820727106854",
    "geocoded_column": {
      "latitude": "29.964820727106854",
      "longitude": "-90.08458768507013"
    }
  },
  {
    "service_request": "2024-1151769",
    "request_type": "Trash/Recycling",
    "request_reason": "Order Trash Cart",
    "date_created": "2024-11-27T16:33:36.000",
    "date_modified": "2024-11-27T16:33:37.000",
    "request_status": "Pending",
    "responsible_agency": "Department of Sanitation",
    "final_address": "422 Henry Clay Ave",
    "address_councildis": "A",
    "status": "Assigned to Contractor",
    "contractor": "IV Waste",
    "rowid": "1151769",
    "final_x": "3663279.62535",
    "final_y": "518453.130742",
    "longitude": "-90.12603871432563",
    "latitude": "29.920106580322933",
    "geocoded_column": {
      "latitude": "29.920106580322933",
      "longitude": "-90.12603871432563"
    }
  },
  {
    "service_request": "2024-1151768",
    "request_type": "Drainage",
    "request_reason": "Catch Basin Damaged",
    "date_created": "2024-11-27T16:22:16.000",
    "date_modified": "2024-11-27T16:22:16.000",
    "request_status": "Pending",
    "responsible_agency": "Department of Public Works",
    "final_address": "5229 S Derbigny St",
    "address_councildis": "B",
    "status": "Pending",
    "rowid": "1151768",
    "final_x": "3668634.56801",
    "final_y": "526312.620606",
    "longitude": "-90.1088705655882",
    "latitude": "29.94156144118602",
    "geocoded_column": {
      "latitude": "29.94156144118602",
      "longitude": "-90.1088705655882"
    }
  },
  {
    "service_request": "2024-1151767",
    "request_type": "Roads and Streets",
    "request_reason": "Pothole",
    "date_created": "2024-11-27T16:19:16.000",
    "date_modified": "2024-11-27T16:19:16.000",
    "request_status": "Pending",
    "responsible_agency": "Department of Public Works",
    "final_address": "5229 S Derbigny St",
    "address_councildis": "B",
    "status": "Pending",
    "rowid": "1151767",
    "final_x": "3668634.56801",
    "final_y": "526312.620606",
    "longitude": "-90.1088705655882",
    "latitude": "29.94156144118602",
    "geocoded_column": {
      "latitude": "29.94156144118602",
      "longitude": "-90.1088705655882"
    }
  },
  {
    "service_request": "2024-1151766",
    "request_type": "Trash/Recycling",
    "request_reason": "Request a Large Item Pick Up",
    "date_created": "2024-11-27T15:45:55.000",
    "date_modified": "2024-11-27T15:45:56.000",
    "request_status": "Pending",
    "responsible_agency": "Department of Sanitation",
    "final_address": "3908 S Pin Oak Ave",
    "address_councildis": "C",
    "status": "Assigned to Contractor",
    "contractor": "Richards Disposal",
    "rowid": "1151766",
    "final_x": "3704888.90027",
    "final_y": "513762.702386",
    "longitude": "-89.99487214705948",
    "latitude": "29.905938460495253",
    "geocoded_column": {
      "latitude": "29.905938460495253",
      "longitude": "-89.99487214705948"
    }
  },
  {
    "service_request": "2024-1151765",
    "request_type": "Streetlights",
    "request_reason": "Streetlight Outage/Malfunction",
    "date_created": "2024-11-27T15:30:23.000",
    "date_modified": "2024-11-27T15:30:24.000",
    "request_status": "Pending",
    "responsible_agency": "Department of Public Works",
    "final_address": "2318 Constance St",
    "address_councildis": "B",
    "status": "Pending",
    "contractor": "Legacy Professional Services",
    "rowid": "1151765",
    "final_x": "3678653.95682",
    "final_y": "521422.388153",
    "longitude": "-90.07740658215732",
    "latitude": "29.927816703679287",
    "geocoded_column": {
      "latitude": "29.927816703679287",
      "longitude": "-90.07740658215732"
    }
  },
  {
    "service_request": "2024-1151764",
    "request_type": "Trash/Recycling",
    "request_reason": "Start Trash Service",
    "date_created": "2024-11-27T15:07:04.000",
    "date_modified": "2024-11-27T15:07:05.000",
    "request_status": "Pending",
    "responsible_agency": "Department of Sanitation",
    "final_address": "4865 Chantilly Dr",
    "address_councildis": "E",
    "status": "Assigned to Contractor",
    "contractor": "Waste Pro",
    "rowid": "1151764",
    "final_x": "3700894.67223",
    "final_y": "554899.28764",
    "longitude": "-90.00597416638823",
    "latitude": "30.019176992463173",
    "geocoded_column": {
      "latitude": "30.019176992463173",
      "longitude": "-90.00597416638823"
    }
  },
  {
    "service_request": "2024-1151763",
    "request_type": "Property Maintenance",
    "request_reason": "Property Maintenance",
    "date_created": "2024-11-27T15:01:43.000",
    "date_modified": "2024-11-27T15:01:43.000",
    "request_status": "Pending",
    "responsible_agency": "Department of Code Enforcement",
    "final_address": "6060 Airway St",
    "address_councildis": "D",
    "status": "Pending",
    "rowid": "1151763",
    "final_x": "3696764.88803",
    "final_y": "552827.867094",
    "longitude": "-90.01909786185159",
    "latitude": "30.013612262916876",
    "geocoded_column": {
      "latitude": "30.013612262916876",
      "longitude": "-90.01909786185159"
    }
  },
  {
    "service_request": "2024-1151762",
    "request_type": "Mosquito, Termite & Rodent Control",
    "request_reason": "Rodent Complaint (Rats)",
    "date_created": "2024-11-27T14:11:06.000",
    "date_modified": "2024-11-27T14:11:06.000",
    "request_status": "Pending",
    "responsible_agency": "Mosquito, Termite & Rodent Control Board",
    "final_address": "1357 Constance St",
    "address_councildis": "B",
    "status": "Pending",
    "rowid": "1151762",
    "final_x": "3680753.71023",
    "final_y": "524683.990844",
    "longitude": "-90.07066469977299",
    "latitude": "29.936721585136283",
    "geocoded_column": {
      "latitude": "29.936721585136283",
      "longitude": "-90.07066469977299"
    }
  },
  {
    "service_request": "2024-1151761",
    "request_type": "Abandoned Vehicles",
    "request_reason": "Abandoned/Junk Vehicles",
    "date_created": "2024-11-27T14:01:17.000",
    "date_modified": "2024-11-27T14:01:17.000",
    "request_status": "Pending",
    "responsible_agency": "Department of Public Works",
    "final_address": "6007 Royal St",
    "address_councildis": "E",
    "status": "Pending",
    "rowid": "1151761",
    "final_x": "3698688.34096",
    "final_y": "532030.656387",
    "longitude": "-90.01377748686518",
    "latitude": "29.956366735275072",
    "geocoded_column": {
      "latitude": "29.956366735275072",
      "longitude": "-90.01377748686518"
    }
  },
  {
    "service_request": "2024-1151760",
    "request_type": "Abandoned Vehicles",
    "request_reason": "Abandoned/Junk Vehicles",
    "date_created": "2024-11-27T13:57:55.000",
    "date_modified": "2024-11-27T13:57:55.000",
    "request_status": "Pending",
    "responsible_agency": "Department of Public Works",
    "final_address": "6007 Royal St",
    "address_councildis": "E",
    "status": "Pending",
    "rowid": "1151760",
    "final_x": "3698688.34096",
    "final_y": "532030.656387",
    "longitude": "-90.01377748686518",
    "latitude": "29.956366735275072",
    "geocoded_column": {
      "latitude": "29.956366735275072",
      "longitude": "-90.01377748686518"
    }
  },
  {
    "service_request": "2024-1151759",
    "request_type": "Trash/Recycling",
    "request_reason": "Order Recycling Cart",
    "date_created": "2024-11-27T13:57:06.000",
    "date_modified": "2024-11-27T13:57:06.000",
    "request_status": "Pending",
    "responsible_agency": "Department of Sanitation",
    "final_address": "635 N Alexander St",
    "address_councildis": "A",
    "status": "Pending",
    "rowid": "1151759",
    "final_x": "3671227.96852",
    "final_y": "540846.085323",
    "longitude": "-90.10018885314871",
    "latitude": "29.981447172463838",
    "geocoded_column": {
      "latitude": "29.981447172463838",
      "longitude": "-90.10018885314871"
    }
  },
  {
    "service_request": "2024-1151758",
    "request_type": "Abandoned Vehicles",
    "request_reason": "Abandoned/Junk Vehicles",
    "date_created": "2024-11-27T13:53:52.000",
    "date_modified": "2024-11-27T13:53:52.000",
    "request_status": "Pending",
    "responsible_agency": "Department of Public Works",
    "final_address": "1047 Camp St",
    "address_councildis": "B",
    "status": "Pending",
    "rowid": "1151758",
    "final_x": "3680429.39823",
    "final_y": "526650.543678",
    "longitude": "-90.07162020399656",
    "latitude": "29.942138774995634",
    "geocoded_column": {
      "latitude": "29.942138774995634",
      "longitude": "-90.07162020399656"
    }
  },
  {
    "service_request": "2024-1151757",
    "request_type": "General Services",
    "request_reason": "General Service Request",
    "date_created": "2024-11-27T13:53:37.000",
    "date_modified": "2024-11-27T13:53:37.000",
    "request_status": "Pending",
    "responsible_agency": "Orleans Parish Communication District",
    "final_address": "637 N Alexander St",
    "address_councildis": "A",
    "status": "Pending",
    "rowid": "1151757",
    "final_x": "3671233.33351",
    "final_y": "540852.523531",
    "longitude": "-90.10017168915013",
    "latitude": "29.981464716581954",
    "geocoded_column": {
      "latitude": "29.981464716581954",
      "longitude": "-90.10017168915013"
    }
  },
  {
    "service_request": "2024-1151756",
    "request_type": "Trash/Recycling",
    "request_reason": "Request a Large Item Pick Up",
    "date_created": "2024-11-27T13:42:53.000",
    "date_modified": "2024-11-27T13:42:53.000",
    "request_status": "Pending",
    "responsible_agency": "Department of Sanitation",
    "final_address": "6644 Harbourview Dr",
    "address_councildis": "E",
    "status": "Assigned to Contractor",
    "contractor": "Waste Pro",
    "rowid": "1151756",
    "final_x": "3699261.60176",
    "final_y": "555955.863193",
    "longitude": "-90.01109555194596",
    "latitude": "30.022134088306757",
    "geocoded_column": {
      "latitude": "30.022134088306757",
      "longitude": "-90.01109555194596"
    }
  },
  {
    "service_request": "2024-1151755",
    "request_type": "Streetlights",
    "request_reason": "Streetlight Outage/Malfunction",
    "date_created": "2024-11-27T13:39:40.000",
    "date_modified": "2024-11-27T13:39:41.000",
    "request_status": "Pending",
    "responsible_agency": "Department of Public Works",
    "final_address": "2544 Allen Toussaint Blvd Apt 101",
    "address_councildis": "D",
    "status": "Pending",
    "contractor": "Legacy Professional Services",
    "rowid": "1151755",
    "final_x": "3686060.92502",
    "final_y": "555875.234329",
    "longitude": "-90.05280914873353",
    "latitude": "30.02232463010285",
    "geocoded_column": {
      "latitude": "30.02232463010285",
      "longitude": "-90.05280914873353"
    }
  },
  {
    "service_request": "2024-1151754",
    "request_type": "Trash/Recycling",
    "request_reason": "Request a Large Item Pick Up",
    "date_created": "2024-11-27T13:39:27.000",
    "date_modified": "2024-11-27T13:39:29.000",
    "request_status": "Pending",
    "responsible_agency": "Department of Sanitation",
    "final_address": "4745 Spain St",
    "address_councildis": "D",
    "status": "Assigned to Contractor",
    "contractor": "IV Waste",
    "rowid": "1151754",
    "final_x": "3685081.08636",
    "final_y": "550500.339348",
    "longitude": "-90.05609450318538",
    "latitude": "30.00757571054349",
    "geocoded_column": {
      "latitude": "30.00757571054349",
      "longitude": "-90.05609450318538"
    }
  },
  {
    "service_request": "2024-1151753",
    "request_type": "Trash/Recycling",
    "request_reason": "Request a Large Item Pick Up",
    "date_created": "2024-11-27T13:35:49.000",
    "date_modified": "2024-11-27T13:35:50.000",
    "request_status": "Pending",
    "responsible_agency": "Department of Sanitation",
    "final_address": "11308 Will Stutley Dr",
    "address_councildis": "E",
    "status": "Assigned to Contractor",
    "contractor": "Waste Pro",
    "rowid": "1151753",
    "final_x": "3716953.59775",
    "final_y": "558190.720283",
    "longitude": "-89.95510900151461",
    "latitude": "30.027705834949188",
    "geocoded_column": {
      "latitude": "30.027705834949188",
      "longitude": "-89.95510900151461"
    }
  },
  {
    "service_request": "2024-1151752",
    "request_type": "Traffic Signals",
    "request_reason": "Traffic Signal Malfunctioning or Damaged",
    "date_created": "2024-11-27T13:33:40.000",
    "date_modified": "2024-11-27T13:33:40.000",
    "request_status": "Pending",
    "responsible_agency": "Department of Public Works",
    "final_address": "3100 S Carrollton Ave",
    "address_councildis": "A",
    "status": "Pending",
    "rowid": "1151752",
    "final_x": "3666626.09741",
    "final_y": "533517.30778",
    "longitude": "-90.11496986719982",
    "latitude": "29.96143084965536",
    "geocoded_column": {
      "latitude": "29.96143084965536",
      "longitude": "-90.11496986719982"
    }
  },
  {
    "service_request": "2024-1151751",
    "request_type": "Abandoned Vehicles",
    "request_reason": "Vehicle Blocking Your Driveway",
    "date_created": "2024-11-27T13:12:20.000",
    "date_modified": "2024-11-27T13:12:20.000",
    "request_status": "Pending",
    "responsible_agency": "Department of Public Works",
    "final_address": "2635 Dublin St",
    "address_councildis": "A",
    "status": "Pending",
    "rowid": "1151751",
    "final_x": "3665301.83975",
    "final_y": "532511.207556",
    "longitude": "-90.11918532696454",
    "latitude": "29.958703054442754",
    "geocoded_column": {
      "latitude": "29.958703054442754",
      "longitude": "-90.11918532696454"
    }
  },
  {
    "service_request": "2024-1151750",
    "request_type": "Trash/Recycling",
    "request_reason": "Request a Large Item Pick Up",
    "date_created": "2024-11-27T12:59:15.000",
    "date_modified": "2024-11-27T12:59:18.000",
    "request_status": "Pending",
    "responsible_agency": "Department of Sanitation",
    "final_address": "7538 Forum Blvd",
    "address_councildis": "E",
    "status": "Assigned to Contractor",
    "contractor": "Waste Pro",
    "rowid": "1151750",
    "final_x": "3720602.11686",
    "final_y": "572780.145897",
    "longitude": "-89.94302072944572",
    "latitude": "30.067699567831244",
    "geocoded_column": {
      "latitude": "30.067699567831244",
      "longitude": "-89.94302072944572"
    }
  },
  {
    "service_request": "2024-1151749",
    "request_type": "Trash/Recycling",
    "request_reason": "Request a Large Item Pick Up",
    "date_created": "2024-11-27T12:58:08.000",
    "date_modified": "2024-11-27T12:58:09.000",
    "request_status": "Pending",
    "responsible_agency": "Department of Sanitation",
    "final_address": "2503 Mazant St",
    "address_councildis": "D",
    "status": "Assigned to Contractor",
    "contractor": "IV Waste",
    "rowid": "1151749",
    "final_x": "3693475.03369",
    "final_y": "540538.872523",
    "longitude": "-90.02993370174029",
    "latitude": "29.97992536657099",
    "geocoded_column": {
      "latitude": "29.97992536657099",
      "longitude": "-90.02993370174029"
    }
  },
  {
    "service_request": "2024-1151748",
    "request_type": "Trash/Recycling",
    "request_reason": "Repair Recycling Cart",
    "date_created": "2024-11-27T12:54:27.000",
    "date_modified": "2024-11-27T12:54:29.000",
    "request_status": "Pending",
    "responsible_agency": "Department of Sanitation",
    "final_address": "5 Ibis St",
    "address_councildis": "D",
    "status": "Pending",
    "rowid": "1151748",
    "final_x": "3675473.12776",
    "final_y": "555378.417625",
    "longitude": "-90.08628112627498",
    "latitude": "30.02127965886256",
    "geocoded_column": {
      "latitude": "30.02127965886256",
      "longitude": "-90.08628112627498"
    }
  },
  {
    "service_request": "2024-1151747",
    "request_type": "Drainage",
    "request_reason": "Drainage Manhole Cover Missing or Damaged",
    "date_created": "2024-11-27T12:54:01.000",
    "date_modified": "2024-11-27T12:54:02.000",
    "request_status": "Pending",
    "responsible_agency": "Department of Public Works",
    "final_address": "N CLAIBORNE AVE & FRANKLIN AVE",
    "address_councildis": "C",
    "status": "Pending",
    "rowid": "1151747",
    "final_x": "3687527.2",
    "final_y": "538355.38",
    "longitude": "-90.04879668107014",
    "latitude": "29.974106224369567",
    "geocoded_column": {
      "latitude": "29.974106224369567",
      "longitude": "-90.04879668107014"
    }
  },
  {
    "service_request": "2024-1151746",
    "request_type": "Trash/Recycling",
    "request_reason": "Request a Large Item Pick Up",
    "date_created": "2024-11-27T12:51:57.000",
    "date_modified": "2024-11-27T12:51:58.000",
    "request_status": "Pending",
    "responsible_agency": "Department of Sanitation",
    "final_address": "6965 Mayo Rd",
    "address_councildis": "E",
    "status": "Assigned to Contractor",
    "contractor": "Waste Pro",
    "rowid": "1151746",
    "final_x": "3701857.93597",
    "final_y": "558609.146076",
    "longitude": "-90.00279449273143",
    "latitude": "30.02934695799574",
    "geocoded_column": {
      "latitude": "30.02934695799574",
      "longitude": "-90.00279449273143"
    }
  },
  {
    "service_request": "2024-1151745",
    "request_type": "Trash/Recycling",
    "request_reason": "Request a Large Item Pick Up",
    "date_created": "2024-11-27T12:44:33.000",
    "date_modified": "2024-11-27T12:44:34.000",
    "request_status": "Pending",
    "responsible_agency": "Department of Sanitation",
    "final_address": "4320 N Rampart St",
    "address_councildis": "C",
    "status": "Assigned to Contractor",
    "contractor": "IV Waste",
    "rowid": "1151745",
    "final_x": "3692772.60272",
    "final_y": "534563.229701",
    "longitude": "-90.03236654628193",
    "latitude": "29.96351642164068",
    "geocoded_column": {
      "latitude": "29.96351642164068",
      "longitude": "-90.03236654628193"
    }
  },
  {
    "service_request": "2024-1151744",
    "request_type": "Trash/Recycling",
    "request_reason": "Request a Large Item Pick Up",
    "date_created": "2024-11-27T12:35:30.000",
    "date_modified": "2024-11-27T12:35:31.000",
    "request_status": "Pending",
    "responsible_agency": "Department of Sanitation",
    "final_address": "7653 Lacombe St",
    "address_councildis": "E",
    "status": "Assigned to Contractor",
    "contractor": "Waste Pro",
    "rowid": "1151744",
    "final_x": "3709677.59838",
    "final_y": "565361.448162",
    "longitude": "-89.97783235373439",
    "latitude": "30.047661112530164",
    "geocoded_column": {
      "latitude": "30.047661112530164",
      "longitude": "-89.97783235373439"
    }
  },
  {
    "service_request": "2024-1151743",
    "request_type": "Streetlights",
    "request_reason": "Streetlight Outage/Malfunction",
    "date_created": "2024-11-27T12:22:57.000",
    "date_modified": "2024-11-27T12:22:58.000",
    "request_status": "Pending",
    "responsible_agency": "Department of Public Works",
    "final_address": "2612 S Claiborne Ave",
    "address_councildis": "B",
    "status": "Pending",
    "contractor": "Legacy Professional Services",
    "rowid": "1151743",
    "final_x": "3673627.90958",
    "final_y": "526875.10195",
    "longitude": "-90.09308634398779",
    "latitude": "29.942960414774642",
    "geocoded_column": {
      "latitude": "29.942960414774642",
      "longitude": "-90.09308634398779"
    }
  },
  {
    "service_request": "2024-1151742",
    "request_type": "Streetlights",
    "request_reason": "Streetlight Outage/Malfunction",
    "date_created": "2024-11-27T12:21:44.000",
    "date_modified": "2024-11-27T12:21:45.000",
    "request_status": "Pending",
    "responsible_agency": "Department of Public Works",
    "final_address": "3050 N Rocheblave St",
    "address_councildis": "D",
    "status": "Pending",
    "contractor": "Legacy Professional Services",
    "rowid": "1151742",
    "final_x": "3690092.20022",
    "final_y": "540880.046155",
    "longitude": "-90.04060589449858",
    "latitude": "29.98096884514655",
    "geocoded_column": {
      "latitude": "29.98096884514655",
      "longitude": "-90.04060589449858"
    }
  },
  {
    "service_request": "2024-1151741",
    "request_type": "Property Maintenance",
    "request_reason": "Property Maintenance",
    "date_created": "2024-11-27T12:20:35.000",
    "date_modified": "2024-11-27T13:27:57.000",
    "case_close_date": "2024-11-27T07:27:57.000",
    "request_status": "Closed",
    "responsible_agency": "Department of Code Enforcement",
    "final_address": "4774 Werner Dr",
    "address_councildis": "E",
    "status": "Referred to Code Enforcement",
    "rowid": "1151741",
    "final_x": "3704703.37866",
    "final_y": "555568.298777",
    "longitude": "-89.99391535015586",
    "latitude": "30.020894649780413",
    "geocoded_column": {
      "latitude": "30.020894649780413",
      "longitude": "-89.99391535015586"
    }
  },
  {
    "service_request": "2024-1151740",
    "request_type": "Property Maintenance",
    "request_reason": "Property Maintenance",
    "date_created": "2024-11-27T12:13:18.000",
    "date_modified": "2024-11-27T12:18:59.000",
    "case_close_date": "2024-11-27T06:18:59.000",
    "request_status": "Closed",
    "responsible_agency": "Department of Code Enforcement",
    "final_address": "3630 Kent Dr",
    "address_councildis": "C",
    "status": "Referred to External Agency",
    "rowid": "1151740",
    "final_x": "3708792.966",
    "final_y": "517456.064438",
    "longitude": "-89.98241331917662",
    "latitude": "29.9159679546369",
    "geocoded_column": {
      "latitude": "29.9159679546369",
      "longitude": "-89.98241331917662"
    }
  },
  {
    "service_request": "2024-1151739",
    "request_type": "Property Maintenance",
    "request_reason": "Property Maintenance",
    "date_created": "2024-11-27T12:12:40.000",
    "date_modified": "2024-11-27T12:23:01.000",
    "case_close_date": "2024-11-27T06:23:01.000",
    "request_status": "Closed",
    "responsible_agency": "Department of Code Enforcement",
    "final_address": "4700 BLK Werner Dr",
    "address_councildis": "E",
    "status": "Referred to Code Enforcement",
    "rowid": "1151739",
    "final_x": "3704767.62258",
    "final_y": "555296.183487",
    "longitude": "-89.99372241161224",
    "latitude": "30.02014437267428",
    "geocoded_column": {
      "latitude": "30.02014437267428",
      "longitude": "-89.99372241161224"
    }
  },
  {
    "service_request": "2024-1151738",
    "request_type": "Trash/Recycling",
    "request_reason": "Request a Large Item Pick Up",
    "date_created": "2024-11-27T12:09:29.000",
    "date_modified": "2024-11-27T12:09:30.000",
    "request_status": "Pending",
    "responsible_agency": "Department of Sanitation",
    "final_address": "4964 Sandalwood St",
    "address_councildis": "E",
    "status": "Assigned to Contractor",
    "contractor": "Waste Pro",
    "rowid": "1151738",
    "final_x": "3712047.81925",
    "final_y": "557544.903259",
    "longitude": "-89.97063500933407",
    "latitude": "30.026091427969234",
    "geocoded_column": {
      "latitude": "30.026091427969234",
      "longitude": "-89.97063500933407"
    }
  },
  {
    "service_request": "2024-1151737",
    "request_type": "Roads and Streets",
    "request_reason": "Sidewalk Damaged or Missing",
    "date_created": "2024-11-27T12:07:29.000",
    "date_modified": "2024-11-27T12:07:29.000",
    "request_status": "Pending",
    "responsible_agency": "Department of Public Works",
    "final_address": "1841 Mercedes Blvd",
    "address_councildis": "C",
    "status": "Pending",
    "rowid": "1151737",
    "final_x": "3698068.05802",
    "final_y": "523939.658364",
    "longitude": "-90.01602983990443",
    "latitude": "29.93413894425465",
    "geocoded_column": {
      "latitude": "29.93413894425465",
      "longitude": "-90.01602983990443"
    }
  },
  {
    "service_request": "2024-1151736",
    "request_type": "Property Maintenance",
    "request_reason": "Property Maintenance",
    "date_created": "2024-11-27T12:07:27.000",
    "date_modified": "2024-11-27T13:38:29.000",
    "case_close_date": "2024-11-27T07:38:29.000",
    "request_status": "Closed",
    "responsible_agency": "Department of Code Enforcement",
    "final_address": "4700 BLK Werner Dr",
    "address_councildis": "E",
    "status": "Referred to Code Enforcement",
    "rowid": "1151736",
    "final_x": "3704767.62258",
    "final_y": "555296.183487",
    "longitude": "-89.99372241161224",
    "latitude": "30.02014437267428",
    "geocoded_column": {
      "latitude": "30.02014437267428",
      "longitude": "-89.99372241161224"
    }
  },
  {
    "service_request": "2024-1151735",
    "request_type": "Trash/Recycling",
    "request_reason": "Order Trash Cart",
    "date_created": "2024-11-27T12:07:21.000",
    "date_modified": "2024-11-27T12:07:23.000",
    "request_status": "Pending",
    "responsible_agency": "Department of Sanitation",
    "final_address": "6370 Morrison Rd",
    "address_councildis": "D",
    "status": "Assigned to Contractor",
    "contractor": "Waste Pro",
    "rowid": "1151735",
    "final_x": "3697099.20861",
    "final_y": "557841.317083",
    "longitude": "-90.0178597401938",
    "latitude": "30.027386801993107",
    "geocoded_column": {
      "latitude": "30.027386801993107",
      "longitude": "-90.0178597401938"
    }
  },
  {
    "service_request": "2024-1151734",
    "request_type": "Streetlights",
    "request_reason": "Streetlight Outage/Malfunction",
    "date_created": "2024-11-27T12:07:03.000",
    "date_modified": "2024-11-27T12:07:04.000",
    "request_status": "Pending",
    "responsible_agency": "Department of Public Works",
    "final_address": "6370 Morrison Rd",
    "address_councildis": "D",
    "status": "Pending",
    "contractor": "Legacy Professional Services",
    "rowid": "1151734",
    "final_x": "3697099.20861",
    "final_y": "557841.317083",
    "longitude": "-90.0178597401938",
    "latitude": "30.027386801993107",
    "geocoded_column": {
      "latitude": "30.027386801993107",
      "longitude": "-90.0178597401938"
    }
  },
  {
    "service_request": "2024-1151733",
    "request_type": "Trash/Recycling",
    "request_reason": "Request a Large Item Pick Up",
    "date_created": "2024-11-27T12:06:24.000",
    "date_modified": "2024-11-27T12:06:25.000",
    "request_status": "Pending",
    "responsible_agency": "Department of Sanitation",
    "final_address": "8435 Beechwood Ct",
    "address_councildis": "E",
    "status": "Assigned to Contractor",
    "contractor": "Waste Pro",
    "rowid": "1151733",
    "final_x": "3704283.58398",
    "final_y": "560734.398622",
    "longitude": "-89.9950511212978",
    "latitude": "30.035112902296873",
    "geocoded_column": {
      "latitude": "30.035112902296873",
      "longitude": "-89.9950511212978"
    }
  },
  {
    "service_request": "2024-1151732",
    "request_type": "Trash/Recycling",
    "request_reason": "Repair Trash Cart",
    "date_created": "2024-11-27T12:06:07.000",
    "date_modified": "2024-11-27T12:06:08.000",
    "request_status": "Pending",
    "responsible_agency": "Department of Sanitation",
    "final_address": "2225 S Carrollton Ave",
    "address_councildis": "A",
    "status": "Assigned to Contractor",
    "contractor": "IV Waste",
    "rowid": "1151732",
    "final_x": "3664584.87898",
    "final_y": "531005.860994",
    "longitude": "-90.12149958624694",
    "latitude": "29.954584711413258",
    "geocoded_column": {
      "latitude": "29.954584711413258",
      "longitude": "-90.12149958624694"
    }
  },
  {
    "service_request": "2024-1151731",
    "request_type": "Streetlights",
    "request_reason": "Streetlight Outage/Malfunction",
    "date_created": "2024-11-27T12:05:45.000",
    "date_modified": "2024-11-27T12:05:47.000",
    "request_status": "Pending",
    "responsible_agency": "Department of Public Works",
    "final_address": "WEST ROADWAY & W ROADWAY ST & S ROADWAY ST & WEST END PARK",
    "address_councildis": "A",
    "status": "Pending",
    "contractor": "Legacy Professional Services",
    "rowid": "1151731",
    "final_x": "3664901.8",
    "final_y": "556144.08",
    "longitude": "-90.11965810868256",
    "latitude": "30.023697071675763",
    "geocoded_column": {
      "latitude": "30.023697071675763",
      "longitude": "-90.11965810868256"
    }
  },
  {
    "service_request": "2024-1151730",
    "request_type": "Streetlights",
    "request_reason": "Streetlight Outage/Malfunction",
    "date_created": "2024-11-27T12:04:31.000",
    "date_modified": "2024-11-27T12:04:36.000",
    "request_status": "Pending",
    "responsible_agency": "Department of Public Works",
    "final_address": "WEST ROADWAY & W ROADWAY ST & S ROADWAY ST & WEST END PARK",
    "address_councildis": "A",
    "status": "Pending",
    "contractor": "Legacy Professional Services",
    "rowid": "1151730",
    "final_x": "3664901.8",
    "final_y": "556144.08",
    "longitude": "-90.11965810868256",
    "latitude": "30.023697071675763",
    "geocoded_column": {
      "latitude": "30.023697071675763",
      "longitude": "-90.11965810868256"
    }
  },
  {
    "service_request": "2024-1151729",
    "request_type": "Streetlights",
    "request_reason": "Streetlight Outage/Malfunction",
    "date_created": "2024-11-27T12:02:29.000",
    "date_modified": "2024-11-27T12:02:30.000",
    "request_status": "Pending",
    "responsible_agency": "Department of Public Works",
    "final_address": "WEST ROADWAY & W ROADWAY ST & S ROADWAY ST & WEST END PARK",
    "address_councildis": "A",
    "status": "Pending",
    "contractor": "Legacy Professional Services",
    "rowid": "1151729",
    "final_x": "3664901.8",
    "final_y": "556144.08",
    "longitude": "-90.11965810868256",
    "latitude": "30.023697071675763",
    "geocoded_column": {
      "latitude": "30.023697071675763",
      "longitude": "-90.11965810868256"
    }
  },
  {
    "service_request": "2024-1151728",
    "request_type": "Trash/Recycling",
    "request_reason": "Missed Trash Pick-Up",
    "date_created": "2024-11-27T11:59:36.000",
    "date_modified": "2024-11-27T12:05:17.000",
    "case_close_date": "2024-11-27T06:05:17.000",
    "request_status": "Closed",
    "responsible_agency": "Department of Sanitation",
    "final_address": "7324 Nelson St",
    "address_councildis": "A",
    "status": "Invalid Request",
    "contractor": "IV Waste",
    "contractor_action": "Invalid",
    "rowid": "1151728",
    "final_x": "3666341.71316",
    "final_y": "530637.324162",
    "longitude": "-90.11596452933276",
    "latitude": "29.95352014908417",
    "geocoded_column": {
      "latitude": "29.95352014908417",
      "longitude": "-90.11596452933276"
    }
  },
  {
    "service_request": "2024-1151727",
    "request_type": "Trash/Recycling",
    "request_reason": "Repair Recycling Cart",
    "date_created": "2024-11-27T11:56:30.000",
    "date_modified": "2024-11-27T11:56:31.000",
    "request_status": "Pending",
    "responsible_agency": "Department of Sanitation",
    "final_address": "6716 Pontchartrain Blvd",
    "address_councildis": "A",
    "status": "Pending",
    "rowid": "1151727",
    "final_x": "3666312.37242",
    "final_y": "552780.626838",
    "longitude": "-90.11531393890388",
    "latitude": "30.014407604376746",
    "geocoded_column": {
      "latitude": "30.014407604376746",
      "longitude": "-90.11531393890388"
    }
  },
  {
    "service_request": "2024-1151726",
    "request_type": "Roads and Streets",
    "request_reason": "Street Subsidence (Sinking)",
    "date_created": "2024-11-27T11:56:28.000",
    "date_modified": "2024-11-27T11:56:29.000",
    "request_status": "Pending",
    "responsible_agency": "Department of Public Works",
    "final_address": "2014 Mazant St",
    "address_councildis": "D",
    "status": "Pending",
    "rowid": "1151726",
    "final_x": "3692925.60982",
    "final_y": "538733.738569",
    "longitude": "-90.03173376555685",
    "latitude": "29.974979066475015",
    "geocoded_column": {
      "latitude": "29.974979066475015",
      "longitude": "-90.03173376555685"
    }
  },
  {
    "service_request": "2024-1151725",
    "request_type": "Trash/Recycling",
    "request_reason": "Request a Large Item Pick Up",
    "date_created": "2024-11-27T11:55:41.000",
    "date_modified": "2024-11-27T11:55:42.000",
    "request_status": "Pending",
    "responsible_agency": "Department of Sanitation",
    "final_address": "3710 Dickens Dr",
    "address_councildis": "C",
    "status": "Assigned to Contractor",
    "contractor": "Richards Disposal",
    "rowid": "1151725",
    "final_x": "3707976.96452",
    "final_y": "517196.139189",
    "longitude": "-89.98499856872068",
    "latitude": "29.91527967838334",
    "geocoded_column": {
      "latitude": "29.91527967838334",
      "longitude": "-89.98499856872068"
    }
  },
  {
    "service_request": "2024-1151724",
    "request_type": "Trash/Recycling",
    "request_reason": "Request a Large Item Pick Up",
    "date_created": "2024-11-27T11:54:50.000",
    "date_modified": "2024-11-27T11:54:51.000",
    "request_status": "Pending",
    "responsible_agency": "Department of Sanitation",
    "final_address": "4300 S Galvez St",
    "address_councildis": "B",
    "status": "Assigned to Contractor",
    "contractor": "IV Waste",
    "rowid": "1151724",
    "final_x": "3670542.89038",
    "final_y": "527454.912575",
    "longitude": "-90.10280686649305",
    "latitude": "29.9446461614993",
    "geocoded_column": {
      "latitude": "29.9446461614993",
      "longitude": "-90.10280686649305"
    }
  },
  {
    "service_request": "2024-1151723",
    "request_type": "Trash/Recycling",
    "request_reason": "Return Trash Cart",
    "date_created": "2024-11-27T11:44:44.000",
    "date_modified": "2024-11-27T11:44:45.000",
    "request_status": "Pending",
    "responsible_agency": "Department of Sanitation",
    "final_address": "6556 Louisville St",
    "address_councildis": "A",
    "status": "Assigned to Contractor",
    "contractor": "IV Waste",
    "rowid": "1151723",
    "final_x": "3668006.40673",
    "final_y": "551234.006229",
    "longitude": "-90.11001378081009",
    "latitude": "30.010105317830895",
    "geocoded_column": {
      "latitude": "30.010105317830895",
      "longitude": "-90.11001378081009"
    }
  },
  {
    "service_request": "2024-1151722",
    "request_type": "Property Maintenance",
    "request_reason": "Property Maintenance",
    "date_created": "2024-11-27T11:43:41.000",
    "date_modified": "2024-11-27T13:44:54.000",
    "case_close_date": "2024-11-27T07:44:54.000",
    "request_status": "Closed",
    "responsible_agency": "Department of Code Enforcement",
    "final_address": "SKYVIEW DR & AIRWAY ST",
    "address_councildis": "D",
    "status": "Referred to Code Enforcement",
    "rowid": "1151722",
    "final_x": "3696806.8",
    "final_y": "552758.38",
    "longitude": "-90.01896796086842",
    "latitude": "30.013419877666454",
    "geocoded_column": {
      "latitude": "30.013419877666454",
      "longitude": "-90.01896796086842"
    }
  },
  {
    "service_request": "2024-1151721",
    "request_type": "Trash/Recycling",
    "request_reason": "Request a Large Item Pick Up",
    "date_created": "2024-11-27T11:39:58.000",
    "date_modified": "2024-11-27T11:39:58.000",
    "request_status": "Pending",
    "responsible_agency": "Department of Sanitation",
    "final_address": "1032 Constantinople St",
    "address_councildis": "B",
    "status": "Assigned to Contractor",
    "contractor": "IV Waste",
    "rowid": "1151721",
    "final_x": "3672412.47707",
    "final_y": "519564.554936",
    "longitude": "-90.0971727735757",
    "latitude": "29.92289489084646",
    "geocoded_column": {
      "latitude": "29.92289489084646",
      "longitude": "-90.0971727735757"
    }
  },
  {
    "service_request": "2024-1151720",
    "request_type": "Streetlights",
    "request_reason": "Streetlight Outage/Malfunction",
    "date_created": "2024-11-27T11:37:09.000",
    "date_modified": "2024-11-27T11:37:10.000",
    "request_status": "Pending",
    "responsible_agency": "Department of Public Works",
    "final_address": "1927 S Gayoso St",
    "address_councildis": "B",
    "status": "Pending",
    "contractor": "Legacy Professional Services",
    "rowid": "1151720",
    "final_x": "3669938.98119",
    "final_y": "529603.385153",
    "longitude": "-90.10464085367344",
    "latitude": "29.950571578449225",
    "geocoded_column": {
      "latitude": "29.950571578449225",
      "longitude": "-90.10464085367344"
    }
  },
  {
    "service_request": "2024-1151719",
    "request_type": "Trash/Recycling",
    "request_reason": "Request a Large Item Pick Up",
    "date_created": "2024-11-27T11:36:52.000",
    "date_modified": "2024-11-27T12:43:48.000",
    "case_close_date": "2024-11-27T06:43:48.000",
    "request_status": "Closed",
    "responsible_agency": "Department of Sanitation",
    "final_address": "7440 Alabama St",
    "address_councildis": "D",
    "status": "Duplicate Request",
    "contractor": "Waste Pro",
    "contractor_action": "Duplicate",
    "rowid": "1151719",
    "final_x": "3695001.17603",
    "final_y": "558056.641883",
    "longitude": "-90.02448154306744",
    "latitude": "30.028044924776378",
    "geocoded_column": {
      "latitude": "30.028044924776378",
      "longitude": "-90.02448154306744"
    }
  },
  {
    "service_request": "2024-1151718",
    "request_type": "Trash/Recycling",
    "request_reason": "Repair Trash Cart",
    "date_created": "2024-11-27T11:34:35.000",
    "date_modified": "2024-11-27T11:34:36.000",
    "request_status": "Pending",
    "responsible_agency": "Department of Sanitation",
    "final_address": "1114 S Carrollton Ave",
    "address_councildis": "A",
    "status": "Assigned to Contractor",
    "contractor": "IV Waste",
    "rowid": "1151718",
    "final_x": "3661811.22758",
    "final_y": "528258.155712",
    "longitude": "-90.13034883268963",
    "latitude": "29.94710977178985",
    "geocoded_column": {
      "latitude": "29.94710977178985",
      "longitude": "-90.13034883268963"
    }
  },
  {
    "service_request": "2024-1151717",
    "request_type": "Trash/Recycling",
    "request_reason": "Request a Large Item Pick Up",
    "date_created": "2024-11-27T11:34:06.000",
    "date_modified": "2024-11-27T11:34:07.000",
    "request_status": "Pending",
    "responsible_agency": "Department of Sanitation",
    "final_address": "7440 Alabama St",
    "address_councildis": "D",
    "status": "Assigned to Contractor",
    "contractor": "Waste Pro",
    "rowid": "1151717",
    "final_x": "3695001.17603",
    "final_y": "558056.641883",
    "longitude": "-90.02448154306744",
    "latitude": "30.028044924776378",
    "geocoded_column": {
      "latitude": "30.028044924776378",
      "longitude": "-90.02448154306744"
    }
  },
  {
    "service_request": "2024-1151716",
    "request_type": "Trash/Recycling",
    "request_reason": "Repair Trash Cart",
    "date_created": "2024-11-27T11:33:45.000",
    "date_modified": "2024-11-27T11:33:46.000",
    "request_status": "Pending",
    "responsible_agency": "Department of Sanitation",
    "final_address": "5720 St Roch Ave",
    "address_councildis": "D",
    "status": "Assigned to Contractor",
    "contractor": "IV Waste",
    "rowid": "1151716",
    "final_x": "3684964.56917",
    "final_y": "554143.934808",
    "longitude": "-90.0563343260903",
    "latitude": "30.017597837911055",
    "geocoded_column": {
      "latitude": "30.017597837911055",
      "longitude": "-90.0563343260903"
    }
  },
  {
    "service_request": "2024-1151715",
    "request_type": "Trash/Recycling",
    "request_reason": "Replace Trash Cart",
    "date_created": "2024-11-27T11:33:05.000",
    "date_modified": "2024-11-27T11:33:06.000",
    "request_status": "Pending",
    "responsible_agency": "Department of Sanitation",
    "final_address": "4133 General Pershing St",
    "address_councildis": "B",
    "status": "Assigned to Contractor",
    "contractor": "IV Waste",
    "rowid": "1151715",
    "final_x": "3670028.04846",
    "final_y": "529492.805889",
    "longitude": "-90.10436336924452",
    "latitude": "29.95026489527118",
    "geocoded_column": {
      "latitude": "29.95026489527118",
      "longitude": "-90.10436336924452"
    }
  },
  {
    "service_request": "2024-1151714",
    "request_type": "Streetlights",
    "request_reason": "Streetlight Outage/Malfunction",
    "date_created": "2024-11-27T11:31:01.000",
    "date_modified": "2024-11-27T11:31:01.000",
    "request_status": "Pending",
    "responsible_agency": "Department of Public Works",
    "final_address": "1025 Frenchmen St",
    "address_councildis": "C",
    "status": "Pending",
    "contractor": "Legacy Professional Services",
    "rowid": "1151714",
    "final_x": "3684632.06812",
    "final_y": "536122.626503",
    "longitude": "-90.05801863843085",
    "latitude": "29.968055853079687",
    "geocoded_column": {
      "latitude": "29.968055853079687",
      "longitude": "-90.05801863843085"
    }
  },
  {
    "service_request": "2024-1151713",
    "request_type": "Safety & Permits",
    "request_reason": "Zoning Enforcement",
    "date_created": "2024-11-27T11:29:07.000",
    "date_modified": "2024-11-27T12:09:29.000",
    "case_close_date": "2024-11-27T06:09:29.000",
    "request_status": "Closed",
    "responsible_agency": "Safety and Permits",
    "final_address": "1013 Touro St",
    "address_councildis": "C",
    "status": "Pending",
    "contractor_action": "Completed",
    "rowid": "1151713",
    "final_x": "3684279.2582",
    "final_y": "536006.747591",
    "longitude": "-90.05913689305201",
    "latitude": "29.96774801870887",
    "geocoded_column": {
      "latitude": "29.96774801870887",
      "longitude": "-90.05913689305201"
    }
  },
  {
    "service_request": "2024-1151712",
    "request_type": "Streetlights",
    "request_reason": "Streetlight Outage/Malfunction",
    "date_created": "2024-11-27T11:27:57.000",
    "date_modified": "2024-11-27T11:27:58.000",
    "request_status": "Pending",
    "responsible_agency": "Department of Public Works",
    "final_address": "1032 Frenchmen St",
    "address_councildis": "C",
    "status": "Pending",
    "contractor": "Legacy Professional Services",
    "rowid": "1151712",
    "final_x": "3684567.53551",
    "final_y": "536174.899591",
    "longitude": "-90.05822059744753",
    "latitude": "29.96820156072392",
    "geocoded_column": {
      "latitude": "29.96820156072392",
      "longitude": "-90.05822059744753"
    }
  },
  {
    "service_request": "2024-1151711",
    "request_type": "Trash/Recycling",
    "request_reason": "Illegal Dumping",
    "date_created": "2024-11-27T11:25:16.000",
    "date_modified": "2024-11-27T11:25:17.000",
    "request_status": "Pending",
    "responsible_agency": "Department of Sanitation",
    "final_address": "3800 BLK Saint Ferdinand St",
    "address_councildis": "D",
    "status": "Pending",
    "rowid": "1151711",
    "final_x": "3689932.31925",
    "final_y": "547240.405963",
    "longitude": "-90.04088427657176",
    "latitude": "29.998462504684927",
    "geocoded_column": {
      "latitude": "29.998462504684927",
      "longitude": "-90.04088427657176"
    }
  },
  {
    "service_request": "2024-1151710",
    "request_type": "Abandoned Vehicles",
    "request_reason": "Abandoned/Junk Vehicles",
    "date_created": "2024-11-27T11:24:06.000",
    "date_modified": "2024-11-27T11:24:06.000",
    "request_status": "Pending",
    "responsible_agency": "Department of Public Works",
    "final_address": "1026 Josephine St",
    "address_councildis": "B",
    "status": "Pending",
    "rowid": "1151710",
    "final_x": "3679227.68635",
    "final_y": "522175.190074",
    "longitude": "-90.07556936782437",
    "latitude": "29.92986935879547",
    "geocoded_column": {
      "latitude": "29.92986935879547",
      "longitude": "-90.07556936782437"
    }
  },
  {
    "service_request": "2024-1151709",
    "request_type": "Property Maintenance",
    "request_reason": "Property Maintenance",
    "date_created": "2024-11-27T11:23:31.000",
    "date_modified": "2024-11-27T11:23:31.000",
    "request_status": "Pending",
    "responsible_agency": "Department of Code Enforcement",
    "final_address": "1000 BLK Lamanche St",
    "address_councildis": "E",
    "status": "Pending",
    "rowid": "1151709",
    "final_x": "3698300.6237",
    "final_y": "533458.459117",
    "longitude": "-90.0149498876022",
    "latitude": "29.960304958030243",
    "geocoded_column": {
      "latitude": "29.960304958030243",
      "longitude": "-90.0149498876022"
    }
  },
  {
    "service_request": "2024-1151708",
    "request_type": "Trash/Recycling",
    "request_reason": "Request a Large Item Pick Up",
    "date_created": "2024-11-27T11:21:30.000",
    "date_modified": "2024-11-27T11:21:32.000",
    "request_status": "Pending",
    "responsible_agency": "Department of Sanitation",
    "final_address": "13645 N Cavelier Dr",
    "address_councildis": "E",
    "status": "Assigned to Contractor",
    "contractor": "Waste Pro",
    "rowid": "1151708",
    "final_x": "3723904.64383",
    "final_y": "569962.809446",
    "longitude": "-89.9326898154814",
    "latitude": "30.059842490004534",
    "geocoded_column": {
      "latitude": "30.059842490004534",
      "longitude": "-89.9326898154814"
    }
  },
  {
    "service_request": "2024-1151707",
    "request_type": "Trash/Recycling",
    "request_reason": "Request a Large Item Pick Up",
    "date_created": "2024-11-27T11:19:28.000",
    "date_modified": "2024-11-27T11:19:29.000",
    "request_status": "Pending",
    "responsible_agency": "Department of Sanitation",
    "final_address": "4750 Viola St",
    "address_councildis": "E",
    "status": "Assigned to Contractor",
    "contractor": "Waste Pro",
    "rowid": "1151707",
    "final_x": "3703917.9299",
    "final_y": "555247.565081",
    "longitude": "-89.99640894599209",
    "latitude": "30.020037977729757",
    "geocoded_column": {
      "latitude": "30.020037977729757",
      "longitude": "-89.99640894599209"
    }
  },
  {
    "service_request": "2024-1151705",
    "request_type": "Roads and Streets",
    "request_reason": "Pothole",
    "date_created": "2024-11-27T11:14:29.000",
    "date_modified": "2024-11-27T11:14:29.000",
    "request_status": "Pending",
    "responsible_agency": "Department of Public Works",
    "final_address": "900 BLK Arabella St",
    "address_councildis": "A",
    "status": "Pending",
    "rowid": "1151705",
    "final_x": "3665938.55818",
    "final_y": "519435.366757",
    "longitude": "-90.11761280975855",
    "latitude": "29.92273012012014",
    "geocoded_column": {
      "latitude": "29.92273012012014",
      "longitude": "-90.11761280975855"
    }
  },
  {
    "service_request": "2024-1151704",
    "request_type": "Trash/Recycling",
    "request_reason": "Request a Large Item Pick Up",
    "date_created": "2024-11-27T11:10:57.000",
    "date_modified": "2024-11-27T11:11:55.000",
    "request_status": "Pending",
    "responsible_agency": "Department of Sanitation",
    "final_address": "5754 Oxford Pl",
    "address_councildis": "C",
    "status": "Assigned to Contractor",
    "contractor": "Richards Disposal",
    "rowid": "1151704",
    "final_x": "3704818.74494",
    "final_y": "519986.579832",
    "longitude": "-89.99486410900923",
    "latitude": "29.923054234656767",
    "geocoded_column": {
      "latitude": "29.923054234656767",
      "longitude": "-89.99486410900923"
    }
  },
  {
    "service_request": "2024-1151703",
    "request_type": "Trash/Recycling",
    "request_reason": "Request a Large Item Pick Up",
    "date_created": "2024-11-27T11:09:15.000",
    "date_modified": "2024-11-27T11:09:16.000",
    "request_status": "Pending",
    "responsible_agency": "Department of Sanitation",
    "final_address": "3912 Virgil Blvd",
    "address_councildis": "D",
    "status": "Assigned to Contractor",
    "contractor": "IV Waste",
    "rowid": "1151703",
    "final_x": "3680153.80155",
    "final_y": "546878.046161",
    "longitude": "-90.07178720843773",
    "latitude": "29.997765796171798",
    "geocoded_column": {
      "latitude": "29.997765796171798",
      "longitude": "-90.07178720843773"
    }
  },
  {
    "service_request": "2024-1151702",
    "request_type": "Drainage",
    "request_reason": "Catch Basin Damaged",
    "date_created": "2024-11-27T11:07:17.000",
    "date_modified": "2024-11-27T11:07:18.000",
    "request_status": "Pending",
    "responsible_agency": "Department of Public Works",
    "final_address": "2235 Poydras St",
    "address_councildis": "B",
    "status": "Pending",
    "rowid": "1151702",
    "final_x": "3674823.81518",
    "final_y": "532015.183555",
    "longitude": "-90.08913435867468",
    "latitude": "29.95705828858534",
    "geocoded_column": {
      "latitude": "29.95705828858534",
      "longitude": "-90.08913435867468"
    }
  },
  {
    "service_request": "2024-1151701",
    "request_type": "Trash/Recycling",
    "request_reason": "Repair Recycling Cart",
    "date_created": "2024-11-27T11:04:16.000",
    "date_modified": "2024-11-27T11:04:17.000",
    "request_status": "Pending",
    "responsible_agency": "Department of Sanitation",
    "final_address": "8706 Marks St",
    "address_councildis": "A",
    "status": "Pending",
    "rowid": "1151701",
    "final_x": "3667200.41549",
    "final_y": "537420.306824",
    "longitude": "-90.11302500306172",
    "latitude": "29.97214599855037",
    "geocoded_column": {
      "latitude": "29.97214599855037",
      "longitude": "-90.11302500306172"
    }
  },
  {
    "service_request": "2024-1151700",
    "request_type": "Property Maintenance",
    "request_reason": "Property Maintenance",
    "date_created": "2024-11-27T11:02:31.000",
    "date_modified": "2024-11-27T11:39:02.000",
    "case_close_date": "2024-11-27T05:39:02.000",
    "request_status": "Closed",
    "responsible_agency": "Department of Code Enforcement",
    "final_address": "7403 Cornwall Pl",
    "address_councildis": "D",
    "status": "Referred to Code Enforcement",
    "rowid": "1151700",
    "final_x": "3694802.46128",
    "final_y": "557715.076763",
    "longitude": "-90.02512178883578",
    "latitude": "30.02711199030517",
    "geocoded_column": {
      "latitude": "30.02711199030517",
      "longitude": "-90.02512178883578"
    }
  },
  {
    "service_request": "2024-1151699",
    "request_type": "Trash/Recycling",
    "request_reason": "Repair Trash Cart",
    "date_created": "2024-11-27T10:57:49.000",
    "date_modified": "2024-11-27T10:57:50.000",
    "request_status": "Pending",
    "responsible_agency": "Department of Sanitation",
    "final_address": "3314 Calhoun St",
    "address_councildis": "A",
    "status": "Assigned to Contractor",
    "contractor": "IV Waste",
    "rowid": "1151699",
    "final_x": "3667431.06791",
    "final_y": "528916.58272",
    "longitude": "-90.11258268122755",
    "latitude": "29.948756802398808",
    "geocoded_column": {
      "latitude": "29.948756802398808",
      "longitude": "-90.11258268122755"
    }
  },
  {
    "service_request": "2024-1151698",
    "request_type": "Trash/Recycling",
    "request_reason": "Request a Large Item Pick Up",
    "date_created": "2024-11-27T10:56:41.000",
    "date_modified": "2024-11-27T10:56:42.000",
    "request_status": "Pending",
    "responsible_agency": "Department of Sanitation",
    "final_address": "7161 Downman Rd",
    "address_councildis": "D",
    "status": "Assigned to Contractor",
    "contractor": "Waste Pro",
    "rowid": "1151698",
    "final_x": "3695254.96157",
    "final_y": "556960.947738",
    "longitude": "-90.02371917253859",
    "latitude": "30.025024209069723",
    "geocoded_column": {
      "latitude": "30.025024209069723",
      "longitude": "-90.02371917253859"
    }
  },
  {
    "service_request": "2024-1151697",
    "request_type": "Abandoned Vehicles",
    "request_reason": "Abandoned/Junk Vehicles",
    "date_created": "2024-11-27T10:56:01.000",
    "date_modified": "2024-11-27T10:56:02.000",
    "request_status": "Pending",
    "responsible_agency": "Department of Public Works",
    "final_address": "2401 Charbonnet St",
    "address_councildis": "E",
    "status": "Pending",
    "rowid": "1151697",
    "final_x": "3700029.6129",
    "final_y": "538502.474569",
    "longitude": "-90.00930608632234",
    "latitude": "29.974119373872863",
    "geocoded_column": {
      "latitude": "29.974119373872863",
      "longitude": "-90.00930608632234"
    }
  },
  {
    "service_request": "2024-1151696",
    "request_type": "Trash/Recycling",
    "request_reason": "Return Trash Cart",
    "date_created": "2024-11-27T10:51:46.000",
    "date_modified": "2024-11-27T10:51:47.000",
    "request_status": "Pending",
    "responsible_agency": "Department of Sanitation",
    "final_address": "1024 N Miro St",
    "address_councildis": "D",
    "status": "Assigned to Contractor",
    "contractor": "IV Waste",
    "rowid": "1151696",
    "final_x": "3678913.70568",
    "final_y": "536937.283272",
    "longitude": "-90.07604921295058",
    "latitude": "29.970469643461314",
    "geocoded_column": {
      "latitude": "29.970469643461314",
      "longitude": "-90.07604921295058"
    }
  },
  {
    "service_request": "2024-1151695",
    "request_type": "Trash/Recycling",
    "request_reason": "Request a Large Item Pick Up",
    "date_created": "2024-11-27T10:51:23.000",
    "date_modified": "2024-11-27T10:51:23.000",
    "request_status": "Pending",
    "responsible_agency": "Department of Sanitation",
    "final_address": "4611 Gawain Dr",
    "address_councildis": "E",
    "status": "Assigned to Contractor",
    "contractor": "Waste Pro",
    "rowid": "1151695",
    "final_x": "3707140.9852",
    "final_y": "554490.805016",
    "longitude": "-89.98625331133881",
    "latitude": "30.017853385828722",
    "geocoded_column": {
      "latitude": "30.017853385828722",
      "longitude": "-89.98625331133881"
    }
  },
  {
    "service_request": "2024-1151694",
    "request_type": "Trash/Recycling",
    "request_reason": "Repair Trash Cart",
    "date_created": "2024-11-27T10:51:04.000",
    "date_modified": "2024-11-27T10:51:05.000",
    "request_status": "Pending",
    "responsible_agency": "Department of Sanitation",
    "final_address": "916 Valence St",
    "address_councildis": "B",
    "status": "Assigned to Contractor",
    "contractor": "IV Waste",
    "rowid": "1151694",
    "final_x": "3669879.40532",
    "final_y": "518831.791159",
    "longitude": "-90.10519350408768",
    "latitude": "29.920954921324075",
    "geocoded_column": {
      "latitude": "29.920954921324075",
      "longitude": "-90.10519350408768"
    }
  },
  {
    "service_request": "2024-1151693",
    "request_type": "Traffic Signals",
    "request_reason": "Traffic Signal Malfunctioning or Damaged",
    "date_created": "2024-11-27T10:49:07.000",
    "date_modified": "2024-11-27T10:49:07.000",
    "request_status": "Pending",
    "responsible_agency": "Department of Public Works",
    "final_address": "DESIRE PKWY & CHEF MENTEUR HWY",
    "address_councildis": "D",
    "status": "Pending",
    "rowid": "1151693",
    "final_x": "3692027.1",
    "final_y": "550101.18",
    "longitude": "-90.03416442567848",
    "latitude": "30.00626344869749",
    "geocoded_column": {
      "latitude": "30.00626344869749",
      "longitude": "-90.03416442567848"
    }
  },
  {
    "service_request": "2024-1151692",
    "request_type": "Traffic Signals",
    "request_reason": "Traffic Signal Malfunctioning or Damaged",
    "date_created": "2024-11-27T10:48:15.000",
    "date_modified": "2024-11-27T10:48:15.000",
    "request_status": "Pending",
    "responsible_agency": "Department of Public Works",
    "final_address": "1800 BLK Napoleon Ave",
    "address_councildis": "B",
    "status": "Pending",
    "rowid": "1151692",
    "final_x": "3670719.66148",
    "final_y": "521766.617672",
    "longitude": "-90.10244167349475",
    "latitude": "29.928999967839044",
    "geocoded_column": {
      "latitude": "29.928999967839044",
      "longitude": "-90.10244167349475"
    }
  },
  {
    "service_request": "2024-1151691",
    "request_type": "Trash/Recycling",
    "request_reason": "Return Trash Cart",
    "date_created": "2024-11-27T10:47:28.000",
    "date_modified": "2024-11-27T10:47:30.000",
    "request_status": "Pending",
    "responsible_agency": "Department of Sanitation",
    "final_address": "8721 Peach St",
    "address_councildis": "A",
    "status": "Assigned to Contractor",
    "contractor": "IV Waste",
    "rowid": "1151691",
    "final_x": "3666964.15188",
    "final_y": "537319.406728",
    "longitude": "-90.11377455728783",
    "latitude": "29.97187547347684",
    "geocoded_column": {
      "latitude": "29.97187547347684",
      "longitude": "-90.11377455728783"
    }
  },
  {
    "service_request": "2024-1151690",
    "request_type": "Trash/Recycling",
    "request_reason": "Missed Trash Pick-Up",
    "date_created": "2024-11-27T10:46:51.000",
    "date_modified": "2024-11-27T10:46:52.000",
    "request_status": "Pending",
    "responsible_agency": "Department of Sanitation",
    "final_address": "12001 Curran Rd",
    "address_councildis": "E",
    "status": "Assigned to Contractor",
    "contractor": "Waste Pro",
    "rowid": "1151690",
    "final_x": "3713503.28837",
    "final_y": "568404.618661",
    "longitude": "-89.96562636255173",
    "latitude": "30.055903596284143",
    "geocoded_column": {
      "latitude": "30.055903596284143",
      "longitude": "-89.96562636255173"
    }
  },
  {
    "service_request": "2024-1151689",
    "request_type": "Abandoned Vehicles",
    "request_reason": "Abandoned/Junk Vehicles",
    "date_created": "2024-11-27T10:46:16.000",
    "date_modified": "2024-11-27T10:46:16.000",
    "request_status": "Pending",
    "responsible_agency": "Department of Public Works",
    "final_address": "4528 Palmyra St",
    "address_councildis": "A",
    "status": "Pending",
    "rowid": "1151689",
    "final_x": "3668993.63777",
    "final_y": "538903.048714",
    "longitude": "-90.107311586382",
    "latitude": "29.976170406612887",
    "geocoded_column": {
      "latitude": "29.976170406612887",
      "longitude": "-90.107311586382"
    }
  },
  {
    "service_request": "2024-1151688",
    "request_type": "Trash/Recycling",
    "request_reason": "Replace Recycling Cart",
    "date_created": "2024-11-27T10:45:47.000",
    "date_modified": "2024-11-27T10:45:47.000",
    "request_status": "Pending",
    "responsible_agency": "Department of Sanitation",
    "final_address": "916 Valence St",
    "address_councildis": "B",
    "status": "Pending",
    "rowid": "1151688",
    "final_x": "3669879.40532",
    "final_y": "518831.791159",
    "longitude": "-90.10519350408768",
    "latitude": "29.920954921324075",
    "geocoded_column": {
      "latitude": "29.920954921324075",
      "longitude": "-90.10519350408768"
    }
  },
  {
    "service_request": "2024-1151687",
    "request_type": "Trash/Recycling",
    "request_reason": "Repair Trash Cart",
    "date_created": "2024-11-27T10:45:21.000",
    "date_modified": "2024-11-27T10:45:22.000",
    "request_status": "Pending",
    "responsible_agency": "Department of Sanitation",
    "final_address": "315 Webster St",
    "address_councildis": "A",
    "status": "Assigned to Contractor",
    "contractor": "IV Waste",
    "rowid": "1151687",
    "final_x": "3663620.04941",
    "final_y": "517888.057526",
    "longitude": "-90.12498296355491",
    "latitude": "29.9185429378105",
    "geocoded_column": {
      "latitude": "29.9185429378105",
      "longitude": "-90.12498296355491"
    }
  },
  {
    "service_request": "2024-1151686",
    "request_type": "Streetlights",
    "request_reason": "Streetlight Outage/Malfunction",
    "date_created": "2024-11-27T10:43:01.000",
    "date_modified": "2024-11-27T10:43:02.000",
    "request_status": "Pending",
    "responsible_agency": "Department of Public Works",
    "final_address": "1034 Frenchmen St",
    "address_councildis": "C",
    "status": "Pending",
    "contractor": "Legacy Professional Services",
    "rowid": "1151686",
    "final_x": "3684567.95215",
    "final_y": "536189.899591",
    "longitude": "-90.05821875453336",
    "latitude": "29.968242792776206",
    "geocoded_column": {
      "latitude": "29.968242792776206",
      "longitude": "-90.05821875453336"
    }
  },
  {
    "service_request": "2024-1151685",
    "request_type": "Trash/Recycling",
    "request_reason": "Repair Trash Cart",
    "date_created": "2024-11-27T10:41:45.000",
    "date_modified": "2024-11-27T10:41:46.000",
    "request_status": "Pending",
    "responsible_agency": "Department of Sanitation",
    "final_address": "8337 Apricot St",
    "address_councildis": "A",
    "status": "Assigned to Contractor",
    "contractor": "IV Waste",
    "rowid": "1151685",
    "final_x": "3665079.64013",
    "final_y": "533346.952964",
    "longitude": "-90.11985903040403",
    "latitude": "29.961007552872505",
    "geocoded_column": {
      "latitude": "29.961007552872505",
      "longitude": "-90.11985903040403"
    }
  },
  {
    "service_request": "2024-1151684",
    "request_type": "Streetlights",
    "request_reason": "Streetlight Outage/Malfunction",
    "date_created": "2024-11-27T10:38:56.000",
    "date_modified": "2024-11-27T10:39:02.000",
    "request_status": "Pending",
    "responsible_agency": "Department of Public Works",
    "final_address": "7733 Mayo Rd",
    "address_councildis": "E",
    "status": "Pending",
    "contractor": "Legacy Professional Services",
    "rowid": "1151684",
    "final_x": "3700722.07786",
    "final_y": "561268.175838",
    "longitude": "-90.00628644326783",
    "latitude": "30.036694475803113",
    "geocoded_column": {
      "latitude": "30.036694475803113",
      "longitude": "-90.00628644326783"
    }
  },
  {
    "service_request": "2024-1151683",
    "request_type": "Roads and Streets",
    "request_reason": "Street Flooding",
    "date_created": "2024-11-27T10:31:06.000",
    "date_modified": "2024-11-27T10:31:06.000",
    "request_status": "Pending",
    "responsible_agency": "Department of Public Works",
    "final_address": "Leonidas, New Orleans, Louisiana",
    "address_councildis": "A",
    "status": "Pending",
    "rowid": "1151683",
    "final_x": "3667727.2226",
    "final_y": "537289.856008",
    "longitude": "-90.11136564620038",
    "latitude": "29.97177186507843",
    "geocoded_column": {
      "latitude": "29.97177186507843",
      "longitude": "-90.11136564620038"
    }
  },
  {
    "service_request": "2024-1151682",
    "request_type": "Property Maintenance",
    "request_reason": "Property Maintenance",
    "date_created": "2024-11-27T10:27:29.000",
    "date_modified": "2024-11-27T11:16:21.000",
    "case_close_date": "2024-11-27T05:16:21.000",
    "request_status": "Closed",
    "responsible_agency": "Department of Code Enforcement",
    "final_address": "7600 Gannon Rd",
    "address_councildis": "E",
    "status": "Referred to Code Enforcement",
    "rowid": "1151682",
    "final_x": "3716469.08671",
    "final_y": "569659.73431",
    "longitude": "-89.95620443875303",
    "latitude": "30.059256974348585",
    "geocoded_column": {
      "latitude": "30.059256974348585",
      "longitude": "-89.95620443875303"
    }
  },
  {
    "service_request": "2024-1151681",
    "request_type": "Trash/Recycling",
    "request_reason": "Request a Large Item Pick Up",
    "date_created": "2024-11-27T10:27:25.000",
    "date_modified": "2024-11-27T10:27:27.000",
    "request_status": "Pending",
    "responsible_agency": "Department of Sanitation",
    "final_address": "1615 Governor Nicholls St",
    "address_councildis": "D",
    "status": "Assigned to Contractor",
    "contractor": "IV Waste",
    "rowid": "1151681",
    "final_x": "3681129.19119",
    "final_y": "536046.342919",
    "longitude": "-90.06908350625054",
    "latitude": "29.96795283495233",
    "geocoded_column": {
      "latitude": "29.96795283495233",
      "longitude": "-90.06908350625054"
    }
  },
  {
    "service_request": "2024-1151680",
    "request_type": "Trash/Recycling",
    "request_reason": "Request a Large Item Pick Up",
    "date_created": "2024-11-27T10:23:33.000",
    "date_modified": "2024-11-27T10:23:34.000",
    "request_status": "Pending",
    "responsible_agency": "Department of Sanitation",
    "final_address": "4827 Michoud Blvd",
    "address_councildis": "E",
    "status": "Assigned to Contractor",
    "contractor": "Waste Pro",
    "rowid": "1151680",
    "final_x": "3725204.75692",
    "final_y": "560807.90563",
    "longitude": "-89.92893496838317",
    "latitude": "30.034626555451585",
    "geocoded_column": {
      "latitude": "30.034626555451585",
      "longitude": "-89.92893496838317"
    }
  },
  {
    "service_request": "2024-1151679",
    "request_type": "Trash/Recycling",
    "request_reason": "Repair Trash Cart",
    "date_created": "2024-11-27T10:20:54.000",
    "date_modified": "2024-11-27T10:21:32.000",
    "request_status": "Pending",
    "responsible_agency": "Department of Sanitation",
    "final_address": "3620 Post Oak Ave",
    "address_councildis": "C",
    "status": "Assigned to Contractor",
    "contractor": "Richards Disposal",
    "rowid": "1151679",
    "final_x": "3703788.57066",
    "final_y": "514605.937267",
    "longitude": "-89.99831383375631",
    "latitude": "29.90829236484223",
    "geocoded_column": {
      "latitude": "29.90829236484223",
      "longitude": "-89.99831383375631"
    }
  },
  {
    "service_request": "2024-1151678",
    "request_type": "Trash/Recycling",
    "request_reason": "Replace Recycling Cart",
    "date_created": "2024-11-27T10:16:58.000",
    "date_modified": "2024-11-27T10:16:59.000",
    "request_status": "Pending",
    "responsible_agency": "Department of Sanitation",
    "final_address": "1316 Toledano St",
    "address_councildis": "B",
    "status": "Pending",
    "rowid": "1151678",
    "final_x": "3675004.57185",
    "final_y": "520576.692664",
    "longitude": "-90.0889558375557",
    "latitude": "29.925600796737257",
    "geocoded_column": {
      "latitude": "29.925600796737257",
      "longitude": "-90.0889558375557"
    }
  },
  {
    "service_request": "2024-1151677",
    "request_type": "Drainage",
    "request_reason": "Catch Basin Clogged",
    "date_created": "2024-11-27T10:16:02.000",
    "date_modified": "2024-11-27T10:16:03.000",
    "request_status": "Pending",
    "responsible_agency": "Department of Public Works",
    "final_address": "4525 Eastview Dr",
    "address_councildis": "E",
    "status": "Pending",
    "rowid": "1151677",
    "final_x": "3705290.62507",
    "final_y": "553947.216216",
    "longitude": "-89.99211979155437",
    "latitude": "30.01641840959448",
    "geocoded_column": {
      "latitude": "30.01641840959448",
      "longitude": "-89.99211979155437"
    }
  },
  {
    "service_request": "2024-1151676",
    "request_type": "Roads and Streets",
    "request_reason": "Street Subsidence (Sinking)",
    "date_created": "2024-11-27T10:13:41.000",
    "date_modified": "2024-11-27T10:13:42.000",
    "request_status": "Pending",
    "responsible_agency": "Department of Public Works",
    "final_address": "1541 N Robertson St",
    "address_councildis": "C",
    "status": "Pending",
    "rowid": "1151676",
    "final_x": "3682213.69276",
    "final_y": "537235.386824",
    "longitude": "-90.06561707204524",
    "latitude": "29.97118934908894",
    "geocoded_column": {
      "latitude": "29.97118934908894",
      "longitude": "-90.06561707204524"
    }
  },
  {
    "service_request": "2024-1151675",
    "request_type": "Trash/Recycling",
    "request_reason": "Order Trash Cart",
    "date_created": "2024-11-27T10:12:11.000",
    "date_modified": "2024-11-27T10:12:12.000",
    "request_status": "Pending",
    "responsible_agency": "Department of Sanitation",
    "final_address": "3601 Fourth St",
    "address_councildis": "B",
    "status": "Assigned to Contractor",
    "contractor": "IV Waste",
    "rowid": "1151675",
    "final_x": "3672319.34971",
    "final_y": "528635.955136",
    "longitude": "-90.09715781702907",
    "latitude": "29.947841064760286",
    "geocoded_column": {
      "latitude": "29.947841064760286",
      "longitude": "-90.09715781702907"
    }
  },
  {
    "service_request": "2024-1151674",
    "request_type": "Streetlights",
    "request_reason": "Streetlight Outage/Malfunction",
    "date_created": "2024-11-27T10:12:10.000",
    "date_modified": "2024-11-27T10:12:12.000",
    "request_status": "Pending",
    "responsible_agency": "Department of Public Works",
    "final_address": "5110 Norgate Dr",
    "address_councildis": "E",
    "status": "Pending",
    "contractor": "Legacy Professional Services",
    "rowid": "1151674",
    "final_x": "3707508.7884",
    "final_y": "557083.977306",
    "longitude": "-89.98499479170547",
    "latitude": "30.024971707236336",
    "geocoded_column": {
      "latitude": "30.024971707236336",
      "longitude": "-89.98499479170547"
    }
  },
  {
    "service_request": "2024-1151673",
    "request_type": "Trash/Recycling",
    "request_reason": "Missed Trash Pick-Up",
    "date_created": "2024-11-27T10:07:59.000",
    "date_modified": "2024-11-27T10:11:10.000",
    "case_close_date": "2024-11-27T04:11:10.000",
    "request_status": "Closed",
    "responsible_agency": "Department of Sanitation",
    "final_address": "4851 Galahad Dr",
    "address_councildis": "E",
    "status": "Invalid Request",
    "contractor": "Waste Pro",
    "contractor_action": "Invalid Request",
    "rowid": "1151673",
    "final_x": "3707198.23332",
    "final_y": "556319.295066",
    "longitude": "-89.98600449888315",
    "latitude": "30.02287917343874",
    "geocoded_column": {
      "latitude": "30.02287917343874",
      "longitude": "-89.98600449888315"
    }
  },
  {
    "service_request": "2024-1151672",
    "request_type": "Abandoned Vehicles",
    "request_reason": "Abandoned/Junk Vehicles",
    "date_created": "2024-11-27T10:06:12.000",
    "date_modified": "2024-11-27T10:06:12.000",
    "request_status": "Pending",
    "responsible_agency": "Department of Public Works",
    "final_address": "4226 Paris Ave",
    "address_councildis": "D",
    "status": "Pending",
    "rowid": "1151672",
    "final_x": "3679394.16015",
    "final_y": "547937.031058",
    "longitude": "-90.07415013655212",
    "latitude": "30.000700603577258",
    "geocoded_column": {
      "latitude": "30.000700603577258",
      "longitude": "-90.07415013655212"
    }
  },
  {
    "service_request": "2024-1151671",
    "request_type": "Trash/Recycling",
    "request_reason": "Request a Large Item Pick Up",
    "date_created": "2024-11-27T10:03:17.000",
    "date_modified": "2024-11-27T10:03:18.000",
    "request_status": "Pending",
    "responsible_agency": "Department of Sanitation",
    "final_address": "4401 Skyview Dr",
    "address_councildis": "D",
    "status": "Assigned to Contractor",
    "contractor": "Waste Pro",
    "rowid": "1151671",
    "final_x": "3696898.76938",
    "final_y": "552558.122262",
    "longitude": "-90.01868464681878",
    "latitude": "30.012866343058153",
    "geocoded_column": {
      "latitude": "30.012866343058153",
      "longitude": "-90.01868464681878"
    }
  },
  {
    "service_request": "2024-1151670",
    "request_type": "Trash/Recycling",
    "request_reason": "Order Second Trash Cart",
    "date_created": "2024-11-27T10:01:16.000",
    "date_modified": "2024-11-27T10:01:17.000",
    "request_status": "Pending",
    "responsible_agency": "Department of Sanitation",
    "final_address": "7831 Keats St",
    "address_councildis": "E",
    "status": "Assigned to Contractor",
    "contractor": "Waste Pro",
    "rowid": "1151670",
    "final_x": "3696140.5889",
    "final_y": "559669.186589",
    "longitude": "-90.02082272182857",
    "latitude": "30.03244296991038",
    "geocoded_column": {
      "latitude": "30.03244296991038",
      "longitude": "-90.02082272182857"
    }
  },
  {
    "service_request": "2024-1151669",
    "request_type": "Trash/Recycling",
    "request_reason": "Illegal Dumping",
    "date_created": "2024-11-27T09:57:37.000",
    "date_modified": "2024-11-27T10:56:36.000",
    "case_close_date": "2024-11-27T04:56:36.000",
    "request_status": "Closed",
    "responsible_agency": "Department of Code Enforcement",
    "final_address": "3521 Hamburg St",
    "address_councildis": "D",
    "status": "Resolved",
    "rowid": "1151669",
    "final_x": "3679327.20725",
    "final_y": "545289.030415",
    "longitude": "-90.07445355017157",
    "latitude": "29.993421561903208",
    "geocoded_column": {
      "latitude": "29.993421561903208",
      "longitude": "-90.07445355017157"
    }
  },
  {
    "service_request": "2024-1151668",
    "request_type": "Abandoned Vehicles",
    "request_reason": "Abandoned/Junk Vehicles",
    "date_created": "2024-11-27T09:55:16.000",
    "date_modified": "2024-11-27T09:55:18.000",
    "request_status": "Pending",
    "responsible_agency": "Department of Public Works",
    "final_address": "2124 Forstall St",
    "address_councildis": "E",
    "status": "Pending",
    "rowid": "1151668",
    "final_x": "3697334.37008",
    "final_y": "538180.985353",
    "longitude": "-90.01782989011316",
    "latitude": "29.97332075327605",
    "geocoded_column": {
      "latitude": "29.97332075327605",
      "longitude": "-90.01782989011316"
    }
  },
  {
    "service_request": "2024-1151667",
    "request_type": "Roads and Streets",
    "request_reason": "Pothole",
    "date_created": "2024-11-27T09:54:32.000",
    "date_modified": "2024-11-27T09:54:32.000",
    "request_status": "Pending",
    "responsible_agency": "Department of Public Works",
    "final_address": "0 BLK Audubon Pl",
    "address_councildis": "A",
    "status": "Pending",
    "rowid": "1151667",
    "final_x": "3663876.12431",
    "final_y": "524541.057989",
    "longitude": "-90.1239530214583",
    "latitude": "29.93682916989887",
    "geocoded_column": {
      "latitude": "29.93682916989887",
      "longitude": "-90.1239530214583"
    }
  },
  {
    "service_request": "2024-1151666",
    "request_type": "Trash/Recycling",
    "request_reason": "Repair Recycling Cart",
    "date_created": "2024-11-27T09:52:16.000",
    "date_modified": "2024-11-27T09:52:16.000",
    "request_status": "Pending",
    "responsible_agency": "Department of Sanitation",
    "final_address": "1111 Fern St",
    "address_councildis": "A",
    "status": "Pending",
    "rowid": "1151666",
    "final_x": "3662400.30823",
    "final_y": "527645.747583",
    "longitude": "-90.12850920655676",
    "latitude": "29.94540882667016",
    "geocoded_column": {
      "latitude": "29.94540882667016",
      "longitude": "-90.12850920655676"
    }
  },
  {
    "service_request": "2024-1151665",
    "request_type": "Trash/Recycling",
    "request_reason": "Repair Recycling Cart",
    "date_created": "2024-11-27T09:51:58.000",
    "date_modified": "2024-11-27T09:51:59.000",
    "request_status": "Pending",
    "responsible_agency": "Department of Sanitation",
    "final_address": "1109 Fern St",
    "address_councildis": "A",
    "status": "Pending",
    "rowid": "1151665",
    "final_x": "3662391.45325",
    "final_y": "527634.902783",
    "longitude": "-90.12853752473129",
    "latitude": "29.945379262950148",
    "geocoded_column": {
      "latitude": "29.945379262950148",
      "longitude": "-90.12853752473129"
    }
  },
  {
    "service_request": "2024-1151664",
    "request_type": "Trash/Recycling",
    "request_reason": "Request a Large Item Pick Up",
    "date_created": "2024-11-27T09:51:48.000",
    "date_modified": "2024-11-27T09:51:48.000",
    "request_status": "Pending",
    "responsible_agency": "Department of Sanitation",
    "final_address": "7820 W Laverne St",
    "address_councildis": "D",
    "status": "Assigned to Contractor",
    "contractor": "Waste Pro",
    "rowid": "1151664",
    "final_x": "3694921.08746",
    "final_y": "559182.959324",
    "longitude": "-90.02469396913096",
    "latitude": "30.031144383536343",
    "geocoded_column": {
      "latitude": "30.031144383536343",
      "longitude": "-90.02469396913096"
    }
  },
  {
    "service_request": "2024-1151663",
    "request_type": "Trash/Recycling",
    "request_reason": "Request a Large Item Pick Up",
    "date_created": "2024-11-27T09:46:30.000",
    "date_modified": "2024-11-27T09:46:31.000",
    "request_status": "Pending",
    "responsible_agency": "Department of Sanitation",
    "final_address": "3622 Upperline St",
    "address_councildis": "B",
    "status": "Assigned to Contractor",
    "contractor": "IV Waste",
    "rowid": "1151663",
    "final_x": "3669244.86964",
    "final_y": "528217.076416",
    "longitude": "-90.1068793584479",
    "latitude": "29.94678012944188",
    "geocoded_column": {
      "latitude": "29.94678012944188",
      "longitude": "-90.1068793584479"
    }
  },
  {
    "service_request": "2024-1151662",
    "request_type": "Trash/Recycling",
    "request_reason": "Request a Large Item Pick Up",
    "date_created": "2024-11-27T09:32:58.000",
    "date_modified": "2024-11-27T09:32:59.000",
    "request_status": "Pending",
    "responsible_agency": "Department of Sanitation",
    "final_address": "3434 St Charles Ave",
    "address_councildis": "B",
    "status": "Assigned to Contractor",
    "contractor": "IV Waste",
    "rowid": "1151662",
    "final_x": "3673974.62644",
    "final_y": "521289.704697",
    "longitude": "-90.09218268565171",
    "latitude": "29.927592065524532",
    "geocoded_column": {
      "latitude": "29.927592065524532",
      "longitude": "-90.09218268565171"
    }
  },
  {
    "service_request": "2024-1151661",
    "request_type": "Trash/Recycling",
    "request_reason": "Order Trash Cart",
    "date_created": "2024-11-27T09:32:04.000",
    "date_modified": "2024-11-27T09:32:05.000",
    "request_status": "Pending",
    "responsible_agency": "Department of Sanitation",
    "final_address": "1533 Second St",
    "address_councildis": "B",
    "status": "Assigned to Contractor",
    "contractor": "IV Waste",
    "rowid": "1151661",
    "final_x": "3676864.46101",
    "final_y": "522876.382651",
    "longitude": "-90.08300551803745",
    "latitude": "29.931868526391117",
    "geocoded_column": {
      "latitude": "29.931868526391117",
      "longitude": "-90.08300551803745"
    }
  },
  {
    "service_request": "2024-1151660",
    "request_type": "Trash/Recycling",
    "request_reason": "Replace Trash Cart",
    "date_created": "2024-11-27T09:31:41.000",
    "date_modified": "2024-11-27T09:31:42.000",
    "request_status": "Pending",
    "responsible_agency": "Department of Sanitation",
    "final_address": "4517 Virgilian St",
    "address_councildis": "D",
    "status": "Assigned to Contractor",
    "contractor": "Waste Pro",
    "rowid": "1151660",
    "final_x": "3697637.35498",
    "final_y": "552604.63855",
    "longitude": "-90.01634944211024",
    "latitude": "30.012970924377257",
    "geocoded_column": {
      "latitude": "30.012970924377257",
      "longitude": "-90.01634944211024"
    }
  },