[
  {
    "service_request": "2023-1052184",
    "request_type": "Roads/Drainage",
    "request_reason": "Man hole cover issue",
    "date_created": "2023-11-28T01:48:32.000",
    "date_modified": "2023-11-28T01:48:33.000",
    "request_status": "Pending",
    "responsible_agency": "Department of Public Works",
    "final_address": "CANAL ST & CAMP ST & CHARTRES ST",
    "address_councildis": "B",
    "status": "Pending",
    "rowid": "1052184",
    "final_x": "3681440.9",
    "final_y": "530424.38",
    "longitude": "-90.06829513253405",
    "latitude": "29.9524848929036",
    "geocoded_column": {
      "latitude": "29.9524848929036",
      "longitude": "-90.06829513253405"
    }
  },
  {
    "service_request": "2023-1052183",
    "request_type": "Trash/Recycling",
    "request_reason": "Request a Large Item Pick Up",
    "date_created": "2023-11-28T00:53:50.000",
    "date_modified": "2023-11-28T00:53:51.000",
    "request_status": "Pending",
    "responsible_agency": "Department of Sanitation",
    "final_address": "2923 Pine St",
    "address_councildis": "B",
    "status": "Assigned to Contractor",
    "contractor": "Richards Disposal",
    "rowid": "1052183",
    "final_x": "3667428.92922",
    "final_y": "531914.770755",
    "longitude": "-90.1124885716927",
    "latitude": "29.957000903187712",
    "geocoded_column": {
      "latitude": "29.957000903187712",
      "longitude": "-90.1124885716927"
    }
  },
  {
    "service_request": "2023-1052182",
    "request_type": "Roads/Drainage",
    "request_reason": "Pothole",
    "date_created": "2023-11-27T22:44:42.000",
    "date_modified": "2023-11-27T22:44:42.000",
    "request_status": "Pending",
    "responsible_agency": "Department of Public Works",
    "final_address": "5902 Hurst St",
    "address_councildis": "A",
    "status": "Pending",
    "rowid": "1052182",
    "final_x": "3665757.45908",
    "final_y": "521688.420601",
    "longitude": "-90.11810904350683",
    "latitude": "29.92893059016598",
    "geocoded_column": {
      "latitude": "29.92893059016598",
      "longitude": "-90.11810904350683"
    }
  },
  {
    "service_request": "2023-1052181",
    "request_type": "Roads/Drainage",
    "request_reason": "Accessibility Ramps, Curbs and Sidewalk Repair",
    "date_created": "2023-11-27T22:39:58.000",
    "date_modified": "2023-11-27T22:39:58.000",
    "request_status": "Pending",
    "responsible_agency": "Department of Public Works",
    "final_address": "BULLARD AVE & N OAKRIDGE CT",
    "address_councildis": "E",
    "status": "Pending",
    "rowid": "1052181",
    "final_x": "3713021.1",
    "final_y": "567601.88",
    "longitude": "-89.96718070852187",
    "latitude": "30.053712209757233",
    "geocoded_column": {
      "latitude": "30.053712209757233",
      "longitude": "-89.96718070852187"
    }
  },
  {
    "service_request": "2023-1052180",
    "request_type": "Roads/Drainage",
    "request_reason": "Pothole",
    "date_created": "2023-11-27T22:38:11.000",
    "date_modified": "2023-11-27T22:38:11.000",
    "request_status": "Pending",
    "responsible_agency": "Department of Public Works",
    "final_address": "5911 Pitt St",
    "address_councildis": "A",
    "status": "Pending",
    "rowid": "1052180",
    "final_x": "3665593.70816",
    "final_y": "521157.144249",
    "longitude": "-90.11864375351159",
    "latitude": "29.927474522277453",
    "geocoded_column": {
      "latitude": "29.927474522277453",
      "longitude": "-90.11864375351159"
    }
  },
  {
    "service_request": "2023-1052179",
    "request_type": "Trash/Recycling",
    "request_reason": "Replace Recycling Cart",
    "date_created": "2023-11-27T22:36:43.000",
    "date_modified": "2023-11-27T22:36:43.000",
    "request_status": "Pending",
    "responsible_agency": "Department of Sanitation",
    "final_address": "7030 Ridgefield Dr",
    "address_councildis": "E",
    "status": "Pending",
    "rowid": "1052179",
    "final_x": "3719355.41081",
    "final_y": "569522.862374",
    "longitude": "-89.94708633128015",
    "latitude": "30.058784935623542",
    "geocoded_column": {
      "latitude": "30.058784935623542",
      "longitude": "-89.94708633128015"
    }
  },
  {
    "service_request": "2023-1052177",
    "request_type": "Roads/Drainage",
    "request_reason": "Pothole",
    "date_created": "2023-11-27T22:34:06.000",
    "date_modified": "2023-11-27T22:34:06.000",
    "request_status": "Pending",
    "responsible_agency": "Department of Public Works",
    "final_address": "5935 Coliseum St",
    "address_councildis": "A",
    "status": "Pending",
    "rowid": "1052177",
    "final_x": "3665220.92672",
    "final_y": "520215.433528",
    "longitude": "-90.11985201992287",
    "latitude": "29.924895975237057",
    "geocoded_column": {
      "latitude": "29.924895975237057",
      "longitude": "-90.11985201992287"
    }
  },
  {
    "service_request": "2023-1052176",
    "request_type": "Trash/Recycling",
    "request_reason": "Repair Recycling Cart",
    "date_created": "2023-11-27T22:34:04.000",
    "date_modified": "2023-11-27T22:34:04.000",
    "request_status": "Pending",
    "responsible_agency": "Department of Sanitation",
    "final_address": "7030 Ridgefield Dr",
    "address_councildis": "E",
    "status": "Pending",
    "rowid": "1052176",
    "final_x": "3719355.41081",
    "final_y": "569522.862374",
    "longitude": "-89.94708633128015",
    "latitude": "30.058784935623542",
    "geocoded_column": {
      "latitude": "30.058784935623542",
      "longitude": "-89.94708633128015"
    }
  },
  {
    "service_request": "2023-1052175",
    "request_type": "Trash/Recycling",
    "request_reason": "Replace Trash Cart",
    "date_created": "2023-11-27T22:31:27.000",
    "date_modified": "2023-11-27T22:31:27.000",
    "request_status": "Pending",
    "responsible_agency": "Department of Sanitation",
    "final_address": "7030 Ridgefield Dr",
    "address_councildis": "E",
    "status": "Assigned to Contractor",
    "contractor": "Waste Pro",
    "rowid": "1052175",
    "final_x": "3719355.41081",
    "final_y": "569522.862374",
    "longitude": "-89.94708633128015",
    "latitude": "30.058784935623542",
    "geocoded_column": {
      "latitude": "30.058784935623542",
      "longitude": "-89.94708633128015"
    }
  },
  {
    "service_request": "2023-1052174",
    "request_type": "Traffic Signals/Signs/Striping/Streetlights",
    "request_reason": "Street Light Outage/Malfunction",
    "date_created": "2023-11-27T20:48:43.000",
    "date_modified": "2023-11-27T20:48:43.000",
    "request_status": "Pending",
    "responsible_agency": "Department of Public Works",
    "final_address": "109 Lark St",
    "address_councildis": "D",
    "status": "Assigned to Contractor",
    "contractor": "Legacy Professional Services",
    "rowid": "1052174",
    "final_x": "3674864.29409",
    "final_y": "556196.748954",
    "longitude": "-90.08817677621316",
    "latitude": "30.023547979881883",
    "geocoded_column": {
      "latitude": "30.023547979881883",
      "longitude": "-90.08817677621316"
    }
  },
  {
    "service_request": "2023-1052173",
    "request_type": "Traffic Signals/Signs/Striping/Streetlights",
    "request_reason": "Street Light Outage/Malfunction",
    "date_created": "2023-11-27T20:48:14.000",
    "date_modified": "2023-11-27T20:48:15.000",
    "request_status": "Pending",
    "responsible_agency": "Department of Public Works",
    "final_address": "109 Lark St",
    "address_councildis": "D",
    "status": "Assigned to Contractor",
    "contractor": "Legacy Professional Services",
    "rowid": "1052173",
    "final_x": "3674864.29409",
    "final_y": "556196.748954",
    "longitude": "-90.08817677621316",
    "latitude": "30.023547979881883",
    "geocoded_column": {
      "latitude": "30.023547979881883",
      "longitude": "-90.08817677621316"
    }
  },
  {
    "service_request": "2023-1052172",
    "request_type": "Traffic Signals/Signs/Striping/Streetlights",
    "request_reason": "Street Light Outage/Malfunction",
    "date_created": "2023-11-27T20:47:43.000",
    "date_modified": "2023-11-27T20:47:43.000",
    "request_status": "Pending",
    "responsible_agency": "Department of Public Works",
    "final_address": "109 Lark St",
    "address_councildis": "D",
    "status": "Assigned to Contractor",
    "contractor": "Legacy Professional Services",
    "rowid": "1052172",
    "final_x": "3674864.29409",
    "final_y": "556196.748954",
    "longitude": "-90.08817677621316",
    "latitude": "30.023547979881883",
    "geocoded_column": {
      "latitude": "30.023547979881883",
      "longitude": "-90.08817677621316"
    }
  },
  {
    "service_request": "2023-1052171",
    "request_type": "Traffic Signals/Signs/Striping/Streetlights",
    "request_reason": "Street Light Outage/Malfunction",
    "date_created": "2023-11-27T20:47:14.000",
    "date_modified": "2023-11-27T20:47:14.000",
    "request_status": "Pending",
    "responsible_agency": "Department of Public Works",
    "final_address": "109 Lark St",
    "address_councildis": "D",
    "status": "Assigned to Contractor",
    "contractor": "Legacy Professional Services",
    "rowid": "1052171",
    "final_x": "3674864.29409",
    "final_y": "556196.748954",
    "longitude": "-90.08817677621316",
    "latitude": "30.023547979881883",
    "geocoded_column": {
      "latitude": "30.023547979881883",
      "longitude": "-90.08817677621316"
    }
  },
  {
    "service_request": "2023-1052170",
    "request_type": "Traffic Signals/Signs/Striping/Streetlights",
    "request_reason": "Street Light Outage/Malfunction",
    "date_created": "2023-11-27T20:44:54.000",
    "date_modified": "2023-11-27T20:44:55.000",
    "request_status": "Pending",
    "responsible_agency": "Department of Public Works",
    "final_address": "109 Lark St",
    "address_councildis": "D",
    "status": "Assigned to Contractor",
    "contractor": "Legacy Professional Services",
    "rowid": "1052170",
    "final_x": "3674864.29409",
    "final_y": "556196.748954",
    "longitude": "-90.08817677621316",
    "latitude": "30.023547979881883",
    "geocoded_column": {
      "latitude": "30.023547979881883",
      "longitude": "-90.08817677621316"
    }
  },
  {
    "service_request": "2023-1052169",
    "request_type": "Trash/Recycling",
    "request_reason": "Illegal Dumping",
    "date_created": "2023-11-27T19:23:32.000",
    "date_modified": "2023-11-27T19:23:32.000",
    "request_status": "Pending",
    "responsible_agency": "Department of Sanitation",
    "final_address": "1703 Second St",
    "address_councildis": "B",
    "status": "Pending",
    "rowid": "1052169",
    "final_x": "3676489.35521",
    "final_y": "523419.619195",
    "longitude": "-90.08417099190689",
    "latitude": "29.933373498973815",
    "geocoded_column": {
      "latitude": "29.933373498973815",
      "longitude": "-90.08417099190689"
    }
  },
  {
    "service_request": "2023-1052168",
    "request_type": "Trash/Recycling",
    "request_reason": "Start Trash Service",
    "date_created": "2023-11-27T19:17:40.000",
    "date_modified": "2023-11-27T19:17:41.000",
    "request_status": "Pending",
    "responsible_agency": "Department of Sanitation",
    "final_address": "4304 Bienville Ave",
    "address_councildis": "A",
    "status": "Assigned to Contractor",
    "contractor": "Richards Disposal",
    "rowid": "1052168",
    "final_x": "3670674.95771",
    "final_y": "539566.366922",
    "longitude": "-90.10197895677501",
    "latitude": "29.977944734406112",
    "geocoded_column": {
      "latitude": "29.977944734406112",
      "longitude": "-90.10197895677501"
    }
  },
  {
    "service_request": "2023-1052167",
    "request_type": "Traffic Signals/Signs/Striping/Streetlights",
    "request_reason": "Street Light Outage/Malfunction",
    "date_created": "2023-11-27T19:00:38.000",
    "date_modified": "2023-11-27T19:00:39.000",
    "request_status": "Pending",
    "responsible_agency": "Department of Public Works",
    "final_address": "3005 N Claiborne Ave",
    "address_councildis": "D",
    "status": "Assigned to Contractor",
    "contractor": "Legacy Professional Services",
    "rowid": "1052167",
    "final_x": "3688991.55753",
    "final_y": "538054.952393",
    "longitude": "-90.04418259357315",
    "latitude": "29.97323493457048",
    "geocoded_column": {
      "latitude": "29.97323493457048",
      "longitude": "-90.04418259357315"
    }
  },
  {
    "service_request": "2023-1052166",
    "request_type": "Trash/Recycling",
    "request_reason": "Order Recycling Cart",
    "date_created": "2023-11-27T18:58:43.000",
    "date_modified": "2023-11-27T18:58:43.000",
    "request_status": "Pending",
    "responsible_agency": "Department of Sanitation",
    "final_address": "236 20Th St",
    "address_councildis": "A",
    "status": "Pending",
    "rowid": "1052166",
    "final_x": "3665524.3968",
    "final_y": "548957.158611",
    "longitude": "-90.11793169851042",
    "latitude": "30.003917404173627",
    "geocoded_column": {
      "latitude": "30.003917404173627",
      "longitude": "-90.11793169851042"
    }
  },
  {
    "service_request": "2023-1052164",
    "request_type": "Trash/Recycling",
    "request_reason": "Missed Trash Pick-Up",
    "date_created": "2023-11-27T18:43:24.000",
    "date_modified": "2023-11-27T18:43:25.000",
    "request_status": "Pending",
    "responsible_agency": "Department of Sanitation",
    "final_address": "7590 Rochon Ave",
    "address_councildis": "E",
    "status": "Assigned to Contractor",
    "contractor": "Waste Pro",
    "rowid": "1052164",
    "final_x": "3718722.31173",
    "final_y": "571523.185256",
    "longitude": "-89.94901108851373",
    "latitude": "30.064306033983275",
    "geocoded_column": {
      "latitude": "30.064306033983275",
      "longitude": "-89.94901108851373"
    }
  },
  {
    "service_request": "2023-1052163",
    "request_type": "Trash/Recycling",
    "request_reason": "Request a Large Item Pick Up",
    "date_created": "2023-11-27T18:42:09.000",
    "date_modified": "2023-11-27T18:42:10.000",
    "request_status": "Pending",
    "responsible_agency": "Department of Sanitation",
    "final_address": "4801 Corsica Pl",
    "address_councildis": "E",
    "status": "Assigned to Contractor",
    "contractor": "Waste Pro",
    "rowid": "1052163",
    "final_x": "3727518.07046",
    "final_y": "561574.080287",
    "longitude": "-89.92159484345733",
    "latitude": "30.036655056059942",
    "geocoded_column": {
      "latitude": "30.036655056059942",
      "longitude": "-89.92159484345733"
    }
  },
  {
    "service_request": "2023-1052162",
    "request_type": "Traffic Signals/Signs/Striping/Streetlights",
    "request_reason": "Street Light Outage/Malfunction",
    "date_created": "2023-11-27T18:11:30.000",
    "date_modified": "2023-11-27T18:11:30.000",
    "request_status": "Pending",
    "responsible_agency": "Department of Public Works",
    "final_address": "6361 Louisville St",
    "address_councildis": "A",
    "status": "Assigned to Contractor",
    "contractor": "Legacy Professional Services",
    "rowid": "1052162",
    "final_x": "3668066.15316",
    "final_y": "549814.744788",
    "longitude": "-90.10987289640458",
    "latitude": "30.006201090675304",
    "geocoded_column": {
      "latitude": "30.006201090675304",
      "longitude": "-90.10987289640458"
    }
  },
  {
    "service_request": "2023-1052161",
    "request_type": "Traffic Signals/Signs/Striping/Streetlights",
    "request_reason": "Street Light Outage/Malfunction",
    "date_created": "2023-11-27T18:04:27.000",
    "date_modified": "2023-11-27T18:04:28.000",
    "request_status": "Pending",
    "responsible_agency": "Department of Public Works",
    "final_address": "6100 BLK Garfield St",
    "address_councildis": "A",
    "status": "Assigned to Contractor",
    "contractor": "Legacy Professional Services",
    "rowid": "1052161",
    "final_x": "3664807.95775",
    "final_y": "521724.815918",
    "longitude": "-90.12110522622316",
    "latitude": "29.929058320794002",
    "geocoded_column": {
      "latitude": "29.929058320794002",
      "longitude": "-90.12110522622316"
    }
  },
  {
    "service_request": "2023-1052160",
    "request_type": "Abandoned Vehicles",
    "request_reason": "Vehicle Blocking Your Driveway",
    "date_created": "2023-11-27T17:59:07.000",
    "date_modified": "2023-11-27T17:59:07.000",
    "request_status": "Pending",
    "responsible_agency": "Department of Public Works",
    "final_address": "7114 W Laverne St",
    "address_councildis": "D",
    "status": "Pending",
    "rowid": "1052160",
    "final_x": "3695778.64861",
    "final_y": "556717.199002",
    "longitude": "-90.02207322699805",
    "latitude": "30.02433752466813",
    "geocoded_column": {
      "latitude": "30.02433752466813",
      "longitude": "-90.02207322699805"
    }
  },
  {
    "service_request": "2023-1052159",
    "request_type": "Trash/Recycling",
    "request_reason": "Request a Large Item Pick Up",
    "date_created": "2023-11-27T17:56:59.000",
    "date_modified": "2023-11-27T17:57:00.000",
    "request_status": "Pending",
    "responsible_agency": "Department of Sanitation",
    "final_address": "7114 W Laverne St",
    "address_councildis": "D",
    "status": "Assigned to Contractor",
    "contractor": "Waste Pro",
    "rowid": "1052159",
    "final_x": "3695778.64861",
    "final_y": "556717.199002",
    "longitude": "-90.02207322699805",
    "latitude": "30.02433752466813",
    "geocoded_column": {
      "latitude": "30.02433752466813",
      "longitude": "-90.02207322699805"
    }
  },
  {
    "service_request": "2023-1052158",
    "request_type": "Trash/Recycling",
    "request_reason": "Replace Trash Cart",
    "date_created": "2023-11-27T17:36:10.000",
    "date_modified": "2023-11-27T17:36:11.000",
    "request_status": "Pending",
    "responsible_agency": "Department of Sanitation",
    "final_address": "3455 Camp St",
    "address_councildis": "B",
    "status": "Assigned to Contractor",
    "contractor": "Richards Disposal",
    "rowid": "1052158",
    "final_x": "3674372.18715",
    "final_y": "519806.282872",
    "longitude": "-90.09097845355465",
    "latitude": "29.923501286377128",
    "geocoded_column": {
      "latitude": "29.923501286377128",
      "longitude": "-90.09097845355465"
    }
  },
  {
    "service_request": "2023-1052157",
    "request_type": "Trash/Recycling",
    "request_reason": "Replace Trash Cart",
    "date_created": "2023-11-27T17:31:18.000",
    "date_modified": "2023-11-27T17:31:19.000",
    "request_status": "Pending",
    "responsible_agency": "Department of Sanitation",
    "final_address": "2830 Banks St",
    "address_councildis": "B",
    "status": "Assigned to Contractor",
    "contractor": "Richards Disposal",
    "rowid": "1052157",
    "final_x": "3673902.3899",
    "final_y": "534613.198022",
    "longitude": "-90.0919550607097",
    "latitude": "29.96422943738853",
    "geocoded_column": {
      "latitude": "29.96422943738853",
      "longitude": "-90.0919550607097"
    }
  },
  {
    "service_request": "2023-1052156",
    "request_type": "Trash/Recycling",
    "request_reason": "Request a Large Item Pick Up",
    "date_created": "2023-11-27T17:30:42.000",
    "date_modified": "2023-11-27T17:30:43.000",
    "request_status": "Pending",
    "responsible_agency": "Department of Sanitation",
    "final_address": "7911 Cynthia Dr",
    "address_councildis": "E",
    "status": "Assigned to Contractor",
    "contractor": "Waste Pro",
    "rowid": "1052156",
    "final_x": "3702133.61047",
    "final_y": "560542.983262",
    "longitude": "-90.00185236443579",
    "latitude": "30.03465545404194",
    "geocoded_column": {
      "latitude": "30.03465545404194",
      "longitude": "-90.00185236443579"
    }
  },
  {
    "service_request": "2023-1052155",
    "request_type": "Trash/Recycling",
    "request_reason": "Missed Trash Pick-Up",
    "date_created": "2023-11-27T16:59:54.000",
    "date_modified": "2023-11-27T16:59:55.000",
    "request_status": "Pending",
    "responsible_agency": "Department of Sanitation",
    "final_address": "919 N Claiborne Ave",
    "address_councildis": "D",
    "status": "Assigned to Contractor",
    "contractor": "Richards Disposal",
    "rowid": "1052155",
    "final_x": "3680217.47739",
    "final_y": "535393.95623",
    "longitude": "-90.07198540810657",
    "latitude": "29.966186623108282",
    "geocoded_column": {
      "latitude": "29.966186623108282",
      "longitude": "-90.07198540810657"
    }
  },
  {
    "service_request": "2023-1052154",
    "request_type": "Roads/Drainage",
    "request_reason": "Pothole",
    "date_created": "2023-11-27T16:51:20.000",
    "date_modified": "2023-11-27T16:51:20.000",
    "request_status": "Pending",
    "responsible_agency": "Department of Public Works",
    "final_address": "FRENCHMEN ST & ABUNDANCE ST",
    "address_councildis": "D",
    "status": "Pending",
    "rowid": "1052154",
    "final_x": "3683997.8",
    "final_y": "543639.88",
    "longitude": "-90.0597578159157",
    "latitude": "29.988745063285766",
    "geocoded_column": {
      "latitude": "29.988745063285766",
      "longitude": "-90.0597578159157"
    }
  },
  {
    "service_request": "2023-1052153",
    "request_type": "Trash/Recycling",
    "request_reason": "Illegal Dumping",
    "date_created": "2023-11-27T16:42:00.000",
    "date_modified": "2023-11-27T16:42:00.000",
    "request_status": "Pending",
    "responsible_agency": "Department of Sanitation",
    "final_address": "1800 BLK Duels St",
    "address_councildis": "D",
    "status": "Pending",
    "rowid": "1052153",
    "final_x": "3682090.65612",
    "final_y": "542370.881581",
    "longitude": "-90.06582623123624",
    "latitude": "29.98531391218149",
    "geocoded_column": {
      "latitude": "29.98531391218149",
      "longitude": "-90.06582623123624"
    }
  },
  {
    "service_request": "2023-1052152",
    "request_type": "Trash/Recycling",
    "request_reason": "Request a Large Item Pick Up",
    "date_created": "2023-11-27T16:41:40.000",
    "date_modified": "2023-11-27T16:41:41.000",
    "request_status": "Pending",
    "responsible_agency": "Department of Sanitation",
    "final_address": "11283 Winrock Dr",
    "address_councildis": "E",
    "status": "Assigned to Contractor",
    "contractor": "Waste Pro",
    "rowid": "1052152",
    "final_x": "3716681.44594",
    "final_y": "561706.381535",
    "longitude": "-89.95583541936485",
    "latitude": "30.037381488445696",
    "geocoded_column": {
      "latitude": "30.037381488445696",
      "longitude": "-89.95583541936485"
    }
  },
  {
    "service_request": "2023-1052151",
    "request_type": "Roads/Drainage",
    "request_reason": "Pothole",
    "date_created": "2023-11-27T16:41:30.000",
    "date_modified": "2023-11-27T16:41:30.000",
    "request_status": "Pending",
    "responsible_agency": "Department of Public Works",
    "final_address": "4216 Chestnut St",
    "address_councildis": "B",
    "status": "Pending",
    "rowid": "1052151",
    "final_x": "3671574.31393",
    "final_y": "519539.203703",
    "longitude": "-90.09981939416457",
    "latitude": "29.922850019854593",
    "geocoded_column": {
      "latitude": "29.922850019854593",
      "longitude": "-90.09981939416457"
    }
  },
  {
    "service_request": "2023-1052150",
    "request_type": "Trash/Recycling",
    "request_reason": "Request a Large Item Pick Up",
    "date_created": "2023-11-27T16:33:56.000",
    "date_modified": "2023-11-27T16:33:56.000",
    "request_status": "Pending",
    "responsible_agency": "Department of Sanitation",
    "final_address": "6529 Wuerpel St",
    "address_councildis": "A",
    "status": "Assigned to Contractor",
    "contractor": "IV Waste",
    "rowid": "1052150",
    "final_x": "3667140.05921",
    "final_y": "551084.658197",
    "longitude": "-90.11275592817704",
    "latitude": "30.00972006669454",
    "geocoded_column": {
      "latitude": "30.00972006669454",
      "longitude": "-90.11275592817704"
    }
  },
  {
    "service_request": "2023-1052149",
    "request_type": "Roads/Drainage",
    "request_reason": "Pothole",
    "date_created": "2023-11-27T16:28:42.000",
    "date_modified": "2023-11-27T16:28:42.000",
    "request_status": "Pending",
    "responsible_agency": "Department of Public Works",
    "final_address": "4533 Mendez St",
    "address_councildis": "D",
    "status": "Pending",
    "rowid": "1052149",
    "final_x": "3690492.53795",
    "final_y": "553911.546007",
    "longitude": "-90.03887647751424",
    "latitude": "30.01678829914333",
    "geocoded_column": {
      "latitude": "30.01678829914333",
      "longitude": "-90.03887647751424"
    }
  },
  {
    "service_request": "2023-1052148",
    "request_type": "Trash/Recycling",
    "request_reason": "Repair Trash Cart",
    "date_created": "2023-11-27T16:25:31.000",
    "date_modified": "2023-11-27T16:25:31.000",
    "request_status": "Pending",
    "responsible_agency": "Department of Sanitation",
    "final_address": "210 N Galvez St",
    "address_councildis": "B",
    "status": "Assigned to Contractor",
    "contractor": "Richards Disposal",
    "rowid": "1052148",
    "final_x": "3677367.17429",
    "final_y": "534264.962501",
    "longitude": "-90.08102557439308",
    "latitude": "29.963168239618692",
    "geocoded_column": {
      "latitude": "29.963168239618692",
      "longitude": "-90.08102557439308"
    }
  },
  {
    "service_request": "2023-1052147",
    "request_type": "Trash/Recycling",
    "request_reason": "Request a Large Item Pick Up",
    "date_created": "2023-11-27T16:24:30.000",
    "date_modified": "2023-11-27T16:24:30.000",
    "request_status": "Pending",
    "responsible_agency": "Department of Sanitation",
    "final_address": "1724 S Carrollton Ave",
    "address_councildis": "A",
    "status": "Assigned to Contractor",
    "contractor": "Richards Disposal",
    "rowid": "1052147",
    "final_x": "3663253.17645",
    "final_y": "529812.529217",
    "longitude": "-90.12574431624303",
    "latitude": "29.95134209384637",
    "geocoded_column": {
      "latitude": "29.95134209384637",
      "longitude": "-90.12574431624303"
    }
  },
  {
    "service_request": "2023-1052146",
    "request_type": "Trash/Recycling",
    "request_reason": "Repair Trash Cart",
    "date_created": "2023-11-27T16:23:08.000",
    "date_modified": "2023-11-27T16:23:09.000",
    "request_status": "Pending",
    "responsible_agency": "Department of Sanitation",
    "final_address": "2722 N Claiborne Ave",
    "address_councildis": "C",
    "status": "Assigned to Contractor",
    "contractor": "IV Waste",
    "rowid": "1052146",
    "final_x": "3688073.59273",
    "final_y": "538155.718153",
    "longitude": "-90.04707813095906",
    "latitude": "29.97354037077013",
    "geocoded_column": {
      "latitude": "29.97354037077013",
      "longitude": "-90.04707813095906"
    }
  },
  {
    "service_request": "2023-1052145",
    "request_type": "Trash/Recycling",
    "request_reason": "Request a Large Item Pick Up",
    "date_created": "2023-11-27T16:20:07.000",
    "date_modified": "2023-11-27T16:20:07.000",
    "request_status": "Pending",
    "responsible_agency": "Department of Sanitation",
    "final_address": "719 Evelina St",
    "address_councildis": "C",
    "status": "Assigned to Contractor",
    "contractor": "Richards Disposal",
    "rowid": "1052145",
    "final_x": "3687682.14537",
    "final_y": "529460.835777",
    "longitude": "-90.04862228418605",
    "latitude": "29.949644535110753",
    "geocoded_column": {
      "latitude": "29.949644535110753",
      "longitude": "-90.04862228418605"
    }
  },
  {
    "service_request": "2023-1052144",
    "request_type": "Trash/Recycling",
    "request_reason": "Request a Large Item Pick Up",
    "date_created": "2023-11-27T16:17:45.000",
    "date_modified": "2023-11-27T16:17:46.000",
    "request_status": "Pending",
    "responsible_agency": "Department of Sanitation",
    "final_address": "7800 Henley St",
    "address_councildis": "E",
    "status": "Assigned to Contractor",
    "contractor": "Waste Pro",
    "rowid": "1052144",
    "final_x": "3696638.17981",
    "final_y": "559688.304413",
    "longitude": "-90.0192496121383",
    "latitude": "30.032479855185617",
    "geocoded_column": {
      "latitude": "30.032479855185617",
      "longitude": "-90.0192496121383"
    }
  },
  {
    "service_request": "2023-1052143",
    "request_type": "Abandoned Vehicles",
    "request_reason": "Abandoned/Junk Vehicles",
    "date_created": "2023-11-27T16:16:50.000",
    "date_modified": "2023-11-27T16:16:50.000",
    "request_status": "Pending",
    "responsible_agency": "Department of Public Works",
    "final_address": "612 Bartholomew St",
    "address_councildis": "C",
    "status": "Pending",
    "rowid": "1052143",
    "final_x": "3691304.22889",
    "final_y": "533670.606021",
    "longitude": "-90.03703538691713",
    "latitude": "29.961107778584616",
    "geocoded_column": {
      "latitude": "29.961107778584616",
      "longitude": "-90.03703538691713"
    }
  },
  {
    "service_request": "2023-1052142",
    "request_type": "EMS",
    "request_reason": "EMS Lost & Found",
    "date_created": "2023-11-27T16:16:31.000",
    "date_modified": "2023-11-27T18:32:31.000",
    "case_close_date": "2023-11-27T12:32:31.000",
    "request_status": "Closed",
    "responsible_agency": "Emergency Medical Services",
    "final_address": "1415 Tulane Ave",
    "address_councildis": "B",
    "status": "Unfounded",
    "rowid": "1052142",
    "final_x": "3678983.77896",
    "final_y": "531479.673603",
    "longitude": "-90.07601703928408",
    "latitude": "29.95546095742283",
    "geocoded_column": {
      "latitude": "29.95546095742283",
      "longitude": "-90.07601703928408"
    }
  },
  {
    "service_request": "2023-1052141",
    "request_type": "Roads/Drainage",
    "request_reason": "Pothole",
    "date_created": "2023-11-27T16:14:01.000",
    "date_modified": "2023-11-27T16:14:33.000",
    "request_status": "Pending",
    "responsible_agency": "Department of Public Works",
    "final_address": "6631 Dorchester St",
    "address_councildis": "E",
    "status": "Pending",
    "rowid": "1052141",
    "final_x": "3697814.68663",
    "final_y": "559021.299164",
    "longitude": "-90.01555602130482",
    "latitude": "30.030608695397483",
    "geocoded_column": {
      "latitude": "30.030608695397483",
      "longitude": "-90.01555602130482"
    }
  },
  {
    "service_request": "2023-1052140",
    "request_type": "Trash/Recycling",
    "request_reason": "Repair Trash Cart",
    "date_created": "2023-11-27T16:11:26.000",
    "date_modified": "2023-11-27T16:11:26.000",
    "request_status": "Pending",
    "responsible_agency": "Department of Sanitation",
    "final_address": "517 Warrington Dr",
    "address_councildis": "D",
    "status": "Assigned to Contractor",
    "contractor": "IV Waste",
    "rowid": "1052140",
    "final_x": "3681277.24021",
    "final_y": "548735.258771",
    "longitude": "-90.06817351446739",
    "latitude": "30.002838410286635",
    "geocoded_column": {
      "latitude": "30.002838410286635",
      "longitude": "-90.06817351446739"
    }
  },
  {
    "service_request": "2023-1052138",
    "request_type": "Trash/Recycling",
    "request_reason": "Request a Large Item Pick Up",
    "date_created": "2023-11-27T16:07:03.000",
    "date_modified": "2023-11-27T16:07:04.000",
    "request_status": "Pending",
    "responsible_agency": "Department of Sanitation",
    "final_address": "2519 Myrtle St",
    "address_councildis": "D",
    "status": "Assigned to Contractor",
    "contractor": "IV Waste",
    "rowid": "1052138",
    "final_x": "3686697.28258",
    "final_y": "546068.834768",
    "longitude": "-90.0511451479415",
    "latitude": "29.995341042314802",
    "geocoded_column": {
      "latitude": "29.995341042314802",
      "longitude": "-90.0511451479415"
    }
  },
  {
    "service_request": "2023-1052137",
    "request_type": "Mosquito, Termite & Rodent Control",
    "request_reason": "Rodent Complaint (Rats)",
    "date_created": "2023-11-27T16:01:44.000",
    "date_modified": "2023-11-27T16:01:44.000",
    "request_status": "Pending",
    "responsible_agency": "Mosquito, Termite & Rodent Control Board",
    "final_address": "1000 BLK Saint Philip St",
    "address_councildis": "C",
    "status": "Pending",
    "rowid": "1052137",
    "final_x": "3682219.39373",
    "final_y": "534115.179261",
    "longitude": "-90.0657080812966",
    "latitude": "29.96260967855893",
    "geocoded_column": {
      "latitude": "29.96260967855893",
      "longitude": "-90.0657080812966"
    }
  },
  {
    "service_request": "2023-1052136",
    "request_type": "Trash/Recycling",
    "request_reason": "Request a Large Item Pick Up",
    "date_created": "2023-11-27T16:01:08.000",
    "date_modified": "2023-11-27T16:01:09.000",
    "request_status": "Pending",
    "responsible_agency": "Department of Sanitation",
    "final_address": "36 Bluebird St",
    "address_councildis": "D",
    "status": "Assigned to Contractor",
    "contractor": "IV Waste",
    "rowid": "1052136",
    "final_x": "3672893.17224",
    "final_y": "554857.471192",
    "longitude": "-90.09445088300511",
    "latitude": "30.01992419616661",
    "geocoded_column": {
      "latitude": "30.01992419616661",
      "longitude": "-90.09445088300511"
    }
  },
  {
    "service_request": "2023-1052135",
    "request_type": "Trash/Recycling",
    "request_reason": "Order Trash Cart",
    "date_created": "2023-11-27T15:52:42.000",
    "date_modified": "2023-11-27T15:52:43.000",
    "request_status": "Pending",
    "responsible_agency": "Department of Sanitation",
    "final_address": "400 Harrison Ave",
    "address_councildis": "A",
    "status": "Assigned to Contractor",
    "contractor": "IV Waste",
    "rowid": "1052135",
    "final_x": "3667636.16551",
    "final_y": "549245.662547",
    "longitude": "-90.11125051247275",
    "latitude": "30.00464892950619",
    "geocoded_column": {
      "latitude": "30.00464892950619",
      "longitude": "-90.11125051247275"
    }
  },
  {
    "service_request": "2023-1052134",
    "request_type": "Parks & Parkways",
    "request_reason": "Request Tree Service (Right of Way/Public Property)",
    "date_created": "2023-11-27T15:48:31.000",
    "date_modified": "2023-11-27T15:48:31.000",
    "request_status": "Pending",
    "responsible_agency": "Department of Parks & Parkway",
    "final_address": "300 BLK La Salle St",
    "address_councildis": "B",
    "status": "Pending",
    "rowid": "1052134",
    "final_x": "3678565.08903",
    "final_y": "531299.855823",
    "longitude": "-90.07734533492162",
    "latitude": "29.954979144989515",
    "geocoded_column": {
      "latitude": "29.954979144989515",
      "longitude": "-90.07734533492162"
    }
  },
  {
    "service_request": "2023-1052133",
    "request_type": "Trash/Recycling",
    "request_reason": "Repair Trash Cart",
    "date_created": "2023-11-27T15:47:18.000",
    "date_modified": "2023-11-27T15:47:19.000",
    "request_status": "Pending",
    "responsible_agency": "Department of Sanitation",
    "final_address": "7910 Belfast St",
    "address_councildis": "A",
    "status": "Assigned to Contractor",
    "contractor": "Richards Disposal",
    "rowid": "1052133",
    "final_x": "3666063.39188",
    "final_y": "531885.009859",
    "longitude": "-90.11680152652093",
    "latitude": "29.956959005311507",
    "geocoded_column": {
      "latitude": "29.956959005311507",
      "longitude": "-90.11680152652093"
    }
  },
  {
    "service_request": "2023-1052132",
    "request_type": "Trash/Recycling",
    "request_reason": "Request a Large Item Pick Up",
    "date_created": "2023-11-27T15:46:36.000",
    "date_modified": "2023-11-27T15:46:37.000",
    "request_status": "Pending",
    "responsible_agency": "Department of Sanitation",
    "final_address": "1236 N Villere St",
    "address_councildis": "C",
    "status": "Assigned to Contractor",
    "contractor": "Richards Disposal",
    "rowid": "1052132",
    "final_x": "3681694.38818",
    "final_y": "535932.513415",
    "longitude": "-90.06730256806506",
    "latitude": "29.967622683909525",
    "geocoded_column": {
      "latitude": "29.967622683909525",
      "longitude": "-90.06730256806506"
    }
  },
  {
    "service_request": "2023-1052131",
    "request_type": "Trash/Recycling",
    "request_reason": "Order Trash Cart",
    "date_created": "2023-11-27T15:45:00.000",
    "date_modified": "2023-11-27T15:45:01.000",
    "request_status": "Pending",
    "responsible_agency": "Department of Sanitation",
    "final_address": "4712 N Robertson St A",
    "address_councildis": "E",
    "status": "Assigned to Contractor",
    "contractor": "Waste Pro",
    "rowid": "1052131",
    "final_x": "3695169.8207",
    "final_y": "536018.984903",
    "longitude": "-90.02474392343345",
    "latitude": "29.967444175555183",
    "geocoded_column": {
      "latitude": "29.967444175555183",
      "longitude": "-90.02474392343345"
    }
  },
  {
    "service_request": "2023-1052130",
    "request_type": "Property Maintenance",
    "request_reason": "Property Maintenance",
    "date_created": "2023-11-27T15:42:58.000",
    "date_modified": "2023-11-27T15:42:58.000",
    "request_status": "Pending",
    "responsible_agency": "Department of Code Enforcement",
    "final_address": "1328 Mandolin St",
    "address_councildis": "D",
    "status": "Pending",
    "rowid": "1052130",
    "final_x": "3677470.92642",
    "final_y": "547949.007506",
    "longitude": "-90.08022535766304",
    "latitude": "30.000791507391373",
    "geocoded_column": {
      "latitude": "30.000791507391373",
      "longitude": "-90.08022535766304"
    }
  },
  {
    "service_request": "2023-1052129",
    "request_type": "Traffic Signals/Signs/Striping/Streetlights",
    "request_reason": "Traffic Sign Missing/Damaged",
    "date_created": "2023-11-27T15:38:23.000",
    "date_modified": "2023-11-27T15:38:23.000",
    "request_status": "Pending",
    "responsible_agency": "Department of Public Works",
    "final_address": "444 St Charles Ave",
    "address_councildis": "B",
    "status": "Pending",
    "rowid": "1052129",
    "final_x": "3680823.64776",
    "final_y": "529600.982337",
    "longitude": "-90.0702727919551",
    "latitude": "29.950239550267344",
    "geocoded_column": {
      "latitude": "29.950239550267344",
      "longitude": "-90.0702727919551"
    }
  },
  {
    "service_request": "2023-1052128",
    "request_type": "Trash/Recycling",
    "request_reason": "Request a Large Item Pick Up",
    "date_created": "2023-11-27T15:36:26.000",
    "date_modified": "2023-11-27T15:36:27.000",
    "request_status": "Pending",
    "responsible_agency": "Department of Sanitation",
    "final_address": "7721 Branch Dr",
    "address_councildis": "E",
    "status": "Assigned to Contractor",
    "contractor": "Waste Pro",
    "rowid": "1052128",
    "final_x": "3714478.73215",
    "final_y": "569102.329638",
    "longitude": "-89.96251681135584",
    "latitude": "30.05778996443443",
    "geocoded_column": {
      "latitude": "30.05778996443443",
      "longitude": "-89.96251681135584"
    }
  },
  {
    "service_request": "2023-1052126",
    "request_type": "Traffic Signals/Signs/Striping/Streetlights",
    "request_reason": "Striping/Road Surface Markings",
    "date_created": "2023-11-27T15:34:06.000",
    "date_modified": "2023-11-27T15:34:06.000",
    "request_status": "Pending",
    "responsible_agency": "Department of Public Works",
    "final_address": "360 St Charles Ave",
    "address_councildis": "B",
    "status": "Pending",
    "rowid": "1052126",
    "final_x": "3680873.58472",
    "final_y": "529787.599297",
    "longitude": "-90.0701086213841",
    "latitude": "29.950751170420506",
    "geocoded_column": {
      "latitude": "29.950751170420506",
      "longitude": "-90.0701086213841"
    }
  },
  {
    "service_request": "2023-1052125",
    "request_type": "Abandoned Vehicles",
    "request_reason": "Abandoned/Junk Vehicles",
    "date_created": "2023-11-27T15:33:20.000",
    "date_modified": "2023-11-27T15:33:21.000",
    "request_status": "Pending",
    "responsible_agency": "Department of Public Works",
    "final_address": "1504 Oretha Castle Haley Blvd",
    "address_councildis": "B",
    "status": "Pending",
    "rowid": "1052125",
    "final_x": "3678033.69269",
    "final_y": "526153.291582",
    "longitude": "-90.07920115279254",
    "latitude": "29.940843814285515",
    "geocoded_column": {
      "latitude": "29.940843814285515",
      "longitude": "-90.07920115279254"
    }
  },
  {
    "service_request": "2023-1052124",
    "request_type": "Property Maintenance",
    "request_reason": "Property Maintenance",
    "date_created": "2023-11-27T15:25:12.000",
    "date_modified": "2023-11-27T15:25:12.000",
    "request_status": "Pending",
    "responsible_agency": "Department of Code Enforcement",
    "final_address": "1329 Mandolin St",
    "address_councildis": "D",
    "status": "Pending",
    "rowid": "1052124",
    "final_x": "3677456.01672",
    "final_y": "548108.25301",
    "longitude": "-90.08026695708274",
    "latitude": "30.00122982448429",
    "geocoded_column": {
      "latitude": "30.00122982448429",
      "longitude": "-90.08026695708274"
    }
  },
  {
    "service_request": "2023-1052123",
    "request_type": "Trash/Recycling",
    "request_reason": "Request a Large Item Pick Up",
    "date_created": "2023-11-27T15:22:11.000",
    "date_modified": "2023-11-27T15:22:12.000",
    "request_status": "Pending",
    "responsible_agency": "Department of Sanitation",
    "final_address": "605 River Oaks Dr",
    "address_councildis": "C",
    "status": "Assigned to Contractor",
    "contractor": "Richards Disposal",
    "rowid": "1052123",
    "final_x": "3701451.84183",
    "final_y": "520706.946233",
    "longitude": "-90.00546569671816",
    "latitude": "29.92514270686297",
    "geocoded_column": {
      "latitude": "29.92514270686297",
      "longitude": "-90.00546569671816"
    }
  },
  {
    "service_request": "2023-1052122",
    "request_type": "Trash/Recycling",
    "request_reason": "Order Trash Cart",
    "date_created": "2023-11-27T15:20:52.000",
    "date_modified": "2023-11-27T15:20:53.000",
    "request_status": "Pending",
    "responsible_agency": "Department of Sanitation",
    "final_address": "11010 Roger Dr Apt C",
    "address_councildis": "E",
    "status": "Assigned to Contractor",
    "contractor": "Waste Pro",
    "rowid": "1052122",
    "final_x": "3712280.64018",
    "final_y": "563418.6168",
    "longitude": "-89.96967844933442",
    "latitude": "30.04223418345038",
    "geocoded_column": {
      "latitude": "30.04223418345038",
      "longitude": "-89.96967844933442"
    }
  },
  {
    "service_request": "2023-1052121",
    "request_type": "Roads/Drainage",
    "request_reason": "Pothole",
    "date_created": "2023-11-27T15:17:57.000",
    "date_modified": "2023-11-27T15:17:57.000",
    "request_status": "Pending",
    "responsible_agency": "Department of Public Works",
    "final_address": "1015 Peniston St",
    "address_councildis": "B",
    "status": "Pending",
    "rowid": "1052121",
    "final_x": "3673297.29384",
    "final_y": "519566.473592",
    "longitude": "-90.09437968280942",
    "latitude": "29.922873889520673",
    "geocoded_column": {
      "latitude": "29.922873889520673",
      "longitude": "-90.09437968280942"
    }
  },
  {
    "service_request": "2023-1052120",
    "request_type": "Property Maintenance",
    "request_reason": "Property Maintenance",
    "date_created": "2023-11-27T15:14:29.000",
    "date_modified": "2023-11-27T15:14:29.000",
    "request_status": "Pending",
    "responsible_agency": "Department of Code Enforcement",
    "final_address": "2629 New Orleans St",
    "address_councildis": "D",
    "status": "Pending",
    "rowid": "1052120",
    "final_x": "3681975.00527",
    "final_y": "541912.418892",
    "longitude": "-90.06620753752117",
    "latitude": "29.984056817861138",
    "geocoded_column": {
      "latitude": "29.984056817861138",
      "longitude": "-90.06620753752117"
    }
  },
  {
    "service_request": "2023-1052119",
    "request_type": "Trash/Recycling",
    "request_reason": "Request a Large Item Pick Up",
    "date_created": "2023-11-27T15:12:41.000",
    "date_modified": "2023-11-27T15:14:50.000",
    "request_status": "Pending",
    "responsible_agency": "Department of Sanitation",
    "final_address": "3508 Elysian Fields Ave",
    "address_councildis": "D",
    "status": "Assigned to Contractor",
    "contractor": "IV Waste",
    "rowid": "1052119",
    "final_x": "3684126.03701",
    "final_y": "545596.305936",
    "longitude": "-90.05928404326771",
    "latitude": "29.994120619131316",
    "geocoded_column": {
      "latitude": "29.994120619131316",
      "longitude": "-90.05928404326771"
    }
  },
  {
    "service_request": "2023-1052118",
    "request_type": "Roads/Drainage",
    "request_reason": "Pothole",
    "date_created": "2023-11-27T15:07:27.000",
    "date_modified": "2023-11-27T15:07:27.000",
    "request_status": "Pending",
    "responsible_agency": "Department of Public Works",
    "final_address": "1312 Milan St",
    "address_councildis": "B",
    "status": "Pending",
    "rowid": "1052118",
    "final_x": "3671625.82823",
    "final_y": "520286.919608",
    "longitude": "-90.09963137110304",
    "latitude": "29.92490447494246",
    "geocoded_column": {
      "latitude": "29.92490447494246",
      "longitude": "-90.09963137110304"
    }
  },
  {
    "service_request": "2023-1052117",
    "request_type": "Trash/Recycling",
    "request_reason": "MIssed Recycling Pick-Up",
    "date_created": "2023-11-27T15:06:39.000",
    "date_modified": "2023-11-27T15:06:39.000",
    "request_status": "Pending",
    "responsible_agency": "Department of Sanitation",
    "final_address": "7712 Reindeer St",
    "address_councildis": "E",
    "status": "Assigned to Contractor",
    "contractor": "Waste Pro",
    "rowid": "1052117",
    "final_x": "3716666.99103",
    "final_y": "570926.748199",
    "longitude": "-89.95553072846982",
    "latitude": "30.062734195291842",
    "geocoded_column": {
      "latitude": "30.062734195291842",
      "longitude": "-89.95553072846982"
    }
  },
  {
    "service_request": "2023-1052116",
    "request_type": "Trash/Recycling",
    "request_reason": "MIssed Recycling Pick-Up",
    "date_created": "2023-11-27T15:04:31.000",
    "date_modified": "2023-11-27T15:05:26.000",
    "request_status": "Pending",
    "responsible_agency": "Department of Sanitation",
    "final_address": "7656 Anne Marie Ct",
    "address_councildis": "E",
    "status": "Assigned to Contractor",
    "contractor": "Waste Pro",
    "rowid": "1052116",
    "final_x": "3717737.04057",
    "final_y": "571303.543272",
    "longitude": "-89.95213394696222",
    "latitude": "30.063734802869117",
    "geocoded_column": {
      "latitude": "30.063734802869117",
      "longitude": "-89.95213394696222"
    }
  },
  {
    "service_request": "2023-1052115",
    "request_type": "Trash/Recycling",
    "request_reason": "Missed Trash Pick-Up",
    "date_created": "2023-11-27T15:00:58.000",
    "date_modified": "2023-11-27T15:00:58.000",
    "request_status": "Pending",
    "responsible_agency": "Department of Sanitation",
    "final_address": "7700 Dogwood Dr",
    "address_councildis": "E",
    "status": "Assigned to Contractor",
    "contractor": "Waste Pro",
    "rowid": "1052115",
    "final_x": "3701136.25393",
    "final_y": "561206.170078",
    "longitude": "-90.00497983996466",
    "latitude": "30.036510788373434",
    "geocoded_column": {
      "latitude": "30.036510788373434",
      "longitude": "-90.00497983996466"
    }
  },
  {
    "service_request": "2023-1052114",
    "request_type": "Abandoned Vehicles",
    "request_reason": "Abandoned/Junk Vehicles",
    "date_created": "2023-11-27T14:53:45.000",
    "date_modified": "2023-11-27T14:53:46.000",
    "request_status": "Pending",
    "responsible_agency": "Department of Public Works",
    "final_address": "3424 Bruxelles St",
    "address_councildis": "D",
    "status": "Pending",
    "rowid": "1052114",
    "final_x": "3680085.40386",
    "final_y": "545016.528015",
    "longitude": "-90.07206800376545",
    "latitude": "29.992649350270945",
    "geocoded_column": {
      "latitude": "29.992649350270945",
      "longitude": "-90.07206800376545"
    }
  },
  {
    "service_request": "2023-1052113",
    "request_type": "Trash/Recycling",
    "request_reason": "Request a Large Item Pick Up",
    "date_created": "2023-11-27T14:52:29.000",
    "date_modified": "2023-11-27T14:52:31.000",
    "request_status": "Pending",
    "responsible_agency": "Department of Sanitation",
    "final_address": "305 River Oaks Dr",
    "address_councildis": "C",
    "status": "Assigned to Contractor",
    "contractor": "Richards Disposal",
    "rowid": "1052113",
    "final_x": "3701514.0817",
    "final_y": "522687.770682",
    "longitude": "-90.0051967507642",
    "latitude": "29.930587305385398",
    "geocoded_column": {
      "latitude": "29.930587305385398",
      "longitude": "-90.0051967507642"
    }
  },
  {
    "service_request": "2023-1052112",
    "request_type": "Trash/Recycling",
    "request_reason": "Request a Large Item Pick Up",
    "date_created": "2023-11-27T14:52:06.000",
    "date_modified": "2023-11-27T14:52:07.000",
    "request_status": "Pending",
    "responsible_agency": "Department of Sanitation",
    "final_address": "207 River Oaks Dr",
    "address_councildis": "C",
    "status": "Assigned to Contractor",
    "contractor": "Richards Disposal",
    "rowid": "1052112",
    "final_x": "3701542.86692",
    "final_y": "523224.971067",
    "longitude": "-90.00508622249473",
    "latitude": "29.932063502452092",
    "geocoded_column": {
      "latitude": "29.932063502452092",
      "longitude": "-90.00508622249473"
    }
  },
  {
    "service_request": "2023-1052111",
    "request_type": "Parks & Parkways",
    "request_reason": "Request Grass Cutting Service (City Owned Property)",
    "date_created": "2023-11-27T14:42:31.000",
    "date_modified": "2023-11-27T14:42:32.000",
    "request_status": "Pending",
    "responsible_agency": "Department of Parks & Parkway",
    "final_address": "DWYER RD & LAFON DR",
    "address_councildis": "E",
    "status": "Pending",
    "rowid": "1052111",
    "final_x": "3701014.8",
    "final_y": "555735.18",
    "longitude": "-90.00556400184995",
    "latitude": "30.02147154989782",
    "geocoded_column": {
      "latitude": "30.02147154989782",
      "longitude": "-90.00556400184995"
    }
  },
  {
    "service_request": "2023-1052110",
    "request_type": "Trash/Recycling",
    "request_reason": "Replace Trash Cart",
    "date_created": "2023-11-27T14:41:50.000",
    "date_modified": "2023-11-27T14:41:50.000",
    "request_status": "Pending",
    "responsible_agency": "Department of Sanitation",
    "final_address": "3123 Mandeville St",
    "address_councildis": "D",
    "status": "Assigned to Contractor",
    "contractor": "IV Waste",
    "rowid": "1052110",
    "final_x": "3685212.20687",
    "final_y": "544321.493007",
    "longitude": "-90.05589788264095",
    "latitude": "29.99058208630321",
    "geocoded_column": {
      "latitude": "29.99058208630321",
      "longitude": "-90.05589788264095"
    }
  },
  {
    "service_request": "2023-1052109",
    "request_type": "Traffic Signals/Signs/Striping/Streetlights",
    "request_reason": "Street Light Outage/Malfunction",
    "date_created": "2023-11-27T14:39:40.000",
    "date_modified": "2023-11-27T14:39:41.000",
    "request_status": "Pending",
    "responsible_agency": "Department of Public Works",
    "final_address": "2900 S Claiborne Ave",
    "address_councildis": "B",
    "status": "Assigned to Contractor",
    "contractor": "Legacy Professional Services",
    "rowid": "1052109",
    "final_x": "3672768.75572",
    "final_y": "526286.092734",
    "longitude": "-90.09581899130944",
    "latitude": "29.941366374248226",
    "geocoded_column": {
      "latitude": "29.941366374248226",
      "longitude": "-90.09581899130944"
    }
  },
  {
    "service_request": "2023-1052108",
    "request_type": "Trash/Recycling",
    "request_reason": "Repair Recycling Cart",
    "date_created": "2023-11-27T14:39:26.000",
    "date_modified": "2023-11-27T14:39:26.000",
    "request_status": "Pending",
    "responsible_agency": "Department of Sanitation",
    "final_address": "2810 S Carrollton Ave",
    "address_councildis": "A",
    "status": "Pending",
    "rowid": "1052108",
    "final_x": "3665845.41901",
    "final_y": "532794.262916",
    "longitude": "-90.11745935294857",
    "latitude": "29.959465515124688",
    "geocoded_column": {
      "latitude": "29.959465515124688",
      "longitude": "-90.11745935294857"
    }
  },
  {
    "service_request": "2023-1052107",
    "request_type": "Trash/Recycling",
    "request_reason": "Repair Recycling Cart",
    "date_created": "2023-11-27T14:38:23.000",
    "date_modified": "2023-11-27T14:38:23.000",
    "request_status": "Pending",
    "responsible_agency": "Department of Sanitation",
    "final_address": "6921 Queensway Dr",
    "address_councildis": "E",
    "status": "Pending",
    "rowid": "1052107",
    "final_x": "3719679.60722",
    "final_y": "568912.975141",
    "longitude": "-89.94608492775536",
    "latitude": "30.057097211256853",
    "geocoded_column": {
      "latitude": "30.057097211256853",
      "longitude": "-89.94608492775536"
    }
  },
  {
    "service_request": "2023-1052106",
    "request_type": "Trash/Recycling",
    "request_reason": "Replace Trash Cart",
    "date_created": "2023-11-27T14:35:04.000",
    "date_modified": "2023-11-27T14:35:05.000",
    "request_status": "Pending",
    "responsible_agency": "Department of Sanitation",
    "final_address": "2810 S Carrollton Ave",
    "address_councildis": "A",
    "status": "Assigned to Contractor",
    "contractor": "Richards Disposal",
    "rowid": "1052106",
    "final_x": "3665845.41901",
    "final_y": "532794.262916",
    "longitude": "-90.11745935294857",
    "latitude": "29.959465515124688",
    "geocoded_column": {
      "latitude": "29.959465515124688",
      "longitude": "-90.11745935294857"
    }
  },
  {
    "service_request": "2023-1052105",
    "request_type": "Trash/Recycling",
    "request_reason": "Repair Trash Cart",
    "date_created": "2023-11-27T14:30:32.000",
    "date_modified": "2023-11-27T14:30:33.000",
    "request_status": "Pending",
    "responsible_agency": "Department of Sanitation",
    "final_address": "41 Kings Canyon Dr",
    "address_councildis": "C",
    "status": "Assigned to Contractor",
    "contractor": "Richards Disposal",
    "rowid": "1052105",
    "final_x": "3700344.39204",
    "final_y": "515718.48466",
    "longitude": "-90.00914351764264",
    "latitude": "29.91146138353067",
    "geocoded_column": {
      "latitude": "29.91146138353067",
      "longitude": "-90.00914351764264"
    }
  },
  {
    "service_request": "2023-1052104",
    "request_type": "Trash/Recycling",
    "request_reason": "MIssed Recycling Pick-Up",
    "date_created": "2023-11-27T14:26:32.000",
    "date_modified": "2023-11-27T14:26:33.000",
    "request_status": "Pending",
    "responsible_agency": "Department of Sanitation",
    "final_address": "5876 Macarthur Blvd",
    "address_councildis": "C",
    "status": "Assigned to Contractor",
    "contractor": "Richards Disposal",
    "rowid": "1052104",
    "final_x": "3705275.37214",
    "final_y": "519222.454071",
    "longitude": "-89.9934509301384",
    "latitude": "29.92093847971995",
    "geocoded_column": {
      "latitude": "29.92093847971995",
      "longitude": "-89.9934509301384"
    }
  },
  {
    "service_request": "2023-1052103",
    "request_type": "Trash/Recycling",
    "request_reason": "Order Trash Cart",
    "date_created": "2023-11-27T14:26:16.000",
    "date_modified": "2023-11-27T14:26:17.000",
    "request_status": "Pending",
    "responsible_agency": "Department of Sanitation",
    "final_address": "7330 Fieldston Rd",
    "address_councildis": "E",
    "status": "Assigned to Contractor",
    "contractor": "Waste Pro",
    "rowid": "1052103",
    "final_x": "3700680.06148",
    "final_y": "559802.525853",
    "longitude": "-90.00647285780164",
    "latitude": "30.032665845715755",
    "geocoded_column": {
      "latitude": "30.032665845715755",
      "longitude": "-90.00647285780164"
    }
  },
  {
    "service_request": "2023-1052102",
    "request_type": "Trash/Recycling",
    "request_reason": "Order Trash Cart",
    "date_created": "2023-11-27T14:25:41.000",
    "date_modified": "2023-11-27T14:25:42.000",
    "request_status": "Pending",
    "responsible_agency": "Department of Sanitation",
    "final_address": "7330 Fieldston Rd",
    "address_councildis": "E",
    "status": "Assigned to Contractor",
    "contractor": "Waste Pro",
    "rowid": "1052102",
    "final_x": "3700680.06148",
    "final_y": "559802.525853",
    "longitude": "-90.00647285780164",
    "latitude": "30.032665845715755",
    "geocoded_column": {
      "latitude": "30.032665845715755",
      "longitude": "-90.00647285780164"
    }
  },
  {
    "service_request": "2023-1052101",
    "request_type": "Trash/Recycling",
    "request_reason": "Request a Large Item Pick Up",
    "date_created": "2023-11-27T14:24:51.000",
    "date_modified": "2023-11-27T14:24:52.000",
    "request_status": "Pending",
    "responsible_agency": "Department of Sanitation",
    "final_address": "7315 Ebbtide Dr",
    "address_councildis": "E",
    "status": "Assigned to Contractor",
    "contractor": "Waste Pro",
    "rowid": "1052101",
    "final_x": "3702619.54129",
    "final_y": "560583.791518",
    "longitude": "-90.0003152627618",
    "latitude": "30.034752125907602",
    "geocoded_column": {
      "latitude": "30.034752125907602",
      "longitude": "-90.0003152627618"
    }
  },
  {
    "service_request": "2023-1052099",
    "request_type": "Trash/Recycling",
    "request_reason": "Request a Large Item Pick Up",
    "date_created": "2023-11-27T14:17:30.000",
    "date_modified": "2023-11-27T14:17:31.000",
    "request_status": "Pending",
    "responsible_agency": "Department of Sanitation",
    "final_address": "15 Winners Cir",
    "address_councildis": "E",
    "status": "Assigned to Contractor",
    "contractor": "Waste Pro",
    "rowid": "1052099",
    "final_x": "3715659.21484",
    "final_y": "570483.542887",
    "longitude": "-89.95873311600093",
    "latitude": "30.061548845346476",
    "geocoded_column": {
      "latitude": "30.061548845346476",
      "longitude": "-89.95873311600093"
    }
  },
  {
    "service_request": "2023-1052098",
    "request_type": "Trash/Recycling",
    "request_reason": "Request a Large Item Pick Up",
    "date_created": "2023-11-27T14:09:52.000",
    "date_modified": "2023-11-27T14:09:53.000",
    "request_status": "Pending",
    "responsible_agency": "Department of Sanitation",
    "final_address": "3826 Jena St",
    "address_councildis": "B",
    "status": "Assigned to Contractor",
    "contractor": "Richards Disposal",
    "rowid": "1052098",
    "final_x": "3669628.07015",
    "final_y": "528667.785536",
    "longitude": "-90.10565420451066",
    "latitude": "29.948008148891923",
    "geocoded_column": {
      "latitude": "29.948008148891923",
      "longitude": "-90.10565420451066"
    }
  },
  {
    "service_request": "2023-1052097",
    "request_type": "Abandoned Vehicles",
    "request_reason": "Abandoned/Junk Vehicles",
    "date_created": "2023-11-27T14:09:14.000",
    "date_modified": "2023-11-27T14:09:15.000",
    "request_status": "Pending",
    "responsible_agency": "Department of Public Works",
    "final_address": "4744 De Montluzin St",
    "address_councildis": "D",
    "status": "Pending",
    "rowid": "1052097",
    "final_x": "3687081.14063",
    "final_y": "550705.671893",
    "longitude": "-90.04976850292492",
    "latitude": "30.008078847747957",
    "geocoded_column": {
      "latitude": "30.008078847747957",
      "longitude": "-90.04976850292492"
    }
  },
  {
    "service_request": "2023-1052096",
    "request_type": "Trash/Recycling",
    "request_reason": "Request a Large Item Pick Up",
    "date_created": "2023-11-27T14:08:46.000",
    "date_modified": "2023-11-27T14:08:47.000",
    "request_status": "Pending",
    "responsible_agency": "Department of Sanitation",
    "final_address": "7639 Lady Gray St",
    "address_councildis": "E",
    "status": "Assigned to Contractor",
    "contractor": "Waste Pro",
    "rowid": "1052096",
    "final_x": "3709941.62161",
    "final_y": "565412.784226",
    "longitude": "-89.97699598029415",
    "latitude": "30.04779367543501",
    "geocoded_column": {
      "latitude": "30.04779367543501",
      "longitude": "-89.97699598029415"
    }
  },
  {
    "service_request": "2023-1052095",
    "request_type": "Trash/Recycling",
    "request_reason": "Request a Large Item Pick Up",
    "date_created": "2023-11-27T14:05:02.000",
    "date_modified": "2023-11-27T14:05:03.000",
    "request_status": "Pending",
    "responsible_agency": "Department of Sanitation",
    "final_address": "7431 Hansbrough Ave",
    "address_councildis": "E",
    "status": "Assigned to Contractor",
    "contractor": "Waste Pro",
    "rowid": "1052095",
    "final_x": "3707961.22424",
    "final_y": "563985.953889",
    "longitude": "-89.98330822616263",
    "latitude": "30.043934770802807",
    "geocoded_column": {
      "latitude": "30.043934770802807",
      "longitude": "-89.98330822616263"
    }
  },
  {
    "service_request": "2023-1052094",
    "request_type": "Property Maintenance",
    "request_reason": "Property Maintenance",
    "date_created": "2023-11-27T14:04:19.000",
    "date_modified": "2023-11-27T14:04:19.000",
    "request_status": "Pending",
    "responsible_agency": "Department of Code Enforcement",
    "final_address": "1703 Second St",
    "address_councildis": "B",
    "status": "Pending",
    "rowid": "1052094",
    "final_x": "3676489.35521",
    "final_y": "523419.619195",
    "longitude": "-90.08417099190689",
    "latitude": "29.933373498973815",
    "geocoded_column": {
      "latitude": "29.933373498973815",
      "longitude": "-90.08417099190689"
    }
  },
  {
    "service_request": "2023-1052093",
    "request_type": "Property Maintenance",
    "request_reason": "Property Maintenance",
    "date_created": "2023-11-27T14:03:13.000",
    "date_modified": "2023-11-27T14:03:13.000",
    "request_status": "Pending",
    "responsible_agency": "Department of Code Enforcement",
    "final_address": "2300 BLK Delery St",
    "address_councildis": "E",
    "status": "Pending",
    "rowid": "1052093",
    "final_x": "3702234.02069",
    "final_y": "537389.208802",
    "longitude": "-90.00238495030239",
    "latitude": "29.97098807424633",
    "geocoded_column": {
      "latitude": "29.97098807424633",
      "longitude": "-90.00238495030239"
    }
  },
  {
    "service_request": "2023-1052092",
    "request_type": "Property Maintenance",
    "request_reason": "Property Maintenance",
    "date_created": "2023-11-27T14:03:04.000",
    "date_modified": "2023-11-27T14:03:04.000",
    "request_status": "Pending",
    "responsible_agency": "Department of Code Enforcement",
    "final_address": "7835 Maple St",
    "address_councildis": "A",
    "status": "Pending",
    "rowid": "1052092",
    "final_x": "3661675.19731",
    "final_y": "526801.963966",
    "longitude": "-90.13082658471063",
    "latitude": "29.943109635193142",
    "geocoded_column": {
      "latitude": "29.943109635193142",
      "longitude": "-90.13082658471063"
    }
  },
  {
    "service_request": "2023-1052091",
    "request_type": "Trash/Recycling",
    "request_reason": "Missed Trash Pick-Up",
    "date_created": "2023-11-27T14:02:58.000",
    "date_modified": "2023-11-27T14:02:59.000",
    "request_status": "Pending",
    "responsible_agency": "Department of Sanitation",
    "final_address": "4846 Warren Dr",
    "address_councildis": "E",
    "status": "Assigned to Contractor",
    "contractor": "Waste Pro",
    "rowid": "1052091",
    "final_x": "3713329.30494",
    "final_y": "556826.516378",
    "longitude": "-89.9666127939708",
    "latitude": "30.02407418122198",
    "geocoded_column": {
      "latitude": "30.02407418122198",
      "longitude": "-89.9666127939708"
    }
  },
  {
    "service_request": "2023-1052090",
    "request_type": "Trash/Recycling",
    "request_reason": "Illegal Dumping",
    "date_created": "2023-11-27T14:01:14.000",
    "date_modified": "2023-11-27T14:01:14.000",
    "request_status": "Pending",
    "responsible_agency": "Department of Sanitation",
    "final_address": "5900 Wright Rd",
    "address_councildis": "E",
    "status": "Pending",
    "rowid": "1052090",
    "final_x": "3713651.31218",
    "final_y": "561752.654815",
    "longitude": "-89.96540949802723",
    "latitude": "30.037608534794327",
    "geocoded_column": {
      "latitude": "30.037608534794327",
      "longitude": "-89.96540949802723"
    }
  },
  {
    "service_request": "2023-1052089",
    "request_type": "Abandoned Vehicles",
    "request_reason": "Abandoned/Junk Vehicles",
    "date_created": "2023-11-27T13:58:50.000",
    "date_modified": "2023-11-27T13:58:50.000",
    "request_status": "Pending",
    "responsible_agency": "Department of Public Works",
    "final_address": "7827 Hampson St",
    "address_councildis": "A",
    "status": "Pending",
    "rowid": "1052089",
    "final_x": "3661461.30867",
    "final_y": "526543.025854",
    "longitude": "-90.13151046250039",
    "latitude": "29.94240380806146",
    "geocoded_column": {
      "latitude": "29.94240380806146",
      "longitude": "-90.13151046250039"
    }
  },
  {
    "service_request": "2023-1052088",
    "request_type": "Trash/Recycling",
    "request_reason": "Missed Trash Pick-Up",
    "date_created": "2023-11-27T13:54:31.000",
    "date_modified": "2023-11-27T13:54:32.000",
    "request_status": "Pending",
    "responsible_agency": "Department of Sanitation",
    "final_address": "4810 Pauline Dr",
    "address_councildis": "D",
    "status": "Assigned to Contractor",
    "contractor": "IV Waste",
    "rowid": "1052088",
    "final_x": "3692741.78704",
    "final_y": "551822.988438",
    "longitude": "-90.03184477702737",
    "latitude": "30.010975484259657",
    "geocoded_column": {
      "latitude": "30.010975484259657",
      "longitude": "-90.03184477702737"
    }
  },
  {
    "service_request": "2023-1052087",
    "request_type": "Roads/Drainage",
    "request_reason": "Pothole",
    "date_created": "2023-11-27T13:54:22.000",
    "date_modified": "2023-11-27T13:54:22.000",
    "request_status": "Pending",
    "responsible_agency": "Department of Public Works",
    "final_address": "3918 Dryades St",
    "address_councildis": "B",
    "status": "Pending",
    "rowid": "1052087",
    "final_x": "3672272.6347",
    "final_y": "522069.960634",
    "longitude": "-90.09752890691419",
    "latitude": "29.92978810075048",
    "geocoded_column": {
      "latitude": "29.92978810075048",
      "longitude": "-90.09752890691419"
    }
  },
  {
    "service_request": "2023-1052085",
    "request_type": "Trash/Recycling",
    "request_reason": "Request a Large Item Pick Up",
    "date_created": "2023-11-27T13:50:46.000",
    "date_modified": "2023-11-27T13:50:47.000",
    "request_status": "Pending",
    "responsible_agency": "Department of Sanitation",
    "final_address": "312 Diana St",
    "address_councildis": "C",
    "status": "Assigned to Contractor",
    "contractor": "Richards Disposal",
    "rowid": "1052085",
    "final_x": "3686327.98345",
    "final_y": "527569.777023",
    "longitude": "-90.05296469942884",
    "latitude": "29.944486444521",
    "geocoded_column": {
      "latitude": "29.944486444521",
      "longitude": "-90.05296469942884"
    }
  },
  {
    "service_request": "2023-1052084",
    "request_type": "Roads/Drainage",
    "request_reason": "Damaged Sidewalk",
    "date_created": "2023-11-27T13:50:26.000",
    "date_modified": "2023-11-27T13:50:26.000",
    "request_status": "Pending",
    "responsible_agency": "Department of Public Works",
    "final_address": "1332 Joseph St",
    "address_councildis": "A",
    "status": "Pending",
    "rowid": "1052084",
    "final_x": "3666491.71617",
    "final_y": "520794.140473",
    "longitude": "-90.11582112873931",
    "latitude": "29.92645017013598",
    "geocoded_column": {
      "latitude": "29.92645017013598",
      "longitude": "-90.11582112873931"
    }
  },
  {
    "service_request": "2023-1052083",
    "request_type": "Trash/Recycling",
    "request_reason": "MIssed Recycling Pick-Up",
    "date_created": "2023-11-27T13:50:01.000",
    "date_modified": "2023-11-27T13:50:02.000",
    "request_status": "Pending",
    "responsible_agency": "Department of Sanitation",
    "final_address": "630 Majestic Pl",
    "address_councildis": "C",
    "status": "Assigned to Contractor",
    "contractor": "Richards Disposal",
    "rowid": "1052083",
    "final_x": "3687952.87113",
    "final_y": "526312.277438",
    "longitude": "-90.04787900936857",
    "latitude": "29.940978723276704",
    "geocoded_column": {
      "latitude": "29.940978723276704",
      "longitude": "-90.04787900936857"
    }
  },
  {
    "service_request": "2023-1052082",
    "request_type": "Abandoned Vehicles",
    "request_reason": "Abandoned/Junk Vehicles",
    "date_created": "2023-11-27T13:47:48.000",
    "date_modified": "2023-11-27T13:47:48.000",
    "request_status": "Pending",
    "responsible_agency": "Department of Public Works",
    "final_address": "3825 Baudin St",
    "address_councildis": "B",
    "status": "Pending",
    "rowid": "1052082",
    "final_x": "3670952.22721",
    "final_y": "536475.779911",
    "longitude": "-90.10120820242273",
    "latitude": "29.9694384672962",
    "geocoded_column": {
      "latitude": "29.9694384672962",
      "longitude": "-90.10120820242273"
    }
  },
  {
    "service_request": "2023-1052081",
    "request_type": "Abandoned Vehicles",
    "request_reason": "Abandoned/Junk Vehicles",
    "date_created": "2023-11-27T13:47:03.000",
    "date_modified": "2023-11-27T13:47:03.000",
    "request_status": "Pending",
    "responsible_agency": "Department of Public Works",
    "final_address": "5100 BLK N Rampart St",
    "address_councildis": "E",
    "status": "Inspected",
    "rowid": "1052081",
    "final_x": "3696265.8407",
    "final_y": "533733.314539",
    "longitude": "-90.02136533765062",
    "latitude": "29.961124930879617",
    "geocoded_column": {
      "latitude": "29.961124930879617",
      "longitude": "-90.02136533765062"
    }
  },
  {
    "service_request": "2023-1052080",
    "request_type": "Parks & Parkways",
    "request_reason": "Request Tree Service (Right of Way/Public Property)",
    "date_created": "2023-11-27T13:45:58.000",
    "date_modified": "2023-11-27T14:29:25.000",
    "request_status": "Pending",
    "responsible_agency": "Department of Parks & Parkway",
    "final_address": "1133 Margaret Pl",
    "address_councildis": "B",
    "rowid": "1052080",
    "final_x": "3680167.4733",
    "final_y": "526167.541438",
    "longitude": "-90.07246393797756",
    "latitude": "29.940818607293036",
    "geocoded_column": {
      "latitude": "29.940818607293036",
      "longitude": "-90.07246393797756"
    }
  },
  {
    "service_request": "2023-1052079",
    "request_type": "Trash/Recycling",
    "request_reason": "Request a Large Item Pick Up",
    "date_created": "2023-11-27T13:45:57.000",
    "date_modified": "2023-11-27T13:45:58.000",
    "request_status": "Pending",
    "responsible_agency": "Department of Sanitation",
    "final_address": "3410 Blair St",
    "address_councildis": "C",
    "status": "Assigned to Contractor",
    "contractor": "Richards Disposal",
    "rowid": "1052079",
    "final_x": "3709452.84824",
    "final_y": "518200.203382",
    "longitude": "-89.98030275854161",
    "latitude": "29.91799266839776",
    "geocoded_column": {
      "latitude": "29.91799266839776",
      "longitude": "-89.98030275854161"
    }
  },
  {
    "service_request": "2023-1052078",
    "request_type": "Trash/Recycling",
    "request_reason": "Order Recycling Cart",
    "date_created": "2023-11-27T13:45:36.000",
    "date_modified": "2023-11-27T13:45:37.000",
    "request_status": "Pending",
    "responsible_agency": "Department of Sanitation",
    "final_address": "4560 Eastview Dr",
    "address_councildis": "E",
    "status": "Pending",
    "rowid": "1052078",
    "final_x": "3705108.24894",
    "final_y": "554200.521816",
    "longitude": "-89.9926866528013",
    "latitude": "30.017120771038705",
    "geocoded_column": {
      "latitude": "30.017120771038705",
      "longitude": "-89.9926866528013"
    }
  },
  {
    "service_request": "2023-1052077",
    "request_type": "Trash/Recycling",
    "request_reason": "Request a Large Item Pick Up",
    "date_created": "2023-11-27T13:44:02.000",
    "date_modified": "2023-11-27T13:44:03.000",
    "request_status": "Pending",
    "responsible_agency": "Department of Sanitation",
    "final_address": "5307 Wingate Dr",
    "address_councildis": "D",
    "status": "Assigned to Contractor",
    "contractor": "IV Waste",
    "rowid": "1052077",
    "final_x": "3681500.00674",
    "final_y": "552332.714262",
    "longitude": "-90.06734419926485",
    "latitude": "30.012723351818195",
    "geocoded_column": {
      "latitude": "30.012723351818195",
      "longitude": "-90.06734419926485"
    }
  },
  {
    "service_request": "2023-1052076",
    "request_type": "Abandoned Vehicles",
    "request_reason": "Abandoned/Junk Vehicles",
    "date_created": "2023-11-27T13:42:41.000",
    "date_modified": "2023-11-27T13:42:41.000",
    "request_status": "Pending",
    "responsible_agency": "Department of Public Works",
    "final_address": "2627 New Orleans St",
    "address_councildis": "D",
    "status": "Pending",
    "rowid": "1052076",
    "final_x": "3681983.53109",
    "final_y": "541890.030924",
    "longitude": "-90.06618139036608",
    "latitude": "29.983994999554913",
    "geocoded_column": {
      "latitude": "29.983994999554913",
      "longitude": "-90.06618139036608"
    }
  },
  {
    "service_request": "2023-1052075",
    "request_type": "Trash/Recycling",
    "request_reason": "Repair Trash Cart",
    "date_created": "2023-11-27T13:41:04.000",
    "date_modified": "2023-11-27T13:41:05.000",
    "request_status": "Pending",
    "responsible_agency": "Department of Sanitation",
    "final_address": "2315 Pine St",
    "address_councildis": "A",
    "status": "Assigned to Contractor",
    "contractor": "Richards Disposal",
    "rowid": "1052075",
    "final_x": "3666397.48282",
    "final_y": "530201.928449",
    "longitude": "-90.1158030397632",
    "latitude": "29.952321323356816",
    "geocoded_column": {
      "latitude": "29.952321323356816",
      "longitude": "-90.1158030397632"
    }
  },
  {
    "service_request": "2023-1052074",
    "request_type": "Trash/Recycling",
    "request_reason": "Request a Large Item Pick Up",
    "date_created": "2023-11-27T13:40:56.000",
    "date_modified": "2023-11-27T13:40:56.000",
    "request_status": "Pending",
    "responsible_agency": "Department of Sanitation",
    "final_address": "4246 Vincennes Pl",
    "address_councildis": "B",
    "status": "Assigned to Contractor",
    "contractor": "Richards Disposal",
    "rowid": "1052074",
    "final_x": "3668809.15982",
    "final_y": "531665.993347",
    "longitude": "-90.10813862086026",
    "latitude": "29.956276339040272",
    "geocoded_column": {
      "latitude": "29.956276339040272",
      "longitude": "-90.10813862086026"
    }
  },
  {
    "service_request": "2023-1052073",
    "request_type": "Trash/Recycling",
    "request_reason": "Order Trash Cart",
    "date_created": "2023-11-27T13:40:38.000",
    "date_modified": "2023-11-27T13:40:39.000",
    "request_status": "Pending",
    "responsible_agency": "Department of Sanitation",
    "final_address": "3006 Conti St",
    "address_councildis": "B",
    "status": "Assigned to Contractor",
    "contractor": "Richards Disposal",
    "rowid": "1052073",
    "final_x": "3674963.82517",
    "final_y": "536811.665544",
    "longitude": "-90.08852771071011",
    "latitude": "29.970242817519644",
    "geocoded_column": {
      "latitude": "29.970242817519644",
      "longitude": "-90.08852771071011"
    }
  },
  {
    "service_request": "2023-1052072",
    "request_type": "Trash/Recycling",
    "request_reason": "Repair Recycling Cart",
    "date_created": "2023-11-27T13:40:04.000",
    "date_modified": "2023-11-27T13:40:04.000",
    "request_status": "Pending",
    "responsible_agency": "Department of Sanitation",
    "final_address": "429 French St",
    "address_councildis": "A",
    "status": "Pending",
    "rowid": "1052072",
    "final_x": "3667779.29229",
    "final_y": "548749.293779",
    "longitude": "-90.11081507603416",
    "latitude": "30.003279889690283",
    "geocoded_column": {
      "latitude": "30.003279889690283",
      "longitude": "-90.11081507603416"
    }
  },
  {
    "service_request": "2023-1052071",
    "request_type": "Trash/Recycling",
    "request_reason": "Order Trash Cart",
    "date_created": "2023-11-27T13:39:30.000",
    "date_modified": "2023-11-27T13:39:31.000",
    "request_status": "Pending",
    "responsible_agency": "Department of Sanitation",
    "final_address": "4560 Eastview Dr",
    "address_councildis": "E",
    "status": "Assigned to Contractor",
    "contractor": "Waste Pro",
    "rowid": "1052071",
    "final_x": "3705108.24894",
    "final_y": "554200.521816",
    "longitude": "-89.9926866528013",
    "latitude": "30.017120771038705",
    "geocoded_column": {
      "latitude": "30.017120771038705",
      "longitude": "-89.9926866528013"
    }
  },
  {
    "service_request": "2023-1052070",
    "request_type": "Trash/Recycling",
    "request_reason": "Request a Large Item Pick Up",
    "date_created": "2023-11-27T13:38:55.000",
    "date_modified": "2023-11-27T13:38:55.000",
    "request_status": "Pending",
    "responsible_agency": "Department of Sanitation",
    "final_address": "7519 Sandy Cove Dr",
    "address_councildis": "E",
    "status": "Assigned to Contractor",
    "contractor": "Waste Pro",
    "rowid": "1052070",
    "final_x": "3716040.85912",
    "final_y": "568911.764517",
    "longitude": "-89.95758640532006",
    "latitude": "30.057214510743293",
    "geocoded_column": {
      "latitude": "30.057214510743293",
      "longitude": "-89.95758640532006"
    }
  },
  {
    "service_request": "2023-1052069",
    "request_type": "Trash/Recycling",
    "request_reason": "Repair Trash Cart",
    "date_created": "2023-11-27T13:35:48.000",
    "date_modified": "2023-11-27T13:35:48.000",
    "request_status": "Pending",
    "responsible_agency": "Department of Sanitation",
    "final_address": "2021 Mediamolle Dr",
    "address_councildis": "C",
    "status": "Assigned to Contractor",
    "contractor": "Richards Disposal",
    "rowid": "1052069",
    "final_x": "3699187.99012",
    "final_y": "523881.01798",
    "longitude": "-90.01249641013496",
    "latitude": "29.933942253548068",
    "geocoded_column": {
      "latitude": "29.933942253548068",
      "longitude": "-90.01249641013496"
    }
  },
  {
    "service_request": "2023-1052068",
    "request_type": "Parks & Parkways",
    "request_reason": "Request Tree Service (Right of Way/Public Property)",
    "date_created": "2023-11-27T13:29:48.000",
    "date_modified": "2023-11-27T13:29:48.000",
    "request_status": "Pending",
    "responsible_agency": "Department of Parks & Parkway",
    "final_address": "2431 Bienville Ave",
    "address_councildis": "B",
    "status": "Pending",
    "rowid": "1052068",
    "final_x": "3676726.96117",
    "final_y": "535123.510982",
    "longitude": "-90.08301770985922",
    "latitude": "29.965548181112204",
    "geocoded_column": {
      "latitude": "29.965548181112204",
      "longitude": "-90.08301770985922"
    }
  },
  {
    "service_request": "2023-1052067",
    "request_type": "Trash/Recycling",
    "request_reason": "Request a Large Item Pick Up",
    "date_created": "2023-11-27T13:29:42.000",
    "date_modified": "2023-11-27T13:29:43.000",
    "request_status": "Pending",
    "responsible_agency": "Department of Sanitation",
    "final_address": "5425 Constance St",
    "address_councildis": "A",
    "status": "Assigned to Contractor",
    "contractor": "Richards Disposal",
    "rowid": "1052067",
    "final_x": "3666472.53761",
    "final_y": "518540.172791",
    "longitude": "-90.11595726393784",
    "latitude": "29.92025302903185",
    "geocoded_column": {
      "latitude": "29.92025302903185",
      "longitude": "-90.11595726393784"
    }
  },
  {
    "service_request": "2023-1052066",
    "request_type": "Trash/Recycling",
    "request_reason": "Request a Large Item Pick Up",
    "date_created": "2023-11-27T13:27:25.000",
    "date_modified": "2023-11-27T13:27:25.000",
    "request_status": "Pending",
    "responsible_agency": "Department of Sanitation",
    "final_address": "11210 N Idlewood Ct",
    "address_councildis": "E",
    "status": "Assigned to Contractor",
    "contractor": "Waste Pro",
    "rowid": "1052066",
    "final_x": "3716144.48428",
    "final_y": "560169.947165",
    "longitude": "-89.95759062022891",
    "latitude": "30.033174650962454",
    "geocoded_column": {
      "latitude": "30.033174650962454",
      "longitude": "-89.95759062022891"
    }
  },
  {
    "service_request": "2023-1052065",
    "request_type": "Roads/Drainage",
    "request_reason": "Damaged Sidewalk",
    "date_created": "2023-11-27T13:24:37.000",
    "date_modified": "2023-11-27T14:34:23.000",
    "request_status": "Pending",
    "responsible_agency": "Department of Public Works",
    "final_address": "7615 Jeannette St",
    "address_councildis": "A",
    "rowid": "1052065",
    "final_x": "3663985.94643",
    "final_y": "528075.111039",
    "longitude": "-90.12348850188727",
    "latitude": "29.9465434988518",
    "geocoded_column": {
      "latitude": "29.9465434988518",
      "longitude": "-90.12348850188727"
    }
  },
  {
    "service_request": "2023-1052064",
    "request_type": "Roads/Drainage",
    "request_reason": "Pothole",
    "date_created": "2023-11-27T13:24:01.000",
    "date_modified": "2023-11-27T13:24:02.000",
    "request_status": "Pending",
    "responsible_agency": "Department of Public Works",
    "final_address": "EARHART BLVD & S LOPEZ ST",
    "address_councildis": "B",
    "status": "Pending",
    "rowid": "1052064",
    "final_x": "3670975.8",
    "final_y": "532103.28",
    "longitude": "-90.10128223405655",
    "latitude": "29.957414853593626",
    "geocoded_column": {
      "latitude": "29.957414853593626",
      "longitude": "-90.10128223405655"
    }
  },
  {
    "service_request": "2023-1052063",
    "request_type": "Abandoned Vehicles",
    "request_reason": "Abandoned/Junk Vehicles",
    "date_created": "2023-11-27T13:22:24.000",
    "date_modified": "2023-11-27T13:22:25.000",
    "request_status": "Pending",
    "responsible_agency": "Department of Public Works",
    "final_address": "91 French Market Pl",
    "address_councildis": "C",
    "status": "Pending",
    "rowid": "1052063",
    "final_x": "3684566.50978",
    "final_y": "533583.303365",
    "longitude": "-90.05831490715465",
    "latitude": "29.961075597103463",
    "geocoded_column": {
      "latitude": "29.961075597103463",
      "longitude": "-90.05831490715465"
    }
  },
  {
    "service_request": "2023-1052062",
    "request_type": "Trash/Recycling",
    "request_reason": "Order Trash Cart",
    "date_created": "2023-11-27T13:20:38.000",
    "date_modified": "2023-11-27T13:20:39.000",
    "request_status": "Pending",
    "responsible_agency": "Department of Sanitation",
    "final_address": "1016 Delaronde St",
    "address_councildis": "C",
    "status": "Assigned to Contractor",
    "contractor": "Richards Disposal",
    "rowid": "1052062",
    "final_x": "3688726.69628",
    "final_y": "531184.827202",
    "longitude": "-90.04526298060404",
    "latitude": "29.954352674859955",
    "geocoded_column": {
      "latitude": "29.954352674859955",
      "longitude": "-90.04526298060404"
    }
  },
  {
    "service_request": "2023-1052061",
    "request_type": "Trash/Recycling",
    "request_reason": "Missed Trash Pick-Up",
    "date_created": "2023-11-27T13:18:46.000",
    "date_modified": "2023-11-27T13:18:47.000",
    "request_status": "Pending",
    "responsible_agency": "Department of Sanitation",
    "final_address": "2521 Banks St",
    "address_councildis": "B",
    "status": "Assigned to Contractor",
    "contractor": "Richards Disposal",
    "rowid": "1052061",
    "final_x": "3675280.75419",
    "final_y": "533719.582277",
    "longitude": "-90.08763297552035",
    "latitude": "29.961731162679616",
    "geocoded_column": {
      "latitude": "29.961731162679616",
      "longitude": "-90.08763297552035"
    }
  },
  {
    "service_request": "2023-1052060",
    "request_type": "Trash/Recycling",
    "request_reason": "Missed Trash Pick-Up",
    "date_created": "2023-11-27T13:18:35.000",
    "date_modified": "2023-11-27T13:18:36.000",
    "request_status": "Pending",
    "responsible_agency": "Department of Sanitation",
    "final_address": "7422 Devine Ave",
    "address_councildis": "E",
    "status": "Assigned to Contractor",
    "contractor": "Waste Pro",
    "rowid": "1052060",
    "final_x": "3705861.20471",
    "final_y": "562542.656096",
    "longitude": "-89.98999863444364",
    "latitude": "30.040034138833878",
    "geocoded_column": {
      "latitude": "30.040034138833878",
      "longitude": "-89.98999863444364"
    }
  },
  {
    "service_request": "2023-1052059",
    "request_type": "Trash/Recycling",
    "request_reason": "Replace Trash Cart",
    "date_created": "2023-11-27T13:16:38.000",
    "date_modified": "2023-11-27T13:16:39.000",
    "request_status": "Pending",
    "responsible_agency": "Department of Sanitation",
    "final_address": "3501 Annunciation St",
    "address_councildis": "B",
    "status": "Assigned to Contractor",
    "contractor": "Richards Disposal",
    "rowid": "1052059",
    "final_x": "3674775.35713",
    "final_y": "518399.114934",
    "longitude": "-90.0897540022201",
    "latitude": "29.91962000043516",
    "geocoded_column": {
      "latitude": "29.91962000043516",
      "longitude": "-90.0897540022201"
    }
  },
  {
    "service_request": "2023-1052058",
    "request_type": "Roads/Drainage",
    "request_reason": "Debris in Roadway",
    "date_created": "2023-11-27T13:16:20.000",
    "date_modified": "2023-11-27T13:16:20.000",
    "request_status": "Pending",
    "responsible_agency": "Department of Public Works",
    "final_address": "800 BLK Florida Blvd",
    "address_councildis": "A",
    "status": "Pending",
    "rowid": "1052058",
    "final_x": "3669183.97557",
    "final_y": "545343.209298",
    "longitude": "-90.10649266396237",
    "latitude": "29.99387305333013",
    "geocoded_column": {
      "latitude": "29.99387305333013",
      "longitude": "-90.10649266396237"
    }
  },
  {
    "service_request": "2023-1052057",
    "request_type": "Roads/Drainage",
    "request_reason": "Road Shoulder Repair",
    "date_created": "2023-11-27T13:16:01.000",
    "date_modified": "2023-11-27T13:16:01.000",
    "request_status": "Pending",
    "responsible_agency": "Department of Public Works",
    "final_address": "5216 Atlanta St",
    "address_councildis": "B",
    "status": "Pending",
    "rowid": "1052057",
    "final_x": "3667950.65569",
    "final_y": "520683.950457",
    "longitude": "-90.11121935799825",
    "latitude": "29.9261044765486",
    "geocoded_column": {
      "latitude": "29.9261044765486",
      "longitude": "-90.11121935799825"
    }
  },
  {
    "service_request": "2023-1052056",
    "request_type": "Trash/Recycling",
    "request_reason": "Order Trash Cart",
    "date_created": "2023-11-27T13:15:56.000",
    "date_modified": "2023-11-27T13:15:57.000",
    "request_status": "Pending",
    "responsible_agency": "Department of Sanitation",
    "final_address": "2021 Mediamolle Dr",
    "address_councildis": "C",
    "status": "Assigned to Contractor",
    "contractor": "Richards Disposal",
    "rowid": "1052056",
    "final_x": "3699187.99012",
    "final_y": "523881.01798",
    "longitude": "-90.01249641013496",
    "latitude": "29.933942253548068",
    "geocoded_column": {
      "latitude": "29.933942253548068",
      "longitude": "-90.01249641013496"
    }
  },
  {
    "service_request": "2023-1052055",
    "request_type": "Trash/Recycling",
    "request_reason": "Repair Trash Cart",
    "date_created": "2023-11-27T13:06:50.000",
    "date_modified": "2023-11-27T13:06:51.000",
    "request_status": "Pending",
    "responsible_agency": "Department of Sanitation",
    "final_address": "35 Plover St",
    "address_councildis": "D",
    "status": "Assigned to Contractor",
    "contractor": "IV Waste",
    "rowid": "1052055",
    "final_x": "3674047.60449",
    "final_y": "556861.21609",
    "longitude": "-90.09073458286896",
    "latitude": "30.025399401495605",
    "geocoded_column": {
      "latitude": "30.025399401495605",
      "longitude": "-90.09073458286896"
    }
  },
  {
    "service_request": "2023-1052054",
    "request_type": "Abandoned Vehicles",
    "request_reason": "Abandoned/Junk Vehicles",
    "date_created": "2023-11-27T13:06:11.000",
    "date_modified": "2023-11-27T13:06:11.000",
    "request_status": "Pending",
    "responsible_agency": "Department of Public Works",
    "final_address": "533 S Telemachus St",
    "address_councildis": "B",
    "status": "Pending",
    "rowid": "1052054",
    "final_x": "3671127.88673",
    "final_y": "535915.624775",
    "longitude": "-90.10067248461698",
    "latitude": "29.96789303375572",
    "geocoded_column": {
      "latitude": "29.96789303375572",
      "longitude": "-90.10067248461698"
    }
  },
  {
    "service_request": "2023-1052053",
    "request_type": "Abandoned Vehicles",
    "request_reason": "Abandoned/Junk Vehicles",
    "date_created": "2023-11-27T13:05:25.000",
    "date_modified": "2023-11-27T13:05:25.000",
    "request_status": "Pending",
    "responsible_agency": "Department of Public Works",
    "final_address": "1700 BLK Bartholomew St",
    "address_councildis": "D",
    "status": "Pending",
    "rowid": "1052053",
    "final_x": "3692404.77788",
    "final_y": "537740.530606",
    "longitude": "-90.03341426574016",
    "latitude": "29.97226435509308",
    "geocoded_column": {
      "latitude": "29.97226435509308",
      "longitude": "-90.03341426574016"
    }
  },
  {
    "service_request": "2023-1052051",
    "request_type": "Trash/Recycling",
    "request_reason": "Request a Large Item Pick Up",
    "date_created": "2023-11-27T12:58:44.000",
    "date_modified": "2023-11-27T12:58:45.000",
    "request_status": "Pending",
    "responsible_agency": "Department of Sanitation",
    "final_address": "422 Seattle St",
    "address_councildis": "A",
    "status": "Assigned to Contractor",
    "contractor": "IV Waste",
    "rowid": "1052051",
    "final_x": "3664757.7504",
    "final_y": "552144.934038",
    "longitude": "-90.12024705963269",
    "latitude": "30.012705018677146",
    "geocoded_column": {
      "latitude": "30.012705018677146",
      "longitude": "-90.12024705963269"
    }
  },
  {
    "service_request": "2023-1052050",
    "request_type": "Trash/Recycling",
    "request_reason": "Request a Large Item Pick Up",
    "date_created": "2023-11-27T12:58:19.000",
    "date_modified": "2023-11-27T12:58:20.000",
    "request_status": "Pending",
    "responsible_agency": "Department of Sanitation",
    "final_address": "15001 Emory Rd",
    "address_councildis": "E",
    "status": "Assigned to Contractor",
    "contractor": "Waste Pro",
    "rowid": "1052050",
    "final_x": "3720915.04601",
    "final_y": "574138.401898",
    "longitude": "-89.94197937600815",
    "latitude": "30.071423753550658",
    "geocoded_column": {
      "latitude": "30.071423753550658",
      "longitude": "-89.94197937600815"
    }
  },
  {
    "service_request": "2023-1052049",
    "request_type": "Trash/Recycling",
    "request_reason": "Order Trash Cart",
    "date_created": "2023-11-27T12:57:03.000",
    "date_modified": "2023-11-27T12:57:04.000",
    "request_status": "Pending",
    "responsible_agency": "Department of Sanitation",
    "final_address": "5238 Westlake Dr",
    "address_councildis": "E",
    "status": "Assigned to Contractor",
    "contractor": "Waste Pro",
    "rowid": "1052049",
    "final_x": "3699196.92509",
    "final_y": "556798.15689",
    "longitude": "-90.01126920532475",
    "latitude": "30.024452126069615",
    "geocoded_column": {
      "latitude": "30.024452126069615",
      "longitude": "-90.01126920532475"
    }
  },
  {
    "service_request": "2023-1052048",
    "request_type": "Trash/Recycling",
    "request_reason": "Request a Large Item Pick Up",
    "date_created": "2023-11-27T12:56:16.000",
    "date_modified": "2023-11-27T12:56:16.000",
    "request_status": "Pending",
    "responsible_agency": "Department of Sanitation",
    "final_address": "3220 Laurel St",
    "address_councildis": "B",
    "status": "Assigned to Contractor",
    "contractor": "Richards Disposal",
    "rowid": "1052048",
    "final_x": "3675985.74363",
    "final_y": "519226.912311",
    "longitude": "-90.08590496122515",
    "latitude": "29.9218600008352",
    "geocoded_column": {
      "latitude": "29.9218600008352",
      "longitude": "-90.08590496122515"
    }
  },
  {
    "service_request": "2023-1052047",
    "request_type": "Traffic Signals/Signs/Striping/Streetlights",
    "request_reason": "Traffic Signal Malfunctioning/Damaged",
    "date_created": "2023-11-27T12:54:42.000",
    "date_modified": "2023-11-27T12:54:42.000",
    "request_status": "Pending",
    "responsible_agency": "Department of Public Works",
    "final_address": "JACKSON AVE & TCHOUPITOULAS ST",
    "address_councildis": "B",
    "status": "Pending",
    "rowid": "1052047",
    "final_x": "3680589.1",
    "final_y": "519797.08",
    "longitude": "-90.07135430113576",
    "latitude": "29.923289173987115",
    "geocoded_column": {
      "latitude": "29.923289173987115",
      "longitude": "-90.07135430113576"
    }
  },
  {
    "service_request": "2023-1052046",
    "request_type": "Traffic Signals/Signs/Striping/Streetlights",
    "request_reason": "Street Light Outage/Malfunction",
    "date_created": "2023-11-27T12:52:02.000",
    "date_modified": "2023-11-27T12:52:03.000",
    "request_status": "Pending",
    "responsible_agency": "Department of Public Works",
    "final_address": "10251 Deer Park Blvd",
    "address_councildis": "E",
    "status": "Assigned to Contractor",
    "contractor": "Legacy Professional Services",
    "rowid": "1052046",
    "final_x": "3712422.36581",
    "final_y": "560908.68611",
    "longitude": "-89.96932497259989",
    "latitude": "30.03532824168548",
    "geocoded_column": {
      "latitude": "30.03532824168548",
      "longitude": "-89.96932497259989"
    }
  },
  {
    "service_request": "2023-1052045",
    "request_type": "Trash/Recycling",
    "request_reason": "Request a Large Item Pick Up",
    "date_created": "2023-11-27T12:49:47.000",
    "date_modified": "2023-11-27T12:49:48.000",
    "request_status": "Pending",
    "responsible_agency": "Department of Sanitation",
    "final_address": "10201 Deerfield Dr",
    "address_councildis": "E",
    "status": "Assigned to Contractor",
    "contractor": "Waste Pro",
    "rowid": "1052045",
    "final_x": "3709828.64715",
    "final_y": "563466.70448",
    "longitude": "-89.97742582270405",
    "latitude": "30.042446413820727",
    "geocoded_column": {
      "latitude": "30.042446413820727",
      "longitude": "-89.97742582270405"
    }
  },
  {
    "service_request": "2023-1052044",
    "request_type": "Trash/Recycling",
    "request_reason": "Request a Large Item Pick Up",
    "date_created": "2023-11-27T12:48:41.000",
    "date_modified": "2023-11-27T12:48:42.000",
    "request_status": "Pending",
    "responsible_agency": "Department of Sanitation",
    "final_address": "10241 Deer Park Blvd",
    "address_councildis": "E",
    "status": "Assigned to Contractor",
    "contractor": "Waste Pro",
    "rowid": "1052044",
    "final_x": "3712401.59934",
    "final_y": "560891.587678",
    "longitude": "-89.96939124063088",
    "latitude": "30.035281907524798",
    "geocoded_column": {
      "latitude": "30.035281907524798",
      "longitude": "-89.96939124063088"
    }
  },
  {
    "service_request": "2023-1052043",
    "request_type": "Trash/Recycling",
    "request_reason": "MIssed Recycling Pick-Up",
    "date_created": "2023-11-27T12:47:03.000",
    "date_modified": "2023-11-27T12:47:04.000",
    "request_status": "Pending",
    "responsible_agency": "Department of Sanitation",
    "final_address": "6201 Berkley Dr",
    "address_councildis": "C",
    "status": "Assigned to Contractor",
    "contractor": "Richards Disposal",
    "rowid": "1052043",
    "final_x": "3707025.10321",
    "final_y": "518035.768886",
    "longitude": "-89.98797185070612",
    "latitude": "29.917619132934384",
    "geocoded_column": {
      "latitude": "29.917619132934384",
      "longitude": "-89.98797185070612"
    }
  },
  {
    "service_request": "2023-1052042",
    "request_type": "Traffic Signals/Signs/Striping/Streetlights",
    "request_reason": "Street Light Outage/Malfunction",
    "date_created": "2023-11-27T12:43:33.000",
    "date_modified": "2023-11-27T12:43:34.000",
    "request_status": "Pending",
    "responsible_agency": "Department of Public Works",
    "final_address": "1308 N Gayoso St A",
    "address_councildis": "A",
    "status": "Assigned to Contractor",
    "contractor": "Legacy Professional Services",
    "rowid": "1052042",
    "final_x": "3676821.12865",
    "final_y": "539766.107978",
    "longitude": "-90.08256029518881",
    "latitude": "29.978310911212088",
    "geocoded_column": {
      "latitude": "29.978310911212088",
      "longitude": "-90.08256029518881"
    }
  },
  {
    "service_request": "2023-1052041",
    "request_type": "Trash/Recycling",
    "request_reason": "Order Recycling Cart",
    "date_created": "2023-11-27T12:38:35.000",
    "date_modified": "2023-11-27T12:38:35.000",
    "request_status": "Pending",
    "responsible_agency": "Department of Sanitation",
    "final_address": "1736 Bordeaux St",
    "address_councildis": "B",
    "status": "Pending",
    "rowid": "1052041",
    "final_x": "3669281.57089",
    "final_y": "521343.640185",
    "longitude": "-90.10699574449131",
    "latitude": "29.927879314257346",
    "geocoded_column": {
      "latitude": "29.927879314257346",
      "longitude": "-90.10699574449131"
    }
  },