[
  {
    "service_request": "2024-1117412",
    "request_type": "Property Maintenance",
    "request_reason": "Property Maintenance",
    "date_created": "2024-07-30T23:30:41.000",
    "date_modified": "2024-07-30T23:30:41.000",
    "request_status": "Pending",
    "responsible_agency": "Department of Code Enforcement",
    "final_address": "200 N Olympia St Apt 1A",
    "address_councildis": "A",
    "status": "Pending",
    "rowid": "1117412",
    "final_x": "3669744.18983",
    "final_y": "539985.455243",
    "longitude": "-90.10490446585528",
    "latitude": "29.97912455553731",
    "geocoded_column": {
      "latitude": "29.97912455553731",
      "longitude": "-90.10490446585528"
    }
  },
  {
    "service_request": "2024-1117411",
    "request_type": "Trash/Recycling",
    "request_reason": "Request a Large Item Pick Up",
    "date_created": "2024-07-30T23:12:11.000",
    "date_modified": "2024-07-30T23:12:12.000",
    "request_status": "Pending",
    "responsible_agency": "Department of Sanitation",
    "final_address": "3213 Louisiana Avenue Prkwy",
    "address_councildis": "B",
    "status": "Assigned to Contractor",
    "contractor": "IV Waste",
    "rowid": "1117411",
    "final_x": "3671992.94651",
    "final_y": "527040.202942",
    "longitude": "-90.09824271272085",
    "latitude": "29.94346294735673",
    "geocoded_column": {
      "latitude": "29.94346294735673",
      "longitude": "-90.09824271272085"
    }
  },
  {
    "service_request": "2024-1117410",
    "request_type": "Trash/Recycling",
    "request_reason": "MIssed Recycling Pick-Up",
    "date_created": "2024-07-30T22:58:40.000",
    "date_modified": "2024-07-30T22:58:40.000",
    "request_status": "Pending",
    "responsible_agency": "Department of Sanitation",
    "final_address": "7645 Lafourche St",
    "address_councildis": "E",
    "status": "Assigned to Contractor",
    "contractor": "Waste Pro",
    "rowid": "1117410",
    "final_x": "3710198.20357",
    "final_y": "565639.348322",
    "longitude": "-89.97617656349857",
    "latitude": "30.048408281814844",
    "geocoded_column": {
      "latitude": "30.048408281814844",
      "longitude": "-89.97617656349857"
    }
  },
  {
    "service_request": "2024-1117409",
    "request_type": "Trash/Recycling",
    "request_reason": "Return Trash Cart",
    "date_created": "2024-07-30T22:44:36.000",
    "date_modified": "2024-07-30T22:44:37.000",
    "request_status": "Pending",
    "responsible_agency": "Department of Sanitation",
    "final_address": "3813 Lennox Blvd",
    "address_councildis": "C",
    "status": "Assigned to Contractor",
    "contractor": "Richards Disposal",
    "rowid": "1117409",
    "final_x": "3700470.85668",
    "final_y": "517351.190965",
    "longitude": "-90.00868479290423",
    "latitude": "29.91594675147067",
    "geocoded_column": {
      "latitude": "29.91594675147067",
      "longitude": "-90.00868479290423"
    }
  },
  {
    "service_request": "2024-1117408",
    "request_type": "Trash/Recycling",
    "request_reason": "Order Trash Cart",
    "date_created": "2024-07-30T22:33:16.000",
    "date_modified": "2024-07-30T22:33:17.000",
    "request_status": "Pending",
    "responsible_agency": "Department of Sanitation",
    "final_address": "527 S Telemachus St Apt 2A",
    "address_councildis": "B",
    "status": "Assigned to Contractor",
    "contractor": "IV Waste",
    "rowid": "1117408",
    "final_x": "3671178.1394",
    "final_y": "535956.956295",
    "longitude": "-90.10051238033847",
    "latitude": "29.968005195002753",
    "geocoded_column": {
      "latitude": "29.968005195002753",
      "longitude": "-90.10051238033847"
    }
  },
  {
    "service_request": "2024-1117407",
    "request_type": "Trash/Recycling",
    "request_reason": "Order Trash Cart",
    "date_created": "2024-07-30T22:32:02.000",
    "date_modified": "2024-07-30T22:32:03.000",
    "request_status": "Pending",
    "responsible_agency": "Department of Sanitation",
    "final_address": "527 S Telemachus St Apt 2A",
    "address_councildis": "B",
    "status": "Assigned to Contractor",
    "contractor": "IV Waste",
    "rowid": "1117407",
    "final_x": "3671178.1394",
    "final_y": "535956.956295",
    "longitude": "-90.10051238033847",
    "latitude": "29.968005195002753",
    "geocoded_column": {
      "latitude": "29.968005195002753",
      "longitude": "-90.10051238033847"
    }
  },
  {
    "service_request": "2024-1117406",
    "request_type": "Trash/Recycling",
    "request_reason": "Request a Large Item Pick Up",
    "date_created": "2024-07-30T22:20:14.000",
    "date_modified": "2024-07-30T22:20:15.000",
    "request_status": "Pending",
    "responsible_agency": "Department of Sanitation",
    "final_address": "233 Walnut St",
    "address_councildis": "A",
    "status": "Assigned to Contractor",
    "contractor": "IV Waste",
    "rowid": "1117406",
    "final_x": "3661448.78227",
    "final_y": "521325.549881",
    "longitude": "-90.13172275675723",
    "latitude": "29.92805775464452",
    "geocoded_column": {
      "latitude": "29.92805775464452",
      "longitude": "-90.13172275675723"
    }
  },
  {
    "service_request": "2024-1117405",
    "request_type": "Roads/Drainage",
    "request_reason": "Catch Basin - Broken/Damage",
    "date_created": "2024-07-30T22:11:14.000",
    "date_modified": "2024-07-30T22:11:14.000",
    "request_status": "Pending",
    "responsible_agency": "Department of Public Works",
    "final_address": "1422 Valence St",
    "address_councildis": "B",
    "status": "Pending",
    "rowid": "1117405",
    "final_x": "3669695.77511",
    "final_y": "520405.369144",
    "longitude": "-90.10571992765203",
    "latitude": "29.925287171964843",
    "geocoded_column": {
      "latitude": "29.925287171964843",
      "longitude": "-90.10571992765203"
    }
  },
  {
    "service_request": "2024-1117404",
    "request_type": "Parks & Parkways",
    "request_reason": "Request Tree Service (Right of Way/Public Property)",
    "date_created": "2024-07-30T22:09:43.000",
    "date_modified": "2024-07-30T22:09:43.000",
    "request_status": "Pending",
    "responsible_agency": "Department of Parks & Parkway",
    "final_address": "3231 Laurel St",
    "address_councildis": "B",
    "status": "Pending",
    "rowid": "1117404",
    "final_x": "3675915.05397",
    "final_y": "519268.069495",
    "longitude": "-90.0861266846423",
    "latitude": "29.921975285711703",
    "geocoded_column": {
      "latitude": "29.921975285711703",
      "longitude": "-90.0861266846423"
    }
  },
  {
    "service_request": "2024-1117403",
    "request_type": "Roads/Drainage",
    "request_reason": "Street Subsidence (Sinking)",
    "date_created": "2024-07-30T22:07:12.000",
    "date_modified": "2024-07-30T22:07:12.000",
    "request_status": "Pending",
    "responsible_agency": "Department of Public Works",
    "final_address": "7100 BLK Freret St",
    "address_councildis": "A",
    "status": "Pending",
    "rowid": "1117403",
    "final_x": "3663900.53076",
    "final_y": "525811.476708",
    "longitude": "-90.12383363267311",
    "latitude": "29.94032170864317",
    "geocoded_column": {
      "latitude": "29.94032170864317",
      "longitude": "-90.12383363267311"
    }
  },
  {
    "service_request": "2024-1117402",
    "request_type": "Trash/Recycling",
    "request_reason": "Order Recycling Cart",
    "date_created": "2024-07-30T21:56:49.000",
    "date_modified": "2024-07-30T21:56:49.000",
    "request_status": "Pending",
    "responsible_agency": "Department of Sanitation",
    "final_address": "410 S Lopez St",
    "address_councildis": "B",
    "status": "Pending",
    "rowid": "1117402",
    "final_x": "3673076.03982",
    "final_y": "535123.542662",
    "longitude": "-90.09454718632318",
    "latitude": "29.965657304242466",
    "geocoded_column": {
      "latitude": "29.965657304242466",
      "longitude": "-90.09454718632318"
    }
  },
  {
    "service_request": "2024-1117401",
    "request_type": "Property Maintenance",
    "request_reason": "Property Maintenance",
    "date_created": "2024-07-30T21:56:33.000",
    "date_modified": "2024-07-30T21:56:33.000",
    "request_status": "Pending",
    "responsible_agency": "Department of Code Enforcement",
    "final_address": "4518 Annunciation St",
    "address_councildis": "B",
    "status": "Pending",
    "rowid": "1117401",
    "final_x": "3670574.12923",
    "final_y": "517658.972278",
    "longitude": "-90.10304031865101",
    "latitude": "29.91770954791214",
    "geocoded_column": {
      "latitude": "29.91770954791214",
      "longitude": "-90.10304031865101"
    }
  },
  {
    "service_request": "2024-1117400",
    "request_type": "Trash/Recycling",
    "request_reason": "Order Trash Cart",
    "date_created": "2024-07-30T21:53:59.000",
    "date_modified": "2024-07-30T21:54:00.000",
    "request_status": "Pending",
    "responsible_agency": "Department of Sanitation",
    "final_address": "410 S Lopez St",
    "address_councildis": "B",
    "status": "Assigned to Contractor",
    "contractor": "IV Waste",
    "rowid": "1117400",
    "final_x": "3673076.03982",
    "final_y": "535123.542662",
    "longitude": "-90.09454718632318",
    "latitude": "29.965657304242466",
    "geocoded_column": {
      "latitude": "29.965657304242466",
      "longitude": "-90.09454718632318"
    }
  },
  {
    "service_request": "2024-1117399",
    "request_type": "Property Maintenance",
    "request_reason": "Property Maintenance",
    "date_created": "2024-07-30T21:53:34.000",
    "date_modified": "2024-07-30T21:53:34.000",
    "request_status": "Pending",
    "responsible_agency": "Department of Code Enforcement",
    "final_address": "4518 Annunciation St",
    "address_councildis": "B",
    "status": "Pending",
    "rowid": "1117399",
    "final_x": "3670574.12923",
    "final_y": "517658.972278",
    "longitude": "-90.10304031865101",
    "latitude": "29.91770954791214",
    "geocoded_column": {
      "latitude": "29.91770954791214",
      "longitude": "-90.10304031865101"
    }
  },
  {
    "service_request": "2024-1117398",
    "request_type": "Property Maintenance",
    "request_reason": "Property Maintenance",
    "date_created": "2024-07-30T21:47:12.000",
    "date_modified": "2024-07-30T21:47:12.000",
    "request_status": "Pending",
    "responsible_agency": "Department of Code Enforcement",
    "final_address": "4518 Annunciation St",
    "address_councildis": "B",
    "status": "Pending",
    "rowid": "1117398",
    "final_x": "3670574.12923",
    "final_y": "517658.972278",
    "longitude": "-90.10304031865101",
    "latitude": "29.91770954791214",
    "geocoded_column": {
      "latitude": "29.91770954791214",
      "longitude": "-90.10304031865101"
    }
  },
  {
    "service_request": "2024-1117397",
    "request_type": "Property Maintenance",
    "request_reason": "Property Maintenance",
    "date_created": "2024-07-30T21:45:45.000",
    "date_modified": "2024-07-30T21:45:45.000",
    "request_status": "Pending",
    "responsible_agency": "Department of Code Enforcement",
    "final_address": "4518 Annunciation St",
    "address_councildis": "B",
    "status": "Pending",
    "rowid": "1117397",
    "final_x": "3670574.12923",
    "final_y": "517658.972278",
    "longitude": "-90.10304031865101",
    "latitude": "29.91770954791214",
    "geocoded_column": {
      "latitude": "29.91770954791214",
      "longitude": "-90.10304031865101"
    }
  },
  {
    "service_request": "2024-1117396",
    "request_type": "Property Maintenance",
    "request_reason": "Property Maintenance",
    "date_created": "2024-07-30T21:43:15.000",
    "date_modified": "2024-07-30T21:43:15.000",
    "request_status": "Pending",
    "responsible_agency": "Department of Code Enforcement",
    "final_address": "4518 Annunciation St",
    "address_councildis": "B",
    "status": "Pending",
    "rowid": "1117396",
    "final_x": "3670574.12923",
    "final_y": "517658.972278",
    "longitude": "-90.10304031865101",
    "latitude": "29.91770954791214",
    "geocoded_column": {
      "latitude": "29.91770954791214",
      "longitude": "-90.10304031865101"
    }
  },
  {
    "service_request": "2024-1117395",
    "request_type": "Trash/Recycling",
    "request_reason": "Request a Large Item Pick Up",
    "date_created": "2024-07-30T21:40:13.000",
    "date_modified": "2024-07-30T21:40:14.000",
    "request_status": "Pending",
    "responsible_agency": "Department of Sanitation",
    "final_address": "1108 Brooklyn Ave",
    "address_councildis": "C",
    "status": "Assigned to Contractor",
    "contractor": "Richards Disposal",
    "rowid": "1117395",
    "final_x": "3686263.90876",
    "final_y": "527377.099391",
    "longitude": "-90.053173797978",
    "latitude": "29.943958614850516",
    "geocoded_column": {
      "latitude": "29.943958614850516",
      "longitude": "-90.053173797978"
    }
  },
  {
    "service_request": "2024-1117394",
    "request_type": "Trash/Recycling",
    "request_reason": "Request a Large Item Pick Up",
    "date_created": "2024-07-30T21:30:33.000",
    "date_modified": "2024-07-30T21:30:34.000",
    "request_status": "Pending",
    "responsible_agency": "Department of Sanitation",
    "final_address": "4620 Magnolia St",
    "address_councildis": "B",
    "status": "Assigned to Contractor",
    "contractor": "IV Waste",
    "rowid": "1117394",
    "final_x": "3669532.21242",
    "final_y": "524613.817084",
    "longitude": "-90.10609396007725",
    "latitude": "29.93686387398777",
    "geocoded_column": {
      "latitude": "29.93686387398777",
      "longitude": "-90.10609396007725"
    }
  },
  {
    "service_request": "2024-1117393",
    "request_type": "Traffic Signals/Signs/Striping/Streetlights",
    "request_reason": "Traffic Signal Malfunctioning/Damaged",
    "date_created": "2024-07-30T21:26:42.000",
    "date_modified": "2024-07-30T21:26:42.000",
    "request_status": "Pending",
    "responsible_agency": "Department of Public Works",
    "final_address": "6301 Canal Blvd",
    "address_councildis": "A",
    "status": "Pending",
    "rowid": "1117393",
    "final_x": "3668805.38932",
    "final_y": "549369.744083",
    "longitude": "-90.10755250041724",
    "latitude": "30.004955769971186",
    "geocoded_column": {
      "latitude": "30.004955769971186",
      "longitude": "-90.10755250041724"
    }
  },
  {
    "service_request": "2024-1117392",
    "request_type": "Traffic Signals/Signs/Striping/Streetlights",
    "request_reason": "Traffic Signal Malfunctioning/Damaged",
    "date_created": "2024-07-30T21:24:28.000",
    "date_modified": "2024-07-30T21:24:28.000",
    "request_status": "Pending",
    "responsible_agency": "Department of Public Works",
    "final_address": "6301 Canal Blvd",
    "address_councildis": "A",
    "status": "Pending",
    "rowid": "1117392",
    "final_x": "3668805.38932",
    "final_y": "549369.744083",
    "longitude": "-90.10755250041724",
    "latitude": "30.004955769971186",
    "geocoded_column": {
      "latitude": "30.004955769971186",
      "longitude": "-90.10755250041724"
    }
  },
  {
    "service_request": "2024-1117391",
    "request_type": "Parks & Parkways",
    "request_reason": "Request Tree Service (Right of Way/Public Property)",
    "date_created": "2024-07-30T21:16:48.000",
    "date_modified": "2024-07-30T21:16:48.000",
    "request_status": "Pending",
    "responsible_agency": "Department of Parks & Parkway",
    "final_address": "SHADOW LN & E RENAISSANCE CT & W RENAISSANCE CT",
    "address_councildis": "E",
    "status": "Pending",
    "rowid": "1117391",
    "final_x": "3717345.0",
    "final_y": "567128.28",
    "longitude": "-89.95353212996885",
    "latitude": "30.05226754614253",
    "geocoded_column": {
      "latitude": "30.05226754614253",
      "longitude": "-89.95353212996885"
    }
  },
  {
    "service_request": "2024-1117390",
    "request_type": "Traffic Signals/Signs/Striping/Streetlights",
    "request_reason": "Street Light Outage/Malfunction",
    "date_created": "2024-07-30T21:10:02.000",
    "date_modified": "2024-07-30T21:10:03.000",
    "request_status": "Pending",
    "responsible_agency": "Department of Public Works",
    "final_address": "800 Solomon Pl",
    "address_councildis": "A",
    "status": "Assigned to Contractor",
    "contractor": "Legacy Professional Services",
    "rowid": "1117390",
    "final_x": "3672500.30932",
    "final_y": "540492.241739",
    "longitude": "-90.0961822725638",
    "latitude": "29.98043651159096",
    "geocoded_column": {
      "latitude": "29.98043651159096",
      "longitude": "-90.0961822725638"
    }
  },
  {
    "service_request": "2024-1117389",
    "request_type": "Safety & Permits",
    "request_reason": "Licenses & Permits",
    "date_created": "2024-07-30T20:56:04.000",
    "date_modified": "2024-07-30T20:56:04.000",
    "request_status": "Pending",
    "responsible_agency": "Safety and Permits",
    "final_address": "1 Poydras St",
    "address_councildis": "C",
    "status": "Pending",
    "rowid": "1117389",
    "final_x": "3683143.79439",
    "final_y": "528949.426688",
    "longitude": "-90.0629698073786",
    "latitude": "29.948377465954838",
    "geocoded_column": {
      "latitude": "29.948377465954838",
      "longitude": "-90.0629698073786"
    }
  },
  {
    "service_request": "2024-1117388",
    "request_type": "Roads/Drainage",
    "request_reason": "Catch Basin - Clogged",
    "date_created": "2024-07-30T20:55:19.000",
    "date_modified": "2024-07-30T20:55:19.000",
    "request_status": "Pending",
    "responsible_agency": "Department of Public Works",
    "final_address": "400 BLK Olivier St",
    "address_councildis": "C",
    "status": "Pending",
    "rowid": "1117388",
    "final_x": "3687253.06246",
    "final_y": "530131.819445",
    "longitude": "-90.04995336171261",
    "latitude": "29.951502731945176",
    "geocoded_column": {
      "latitude": "29.951502731945176",
      "longitude": "-90.04995336171261"
    }
  },
  {
    "service_request": "2024-1117387",
    "request_type": "Traffic Signals/Signs/Striping/Streetlights",
    "request_reason": "Street Light Outage/Malfunction",
    "date_created": "2024-07-30T20:30:48.000",
    "date_modified": "2024-07-30T20:30:49.000",
    "request_status": "Pending",
    "responsible_agency": "Department of Public Works",
    "final_address": "1800 BLK Gordon St",
    "address_councildis": "E",
    "status": "Assigned to Contractor",
    "contractor": "Legacy Professional Services",
    "rowid": "1117387",
    "final_x": "3700233.33998",
    "final_y": "536109.380325",
    "longitude": "-90.00875004274405",
    "latitude": "29.967532754382106",
    "geocoded_column": {
      "latitude": "29.967532754382106",
      "longitude": "-90.00875004274405"
    }
  },
  {
    "service_request": "2024-1117386",
    "request_type": "Trash/Recycling",
    "request_reason": "Replace Trash Cart",
    "date_created": "2024-07-30T20:16:41.000",
    "date_modified": "2024-07-30T20:16:42.000",
    "request_status": "Pending",
    "responsible_agency": "Department of Sanitation",
    "final_address": "6416 Lafaye St",
    "address_councildis": "D",
    "status": "Assigned to Contractor",
    "contractor": "IV Waste",
    "rowid": "1117386",
    "final_x": "3686946.22338",
    "final_y": "556931.623194",
    "longitude": "-90.04997444336703",
    "latitude": "30.025202073301568",
    "geocoded_column": {
      "latitude": "30.025202073301568",
      "longitude": "-90.04997444336703"
    }
  },
  {
    "service_request": "2024-1117385",
    "request_type": "Traffic Signals/Signs/Striping/Streetlights",
    "request_reason": "Street Light Knocked Down/Leaning",
    "date_created": "2024-07-30T20:01:53.000",
    "date_modified": "2024-07-30T20:01:54.000",
    "request_status": "Pending",
    "responsible_agency": "Department of Public Works",
    "final_address": "1116 Chartres St",
    "address_councildis": "C",
    "status": "Pending",
    "contractor": "Legacy Professional Services",
    "rowid": "1117385",
    "final_x": "3683888.98722",
    "final_y": "533549.415557",
    "longitude": "-90.06045558475667",
    "latitude": "29.96100312966253",
    "geocoded_column": {
      "latitude": "29.96100312966253",
      "longitude": "-90.06045558475667"
    }
  },
  {
    "service_request": "2024-1117384",
    "request_type": "Trash/Recycling",
    "request_reason": "Request a Large Item Pick Up",
    "date_created": "2024-07-30T19:53:36.000",
    "date_modified": "2024-07-30T19:53:37.000",
    "request_status": "Pending",
    "responsible_agency": "Department of Sanitation",
    "final_address": "10720 Willowbrae Dr",
    "address_councildis": "E",
    "status": "Assigned to Contractor",
    "contractor": "Waste Pro",
    "rowid": "1117384",
    "final_x": "3710830.17553",
    "final_y": "564106.584993",
    "longitude": "-89.97423664405132",
    "latitude": "30.044173203529876",
    "geocoded_column": {
      "latitude": "30.044173203529876",
      "longitude": "-89.97423664405132"
    }
  },
  {
    "service_request": "2024-1117383",
    "request_type": "Roads/Drainage",
    "request_reason": "Alley Way",
    "date_created": "2024-07-30T19:49:36.000",
    "date_modified": "2024-07-30T19:49:36.000",
    "request_status": "Pending",
    "responsible_agency": "Department of Public Works",
    "final_address": "5950 Canal Blvd",
    "address_councildis": "A",
    "status": "Pending",
    "rowid": "1117383",
    "final_x": "3668293.45466",
    "final_y": "547063.742289",
    "longitude": "-90.10924763875028",
    "latitude": "29.998630113384607",
    "geocoded_column": {
      "latitude": "29.998630113384607",
      "longitude": "-90.10924763875028"
    }
  },
  {
    "service_request": "2024-1117382",
    "request_type": "Traffic Signals/Signs/Striping/Streetlights",
    "request_reason": "Street Light Outage/Malfunction",
    "date_created": "2024-07-30T19:47:06.000",
    "date_modified": "2024-07-30T19:47:06.000",
    "request_status": "Pending",
    "responsible_agency": "Department of Public Works",
    "final_address": "4921 Corinne St",
    "address_councildis": "E",
    "status": "Assigned to Contractor",
    "contractor": "Legacy Professional Services",
    "rowid": "1117382",
    "final_x": "3715043.23115",
    "final_y": "557555.991643",
    "longitude": "-89.96116956930265",
    "latitude": "30.026023626227733",
    "geocoded_column": {
      "latitude": "30.026023626227733",
      "longitude": "-89.96116956930265"
    }
  },
  {
    "service_request": "2024-1117381",
    "request_type": "Property Maintenance",
    "request_reason": "Property Maintenance",
    "date_created": "2024-07-30T19:24:03.000",
    "date_modified": "2024-07-30T19:24:03.000",
    "request_status": "Pending",
    "responsible_agency": "Department of Code Enforcement",
    "final_address": "4933 Feliciana Dr",
    "address_councildis": "D",
    "status": "Pending",
    "rowid": "1117381",
    "final_x": "3690093.90153",
    "final_y": "551651.393429",
    "longitude": "-90.04021658699979",
    "latitude": "30.010586092687767",
    "geocoded_column": {
      "latitude": "30.010586092687767",
      "longitude": "-90.04021658699979"
    }
  },
  {
    "service_request": "2024-1117380",
    "request_type": "Trash/Recycling",
    "request_reason": "Replace Trash Cart",
    "date_created": "2024-07-30T19:22:43.000",
    "date_modified": "2024-07-30T19:22:44.000",
    "request_status": "Pending",
    "responsible_agency": "Department of Sanitation",
    "final_address": "2819 Pine St",
    "address_councildis": "B",
    "status": "Assigned to Contractor",
    "contractor": "IV Waste",
    "rowid": "1117380",
    "final_x": "3667198.45805",
    "final_y": "531599.578627",
    "longitude": "-90.11322692810668",
    "latitude": "29.95614097812981",
    "geocoded_column": {
      "latitude": "29.95614097812981",
      "longitude": "-90.11322692810668"
    }
  },
  {
    "service_request": "2024-1117379",
    "request_type": "Trash/Recycling",
    "request_reason": "Request a Large Item Pick Up",
    "date_created": "2024-07-30T19:21:51.000",
    "date_modified": "2024-07-30T19:21:52.000",
    "request_status": "Pending",
    "responsible_agency": "Department of Sanitation",
    "final_address": "4475 Arts St",
    "address_councildis": "D",
    "status": "Assigned to Contractor",
    "contractor": "IV Waste",
    "rowid": "1117379",
    "final_x": "3686047.82063",
    "final_y": "549498.420051",
    "longitude": "-90.05307568369992",
    "latitude": "30.00479113121108",
    "geocoded_column": {
      "latitude": "30.00479113121108",
      "longitude": "-90.05307568369992"
    }
  },
  {
    "service_request": "2024-1117378",
    "request_type": "Property Maintenance",
    "request_reason": "Property Maintenance",
    "date_created": "2024-07-30T19:03:10.000",
    "date_modified": "2024-07-30T19:03:10.000",
    "request_status": "Pending",
    "responsible_agency": "Department of Code Enforcement",
    "final_address": "5905 Painters St",
    "address_councildis": "D",
    "status": "Pending",
    "rowid": "1117378",
    "final_x": "3686168.30902",
    "final_y": "554850.641496",
    "longitude": "-90.05250603076298",
    "latitude": "30.01950407863167",
    "geocoded_column": {
      "latitude": "30.01950407863167",
      "longitude": "-90.05250603076298"
    }
  },
  {
    "service_request": "2024-1117377",
    "request_type": "Healthy Homes",
    "request_reason": "Healthy Homes",
    "date_created": "2024-07-30T19:01:35.000",
    "date_modified": "2024-07-30T19:01:35.000",
    "request_status": "Pending",
    "responsible_agency": "Department of Code Enforcement",
    "final_address": "4132 St Charles Ave Apt D201",
    "address_councildis": "B",
    "status": "Pending",
    "rowid": "1117377",
    "final_x": "3671662.32897",
    "final_y": "520825.342393",
    "longitude": "-90.09949784848413",
    "latitude": "29.926383884704013",
    "geocoded_column": {
      "latitude": "29.926383884704013",
      "longitude": "-90.09949784848413"
    }
  },
  {
    "service_request": "2024-1117376",
    "request_type": "Mosquito, Termite & Rodent Control",
    "request_reason": "Non-Rodent Complaint (Mice, Possums, Snakes)",
    "date_created": "2024-07-30T18:56:32.000",
    "date_modified": "2024-07-30T18:56:32.000",
    "request_status": "Pending",
    "responsible_agency": "Mosquito, Termite & Rodent Control Board",
    "final_address": "1412 Hendee St",
    "address_councildis": "C",
    "status": "Pending",
    "rowid": "1117376",
    "final_x": "3690769.26396",
    "final_y": "526083.276542",
    "longitude": "-90.03899534694618",
    "latitude": "29.940261871342354",
    "geocoded_column": {
      "latitude": "29.940261871342354",
      "longitude": "-90.03899534694618"
    }
  },
  {
    "service_request": "2024-1117375",
    "request_type": "Property Maintenance",
    "request_reason": "Property Maintenance",
    "date_created": "2024-07-30T18:54:30.000",
    "date_modified": "2024-07-30T18:54:30.000",
    "request_status": "Pending",
    "responsible_agency": "Department of Code Enforcement",
    "final_address": "1412 Hendee St",
    "address_councildis": "C",
    "status": "Pending",
    "rowid": "1117375",
    "final_x": "3690769.26396",
    "final_y": "526083.276542",
    "longitude": "-90.03899534694618",
    "latitude": "29.940261871342354",
    "geocoded_column": {
      "latitude": "29.940261871342354",
      "longitude": "-90.03899534694618"
    }
  },
  {
    "service_request": "2024-1117374",
    "request_type": "Property Maintenance",
    "request_reason": "Property Maintenance",
    "date_created": "2024-07-30T18:51:53.000",
    "date_modified": "2024-07-30T18:51:53.000",
    "request_status": "Pending",
    "responsible_agency": "Department of Code Enforcement",
    "final_address": "1412 Hendee St",
    "address_councildis": "C",
    "status": "Pending",
    "rowid": "1117374",
    "final_x": "3690769.26396",
    "final_y": "526083.276542",
    "longitude": "-90.03899534694618",
    "latitude": "29.940261871342354",
    "geocoded_column": {
      "latitude": "29.940261871342354",
      "longitude": "-90.03899534694618"
    }
  },
  {
    "service_request": "2024-1117373",
    "request_type": "Trash/Recycling",
    "request_reason": "Request a Large Item Pick Up",
    "date_created": "2024-07-30T18:48:04.000",
    "date_modified": "2024-07-30T18:48:05.000",
    "request_status": "Pending",
    "responsible_agency": "Department of Sanitation",
    "final_address": "3915 Prytania St",
    "address_councildis": "B",
    "status": "Assigned to Contractor",
    "contractor": "IV Waste",
    "rowid": "1117373",
    "final_x": "3672632.27707",
    "final_y": "520543.0494",
    "longitude": "-90.09644560808513",
    "latitude": "29.92557891531325",
    "geocoded_column": {
      "latitude": "29.92557891531325",
      "longitude": "-90.09644560808513"
    }
  },
  {
    "service_request": "2024-1117372",
    "request_type": "Utility Poles",
    "request_reason": "Utility Pole Leaning",
    "date_created": "2024-07-30T18:47:42.000",
    "date_modified": "2024-07-30T18:47:45.000",
    "request_status": "Pending",
    "responsible_agency": "Utility Company Collective",
    "final_address": "4632 Bonita Dr",
    "address_councildis": "E",
    "status": "Pending",
    "rowid": "1117372",
    "final_x": "3704500.92196",
    "final_y": "554586.873624",
    "longitude": "-89.99459128032271",
    "latitude": "30.018202614343366",
    "geocoded_column": {
      "latitude": "30.018202614343366",
      "longitude": "-89.99459128032271"
    }
  },
  {
    "service_request": "2024-1117371",
    "request_type": "Abandoned Vehicles",
    "request_reason": "Abandoned/Junk Vehicles",
    "date_created": "2024-07-30T18:45:37.000",
    "date_modified": "2024-07-30T18:45:37.000",
    "request_status": "Pending",
    "responsible_agency": "Department of Public Works",
    "final_address": "4626 Bonita Dr",
    "address_councildis": "E",
    "status": "Pending",
    "rowid": "1117371",
    "final_x": "3704503.0083",
    "final_y": "554552.007128",
    "longitude": "-89.99458597543689",
    "latitude": "30.01810667786361",
    "geocoded_column": {
      "latitude": "30.01810667786361",
      "longitude": "-89.99458597543689"
    }
  },
  {
    "service_request": "2024-1117370",
    "request_type": "Property Maintenance",
    "request_reason": "Property Maintenance",
    "date_created": "2024-07-30T18:44:02.000",
    "date_modified": "2024-07-30T18:44:02.000",
    "request_status": "Pending",
    "responsible_agency": "Department of Code Enforcement",
    "final_address": "2118 Martin Luther King, Jr. Blvd",
    "address_councildis": "B",
    "status": "Pending",
    "rowid": "1117370",
    "final_x": "3677376.21288",
    "final_y": "526605.978046",
    "longitude": "-90.08126131651139",
    "latitude": "29.9421083232264",
    "geocoded_column": {
      "latitude": "29.9421083232264",
      "longitude": "-90.08126131651139"
    }
  },
  {
    "service_request": "2024-1117369",
    "request_type": "Trash/Recycling",
    "request_reason": "Missed Trash Pick-Up",
    "date_created": "2024-07-30T18:41:36.000",
    "date_modified": "2024-07-30T18:41:37.000",
    "request_status": "Pending",
    "responsible_agency": "Department of Sanitation",
    "final_address": "996 Polk St",
    "address_councildis": "A",
    "status": "Assigned to Contractor",
    "contractor": "IV Waste",
    "rowid": "1117369",
    "final_x": "3670781.47092",
    "final_y": "546991.904721",
    "longitude": "-90.10139040219067",
    "latitude": "29.9983592671261",
    "geocoded_column": {
      "latitude": "29.9983592671261",
      "longitude": "-90.10139040219067"
    }
  },
  {
    "service_request": "2024-1117368",
    "request_type": "Trash/Recycling",
    "request_reason": "Request a Large Item Pick Up",
    "date_created": "2024-07-30T18:34:31.000",
    "date_modified": "2024-07-30T18:34:32.000",
    "request_status": "Pending",
    "responsible_agency": "Department of Sanitation",
    "final_address": "4820 Carondelet St",
    "address_councildis": "B",
    "status": "Assigned to Contractor",
    "contractor": "IV Waste",
    "rowid": "1117368",
    "final_x": "3669162.42068",
    "final_y": "520989.668793",
    "longitude": "-90.10738383026269",
    "latitude": "29.926909511532198",
    "geocoded_column": {
      "latitude": "29.926909511532198",
      "longitude": "-90.10738383026269"
    }
  },
  {
    "service_request": "2024-1117367",
    "request_type": "Trash/Recycling",
    "request_reason": "MIssed Recycling Pick-Up",
    "date_created": "2024-07-30T18:28:04.000",
    "date_modified": "2024-07-30T18:28:05.000",
    "request_status": "Pending",
    "responsible_agency": "Department of Sanitation",
    "final_address": "205 Germain St",
    "address_councildis": "A",
    "status": "Assigned to Contractor",
    "contractor": "IV Waste",
    "rowid": "1117367",
    "final_x": "3666951.77095",
    "final_y": "548087.39797",
    "longitude": "-90.11345161326166",
    "latitude": "30.001484155855557",
    "geocoded_column": {
      "latitude": "30.001484155855557",
      "longitude": "-90.11345161326166"
    }
  },
  {
    "service_request": "2024-1117366",
    "request_type": "Trash/Recycling",
    "request_reason": "Replace Trash Cart",
    "date_created": "2024-07-30T18:19:53.000",
    "date_modified": "2024-07-30T18:19:54.000",
    "request_status": "Pending",
    "responsible_agency": "Department of Sanitation",
    "final_address": "3222 Ursulines Ave",
    "address_councildis": "A",
    "status": "Assigned to Contractor",
    "contractor": "IV Waste",
    "rowid": "1117366",
    "final_x": "3675700.10357",
    "final_y": "539555.09057",
    "longitude": "-90.08610815630108",
    "latitude": "29.97776428523752",
    "geocoded_column": {
      "latitude": "29.97776428523752",
      "longitude": "-90.08610815630108"
    }
  },
  {
    "service_request": "2024-1117365",
    "request_type": "Property Maintenance",
    "request_reason": "Property Maintenance",
    "date_created": "2024-07-30T18:07:19.000",
    "date_modified": "2024-07-30T18:07:19.000",
    "request_status": "Pending",
    "responsible_agency": "Department of Code Enforcement",
    "final_address": "8706 Pritchard Pl",
    "address_councildis": "A",
    "status": "Pending",
    "rowid": "1117365",
    "final_x": "3664388.43744",
    "final_y": "534352.009605",
    "longitude": "-90.12200817806372",
    "latitude": "29.96379123872019",
    "geocoded_column": {
      "latitude": "29.96379123872019",
      "longitude": "-90.12200817806372"
    }
  },
  {
    "service_request": "2024-1117363",
    "request_type": "Trash/Recycling",
    "request_reason": "Request a Large Item Pick Up",
    "date_created": "2024-07-30T17:58:01.000",
    "date_modified": "2024-07-30T17:58:02.000",
    "request_status": "Pending",
    "responsible_agency": "Department of Sanitation",
    "final_address": "4635 Palmyra St",
    "address_councildis": "A",
    "status": "Assigned to Contractor",
    "contractor": "IV Waste",
    "rowid": "1117363",
    "final_x": "3668714.95374",
    "final_y": "539200.35841",
    "longitude": "-90.10818171543413",
    "latitude": "29.976996104266327",
    "geocoded_column": {
      "latitude": "29.976996104266327",
      "longitude": "-90.10818171543413"
    }
  },
  {
    "service_request": "2024-1117362",
    "request_type": "Trash/Recycling",
    "request_reason": "Order Recycling Cart",
    "date_created": "2024-07-30T17:46:26.000",
    "date_modified": "2024-07-30T17:46:26.000",
    "request_status": "Pending",
    "responsible_agency": "Department of Sanitation",
    "final_address": "20 Virginia Ct",
    "address_councildis": "A",
    "status": "Pending",
    "rowid": "1117362",
    "final_x": "3668865.76852",
    "final_y": "542131.822157",
    "longitude": "-90.10760635255242",
    "latitude": "29.98505220181123",
    "geocoded_column": {
      "latitude": "29.98505220181123",
      "longitude": "-90.10760635255242"
    }
  },
  {
    "service_request": "2024-1117361",
    "request_type": "Property Maintenance",
    "request_reason": "Property Maintenance",
    "date_created": "2024-07-30T17:43:23.000",
    "date_modified": "2024-07-30T17:43:23.000",
    "request_status": "Pending",
    "responsible_agency": "Department of Code Enforcement",
    "final_address": "6901 Pritchard Pl",
    "address_councildis": "B",
    "status": "Pending",
    "rowid": "1117361",
    "final_x": "3668093.09537",
    "final_y": "531119.838786",
    "longitude": "-90.11041812550769",
    "latitude": "29.954795626696427",
    "geocoded_column": {
      "latitude": "29.954795626696427",
      "longitude": "-90.11041812550769"
    }
  },
  {
    "service_request": "2024-1117360",
    "request_type": "Trash/Recycling",
    "request_reason": "Request a Large Item Pick Up",
    "date_created": "2024-07-30T17:36:54.000",
    "date_modified": "2024-07-30T17:36:55.000",
    "request_status": "Pending",
    "responsible_agency": "Department of Sanitation",
    "final_address": "4919 S Derbigny St",
    "address_councildis": "B",
    "status": "Assigned to Contractor",
    "contractor": "IV Waste",
    "rowid": "1117360",
    "final_x": "3669090.45639",
    "final_y": "526377.695486",
    "longitude": "-90.10742903276821",
    "latitude": "29.94172697261908",
    "geocoded_column": {
      "latitude": "29.94172697261908",
      "longitude": "-90.10742903276821"
    }
  },
  {
    "service_request": "2024-1117358",
    "request_type": "Trash/Recycling",
    "request_reason": "Request a Large Item Pick Up",
    "date_created": "2024-07-30T17:26:25.000",
    "date_modified": "2024-07-30T17:26:26.000",
    "request_status": "Pending",
    "responsible_agency": "Department of Sanitation",
    "final_address": "Orleans Avenue & South Park Place",
    "address_councildis": "A",
    "status": "Assigned to Contractor",
    "contractor": "IV Waste",
    "rowid": "1117358",
    "final_x": "3670620.69531",
    "final_y": "544019.681742",
    "longitude": "-90.10199919116671",
    "latitude": "29.990191433087386",
    "geocoded_column": {
      "latitude": "29.990191433087386",
      "longitude": "-90.10199919116671"
    }
  },
  {
    "service_request": "2024-1117357",
    "request_type": "Roads/Drainage",
    "request_reason": "Damaged Sidewalk",
    "date_created": "2024-07-30T17:24:03.000",
    "date_modified": "2024-07-30T17:24:03.000",
    "request_status": "Pending",
    "responsible_agency": "Department of Public Works",
    "final_address": "5704 Wilton Dr",
    "address_councildis": "D",
    "status": "Pending",
    "rowid": "1117357",
    "final_x": "3681780.21308",
    "final_y": "553797.926167",
    "longitude": "-90.0664077170002",
    "latitude": "30.01674363643913",
    "geocoded_column": {
      "latitude": "30.01674363643913",
      "longitude": "-90.0664077170002"
    }
  },
  {
    "service_request": "2024-1117356",
    "request_type": "Trash/Recycling",
    "request_reason": "Replace Trash Cart",
    "date_created": "2024-07-30T17:05:53.000",
    "date_modified": "2024-07-30T17:05:54.000",
    "request_status": "Pending",
    "responsible_agency": "Department of Sanitation",
    "final_address": "5220 Conti St",
    "address_councildis": "A",
    "status": "Assigned to Contractor",
    "contractor": "IV Waste",
    "rowid": "1117356",
    "final_x": "3668451.66836",
    "final_y": "541755.865356",
    "longitude": "-90.1089270124331",
    "latitude": "29.984030622030264",
    "geocoded_column": {
      "latitude": "29.984030622030264",
      "longitude": "-90.1089270124331"
    }
  },
  {
    "service_request": "2024-1117355",
    "request_type": "Trash/Recycling",
    "request_reason": "Repair Trash Cart",
    "date_created": "2024-07-30T17:05:30.000",
    "date_modified": "2024-07-30T17:05:31.000",
    "request_status": "Pending",
    "responsible_agency": "Department of Sanitation",
    "final_address": "6807 Vicksburg St",
    "address_councildis": "A",
    "status": "Assigned to Contractor",
    "contractor": "IV Waste",
    "rowid": "1117355",
    "final_x": "3669461.14753",
    "final_y": "552743.052182",
    "longitude": "-90.1053666112864",
    "latitude": "30.014211877576447",
    "geocoded_column": {
      "latitude": "30.014211877576447",
      "longitude": "-90.1053666112864"
    }
  },
  {
    "service_request": "2024-1117354",
    "request_type": "Trash/Recycling",
    "request_reason": "Start Trash Service",
    "date_created": "2024-07-30T16:58:31.000",
    "date_modified": "2024-07-30T16:58:32.000",
    "request_status": "Pending",
    "responsible_agency": "Department of Sanitation",
    "final_address": "932 Dante St",
    "address_councildis": "A",
    "status": "Assigned to Contractor",
    "contractor": "IV Waste",
    "rowid": "1117354",
    "final_x": "3660876.23277",
    "final_y": "528316.97696",
    "longitude": "-90.13329903248231",
    "latitude": "29.947298469754706",
    "geocoded_column": {
      "latitude": "29.947298469754706",
      "longitude": "-90.13329903248231"
    }
  },
  {
    "service_request": "2024-1117353",
    "request_type": "Trash/Recycling",
    "request_reason": "Illegal Dumping",
    "date_created": "2024-07-30T16:57:26.000",
    "date_modified": "2024-07-30T16:57:27.000",
    "request_status": "Pending",
    "responsible_agency": "Department of Sanitation",
    "final_address": "900 BLK Short St",
    "address_councildis": "A",
    "status": "Pending",
    "rowid": "1117353",
    "final_x": "3661705.30582",
    "final_y": "527420.279265",
    "longitude": "-90.13071103500644",
    "latitude": "29.944808936429812",
    "geocoded_column": {
      "latitude": "29.944808936429812",
      "longitude": "-90.13071103500644"
    }
  },
  {
    "service_request": "2024-1117352",
    "request_type": "Trash/Recycling",
    "request_reason": "Order Recycling Cart",
    "date_created": "2024-07-30T16:52:42.000",
    "date_modified": "2024-07-30T16:52:43.000",
    "request_status": "Pending",
    "responsible_agency": "Department of Sanitation",
    "final_address": "2443 Second St",
    "address_councildis": "B",
    "status": "Pending",
    "rowid": "1117352",
    "final_x": "3674933.71118",
    "final_y": "525775.068093",
    "longitude": "-90.08900132136006",
    "latitude": "29.939896754761595",
    "geocoded_column": {
      "latitude": "29.939896754761595",
      "longitude": "-90.08900132136006"
    }
  },
  {
    "service_request": "2024-1117351",
    "request_type": "Trash/Recycling",
    "request_reason": "Request a Large Item Pick Up",
    "date_created": "2024-07-30T16:50:55.000",
    "date_modified": "2024-07-30T16:50:56.000",
    "request_status": "Pending",
    "responsible_agency": "Department of Sanitation",
    "final_address": "8001 Sandpiper Dr",
    "address_councildis": "E",
    "status": "Assigned to Contractor",
    "contractor": "Waste Pro",
    "rowid": "1117351",
    "final_x": "3715230.23986",
    "final_y": "570723.034663",
    "longitude": "-89.96008001729037",
    "latitude": "30.062221491527225",
    "geocoded_column": {
      "latitude": "30.062221491527225",
      "longitude": "-89.96008001729037"
    }
  },
  {
    "service_request": "2024-1117350",
    "request_type": "Trash/Recycling",
    "request_reason": "Order Recycling Cart",
    "date_created": "2024-07-30T16:50:42.000",
    "date_modified": "2024-07-30T16:50:43.000",
    "request_status": "Pending",
    "responsible_agency": "Department of Sanitation",
    "final_address": "4301 Elysian Fields Ave",
    "address_councildis": "D",
    "status": "Pending",
    "rowid": "1117350",
    "final_x": "3684168.49756",
    "final_y": "548536.593234",
    "longitude": "-90.05904662524222",
    "latitude": "30.002204057057323",
    "geocoded_column": {
      "latitude": "30.002204057057323",
      "longitude": "-90.05904662524222"
    }
  },
  {
    "service_request": "2024-1117349",
    "request_type": "Parks & Parkways",
    "request_reason": "Request Grass Cutting Service (City Owned Property)",
    "date_created": "2024-07-30T16:47:46.000",
    "date_modified": "2024-07-30T16:47:47.000",
    "request_status": "Pending",
    "responsible_agency": "Department of Parks & Parkway",
    "final_address": "TULLIS DR & LENNOX BLVD",
    "address_councildis": "C",
    "status": "Pending",
    "rowid": "1117349",
    "final_x": "3700725.4",
    "final_y": "511984.98",
    "longitude": "-90.00807725983752",
    "latitude": "29.901183393940215",
    "geocoded_column": {
      "latitude": "29.901183393940215",
      "longitude": "-90.00807725983752"
    }
  },
  {
    "service_request": "2024-1117348",
    "request_type": "Property Maintenance",
    "request_reason": "Property Maintenance",
    "date_created": "2024-07-30T16:45:02.000",
    "date_modified": "2024-07-30T16:45:03.000",
    "request_status": "Pending",
    "responsible_agency": "Department of Code Enforcement",
    "final_address": "2500 BLK Milan St",
    "address_councildis": "B",
    "status": "Pending",
    "rowid": "1117348",
    "final_x": "3671260.74898",
    "final_y": "524290.710393",
    "longitude": "-90.10064784368147",
    "latitude": "29.93592441642773",
    "geocoded_column": {
      "latitude": "29.93592441642773",
      "longitude": "-90.10064784368147"
    }
  },
  {
    "service_request": "2024-1117347",
    "request_type": "Parks & Parkways",
    "request_reason": "Request Tree Service (Right of Way/Public Property)",
    "date_created": "2024-07-30T16:40:37.000",
    "date_modified": "2024-07-30T16:40:38.000",
    "request_status": "Pending",
    "responsible_agency": "Department of Parks & Parkway",
    "final_address": "NO HAMMOND HWY & REGENT ST",
    "address_councildis": "A",
    "status": "Pending",
    "rowid": "1117347",
    "final_x": "3666164.05",
    "final_y": "554648.2",
    "longitude": "-90.11571986399066",
    "latitude": "30.019547108275894",
    "geocoded_column": {
      "latitude": "30.019547108275894",
      "longitude": "-90.11571986399066"
    }
  },
  {
    "service_request": "2024-1117346",
    "request_type": "Trash/Recycling",
    "request_reason": "Repair Trash Cart",
    "date_created": "2024-07-30T16:40:28.000",
    "date_modified": "2024-07-30T16:40:29.000",
    "request_status": "Pending",
    "responsible_agency": "Department of Sanitation",
    "final_address": "9327 Morrison Rd",
    "address_councildis": "E",
    "status": "Assigned to Contractor",
    "contractor": "Waste Pro",
    "rowid": "1117346",
    "final_x": "3706795.53982",
    "final_y": "562572.916832",
    "longitude": "-89.98704474115846",
    "latitude": "30.04008719211917",
    "geocoded_column": {
      "latitude": "30.04008719211917",
      "longitude": "-89.98704474115846"
    }
  },
  {
    "service_request": "2024-1117345",
    "request_type": "Abandoned Vehicles",
    "request_reason": "Abandoned/Junk Vehicles",
    "date_created": "2024-07-30T16:39:26.000",
    "date_modified": "2024-07-30T16:39:26.000",
    "request_status": "Pending",
    "responsible_agency": "Department of Public Works",
    "final_address": "3800 Napoleon Ave",
    "address_councildis": "B",
    "status": "Pending",
    "rowid": "1117345",
    "final_x": "3669990.05146",
    "final_y": "528514.456832",
    "longitude": "-90.10451647227175",
    "latitude": "29.947575875905905",
    "geocoded_column": {
      "latitude": "29.947575875905905",
      "longitude": "-90.10451647227175"
    }
  },
  {
    "service_request": "2024-1117344",
    "request_type": "Trash/Recycling",
    "request_reason": "MIssed Recycling Pick-Up",
    "date_created": "2024-07-30T16:33:10.000",
    "date_modified": "2024-07-30T16:34:48.000",
    "request_status": "Pending",
    "responsible_agency": "Department of Sanitation",
    "final_address": "6950 Marshal Foch St",
    "address_councildis": "A",
    "status": "Assigned to Contractor",
    "contractor": "IV Waste",
    "rowid": "1117344",
    "final_x": "3670320.72052",
    "final_y": "553623.539671",
    "longitude": "-90.10262090463155",
    "latitude": "30.016607549004167",
    "geocoded_column": {
      "latitude": "30.016607549004167",
      "longitude": "-90.10262090463155"
    }
  },
  {
    "service_request": "2024-1117343",
    "request_type": "Trash/Recycling",
    "request_reason": "Order Recycling Cart",
    "date_created": "2024-07-30T16:29:27.000",
    "date_modified": "2024-07-30T16:29:27.000",
    "request_status": "Pending",
    "responsible_agency": "Department of Sanitation",
    "final_address": "7301 Hansbrough Ave",
    "address_councildis": "E",
    "status": "Pending",
    "rowid": "1117343",
    "final_x": "3708253.76676",
    "final_y": "563445.511136",
    "longitude": "-89.98240380876325",
    "latitude": "30.042439288499605",
    "geocoded_column": {
      "latitude": "30.042439288499605",
      "longitude": "-89.98240380876325"
    }
  },
  {
    "service_request": "2024-1117342",
    "request_type": "Trash/Recycling",
    "request_reason": "Repair Trash Cart",
    "date_created": "2024-07-30T16:28:54.000",
    "date_modified": "2024-07-30T16:28:55.000",
    "request_status": "Pending",
    "responsible_agency": "Department of Sanitation",
    "final_address": "7301 Hansbrough Ave",
    "address_councildis": "E",
    "status": "Assigned to Contractor",
    "contractor": "Waste Pro",
    "rowid": "1117342",
    "final_x": "3708253.76676",
    "final_y": "563445.511136",
    "longitude": "-89.98240380876325",
    "latitude": "30.042439288499605",
    "geocoded_column": {
      "latitude": "30.042439288499605",
      "longitude": "-89.98240380876325"
    }
  },
  {
    "service_request": "2024-1117341",
    "request_type": "Parks & Parkways",
    "request_reason": "Request Tree Service (Right of Way/Public Property)",
    "date_created": "2024-07-30T16:25:54.000",
    "date_modified": "2024-07-30T16:26:28.000",
    "request_status": "Pending",
    "responsible_agency": "Department of Parks & Parkway",
    "final_address": "4819 Longfellow Dr",
    "address_councildis": "E",
    "status": "Pending",
    "rowid": "1117341",
    "final_x": "3709640.80753",
    "final_y": "556307.516826",
    "longitude": "-89.97828703176401",
    "latitude": "30.022767590092524",
    "geocoded_column": {
      "latitude": "30.022767590092524",
      "longitude": "-89.97828703176401"
    }
  },
  {
    "service_request": "2024-1117340",
    "request_type": "Trash/Recycling",
    "request_reason": "Request a Large Item Pick Up",
    "date_created": "2024-07-30T16:25:14.000",
    "date_modified": "2024-07-30T16:25:15.000",
    "request_status": "Pending",
    "responsible_agency": "Department of Sanitation",
    "final_address": "130 N Olympia St",
    "address_councildis": "A",
    "status": "Assigned to Contractor",
    "contractor": "IV Waste",
    "rowid": "1117340",
    "final_x": "3669656.36897",
    "final_y": "539844.861962",
    "longitude": "-90.10518659842106",
    "latitude": "29.97874056013733",
    "geocoded_column": {
      "latitude": "29.97874056013733",
      "longitude": "-90.10518659842106"
    }
  },
  {
    "service_request": "2024-1117339",
    "request_type": "Trash/Recycling",
    "request_reason": "Request a Large Item Pick Up",
    "date_created": "2024-07-30T16:24:24.000",
    "date_modified": "2024-07-30T16:35:53.000",
    "request_status": "Pending",
    "responsible_agency": "Department of Sanitation",
    "final_address": "6232 Pasteur Blvd",
    "address_councildis": "D",
    "status": "Assigned to Contractor",
    "contractor": "IV Waste",
    "rowid": "1117339",
    "final_x": "3682675.01589",
    "final_y": "556126.53705",
    "longitude": "-90.06349898388004",
    "latitude": "30.023119228761402",
    "geocoded_column": {
      "latitude": "30.023119228761402",
      "longitude": "-90.06349898388004"
    }
  },
  {
    "service_request": "2024-1117338",
    "request_type": "Trash/Recycling",
    "request_reason": "Missed Trash Pick-Up",
    "date_created": "2024-07-30T16:23:26.000",
    "date_modified": "2024-07-30T16:23:27.000",
    "request_status": "Pending",
    "responsible_agency": "Department of Sanitation",
    "final_address": "6646 Dorian St",
    "address_councildis": "D",
    "status": "Assigned to Contractor",
    "contractor": "Waste Pro",
    "rowid": "1117338",
    "final_x": "3696442.18077",
    "final_y": "555685.801817",
    "longitude": "-90.02001394992567",
    "latitude": "30.021480678636877",
    "geocoded_column": {
      "latitude": "30.021480678636877",
      "longitude": "-90.02001394992567"
    }
  },
  {
    "service_request": "2024-1117337",
    "request_type": "Trash/Recycling",
    "request_reason": "Request a Large Item Pick Up",
    "date_created": "2024-07-30T16:21:49.000",
    "date_modified": "2024-07-30T16:21:50.000",
    "request_status": "Pending",
    "responsible_agency": "Department of Sanitation",
    "final_address": "4827 Longfellow Dr",
    "address_councildis": "E",
    "status": "Assigned to Contractor",
    "contractor": "Waste Pro",
    "rowid": "1117337",
    "final_x": "3709634.35089",
    "final_y": "556371.908954",
    "longitude": "-89.97830502697984",
    "latitude": "30.022944853199533",
    "geocoded_column": {
      "latitude": "30.022944853199533",
      "longitude": "-89.97830502697984"
    }
  },
  {
    "service_request": "2024-1117336",
    "request_type": "Property Maintenance",
    "request_reason": "Property Maintenance",
    "date_created": "2024-07-30T16:20:49.000",
    "date_modified": "2024-07-30T16:20:50.000",
    "request_status": "Pending",
    "responsible_agency": "Department of Code Enforcement",
    "final_address": "2813 Dauphine St",
    "address_councildis": "C",
    "status": "Pending",
    "rowid": "1117336",
    "final_x": "3687574.02217",
    "final_y": "535170.17735",
    "longitude": "-90.04876158175408",
    "latitude": "29.96534658772465",
    "geocoded_column": {
      "latitude": "29.96534658772465",
      "longitude": "-90.04876158175408"
    }
  },
  {
    "service_request": "2024-1117335",
    "request_type": "Healthy Homes",
    "request_reason": "Healthy Homes",
    "date_created": "2024-07-30T16:17:05.000",
    "date_modified": "2024-07-30T16:17:05.000",
    "request_status": "Pending",
    "responsible_agency": "Department of Code Enforcement",
    "final_address": "2030 Third St",
    "address_councildis": "B",
    "status": "Pending",
    "rowid": "1117335",
    "final_x": "3675479.42536",
    "final_y": "524272.69286",
    "longitude": "-90.08732999831054",
    "latitude": "29.935749408393736",
    "geocoded_column": {
      "latitude": "29.935749408393736",
      "longitude": "-90.08732999831054"
    }
  },
  {
    "service_request": "2024-1117334",
    "request_type": "Traffic Signals/Signs/Striping/Streetlights",
    "request_reason": "Street Light Outage/Malfunction",
    "date_created": "2024-07-30T16:15:33.000",
    "date_modified": "2024-07-30T16:15:34.000",
    "request_status": "Pending",
    "responsible_agency": "Department of Public Works",
    "final_address": "3209 Belfort St",
    "address_councildis": "A",
    "status": "Assigned to Contractor",
    "contractor": "Legacy Professional Services",
    "rowid": "1117334",
    "final_x": "3678371.00693",
    "final_y": "542577.353805",
    "longitude": "-90.07756791015004",
    "latitude": "29.985994251796097",
    "geocoded_column": {
      "latitude": "29.985994251796097",
      "longitude": "-90.07756791015004"
    }
  },
  {
    "service_request": "2024-1117332",
    "request_type": "Abandoned Vehicles",
    "request_reason": "Abandoned/Junk Vehicles",
    "date_created": "2024-07-30T16:10:43.000",
    "date_modified": "2024-07-30T16:10:43.000",
    "request_status": "Pending",
    "responsible_agency": "Department of Public Works",
    "final_address": "3746 Somerset Dr",
    "address_councildis": "C",
    "status": "Pending",
    "rowid": "1117332",
    "final_x": "3702461.68516",
    "final_y": "516687.182709",
    "longitude": "-90.00242535290029",
    "latitude": "29.91405752232244",
    "geocoded_column": {
      "latitude": "29.91405752232244",
      "longitude": "-90.00242535290029"
    }
  },
  {
    "service_request": "2024-1117331",
    "request_type": "Traffic Signals/Signs/Striping/Streetlights",
    "request_reason": "Street Light Outage/Malfunction",
    "date_created": "2024-07-30T16:10:02.000",
    "date_modified": "2024-07-30T16:10:03.000",
    "request_status": "Pending",
    "responsible_agency": "Department of Public Works",
    "final_address": "7701 Poitevent Ave",
    "address_councildis": "E",
    "status": "Assigned to Contractor",
    "contractor": "Legacy Professional Services",
    "rowid": "1117331",
    "final_x": "3706899.0083",
    "final_y": "564357.292129",
    "longitude": "-89.98665147455759",
    "latitude": "30.044990171644447",
    "geocoded_column": {
      "latitude": "30.044990171644447",
      "longitude": "-89.98665147455759"
    }
  },
  {
    "service_request": "2024-1117330",
    "request_type": "Trash/Recycling",
    "request_reason": "Replace Trash Cart",
    "date_created": "2024-07-30T16:05:59.000",
    "date_modified": "2024-07-30T16:06:00.000",
    "request_status": "Pending",
    "responsible_agency": "Department of Sanitation",
    "final_address": "5601 St Bernard Ave",
    "address_councildis": "D",
    "status": "Assigned to Contractor",
    "contractor": "IV Waste",
    "rowid": "1117330",
    "final_x": "3677027.41192",
    "final_y": "552720.133526",
    "longitude": "-90.08146178286799",
    "latitude": "30.013923732907436",
    "geocoded_column": {
      "latitude": "30.013923732907436",
      "longitude": "-90.08146178286799"
    }
  },
  {
    "service_request": "2024-1117329",
    "request_type": "Trash/Recycling",
    "request_reason": "Order Recycling Cart",
    "date_created": "2024-07-30T16:01:34.000",
    "date_modified": "2024-07-30T16:01:34.000",
    "request_status": "Pending",
    "responsible_agency": "Department of Sanitation",
    "final_address": "4608 Clara St",
    "address_councildis": "B",
    "status": "Pending",
    "rowid": "1117329",
    "final_x": "3669589.79105",
    "final_y": "524966.733053",
    "longitude": "-90.10590024579021",
    "latitude": "29.937832583285367",
    "geocoded_column": {
      "latitude": "29.937832583285367",
      "longitude": "-90.10590024579021"
    }
  },
  {
    "service_request": "2024-1117328",
    "request_type": "Property Maintenance",
    "request_reason": "Property Maintenance",
    "date_created": "2024-07-30T15:58:22.000",
    "date_modified": "2024-07-30T15:58:23.000",
    "request_status": "Pending",
    "responsible_agency": "Department of Code Enforcement",
    "final_address": "1003 Horace St",
    "address_councildis": "C",
    "status": "Pending",
    "rowid": "1117328",
    "final_x": "3696351.63754",
    "final_y": "527724.358399",
    "longitude": "-90.02131167949975",
    "latitude": "29.94459970765456",
    "geocoded_column": {
      "latitude": "29.94459970765456",
      "longitude": "-90.02131167949975"
    }
  },
  {
    "service_request": "2024-1117327",
    "request_type": "Trash/Recycling",
    "request_reason": "Request a Large Item Pick Up",
    "date_created": "2024-07-30T15:58:15.000",
    "date_modified": "2024-07-30T15:58:16.000",
    "request_status": "Pending",
    "responsible_agency": "Department of Sanitation",
    "final_address": "4642 Coronado Dr",
    "address_councildis": "E",
    "status": "Assigned to Contractor",
    "contractor": "Waste Pro",
    "rowid": "1117327",
    "final_x": "3714105.222",
    "final_y": "555993.785497",
    "longitude": "-89.96419250993723",
    "latitude": "30.021759030167686",
    "geocoded_column": {
      "latitude": "30.021759030167686",
      "longitude": "-89.96419250993723"
    }
  },
  {
    "service_request": "2024-1117326",
    "request_type": "Trash/Recycling",
    "request_reason": "Illegal Dumping",
    "date_created": "2024-07-30T15:54:08.000",
    "date_modified": "2024-07-30T15:54:09.000",
    "request_status": "Pending",
    "responsible_agency": "Department of Sanitation",
    "final_address": "2641 N Galvez St",
    "address_councildis": "D",
    "status": "Pending",
    "rowid": "1117326",
    "final_x": "3688287.37091",
    "final_y": "540209.884939",
    "longitude": "-90.04633010907735",
    "latitude": "29.9791820041118",
    "geocoded_column": {
      "latitude": "29.9791820041118",
      "longitude": "-90.04633010907735"
    }
  },
  {
    "service_request": "2024-1117325",
    "request_type": "Trash/Recycling",
    "request_reason": "Request a Large Item Pick Up",
    "date_created": "2024-07-30T15:53:37.000",
    "date_modified": "2024-07-30T15:53:38.000",
    "request_status": "Pending",
    "responsible_agency": "Department of Sanitation",
    "final_address": "2608 Magnolia St",
    "address_councildis": "B",
    "status": "Assigned to Contractor",
    "contractor": "IV Waste",
    "rowid": "1117325",
    "final_x": "3674205.35803",
    "final_y": "526080.457854",
    "longitude": "-90.091290391251",
    "latitude": "29.940758205316882",
    "geocoded_column": {
      "latitude": "29.940758205316882",
      "longitude": "-90.091290391251"
    }
  },
  {
    "service_request": "2024-1117324",
    "request_type": "Roads/Drainage",
    "request_reason": "Ditch Issue",
    "date_created": "2024-07-30T15:51:21.000",
    "date_modified": "2024-07-30T15:52:16.000",
    "request_status": "Pending",
    "responsible_agency": "Department of Public Works",
    "final_address": "4605 Elysian Fields Ave",
    "address_councildis": "D",
    "status": "Pending",
    "rowid": "1117324",
    "final_x": "3684062.78389",
    "final_y": "549631.04738",
    "longitude": "-90.0593421447946",
    "latitude": "30.005216643363028",
    "geocoded_column": {
      "latitude": "30.005216643363028",
      "longitude": "-90.0593421447946"
    }
  },
  {
    "service_request": "2024-1117323",
    "request_type": "Traffic Signals/Signs/Striping/Streetlights",
    "request_reason": "Traffic Sign Missing/Damaged",
    "date_created": "2024-07-30T15:50:04.000",
    "date_modified": "2024-07-30T15:50:05.000",
    "request_status": "Pending",
    "responsible_agency": "Department of Public Works",
    "final_address": "BARTHOLOMEW ST & ST CLAUDE AVE",
    "address_councildis": "C",
    "status": "Pending",
    "rowid": "1117323",
    "final_x": "3691799.8",
    "final_y": "535308.28",
    "longitude": "-90.03541189137997",
    "latitude": "29.965595382380005",
    "geocoded_column": {
      "latitude": "29.965595382380005",
      "longitude": "-90.03541189137997"
    }
  },
  {
    "service_request": "2024-1117322",
    "request_type": "Traffic Signals/Signs/Striping/Streetlights",
    "request_reason": "Street Light Outage/Malfunction",
    "date_created": "2024-07-30T15:49:59.000",
    "date_modified": "2024-07-30T15:50:00.000",
    "request_status": "Pending",
    "responsible_agency": "Department of Public Works",
    "final_address": "LEHIGH ST & ZENITH ST",
    "address_councildis": "E",
    "status": "Assigned to Contractor",
    "contractor": "Legacy Professional Services",
    "rowid": "1117322",
    "final_x": "3710669.1",
    "final_y": "565481.28",
    "longitude": "-89.97469419489428",
    "latitude": "30.047958313627774",
    "geocoded_column": {
      "latitude": "30.047958313627774",
      "longitude": "-89.97469419489428"
    }
  },
  {
    "service_request": "2024-1117321",
    "request_type": "Trash/Recycling",
    "request_reason": "Request a Large Item Pick Up",
    "date_created": "2024-07-30T15:49:37.000",
    "date_modified": "2024-07-30T15:49:38.000",
    "request_status": "Pending",
    "responsible_agency": "Department of Sanitation",
    "final_address": "4431 St Anthony Ave",
    "address_councildis": "D",
    "status": "Assigned to Contractor",
    "contractor": "IV Waste",
    "rowid": "1117321",
    "final_x": "3682573.42248",
    "final_y": "548965.776915",
    "longitude": "-90.0640706324352",
    "latitude": "30.003432836988395",
    "geocoded_column": {
      "latitude": "30.003432836988395",
      "longitude": "-90.0640706324352"
    }
  },
  {
    "service_request": "2024-1117320",
    "request_type": "Roads/Drainage",
    "request_reason": "Catch Basin - Clogged",
    "date_created": "2024-07-30T15:47:16.000",
    "date_modified": "2024-07-30T15:47:17.000",
    "request_status": "Pending",
    "responsible_agency": "Department of Public Works",
    "final_address": "7400 Northgate Dr",
    "address_councildis": "E",
    "status": "Pending",
    "rowid": "1117320",
    "final_x": "3712991.86302",
    "final_y": "565881.855907",
    "longitude": "-89.96733792928251",
    "latitude": "30.04898380220225",
    "geocoded_column": {
      "latitude": "30.04898380220225",
      "longitude": "-89.96733792928251"
    }
  },
  {
    "service_request": "2024-1117319",
    "request_type": "Property Maintenance",
    "request_reason": "Property Maintenance",
    "date_created": "2024-07-30T15:46:35.000",
    "date_modified": "2024-07-30T15:46:35.000",
    "request_status": "Pending",
    "responsible_agency": "Department of Code Enforcement",
    "final_address": "14624 Beekman Rd",
    "address_councildis": "E",
    "status": "Pending",
    "rowid": "1117319",
    "final_x": "3721320.86284",
    "final_y": "573249.73201",
    "longitude": "-89.94073062310163",
    "latitude": "30.06896673239519",
    "geocoded_column": {
      "latitude": "30.06896673239519",
      "longitude": "-89.94073062310163"
    }
  },
  {
    "service_request": "2024-1117318",
    "request_type": "Trash/Recycling",
    "request_reason": "Request a Large Item Pick Up",
    "date_created": "2024-07-30T15:43:51.000",
    "date_modified": "2024-07-30T15:43:52.000",
    "request_status": "Pending",
    "responsible_agency": "Department of Sanitation",
    "final_address": "8126 Hayne Blvd",
    "address_councildis": "E",
    "status": "Assigned to Contractor",
    "contractor": "Waste Pro",
    "rowid": "1117318",
    "final_x": "3702220.6369",
    "final_y": "562973.010208",
    "longitude": "-90.00148809218318",
    "latitude": "30.041334296213567",
    "geocoded_column": {
      "latitude": "30.041334296213567",
      "longitude": "-90.00148809218318"
    }
  },
  {
    "service_request": "2024-1117317",
    "request_type": "Trash/Recycling",
    "request_reason": "Repair Trash Cart",
    "date_created": "2024-07-30T15:42:56.000",
    "date_modified": "2024-07-30T15:42:57.000",
    "request_status": "Pending",
    "responsible_agency": "Department of Sanitation",
    "final_address": "3727 Piedmont Dr",
    "address_councildis": "D",
    "status": "Assigned to Contractor",
    "contractor": "IV Waste",
    "rowid": "1117317",
    "final_x": "3685779.33257",
    "final_y": "546645.591441",
    "longitude": "-90.05402451412408",
    "latitude": "29.99695512800225",
    "geocoded_column": {
      "latitude": "29.99695512800225",
      "longitude": "-90.05402451412408"
    }
  },
  {
    "service_request": "2024-1117316",
    "request_type": "Roads/Drainage",
    "request_reason": "Catch Basin - Clogged",
    "date_created": "2024-07-30T15:42:35.000",
    "date_modified": "2024-07-30T15:42:35.000",
    "request_status": "Pending",
    "responsible_agency": "Department of Public Works",
    "final_address": "4609 Elysian Fields Ave",
    "address_councildis": "D",
    "status": "Pending",
    "rowid": "1117316",
    "final_x": "3684045.30223",
    "final_y": "549726.991572",
    "longitude": "-90.05939400307712",
    "latitude": "30.005480989650422",
    "geocoded_column": {
      "latitude": "30.005480989650422",
      "longitude": "-90.05939400307712"
    }
  },
  {
    "service_request": "2024-1117315",
    "request_type": "Roads/Drainage",
    "request_reason": "Catch Basin - Clogged",
    "date_created": "2024-07-30T15:41:54.000",
    "date_modified": "2024-07-30T15:41:55.000",
    "request_status": "Pending",
    "responsible_agency": "Department of Public Works",
    "final_address": "4401 Elysian Fields Ave",
    "address_councildis": "D",
    "status": "Pending",
    "rowid": "1117315",
    "final_x": "3684342.43996",
    "final_y": "549188.790547",
    "longitude": "-90.05847419785306",
    "latitude": "30.003992044360253",
    "geocoded_column": {
      "latitude": "30.003992044360253",
      "longitude": "-90.05847419785306"
    }
  },
  {
    "service_request": "2024-1117314",
    "request_type": "Trash/Recycling",
    "request_reason": "Repair Trash Cart",
    "date_created": "2024-07-30T15:40:55.000",
    "date_modified": "2024-07-30T15:40:56.000",
    "request_status": "Pending",
    "responsible_agency": "Department of Sanitation",
    "final_address": "2643 Acacia St",
    "address_councildis": "D",
    "status": "Assigned to Contractor",
    "contractor": "IV Waste",
    "rowid": "1117314",
    "final_x": "3687524.97788",
    "final_y": "546432.952785",
    "longitude": "-90.04851764978415",
    "latitude": "29.996316742885163",
    "geocoded_column": {
      "latitude": "29.996316742885163",
      "longitude": "-90.04851764978415"
    }
  },
  {
    "service_request": "2024-1117313",
    "request_type": "Trash/Recycling",
    "request_reason": "Repair Trash Cart",
    "date_created": "2024-07-30T15:40:30.000",
    "date_modified": "2024-07-30T15:40:31.000",
    "request_status": "Pending",
    "responsible_agency": "Department of Sanitation",
    "final_address": "7341 Newcastle St",
    "address_councildis": "E",
    "status": "Assigned to Contractor",
    "contractor": "Waste Pro",
    "rowid": "1117313",
    "final_x": "3697551.63267",
    "final_y": "558607.862876",
    "longitude": "-90.01640228730093",
    "latitude": "30.02948021995839",
    "geocoded_column": {
      "latitude": "30.02948021995839",
      "longitude": "-90.01640228730093"
    }
  },
  {
    "service_request": "2024-1117312",
    "request_type": "Property Maintenance",
    "request_reason": "Property Maintenance",
    "date_created": "2024-07-30T15:38:46.000",
    "date_modified": "2024-07-30T15:38:46.000",
    "request_status": "Pending",
    "responsible_agency": "Department of Code Enforcement",
    "final_address": "4212 General Pershing St",
    "address_councildis": "B",
    "status": "Pending",
    "rowid": "1117312",
    "final_x": "3669798.01716",
    "final_y": "529498.255489",
    "longitude": "-90.10508950478437",
    "latitude": "29.950286661856513",
    "geocoded_column": {
      "latitude": "29.950286661856513",
      "longitude": "-90.10508950478437"
    }
  },
  {
    "service_request": "2024-1117311",
    "request_type": "Trash/Recycling",
    "request_reason": "Order Trash Cart",
    "date_created": "2024-07-30T15:37:55.000",
    "date_modified": "2024-07-30T15:37:56.000",
    "request_status": "Pending",
    "responsible_agency": "Department of Sanitation",
    "final_address": "5530 Magazine St",
    "address_councildis": "A",
    "status": "Assigned to Contractor",
    "contractor": "IV Waste",
    "rowid": "1117311",
    "final_x": "3666199.44193",
    "final_y": "518831.774135",
    "longitude": "-90.11680952838499",
    "latitude": "29.92106281649327",
    "geocoded_column": {
      "latitude": "29.92106281649327",
      "longitude": "-90.11680952838499"
    }
  },
  {
    "service_request": "2024-1117310",
    "request_type": "Property Maintenance",
    "request_reason": "Property Maintenance",
    "date_created": "2024-07-30T15:37:37.000",
    "date_modified": "2024-07-30T15:37:37.000",
    "request_status": "Pending",
    "responsible_agency": "Department of Code Enforcement",
    "final_address": "4212 General Pershing St",
    "address_councildis": "B",
    "status": "Pending",
    "rowid": "1117310",
    "final_x": "3669798.01716",
    "final_y": "529498.255489",
    "longitude": "-90.10508950478437",
    "latitude": "29.950286661856513",
    "geocoded_column": {
      "latitude": "29.950286661856513",
      "longitude": "-90.10508950478437"
    }
  },
  {
    "service_request": "2024-1117309",
    "request_type": "Abandoned Vehicles",
    "request_reason": "Abandoned/Junk Vehicles",
    "date_created": "2024-07-30T15:37:06.000",
    "date_modified": "2024-07-30T15:42:57.000",
    "request_status": "Pending",
    "responsible_agency": "Department of Public Works",
    "final_address": "2507 Gladiolus St",
    "address_councildis": "D",
    "status": "Pending",
    "rowid": "1117309",
    "final_x": "3686373.98402",
    "final_y": "547500.239762",
    "longitude": "-90.05211585507232",
    "latitude": "29.99928683421198",
    "geocoded_column": {
      "latitude": "29.99928683421198",
      "longitude": "-90.05211585507232"
    }
  },
  {
    "service_request": "2024-1117308",
    "request_type": "Trash/Recycling",
    "request_reason": "Illegal Dumping",
    "date_created": "2024-07-30T15:36:44.000",
    "date_modified": "2024-07-30T15:36:45.000",
    "request_status": "Pending",
    "responsible_agency": "Department of Sanitation",
    "final_address": "2733 St Nick Dr",
    "address_councildis": "C",
    "status": "Pending",
    "rowid": "1117308",
    "final_x": "3699269.35767",
    "final_y": "520833.863225",
    "longitude": "-90.01235043878447",
    "latitude": "29.925561049007246",
    "geocoded_column": {
      "latitude": "29.925561049007246",
      "longitude": "-90.01235043878447"
    }
  },
  {
    "service_request": "2024-1117306",
    "request_type": "Roads/Drainage",
    "request_reason": "Debris in Roadway",
    "date_created": "2024-07-30T15:35:19.000",
    "date_modified": "2024-07-30T15:35:20.000",
    "request_status": "Pending",
    "responsible_agency": "Department of Public Works",
    "final_address": "1531 Audubon St",
    "address_councildis": "A",
    "status": "Pending",
    "rowid": "1117306",
    "final_x": "3665214.28288",
    "final_y": "527436.194175",
    "longitude": "-90.11963155710215",
    "latitude": "29.94475096422697",
    "geocoded_column": {
      "latitude": "29.94475096422697",
      "longitude": "-90.11963155710215"
    }
  },
  {
    "service_request": "2024-1117305",
    "request_type": "Roads/Drainage",
    "request_reason": "Pothole",
    "date_created": "2024-07-30T15:33:21.000",
    "date_modified": "2024-07-30T15:33:22.000",
    "request_status": "Pending",
    "responsible_agency": "Department of Public Works",
    "final_address": "3100 BLK Diana St",
    "address_councildis": "C",
    "status": "Pending",
    "rowid": "1117305",
    "final_x": "3695934.54707",
    "final_y": "527412.080134",
    "longitude": "-90.02263982845507",
    "latitude": "29.94375417609139",
    "geocoded_column": {
      "latitude": "29.94375417609139",
      "longitude": "-90.02263982845507"
    }
  },
  {
    "service_request": "2024-1117304",
    "request_type": "Trash/Recycling",
    "request_reason": "Order Recycling Cart",
    "date_created": "2024-07-30T15:33:05.000",
    "date_modified": "2024-07-30T15:33:05.000",
    "request_status": "Pending",
    "responsible_agency": "Department of Sanitation",
    "final_address": "225 S Solomon St",
    "address_councildis": "A",
    "status": "Pending",
    "rowid": "1117304",
    "final_x": "3670134.33722",
    "final_y": "538271.726537",
    "longitude": "-90.10373030872863",
    "latitude": "29.97440087420824",
    "geocoded_column": {
      "latitude": "29.97440087420824",
      "longitude": "-90.10373030872863"
    }
  },
  {
    "service_request": "2024-1117303",
    "request_type": "Property Maintenance",
    "request_reason": "Property Maintenance",
    "date_created": "2024-07-30T15:33:01.000",
    "date_modified": "2024-07-30T15:33:01.000",
    "request_status": "Pending",
    "responsible_agency": "Department of Code Enforcement",
    "final_address": "1475 Farragut St",
    "address_councildis": "C",
    "status": "Pending",
    "rowid": "1117303",
    "final_x": "3692274.70403",
    "final_y": "525607.724349",
    "longitude": "-90.03425947565955",
    "latitude": "29.93890742053",
    "geocoded_column": {
      "latitude": "29.93890742053",
      "longitude": "-90.03425947565955"
    }
  },
  {
    "service_request": "2024-1117302",
    "request_type": "Trash/Recycling",
    "request_reason": "Order Recycling Cart",
    "date_created": "2024-07-30T15:31:07.000",
    "date_modified": "2024-07-30T15:31:08.000",
    "request_status": "Pending",
    "responsible_agency": "Department of Sanitation",
    "final_address": "225 S Solomon St",
    "address_councildis": "A",
    "status": "Pending",
    "rowid": "1117302",
    "final_x": "3670134.33722",
    "final_y": "538271.726537",
    "longitude": "-90.10373030872863",
    "latitude": "29.97440087420824",
    "geocoded_column": {
      "latitude": "29.97440087420824",
      "longitude": "-90.10373030872863"
    }
  },
  {
    "service_request": "2024-1117301",
    "request_type": "Abandoned Vehicles",
    "request_reason": "Abandoned/Junk Vehicles",
    "date_created": "2024-07-30T15:29:13.000",
    "date_modified": "2024-07-30T15:29:13.000",
    "request_status": "Pending",
    "responsible_agency": "Department of Public Works",
    "final_address": "1314 St Bernard Ave",
    "address_councildis": "C",
    "status": "Inspected",
    "rowid": "1117301",
    "final_x": "3682757.64776",
    "final_y": "536661.727495",
    "longitude": "-90.06391926049956",
    "latitude": "29.969595425410926",
    "geocoded_column": {
      "latitude": "29.969595425410926",
      "longitude": "-90.06391926049956"
    }
  },
  {
    "service_request": "2024-1117300",
    "request_type": "Trash/Recycling",
    "request_reason": "Illegal Dumping",
    "date_created": "2024-07-30T15:28:28.000",
    "date_modified": "2024-07-30T15:28:52.000",
    "request_status": "Pending",
    "responsible_agency": "Department of Sanitation",
    "final_address": "2010 St Andrew St",
    "address_councildis": "B",
    "status": "Pending",
    "rowid": "1117300",
    "final_x": "3677133.54485",
    "final_y": "525484.517885",
    "longitude": "-90.08206613712824",
    "latitude": "29.939031966620917",
    "geocoded_column": {
      "latitude": "29.939031966620917",
      "longitude": "-90.08206613712824"
    }
  },
  {
    "service_request": "2024-1117299",
    "request_type": "Trash/Recycling",
    "request_reason": "Repair Recycling Cart",
    "date_created": "2024-07-30T15:23:52.000",
    "date_modified": "2024-07-30T15:23:53.000",
    "request_status": "Pending",
    "responsible_agency": "Department of Sanitation",
    "final_address": "6425 Memphis St",
    "address_councildis": "A",
    "status": "Pending",
    "rowid": "1117299",
    "final_x": "3669524.56807",
    "final_y": "550178.268948",
    "longitude": "-90.10525308399619",
    "latitude": "30.00715775656949",
    "geocoded_column": {
      "latitude": "30.00715775656949",
      "longitude": "-90.10525308399619"
    }
  },
  {
    "service_request": "2024-1117298",
    "request_type": "Abandoned Vehicles",
    "request_reason": "Abandoned/Junk Vehicles",
    "date_created": "2024-07-30T15:23:04.000",
    "date_modified": "2024-07-30T15:24:39.000",
    "request_status": "Pending",
    "responsible_agency": "Department of Public Works",
    "final_address": "1339 Gallier St",
    "address_councildis": "C",
    "status": "Pending",
    "rowid": "1117298",
    "final_x": "3690771.08188",
    "final_y": "536691.561159",
    "longitude": "-90.03861117069462",
    "latitude": "29.969430919576045",
    "geocoded_column": {
      "latitude": "29.969430919576045",
      "longitude": "-90.03861117069462"
    }
  },
  {
    "service_request": "2024-1117297",
    "request_type": "Property Maintenance",
    "request_reason": "Property Maintenance",
    "date_created": "2024-07-30T15:20:57.000",
    "date_modified": "2024-07-30T15:24:14.000",
    "request_status": "Pending",
    "responsible_agency": "Department of Code Enforcement",
    "final_address": "13132 Wales St",
    "address_councildis": "E",
    "status": "Pending",
    "rowid": "1117297",
    "final_x": "3716150.53087",
    "final_y": "570805.678887",
    "longitude": "-89.95716785516677",
    "latitude": "30.062418370215706",
    "geocoded_column": {
      "latitude": "30.062418370215706",
      "longitude": "-89.95716785516677"
    }
  },
  {
    "service_request": "2024-1117296",
    "request_type": "Trash/Recycling",
    "request_reason": "Repair Trash Cart",
    "date_created": "2024-07-30T15:20:33.000",
    "date_modified": "2024-07-30T15:20:34.000",
    "request_status": "Pending",
    "responsible_agency": "Department of Sanitation",
    "final_address": "345 18Th St",
    "address_councildis": "A",
    "status": "Assigned to Contractor",
    "contractor": "IV Waste",
    "rowid": "1117296",
    "final_x": "3664814.8576",
    "final_y": "548796.653011",
    "longitude": "-90.12017863356347",
    "latitude": "30.003496744260314",
    "geocoded_column": {
      "latitude": "30.003496744260314",
      "longitude": "-90.12017863356347"
    }
  },
  {
    "service_request": "2024-1117295",
    "request_type": "Abandoned Vehicles",
    "request_reason": "Abandoned/Junk Vehicles",
    "date_created": "2024-07-30T15:19:46.000",
    "date_modified": "2024-07-30T15:19:47.000",
    "request_status": "Pending",
    "responsible_agency": "Department of Public Works",
    "final_address": "2500 BLK Gladiolus St",
    "address_councildis": "D",
    "status": "Pending",
    "rowid": "1117295",
    "final_x": "3686662.91437",
    "final_y": "547475.928786",
    "longitude": "-90.05120397796789",
    "latitude": "29.999211101465193",
    "geocoded_column": {
      "latitude": "29.999211101465193",
      "longitude": "-90.05120397796789"
    }
  },
  {
    "service_request": "2024-1117294",
    "request_type": "Traffic Signals/Signs/Striping/Streetlights",
    "request_reason": "Street Light Knocked Down/Leaning",
    "date_created": "2024-07-30T15:19:23.000",
    "date_modified": "2024-07-30T15:19:24.000",
    "request_status": "Pending",
    "responsible_agency": "Department of Public Works",
    "final_address": "6300 Canal Blvd",
    "address_councildis": "A",
    "status": "Pending",
    "contractor": "Legacy Professional Services",
    "rowid": "1117294",
    "final_x": "3668554.48321",
    "final_y": "549388.901651",
    "longitude": "-90.10834451990824",
    "latitude": "30.00501582456717",
    "geocoded_column": {
      "latitude": "30.00501582456717",
      "longitude": "-90.10834451990824"
    }
  },
  {
    "service_request": "2024-1117293",
    "request_type": "Trash/Recycling",
    "request_reason": "Missed Trash Pick-Up",
    "date_created": "2024-07-30T15:18:58.000",
    "date_modified": "2024-07-30T16:22:08.000",
    "case_close_date": "2024-07-30T11:22:08.000",
    "request_status": "Closed",
    "responsible_agency": "Department of Sanitation",
    "final_address": "4146 St Peter St",
    "address_councildis": "A",
    "status": "Invalid Request",
    "contractor": "IV Waste",
    "contractor_action": "Invalid",
    "rowid": "1117293",
    "final_x": "3672134.95489",
    "final_y": "540202.007307",
    "longitude": "-90.0973461091735",
    "latitude": "29.97964930735143",
    "geocoded_column": {
      "latitude": "29.97964930735143",
      "longitude": "-90.0973461091735"
    }
  },
  {
    "service_request": "2024-1117292",
    "request_type": "Graffiti Removal",
    "request_reason": "Graffiti Removal",
    "date_created": "2024-07-30T15:18:50.000",
    "date_modified": "2024-07-30T15:18:50.000",
    "request_status": "Pending",
    "responsible_agency": "Department of Code Enforcement",
    "final_address": "928 Calliope St",
    "address_councildis": "B",
    "status": "Pending",
    "rowid": "1117292",
    "final_x": "3681311.3334",
    "final_y": "526049.262654",
    "longitude": "-90.06885669401844",
    "latitude": "29.940458720695702",
    "geocoded_column": {
      "latitude": "29.940458720695702",
      "longitude": "-90.06885669401844"
    }
  },
  {
    "service_request": "2024-1117291",
    "request_type": "Trash/Recycling",
    "request_reason": "Request a Large Item Pick Up",
    "date_created": "2024-07-30T15:16:49.000",
    "date_modified": "2024-07-30T15:16:50.000",
    "request_status": "Pending",
    "responsible_agency": "Department of Sanitation",
    "final_address": "6920 Deanne St",
    "address_councildis": "D",
    "status": "Assigned to Contractor",
    "contractor": "Waste Pro",
    "rowid": "1117291",
    "final_x": "3695646.55856",
    "final_y": "556144.863002",
    "longitude": "-90.02251129426557",
    "latitude": "30.022767973343726",
    "geocoded_column": {
      "latitude": "30.022767973343726",
      "longitude": "-90.02251129426557"
    }
  },
  {
    "service_request": "2024-1117290",
    "request_type": "Trash/Recycling",
    "request_reason": "Order Recycling Cart",
    "date_created": "2024-07-30T15:14:08.000",
    "date_modified": "2024-07-30T15:14:09.000",
    "request_status": "Pending",
    "responsible_agency": "Department of Sanitation",
    "final_address": "2621 Calhoun St",
    "address_councildis": "A",
    "status": "Pending",
    "rowid": "1117290",
    "final_x": "3666432.49018",
    "final_y": "526507.846526",
    "longitude": "-90.11581644085307",
    "latitude": "29.94216277054734",
    "geocoded_column": {
      "latitude": "29.94216277054734",
      "longitude": "-90.11581644085307"
    }
  },
  {
    "service_request": "2024-1117289",
    "request_type": "Traffic Signals/Signs/Striping/Streetlights",
    "request_reason": "Street Light Outage/Malfunction",
    "date_created": "2024-07-30T15:13:57.000",
    "date_modified": "2024-07-30T15:14:56.000",
    "request_status": "Pending",
    "responsible_agency": "Department of Public Works",
    "final_address": "4853 Camelia St",
    "address_councildis": "E",
    "status": "Assigned to Contractor",
    "contractor": "Legacy Professional Services",
    "rowid": "1117289",
    "final_x": "3701551.67185",
    "final_y": "554962.868952",
    "longitude": "-90.00389595711262",
    "latitude": "30.019330873545705",
    "geocoded_column": {
      "latitude": "30.019330873545705",
      "longitude": "-90.00389595711262"
    }
  },
  {
    "service_request": "2024-1117288",
    "request_type": "Trash/Recycling",
    "request_reason": "Order Trash Cart",
    "date_created": "2024-07-30T15:13:40.000",
    "date_modified": "2024-07-30T15:13:41.000",
    "request_status": "Pending",
    "responsible_agency": "Department of Sanitation",
    "final_address": "2621 Calhoun St",
    "address_councildis": "A",
    "status": "Assigned to Contractor",
    "contractor": "IV Waste",
    "rowid": "1117288",
    "final_x": "3666432.49018",
    "final_y": "526507.846526",
    "longitude": "-90.11581644085307",
    "latitude": "29.94216277054734",
    "geocoded_column": {
      "latitude": "29.94216277054734",
      "longitude": "-90.11581644085307"
    }
  },
  {
    "service_request": "2024-1117287",
    "request_type": "Trash/Recycling",
    "request_reason": "Order Recycling Cart",
    "date_created": "2024-07-30T15:12:51.000",
    "date_modified": "2024-07-30T15:12:52.000",
    "request_status": "Pending",
    "responsible_agency": "Department of Sanitation",
    "final_address": "2619 Calhoun St",
    "address_councildis": "A",
    "status": "Pending",
    "rowid": "1117287",
    "final_x": "3666425.54573",
    "final_y": "526491.179838",
    "longitude": "-90.11583892518962",
    "latitude": "29.94211714540872",
    "geocoded_column": {
      "latitude": "29.94211714540872",
      "longitude": "-90.11583892518962"
    }
  },
  {
    "service_request": "2024-1117286",
    "request_type": "Property Maintenance",
    "request_reason": "Property Maintenance",
    "date_created": "2024-07-30T15:12:36.000",
    "date_modified": "2024-07-30T15:12:36.000",
    "request_status": "Pending",
    "responsible_agency": "Department of Code Enforcement",
    "final_address": "4937 N Galvez St",
    "address_councildis": "E",
    "status": "Pending",
    "rowid": "1117286",
    "final_x": "3696901.00567",
    "final_y": "538078.167241",
    "longitude": "-90.0192022599555",
    "latitude": "29.97305171367157",
    "geocoded_column": {
      "latitude": "29.97305171367157",
      "longitude": "-90.0192022599555"
    }
  },
  {
    "service_request": "2024-1117285",
    "request_type": "Trash/Recycling",
    "request_reason": "Order Trash Cart",
    "date_created": "2024-07-30T15:12:12.000",
    "date_modified": "2024-07-30T15:12:13.000",
    "request_status": "Pending",
    "responsible_agency": "Department of Sanitation",
    "final_address": "2619 Calhoun St",
    "address_councildis": "A",
    "status": "Assigned to Contractor",
    "contractor": "IV Waste",
    "rowid": "1117285",
    "final_x": "3666425.54573",
    "final_y": "526491.179838",
    "longitude": "-90.11583892518962",
    "latitude": "29.94211714540872",
    "geocoded_column": {
      "latitude": "29.94211714540872",
      "longitude": "-90.11583892518962"
    }
  },
  {
    "service_request": "2024-1117284",
    "request_type": "Traffic Signals/Signs/Striping/Streetlights",
    "request_reason": "Additional signage",
    "date_created": "2024-07-30T15:10:49.000",
    "date_modified": "2024-07-30T15:10:50.000",
    "request_status": "Pending",
    "responsible_agency": "Department of Public Works",
    "final_address": "523 Homer St",
    "address_councildis": "C",
    "status": "Pending",
    "rowid": "1117284",
    "final_x": "3687132.7862",
    "final_y": "528290.139712",
    "longitude": "-90.05039824349029",
    "latitude": "29.946442444948033",
    "geocoded_column": {
      "latitude": "29.946442444948033",
      "longitude": "-90.05039824349029"
    }
  },
  {
    "service_request": "2024-1117282",
    "request_type": "Property Maintenance",
    "request_reason": "Property Maintenance",
    "date_created": "2024-07-30T15:08:45.000",
    "date_modified": "2024-07-30T15:08:45.000",
    "request_status": "Pending",
    "responsible_agency": "Department of Code Enforcement",
    "final_address": "4438 Cerise Ave",
    "address_councildis": "E",
    "status": "Pending",
    "rowid": "1117282",
    "final_x": "3708700.44772",
    "final_y": "554041.804504",
    "longitude": "-89.98134279603082",
    "latitude": "30.01656830620188",
    "geocoded_column": {
      "latitude": "30.01656830620188",
      "longitude": "-89.98134279603082"
    }
  },
  {
    "service_request": "2024-1117283",
    "request_type": "Trash/Recycling",
    "request_reason": "Replace Trash Cart",
    "date_created": "2024-07-30T15:08:45.000",
    "date_modified": "2024-07-30T15:08:46.000",
    "request_status": "Pending",
    "responsible_agency": "Department of Sanitation",
    "final_address": "910 Jefferson Ave",
    "address_councildis": "A",
    "status": "Assigned to Contractor",
    "contractor": "IV Waste",
    "rowid": "1117283",
    "final_x": "3666695.43021",
    "final_y": "518892.179639",
    "longitude": "-90.11524188339972",
    "latitude": "29.9212144239529",
    "geocoded_column": {
      "latitude": "29.9212144239529",
      "longitude": "-90.11524188339972"
    }
  },
  {
    "service_request": "2024-1117281",
    "request_type": "Trash/Recycling",
    "request_reason": "Request a Large Item Pick Up",
    "date_created": "2024-07-30T15:08:09.000",
    "date_modified": "2024-07-30T15:08:10.000",
    "request_status": "Pending",
    "responsible_agency": "Department of Sanitation",
    "final_address": "5400 Douglass St",
    "address_councildis": "E",
    "status": "Assigned to Contractor",
    "contractor": "Waste Pro",
    "rowid": "1117281",
    "final_x": "3696661.06275",
    "final_y": "531767.824899",
    "longitude": "-90.0201884338796",
    "latitude": "29.955708079711844",
    "geocoded_column": {
      "latitude": "29.955708079711844",
      "longitude": "-90.0201884338796"
    }
  },
  {
    "service_request": "2024-1117280",
    "request_type": "Trash/Recycling",
    "request_reason": "Request a Large Item Pick Up",
    "date_created": "2024-07-30T15:07:26.000",
    "date_modified": "2024-07-30T15:07:27.000",
    "request_status": "Pending",
    "responsible_agency": "Department of Sanitation",
    "final_address": "4550 Good Dr",
    "address_councildis": "E",
    "status": "Assigned to Contractor",
    "contractor": "Waste Pro",
    "rowid": "1117280",
    "final_x": "3714804.81381",
    "final_y": "555907.077209",
    "longitude": "-89.9619852869933",
    "latitude": "30.021497613219662",
    "geocoded_column": {
      "latitude": "30.021497613219662",
      "longitude": "-89.9619852869933"
    }
  },
  {
    "service_request": "2024-1117279",
    "request_type": "Trash/Recycling",
    "request_reason": "Order Recycling Cart",
    "date_created": "2024-07-30T15:03:30.000",
    "date_modified": "2024-07-30T15:03:30.000",
    "request_status": "Pending",
    "responsible_agency": "Department of Sanitation",
    "final_address": "404 Park Blvd",
    "address_councildis": "C",
    "status": "Pending",
    "rowid": "1117279",
    "final_x": "3686799.09225",
    "final_y": "525875.026429",
    "longitude": "-90.05153713201844",
    "latitude": "29.939811970879443",
    "geocoded_column": {
      "latitude": "29.939811970879443",
      "longitude": "-90.05153713201844"
    }
  },
  {
    "service_request": "2024-1117278",
    "request_type": "Roads/Drainage",
    "request_reason": "Pothole",
    "date_created": "2024-07-30T15:01:14.000",
    "date_modified": "2024-07-30T15:01:14.000",
    "request_status": "Pending",
    "responsible_agency": "Department of Public Works",
    "final_address": "716 Peniston St",
    "address_councildis": "B",
    "status": "Pending",
    "rowid": "1117278",
    "final_x": "3673485.12014",
    "final_y": "518469.724342",
    "longitude": "-90.09382423794936",
    "latitude": "29.91985259424551",
    "geocoded_column": {
      "latitude": "29.91985259424551",
      "longitude": "-90.09382423794936"
    }
  },
  {
    "service_request": "2024-1117277",
    "request_type": "Roads/Drainage",
    "request_reason": "Pothole",
    "date_created": "2024-07-30T14:59:48.000",
    "date_modified": "2024-07-30T14:59:48.000",
    "request_status": "Pending",
    "responsible_agency": "Department of Public Works",
    "final_address": "3817 Annunciation St",
    "address_councildis": "B",
    "status": "Pending",
    "rowid": "1117277",
    "final_x": "3673473.28948",
    "final_y": "518041.491446",
    "longitude": "-90.09387620324793",
    "latitude": "29.91867544232452",
    "geocoded_column": {
      "latitude": "29.91867544232452",
      "longitude": "-90.09387620324793"
    }
  },
  {
    "service_request": "2024-1117276",
    "request_type": "Property Maintenance",
    "request_reason": "Property Maintenance",
    "date_created": "2024-07-30T14:58:46.000",
    "date_modified": "2024-07-30T14:58:47.000",
    "request_status": "Pending",
    "responsible_agency": "Department of Code Enforcement",
    "final_address": "8258 Lake Forest Blvd",
    "address_councildis": "E",
    "status": "Pending",
    "rowid": "1117276",
    "final_x": "3705238.57553",
    "final_y": "557036.30601",
    "longitude": "-89.99217000523349",
    "latitude": "30.02491388822137",
    "geocoded_column": {
      "latitude": "30.02491388822137",
      "longitude": "-89.99217000523349"
    }
  },
  {
    "service_request": "2024-1117275",
    "request_type": "Roads/Drainage",
    "request_reason": "Pothole",
    "date_created": "2024-07-30T14:56:47.000",
    "date_modified": "2024-07-30T14:56:48.000",
    "request_status": "Pending",
    "responsible_agency": "Department of Public Works",
    "final_address": "822 Hendee St",
    "address_councildis": "C",
    "status": "Pending",
    "rowid": "1117275",
    "final_x": "3690877.07337",
    "final_y": "528349.902976",
    "longitude": "-90.03857411555529",
    "latitude": "29.946490968846735",
    "geocoded_column": {
      "latitude": "29.946490968846735",
      "longitude": "-90.03857411555529"
    }
  },
  {
    "service_request": "2024-1117274",
    "request_type": "Trash/Recycling",
    "request_reason": "Replace Trash Cart",
    "date_created": "2024-07-30T14:56:25.000",
    "date_modified": "2024-07-30T14:56:26.000",
    "request_status": "Pending",
    "responsible_agency": "Department of Sanitation",
    "final_address": "2344 Lark St",
    "address_councildis": "D",
    "status": "Assigned to Contractor",
    "contractor": "IV Waste",
    "rowid": "1117274",
    "final_x": "3684434.40828",
    "final_y": "557781.320923",
    "longitude": "-90.05788149603839",
    "latitude": "30.027615542359914",
    "geocoded_column": {
      "latitude": "30.027615542359914",
      "longitude": "-90.05788149603839"
    }
  },
  {
    "service_request": "2024-1117273",
    "request_type": "Trash/Recycling",
    "request_reason": "Repair Trash Cart",
    "date_created": "2024-07-30T14:54:20.000",
    "date_modified": "2024-07-30T14:54:21.000",
    "request_status": "Pending",
    "responsible_agency": "Department of Sanitation",
    "final_address": "4611 Willow St",
    "address_councildis": "B",
    "status": "Assigned to Contractor",
    "contractor": "IV Waste",
    "rowid": "1117273",
    "final_x": "3669537.69511",
    "final_y": "525385.455805",
    "longitude": "-90.10605055835376",
    "latitude": "29.938985470057357",
    "geocoded_column": {
      "latitude": "29.938985470057357",
      "longitude": "-90.10605055835376"
    }
  },
  {
    "service_request": "2024-1117272",
    "request_type": "Trash/Recycling",
    "request_reason": "Repair Trash Cart",
    "date_created": "2024-07-30T14:53:35.000",
    "date_modified": "2024-07-30T14:53:36.000",
    "request_status": "Pending",
    "responsible_agency": "Department of Sanitation",
    "final_address": "4609 Willow St",
    "address_councildis": "B",
    "status": "Assigned to Contractor",
    "contractor": "IV Waste",
    "rowid": "1117272",
    "final_x": "3669550.19393",
    "final_y": "525385.108541",
    "longitude": "-90.10601110973866",
    "latitude": "29.938984147083822",
    "geocoded_column": {
      "latitude": "29.938984147083822",
      "longitude": "-90.10601110973866"
    }
  },
  {
    "service_request": "2024-1117271",
    "request_type": "Trash/Recycling",
    "request_reason": "Request a Large Item Pick Up",
    "date_created": "2024-07-30T14:53:24.000",
    "date_modified": "2024-07-30T14:53:25.000",
    "request_status": "Pending",
    "responsible_agency": "Department of Sanitation",
    "final_address": "2631 Ap Tureaud Ave",
    "address_councildis": "D",
    "status": "Assigned to Contractor",
    "contractor": "IV Waste",
    "rowid": "1117271",
    "final_x": "3681613.89749",
    "final_y": "541888.407308",
    "longitude": "-90.06734894938909",
    "latitude": "29.98400176967146",
    "geocoded_column": {
      "latitude": "29.98400176967146",
      "longitude": "-90.06734894938909"
    }
  },
  {
    "service_request": "2024-1117270",
    "request_type": "Trash/Recycling",
    "request_reason": "Repair Trash Cart",
    "date_created": "2024-07-30T14:52:52.000",
    "date_modified": "2024-07-30T14:52:53.000",
    "request_status": "Pending",
    "responsible_agency": "Department of Sanitation",
    "final_address": "4024 Coliseum St",
    "address_councildis": "B",
    "status": "Assigned to Contractor",
    "contractor": "IV Waste",
    "rowid": "1117270",
    "final_x": "3672242.12129",
    "final_y": "519864.223992",
    "longitude": "-90.09770032057696",
    "latitude": "29.923723937362514",
    "geocoded_column": {
      "latitude": "29.923723937362514",
      "longitude": "-90.09770032057696"
    }
  },