[
  {
    "service_request": "2023-1023920",
    "request_type": "Roads/Drainage",
    "request_reason": "Pothole",
    "date_created": "2023-08-07T00:29:51.000",
    "date_modified": "2023-08-07T00:29:51.000",
    "request_status": "Pending",
    "responsible_agency": "Department of Public Works",
    "final_address": "1315 Milan St",
    "address_councildis": "B",
    "status": "Pending",
    "rowid": "1023920",
    "final_x": "3671703.18324",
    "final_y": "520260.436728",
    "longitude": "-90.09938808639757",
    "latitude": "29.924829365152263",
    "geocoded_column": {
      "latitude": "29.924829365152263",
      "longitude": "-90.09938808639757"
    }
  },
  {
    "service_request": "2023-1023919",
    "request_type": "Roads/Drainage",
    "request_reason": "Pothole",
    "date_created": "2023-08-07T00:18:19.000",
    "date_modified": "2023-08-07T00:18:19.000",
    "request_status": "Pending",
    "responsible_agency": "Department of Public Works",
    "final_address": "1427 General Pershing St",
    "address_councildis": "B",
    "status": "Pending",
    "rowid": "1023919",
    "final_x": "3671330.17102",
    "final_y": "520583.22316",
    "longitude": "-90.10055460321166",
    "latitude": "29.92572796471359",
    "geocoded_column": {
      "latitude": "29.92572796471359",
      "longitude": "-90.10055460321166"
    }
  },
  {
    "service_request": "2023-1023918",
    "request_type": "Trash/Recycling",
    "request_reason": "Request a Large Item Pick Up",
    "date_created": "2023-08-07T00:00:31.000",
    "date_modified": "2023-08-07T00:00:31.000",
    "request_status": "Pending",
    "responsible_agency": "Department of Sanitation",
    "final_address": "4888 Savoie Ct",
    "address_councildis": "E",
    "status": "Assigned to Contractor",
    "contractor": "Waste Pro",
    "rowid": "1023918",
    "final_x": "3725175.74617",
    "final_y": "561478.792991",
    "longitude": "-89.929000661561",
    "latitude": "30.036472197569157",
    "geocoded_column": {
      "latitude": "30.036472197569157",
      "longitude": "-89.929000661561"
    }
  },
  {
    "service_request": "2023-1023917",
    "request_type": "Law Enforcement Services",
    "request_reason": "Abandoned/Junk Vehicles",
    "date_created": "2023-08-06T23:43:04.000",
    "date_modified": "2023-08-06T23:43:04.000",
    "request_status": "Pending",
    "responsible_agency": "Department of Public Works",
    "final_address": "6066 Kuebel Dr",
    "address_councildis": "E",
    "status": "Pending",
    "rowid": "1023917",
    "final_x": "3695324.5823",
    "final_y": "559773.873565",
    "longitude": "-90.02339757030357",
    "latitude": "30.032756494523603",
    "geocoded_column": {
      "latitude": "30.032756494523603",
      "longitude": "-90.02339757030357"
    }
  },
  {
    "service_request": "2023-1023915",
    "request_type": "Trash/Recycling",
    "request_reason": "Illegal Dumping",
    "date_created": "2023-08-06T23:16:49.000",
    "date_modified": "2023-08-06T23:16:49.000",
    "request_status": "Pending",
    "responsible_agency": "Department of Sanitation",
    "final_address": "HAYNE BLVD & TRAPIER AVE",
    "address_councildis": "E",
    "status": "Pending",
    "rowid": "1023915",
    "final_x": "3705846.9",
    "final_y": "564891.18",
    "longitude": "-89.98995682569775",
    "latitude": "30.04649210833992",
    "geocoded_column": {
      "latitude": "30.04649210833992",
      "longitude": "-89.98995682569775"
    }
  },
  {
    "service_request": "2023-1023914",
    "request_type": "Traffic Signals/Signs/Striping/Streetlights",
    "request_reason": "Street Light Outage/Malfunction",
    "date_created": "2023-08-06T23:12:19.000",
    "date_modified": "2023-08-06T23:12:20.000",
    "request_status": "Pending",
    "responsible_agency": "Department of Public Works",
    "final_address": "HAYNE BLVD & TRAPIER AVE",
    "address_councildis": "E",
    "status": "Assigned to Contractor",
    "contractor": "Legacy Professional Services",
    "rowid": "1023914",
    "final_x": "3705846.9",
    "final_y": "564891.18",
    "longitude": "-89.98995682569775",
    "latitude": "30.04649210833992",
    "geocoded_column": {
      "latitude": "30.04649210833992",
      "longitude": "-89.98995682569775"
    }
  },
  {
    "service_request": "2023-1023913",
    "request_type": "Abandoned Vehicles",
    "request_reason": "Abandoned/Junk Vehicles",
    "date_created": "2023-08-06T23:09:22.000",
    "date_modified": "2023-08-06T23:09:22.000",
    "request_status": "Pending",
    "responsible_agency": "Department of Public Works",
    "final_address": "822 N Rocheblave St",
    "address_councildis": "D",
    "status": "Pending",
    "rowid": "1023913",
    "final_x": "3677883.6973",
    "final_y": "536744.913544",
    "longitude": "-90.0793087467444",
    "latitude": "29.969971728511258",
    "geocoded_column": {
      "latitude": "29.969971728511258",
      "longitude": "-90.0793087467444"
    }
  },
  {
    "service_request": "2023-1023912",
    "request_type": "Abandoned Vehicles",
    "request_reason": "Abandoned/Junk Vehicles",
    "date_created": "2023-08-06T23:06:14.000",
    "date_modified": "2023-08-06T23:06:14.000",
    "request_status": "Pending",
    "responsible_agency": "Department of Public Works",
    "final_address": "822 N Rocheblave St",
    "address_councildis": "D",
    "status": "Pending",
    "rowid": "1023912",
    "final_x": "3677883.6973",
    "final_y": "536744.913544",
    "longitude": "-90.0793087467444",
    "latitude": "29.969971728511258",
    "geocoded_column": {
      "latitude": "29.969971728511258",
      "longitude": "-90.0793087467444"
    }
  },
  {
    "service_request": "2023-1023911",
    "request_type": "Traffic Signals/Signs/Striping/Streetlights",
    "request_reason": "Street Light Outage/Malfunction",
    "date_created": "2023-08-06T22:56:51.000",
    "date_modified": "2023-08-06T22:56:52.000",
    "request_status": "Pending",
    "responsible_agency": "Department of Public Works",
    "final_address": "MARCONI DR & FILMORE AVE",
    "address_councildis": "A",
    "status": "Assigned to Contractor",
    "contractor": "Legacy Professional Services",
    "rowid": "1023911",
    "final_x": "3671719.4",
    "final_y": "551758.48",
    "longitude": "-90.09826517909926",
    "latitude": "30.01143791529304",
    "geocoded_column": {
      "latitude": "30.01143791529304",
      "longitude": "-90.09826517909926"
    }
  },
  {
    "service_request": "2023-1023910",
    "request_type": "Traffic Signals/Signs/Striping/Streetlights",
    "request_reason": "Street Light Outage/Malfunction",
    "date_created": "2023-08-06T22:55:22.000",
    "date_modified": "2023-08-06T22:55:22.000",
    "request_status": "Pending",
    "responsible_agency": "Department of Public Works",
    "final_address": "0 BLK Ani St",
    "address_councildis": "D",
    "status": "Assigned to Contractor",
    "contractor": "Legacy Professional Services",
    "rowid": "1023910",
    "final_x": "3672561.96849",
    "final_y": "554474.005997",
    "longitude": "-90.0955104718156",
    "latitude": "30.01887964634331",
    "geocoded_column": {
      "latitude": "30.01887964634331",
      "longitude": "-90.0955104718156"
    }
  },
  {
    "service_request": "2023-1023909",
    "request_type": "Traffic Signals/Signs/Striping/Streetlights",
    "request_reason": "Street Name Sign Damaged or Missing",
    "date_created": "2023-08-06T22:41:36.000",
    "date_modified": "2023-08-06T22:41:36.000",
    "request_status": "Pending",
    "responsible_agency": "Department of Public Works",
    "final_address": "1131 General Pershing St",
    "address_councildis": "B",
    "status": "Pending",
    "rowid": "1023909",
    "final_x": "3671416.3778",
    "final_y": "519794.4046",
    "longitude": "-90.10030926903697",
    "latitude": "29.923556415029356",
    "geocoded_column": {
      "latitude": "29.923556415029356",
      "longitude": "-90.10030926903697"
    }
  },
  {
    "service_request": "2023-1023908",
    "request_type": "Property Maintenance",
    "request_reason": "Property Maintenance",
    "date_created": "2023-08-06T22:12:26.000",
    "date_modified": "2023-08-06T22:12:26.000",
    "request_status": "Pending",
    "responsible_agency": "Department of Code Enforcement",
    "final_address": "914 N Dorgenois St",
    "address_councildis": "D",
    "status": "Pending",
    "rowid": "1023908",
    "final_x": "3677695.18075",
    "final_y": "537258.56948",
    "longitude": "-90.07988635560078",
    "latitude": "29.971389778369478",
    "geocoded_column": {
      "latitude": "29.971389778369478",
      "longitude": "-90.07988635560078"
    }
  },
  {
    "service_request": "2023-1023907",
    "request_type": "Roads/Drainage",
    "request_reason": "Road Shoulder Repair",
    "date_created": "2023-08-06T21:29:05.000",
    "date_modified": "2023-08-06T21:29:05.000",
    "request_status": "Pending",
    "responsible_agency": "Department of Public Works",
    "final_address": "4000 BLK Coliseum St",
    "address_councildis": "B",
    "status": "Pending",
    "rowid": "1023907",
    "final_x": "3672238.14072",
    "final_y": "519950.432656",
    "longitude": "-90.09770995128646",
    "latitude": "29.923961101655525",
    "geocoded_column": {
      "latitude": "29.923961101655525",
      "longitude": "-90.09770995128646"
    }
  },
  {
    "service_request": "2023-1023906",
    "request_type": "Trash/Recycling",
    "request_reason": "Order Trash Cart",
    "date_created": "2023-08-06T21:21:10.000",
    "date_modified": "2023-08-06T21:21:11.000",
    "request_status": "Pending",
    "responsible_agency": "Department of Sanitation",
    "final_address": "721 Josephine St",
    "address_councildis": "B",
    "status": "Assigned to Contractor",
    "contractor": "Richards Disposal",
    "rowid": "1023906",
    "final_x": "3680026.31131",
    "final_y": "521303.290617",
    "longitude": "-90.07307851853307",
    "latitude": "29.927447792458764",
    "geocoded_column": {
      "latitude": "29.927447792458764",
      "longitude": "-90.07307851853307"
    }
  },
  {
    "service_request": "2023-1023905",
    "request_type": "Traffic Signals/Signs/Striping/Streetlights",
    "request_reason": "Street Name Sign Damaged or Missing",
    "date_created": "2023-08-06T21:11:19.000",
    "date_modified": "2023-08-06T21:11:19.000",
    "request_status": "Pending",
    "responsible_agency": "Department of Public Works",
    "final_address": "I 10 E SERVICE RD & WRIGHT RD",
    "address_councildis": "E",
    "status": "Pending",
    "rowid": "1023905",
    "final_x": "3712809.0",
    "final_y": "563129.98",
    "longitude": "-89.96801951488169",
    "latitude": "30.041423248366723",
    "geocoded_column": {
      "latitude": "30.041423248366723",
      "longitude": "-89.96801951488169"
    }
  },
  {
    "service_request": "2023-1023904",
    "request_type": "Trash/Recycling",
    "request_reason": "Request a Large Item Pick Up",
    "date_created": "2023-08-06T20:47:13.000",
    "date_modified": "2023-08-06T20:47:13.000",
    "request_status": "Pending",
    "responsible_agency": "Department of Sanitation",
    "final_address": "927 N Salcedo St",
    "address_councildis": "A",
    "status": "Assigned to Contractor",
    "contractor": "Richards Disposal",
    "rowid": "1023904",
    "final_x": "3676018.09601",
    "final_y": "538690.056969",
    "longitude": "-90.08513358695406",
    "latitude": "29.975376218180724",
    "geocoded_column": {
      "latitude": "29.975376218180724",
      "longitude": "-90.08513358695406"
    }
  },
  {
    "service_request": "2023-1023903",
    "request_type": "Property Maintenance",
    "request_reason": "Property Maintenance",
    "date_created": "2023-08-06T20:28:00.000",
    "date_modified": "2023-08-06T20:28:00.000",
    "request_status": "Pending",
    "responsible_agency": "Department of Code Enforcement",
    "final_address": "3600 Mansfield Ave",
    "address_councildis": "C",
    "status": "Pending",
    "rowid": "1023903",
    "final_x": "3709066.37464",
    "final_y": "517612.280118",
    "longitude": "-89.9815445260523",
    "latitude": "29.9163886271304",
    "geocoded_column": {
      "latitude": "29.9163886271304",
      "longitude": "-89.9815445260523"
    }
  },
  {
    "service_request": "2023-1023902",
    "request_type": "Traffic Signals/Signs/Striping/Streetlights",
    "request_reason": "Street Name Sign Damaged or Missing",
    "date_created": "2023-08-06T20:09:37.000",
    "date_modified": "2023-08-06T20:09:37.000",
    "request_status": "Pending",
    "responsible_agency": "Department of Public Works",
    "final_address": "6900 BLK Mayo Rd",
    "address_councildis": "E",
    "status": "Pending",
    "rowid": "1023902",
    "final_x": "3701868.35377",
    "final_y": "558183.411964",
    "longitude": "-90.00277719472443",
    "latitude": "30.028176021285688",
    "geocoded_column": {
      "latitude": "30.028176021285688",
      "longitude": "-90.00277719472443"
    }
  },
  {
    "service_request": "2023-1023901",
    "request_type": "Roads/Drainage",
    "request_reason": "Pothole",
    "date_created": "2023-08-06T20:08:26.000",
    "date_modified": "2023-08-06T20:08:26.000",
    "request_status": "Pending",
    "responsible_agency": "Department of Public Works",
    "final_address": "1821 Egania St",
    "address_councildis": "E",
    "status": "Pending",
    "rowid": "1023901",
    "final_x": "3697623.20055",
    "final_y": "536815.123848",
    "longitude": "-90.0169672660264",
    "latitude": "29.969556003643635",
    "geocoded_column": {
      "latitude": "29.969556003643635",
      "longitude": "-90.0169672660264"
    }
  },
  {
    "service_request": "2023-1023900",
    "request_type": "Roads/Drainage",
    "request_reason": "Ditch Issue",
    "date_created": "2023-08-06T20:06:48.000",
    "date_modified": "2023-08-06T20:06:48.000",
    "request_status": "Pending",
    "responsible_agency": "Department of Public Works",
    "final_address": "915 Hidalgo St",
    "address_councildis": "A",
    "status": "Pending",
    "rowid": "1023900",
    "final_x": "3669663.09306",
    "final_y": "544083.646926",
    "longitude": "-90.10502184859273",
    "latitude": "29.990395575957006",
    "geocoded_column": {
      "latitude": "29.990395575957006",
      "longitude": "-90.10502184859273"
    }
  },
  {
    "service_request": "2023-1023899",
    "request_type": "Trash/Recycling",
    "request_reason": "Request a Large Item Pick Up",
    "date_created": "2023-08-06T19:58:42.000",
    "date_modified": "2023-08-06T19:58:43.000",
    "request_status": "Pending",
    "responsible_agency": "Department of Sanitation",
    "final_address": "4820 Carondelet St",
    "address_councildis": "B",
    "status": "Assigned to Contractor",
    "contractor": "Richards Disposal",
    "rowid": "1023899",
    "final_x": "3669162.42068",
    "final_y": "520989.668793",
    "longitude": "-90.10738383026269",
    "latitude": "29.926909511532198",
    "geocoded_column": {
      "latitude": "29.926909511532198",
      "longitude": "-90.10738383026269"
    }
  },
  {
    "service_request": "2023-1023898",
    "request_type": "Roads/Drainage",
    "request_reason": "Accessibility Ramps, Curbs and Sidewalk Repair",
    "date_created": "2023-08-06T19:44:48.000",
    "date_modified": "2023-08-06T19:44:48.000",
    "request_status": "Pending",
    "responsible_agency": "Department of Public Works",
    "final_address": "3628 Camp St",
    "address_councildis": "B",
    "status": "Pending",
    "rowid": "1023898",
    "final_x": "3673835.045",
    "final_y": "519478.722807",
    "longitude": "-90.09268520956738",
    "latitude": "29.92261660405603",
    "geocoded_column": {
      "latitude": "29.92261660405603",
      "longitude": "-90.09268520956738"
    }
  },
  {
    "service_request": "2023-1023897",
    "request_type": "Roads/Drainage",
    "request_reason": "Man hole cover issue",
    "date_created": "2023-08-06T19:26:52.000",
    "date_modified": "2023-08-06T19:26:52.000",
    "request_status": "Pending",
    "responsible_agency": "Department of Public Works",
    "final_address": "LOUISIANA AVE & CAMP ST",
    "address_councildis": "B",
    "status": "Pending",
    "rowid": "1023897",
    "final_x": "3674866.3",
    "final_y": "519966.08",
    "longitude": "-90.0894132451498",
    "latitude": "29.923925936909892",
    "geocoded_column": {
      "latitude": "29.923925936909892",
      "longitude": "-90.0894132451498"
    }
  },
  {
    "service_request": "2023-1023896",
    "request_type": "Trash/Recycling",
    "request_reason": "Request a Large Item Pick Up",
    "date_created": "2023-08-06T19:25:22.000",
    "date_modified": "2023-08-06T19:25:23.000",
    "request_status": "Pending",
    "responsible_agency": "Department of Sanitation",
    "final_address": "1323 Mandolin St",
    "address_councildis": "D",
    "status": "Assigned to Contractor",
    "contractor": "IV Waste",
    "rowid": "1023896",
    "final_x": "3677405.73589",
    "final_y": "548107.64277",
    "longitude": "-90.0804258197975",
    "latitude": "30.001229658365165",
    "geocoded_column": {
      "latitude": "30.001229658365165",
      "longitude": "-90.0804258197975"
    }
  },
  {
    "service_request": "2023-1023895",
    "request_type": "Trash/Recycling",
    "request_reason": "Replace Trash Cart",
    "date_created": "2023-08-06T19:20:26.000",
    "date_modified": "2023-08-06T19:20:26.000",
    "request_status": "Pending",
    "responsible_agency": "Department of Sanitation",
    "final_address": "1031 Valmont St",
    "address_councildis": "B",
    "status": "Assigned to Contractor",
    "contractor": "Richards Disposal",
    "rowid": "1023895",
    "final_x": "3667609.88397",
    "final_y": "519228.093367",
    "longitude": "-90.11234405058812",
    "latitude": "29.922111319131474",
    "geocoded_column": {
      "latitude": "29.922111319131474",
      "longitude": "-90.11234405058812"
    }
  },
  {
    "service_request": "2023-1023894",
    "request_type": "Traffic Signals/Signs/Striping/Streetlights",
    "request_reason": "Traffic Signal Malfunctioning/Damaged",
    "date_created": "2023-08-06T18:58:35.000",
    "date_modified": "2023-08-06T18:58:35.000",
    "request_status": "Pending",
    "responsible_agency": "Department of Public Works",
    "final_address": "1538 Louisiana Ave",
    "address_councildis": "B",
    "status": "Pending",
    "rowid": "1023894",
    "final_x": "3674209.3922",
    "final_y": "521295.261561",
    "longitude": "-90.09144139590329",
    "latitude": "29.92760035077887",
    "geocoded_column": {
      "latitude": "29.92760035077887",
      "longitude": "-90.09144139590329"
    }
  },
  {
    "service_request": "2023-1023893",
    "request_type": "Trash/Recycling",
    "request_reason": "Request a Large Item Pick Up",
    "date_created": "2023-08-06T18:41:42.000",
    "date_modified": "2023-08-06T18:41:43.000",
    "request_status": "Pending",
    "responsible_agency": "Department of Sanitation",
    "final_address": "7732 Henley St",
    "address_councildis": "E",
    "status": "Assigned to Contractor",
    "contractor": "Waste Pro",
    "rowid": "1023893",
    "final_x": "3696661.82768",
    "final_y": "559605.115293",
    "longitude": "-90.01917789842818",
    "latitude": "30.032250371326217",
    "geocoded_column": {
      "latitude": "30.032250371326217",
      "longitude": "-90.01917789842818"
    }
  },
  {
    "service_request": "2023-1023892",
    "request_type": "Roads/Drainage",
    "request_reason": "Pothole",
    "date_created": "2023-08-06T18:41:05.000",
    "date_modified": "2023-08-06T18:41:05.000",
    "request_status": "Pending",
    "responsible_agency": "Department of Public Works",
    "final_address": "1027 Austerlitz St",
    "address_councildis": "B",
    "status": "Pending",
    "rowid": "1023892",
    "final_x": "3672843.04724",
    "final_y": "519596.245624",
    "longitude": "-90.09581254903978",
    "latitude": "29.922969250568517",
    "geocoded_column": {
      "latitude": "29.922969250568517",
      "longitude": "-90.09581254903978"
    }
  },
  {
    "service_request": "2023-1023891",
    "request_type": "Roads/Drainage",
    "request_reason": "Pothole",
    "date_created": "2023-08-06T18:22:30.000",
    "date_modified": "2023-08-06T18:22:30.000",
    "request_status": "Pending",
    "responsible_agency": "Department of Public Works",
    "final_address": "1422 General Pershing St",
    "address_councildis": "B",
    "status": "Pending",
    "rowid": "1023891",
    "final_x": "3671239.44116",
    "final_y": "520532.324984",
    "longitude": "-90.10084273889387",
    "latitude": "29.925590694745555",
    "geocoded_column": {
      "latitude": "29.925590694745555",
      "longitude": "-90.10084273889387"
    }
  },
  {
    "service_request": "2023-1023890",
    "request_type": "Traffic Signals/Signs/Striping/Streetlights",
    "request_reason": "Traffic Signal Malfunctioning/Damaged",
    "date_created": "2023-08-06T18:17:01.000",
    "date_modified": "2023-08-06T18:17:01.000",
    "request_status": "Pending",
    "responsible_agency": "Department of Public Works",
    "final_address": "4332 Magazine St",
    "address_councildis": "B",
    "status": "Pending",
    "rowid": "1023890",
    "final_x": "3671176.36513",
    "final_y": "518713.323255",
    "longitude": "-90.10110360059795",
    "latitude": "29.92059088488764",
    "geocoded_column": {
      "latitude": "29.92059088488764",
      "longitude": "-90.10110360059795"
    }
  },
  {
    "service_request": "2023-1023889",
    "request_type": "Abandoned Vehicles",
    "request_reason": "Abandoned/Junk Vehicles",
    "date_created": "2023-08-06T18:01:20.000",
    "date_modified": "2023-08-06T18:01:20.000",
    "request_status": "Pending",
    "responsible_agency": "Department of Public Works",
    "final_address": "700 BLK Bragg St",
    "address_councildis": "A",
    "status": "Pending",
    "rowid": "1023889",
    "final_x": "3669040.77704",
    "final_y": "550015.68158",
    "longitude": "-90.10678701611953",
    "latitude": "30.00672494657259",
    "geocoded_column": {
      "latitude": "30.00672494657259",
      "longitude": "-90.10678701611953"
    }
  },
  {
    "service_request": "2023-1023888",
    "request_type": "Roads/Drainage",
    "request_reason": "Street Flooding / Drainage",
    "date_created": "2023-08-06T17:42:48.000",
    "date_modified": "2023-08-06T17:42:48.000",
    "request_status": "Pending",
    "responsible_agency": "Department of Public Works",
    "final_address": "3602 Camp St",
    "address_councildis": "B",
    "status": "Pending",
    "rowid": "1023888",
    "final_x": "3674006.78184",
    "final_y": "519580.313464",
    "longitude": "-90.09213963055338",
    "latitude": "29.922890831731827",
    "geocoded_column": {
      "latitude": "29.922890831731827",
      "longitude": "-90.09213963055338"
    }
  },
  {
    "service_request": "2023-1023887",
    "request_type": "Trash/Recycling",
    "request_reason": "MIssed Recycling Pick-Up",
    "date_created": "2023-08-06T17:23:34.000",
    "date_modified": "2023-08-06T17:23:35.000",
    "request_status": "Pending",
    "responsible_agency": "Department of Sanitation",
    "final_address": "4523 LaSalle St",
    "address_councildis": "B",
    "status": "Assigned to Contractor",
    "contractor": "Richards Disposal",
    "rowid": "1023887",
    "final_x": "3669965.56372",
    "final_y": "523691.007291",
    "longitude": "-90.10475708156233",
    "latitude": "29.934313674969047",
    "geocoded_column": {
      "latitude": "29.934313674969047",
      "longitude": "-90.10475708156233"
    }
  },
  {
    "service_request": "2023-1023886",
    "request_type": "Roads/Drainage",
    "request_reason": "Pothole",
    "date_created": "2023-08-06T17:22:44.000",
    "date_modified": "2023-08-06T17:22:44.000",
    "request_status": "Pending",
    "responsible_agency": "Department of Public Works",
    "final_address": "1221 Constantinople St",
    "address_councildis": "B",
    "status": "Pending",
    "rowid": "1023886",
    "final_x": "3672464.70081",
    "final_y": "520181.419896",
    "longitude": "-90.09698691327688",
    "latitude": "29.92458952289487",
    "geocoded_column": {
      "latitude": "29.92458952289487",
      "longitude": "-90.09698691327688"
    }
  },
  {
    "service_request": "2023-1023885",
    "request_type": "Traffic Signals/Signs/Striping/Streetlights",
    "request_reason": "Street Light Outage/Malfunction",
    "date_created": "2023-08-06T17:22:05.000",
    "date_modified": "2023-08-06T17:22:05.000",
    "request_status": "Pending",
    "responsible_agency": "Department of Public Works",
    "final_address": "0 General De Gaulle Dr",
    "address_councildis": "C",
    "status": "Assigned to Contractor",
    "contractor": "Legacy Professional Services",
    "rowid": "1023885",
    "final_x": "3697018.31735",
    "final_y": "519731.228088",
    "longitude": "-90.01949615286618",
    "latitude": "29.922600343135908",
    "geocoded_column": {
      "latitude": "29.922600343135908",
      "longitude": "-90.01949615286618"
    }
  },
  {
    "service_request": "2023-1023884",
    "request_type": "Trash/Recycling",
    "request_reason": "Order Trash Cart",
    "date_created": "2023-08-06T17:21:12.000",
    "date_modified": "2023-08-06T17:21:13.000",
    "request_status": "Pending",
    "responsible_agency": "Department of Sanitation",
    "final_address": "4523 LaSalle St",
    "address_councildis": "B",
    "status": "Assigned to Contractor",
    "contractor": "Richards Disposal",
    "rowid": "1023884",
    "final_x": "3669965.56372",
    "final_y": "523691.007291",
    "longitude": "-90.10475708156233",
    "latitude": "29.934313674969047",
    "geocoded_column": {
      "latitude": "29.934313674969047",
      "longitude": "-90.10475708156233"
    }
  },
  {
    "service_request": "2023-1023883",
    "request_type": "Roads/Drainage",
    "request_reason": "Pothole",
    "date_created": "2023-08-06T17:19:26.000",
    "date_modified": "2023-08-06T17:19:26.000",
    "request_status": "Pending",
    "responsible_agency": "Department of Public Works",
    "final_address": "1421 Constantinople St",
    "address_councildis": "B",
    "status": "Pending",
    "rowid": "1023883",
    "final_x": "3672433.24257",
    "final_y": "520667.657465",
    "longitude": "-90.09706965638372",
    "latitude": "29.925927453713577",
    "geocoded_column": {
      "latitude": "29.925927453713577",
      "longitude": "-90.09706965638372"
    }
  },
  {
    "service_request": "2023-1023882",
    "request_type": "Trash/Recycling",
    "request_reason": "Request a Large Item Pick Up",
    "date_created": "2023-08-06T17:15:27.000",
    "date_modified": "2023-08-06T17:15:27.000",
    "request_status": "Pending",
    "responsible_agency": "Department of Sanitation",
    "final_address": "1318 Nashville Ave",
    "address_councildis": "A",
    "status": "Assigned to Contractor",
    "contractor": "Richards Disposal",
    "rowid": "1023882",
    "final_x": "3665867.84429",
    "final_y": "520841.413625",
    "longitude": "-90.11778894303781",
    "latitude": "29.926598369111478",
    "geocoded_column": {
      "latitude": "29.926598369111478",
      "longitude": "-90.11778894303781"
    }
  },
  {
    "service_request": "2023-1023881",
    "request_type": "Trash/Recycling",
    "request_reason": "Request a Large Item Pick Up",
    "date_created": "2023-08-06T17:14:52.000",
    "date_modified": "2023-08-06T17:14:53.000",
    "request_status": "Pending",
    "responsible_agency": "Department of Sanitation",
    "final_address": "4320 Sybil St",
    "address_councildis": "D",
    "status": "Assigned to Contractor",
    "contractor": "IV Waste",
    "rowid": "1023881",
    "final_x": "3679019.14101",
    "final_y": "548268.91253",
    "longitude": "-90.07532333794931",
    "latitude": "30.00162448603925",
    "geocoded_column": {
      "latitude": "30.00162448603925",
      "longitude": "-90.07532333794931"
    }
  },
  {
    "service_request": "2023-1023880",
    "request_type": "Abandoned Vehicles",
    "request_reason": "Abandoned/Junk Vehicles",
    "date_created": "2023-08-06T17:12:36.000",
    "date_modified": "2023-08-06T17:12:36.000",
    "request_status": "Pending",
    "responsible_agency": "Department of Public Works",
    "final_address": "2812 Louisiana Ave",
    "address_councildis": "B",
    "status": "Pending",
    "rowid": "1023880",
    "final_x": "3672361.5723",
    "final_y": "525581.327869",
    "longitude": "-90.09712855611659",
    "latitude": "29.939440586189097",
    "geocoded_column": {
      "latitude": "29.939440586189097",
      "longitude": "-90.09712855611659"
    }
  },
  {
    "service_request": "2023-1023879",
    "request_type": "Trash/Recycling",
    "request_reason": "Order Recycling Cart",
    "date_created": "2023-08-06T17:11:03.000",
    "date_modified": "2023-08-06T17:11:03.000",
    "request_status": "Pending",
    "responsible_agency": "Department of Sanitation",
    "final_address": "729 Foucher St",
    "address_councildis": "B",
    "status": "Pending",
    "rowid": "1023879",
    "final_x": "3674633.2459",
    "final_y": "518072.594486",
    "longitude": "-90.09021375931681",
    "latitude": "29.918726413846596",
    "geocoded_column": {
      "latitude": "29.918726413846596",
      "longitude": "-90.09021375931681"
    }
  },
  {
    "service_request": "2023-1023878",
    "request_type": "Trash/Recycling",
    "request_reason": "Replace Recycling Cart",
    "date_created": "2023-08-06T17:05:48.000",
    "date_modified": "2023-08-06T17:05:48.000",
    "request_status": "Pending",
    "responsible_agency": "Department of Sanitation",
    "final_address": "3806 State Street Dr",
    "address_councildis": "A",
    "status": "Pending",
    "rowid": "1023878",
    "final_x": "3668002.03053",
    "final_y": "529510.882049",
    "longitude": "-90.11075988140503",
    "latitude": "29.95037419367859",
    "geocoded_column": {
      "latitude": "29.95037419367859",
      "longitude": "-90.11075988140503"
    }
  },
  {
    "service_request": "2023-1023877",
    "request_type": "Abandoned Vehicles",
    "request_reason": "Abandoned/Junk Vehicles",
    "date_created": "2023-08-06T17:05:36.000",
    "date_modified": "2023-08-06T17:05:36.000",
    "request_status": "Pending",
    "responsible_agency": "Department of Public Works",
    "final_address": "2832 Louisiana Ave",
    "address_councildis": "B",
    "status": "Pending",
    "rowid": "1023877",
    "final_x": "3672302.62561",
    "final_y": "525717.546045",
    "longitude": "-90.09731001991545",
    "latitude": "29.939816890366302",
    "geocoded_column": {
      "latitude": "29.939816890366302",
      "longitude": "-90.09731001991545"
    }
  },
  {
    "service_request": "2023-1023875",
    "request_type": "Traffic Signals/Signs/Striping/Streetlights",
    "request_reason": "Street Light Outage/Malfunction",
    "date_created": "2023-08-06T16:52:37.000",
    "date_modified": "2023-08-06T16:52:37.000",
    "request_status": "Pending",
    "responsible_agency": "Department of Public Works",
    "final_address": "1723 General De Gaulle Dr",
    "address_councildis": "C",
    "status": "Assigned to Contractor",
    "contractor": "Legacy Professional Services",
    "rowid": "1023875",
    "final_x": "3690417.13795",
    "final_y": "522480.26137",
    "longitude": "-90.0402354322304",
    "latitude": "29.9303657336621",
    "geocoded_column": {
      "latitude": "29.9303657336621",
      "longitude": "-90.0402354322304"
    }
  },
  {
    "service_request": "2023-1023874",
    "request_type": "Roads/Drainage",
    "request_reason": "Damaged Sidewalk",
    "date_created": "2023-08-06T16:49:12.000",
    "date_modified": "2023-08-06T16:49:12.000",
    "request_status": "Pending",
    "responsible_agency": "Department of Public Works",
    "final_address": "1819 Jackson Ave",
    "address_councildis": "B",
    "status": "Pending",
    "rowid": "1023874",
    "final_x": "3676974.28699",
    "final_y": "524680.281852",
    "longitude": "-90.08259664858382",
    "latitude": "29.93682536290906",
    "geocoded_column": {
      "latitude": "29.93682536290906",
      "longitude": "-90.08259664858382"
    }
  },
  {
    "service_request": "2023-1023873",
    "request_type": "Roads/Drainage",
    "request_reason": "Pothole",
    "date_created": "2023-08-06T16:48:18.000",
    "date_modified": "2023-08-06T16:48:18.000",
    "request_status": "Pending",
    "responsible_agency": "Department of Public Works",
    "final_address": "1625 Upperline St",
    "address_councildis": "B",
    "status": "Pending",
    "rowid": "1023873",
    "final_x": "3669111.27374",
    "final_y": "520902.335865",
    "longitude": "-90.10754823733669",
    "latitude": "29.92667087837176",
    "geocoded_column": {
      "latitude": "29.92667087837176",
      "longitude": "-90.10754823733669"
    }
  },
  {
    "service_request": "2023-1023872",
    "request_type": "Roads/Drainage",
    "request_reason": "Damaged Sidewalk",
    "date_created": "2023-08-06T16:44:09.000",
    "date_modified": "2023-08-06T16:44:09.000",
    "request_status": "Pending",
    "responsible_agency": "Department of Public Works",
    "final_address": "1819 Jackson Ave",
    "address_councildis": "B",
    "status": "Pending",
    "rowid": "1023872",
    "final_x": "3676974.28699",
    "final_y": "524680.281852",
    "longitude": "-90.08259664858382",
    "latitude": "29.93682536290906",
    "geocoded_column": {
      "latitude": "29.93682536290906",
      "longitude": "-90.08259664858382"
    }
  },
  {
    "service_request": "2023-1023871",
    "request_type": "Roads/Drainage",
    "request_reason": "Pothole",
    "date_created": "2023-08-06T16:26:51.000",
    "date_modified": "2023-08-06T16:26:51.000",
    "request_status": "Pending",
    "responsible_agency": "Department of Public Works",
    "final_address": "1312 Milan St",
    "address_councildis": "B",
    "status": "Pending",
    "rowid": "1023871",
    "final_x": "3671625.82823",
    "final_y": "520286.919608",
    "longitude": "-90.09963137110304",
    "latitude": "29.92490447494246",
    "geocoded_column": {
      "latitude": "29.92490447494246",
      "longitude": "-90.09963137110304"
    }
  },
  {
    "service_request": "2023-1023870",
    "request_type": "Roads/Drainage",
    "request_reason": "Pothole",
    "date_created": "2023-08-06T16:11:38.000",
    "date_modified": "2023-08-06T16:11:38.000",
    "request_status": "Pending",
    "responsible_agency": "Department of Public Works",
    "final_address": "1315 Peniston St",
    "address_councildis": "B",
    "status": "Pending",
    "rowid": "1023870",
    "final_x": "3673101.31451",
    "final_y": "520423.11276",
    "longitude": "-90.09496908964098",
    "latitude": "29.925235197927364",
    "geocoded_column": {
      "latitude": "29.925235197927364",
      "longitude": "-90.09496908964098"
    }
  },
  {
    "service_request": "2023-1023869",
    "request_type": "Roads/Drainage",
    "request_reason": "Pothole",
    "date_created": "2023-08-06T16:04:16.000",
    "date_modified": "2023-08-06T16:04:16.000",
    "request_status": "Pending",
    "responsible_agency": "Department of Public Works",
    "final_address": "1654 Jefferson Ave",
    "address_councildis": "A",
    "status": "Pending",
    "rowid": "1023869",
    "final_x": "3667379.33121",
    "final_y": "522069.24505",
    "longitude": "-90.11297629652972",
    "latitude": "29.929930340096607",
    "geocoded_column": {
      "latitude": "29.929930340096607",
      "longitude": "-90.11297629652972"
    }
  },
  {
    "service_request": "2023-1023868",
    "request_type": "Trash/Recycling",
    "request_reason": "Request a Large Item Pick Up",
    "date_created": "2023-08-06T16:03:14.000",
    "date_modified": "2023-08-06T16:03:14.000",
    "request_status": "Pending",
    "responsible_agency": "Department of Sanitation",
    "final_address": "5361 Magazine St",
    "address_councildis": "B",
    "status": "Assigned to Contractor",
    "contractor": "Richards Disposal",
    "rowid": "1023868",
    "final_x": "3666965.1986",
    "final_y": "518827.693111",
    "longitude": "-90.1143925067963",
    "latitude": "29.921029218032334",
    "geocoded_column": {
      "latitude": "29.921029218032334",
      "longitude": "-90.1143925067963"
    }
  },
  {
    "service_request": "2023-1023866",
    "request_type": "Trash/Recycling",
    "request_reason": "Request a Large Item Pick Up",
    "date_created": "2023-08-06T15:54:12.000",
    "date_modified": "2023-08-06T15:54:13.000",
    "request_status": "Pending",
    "responsible_agency": "Department of Sanitation",
    "final_address": "3829 Banks St, New Orleans, Louisiana, 70119",
    "address_councildis": "A",
    "status": "Assigned to Contractor",
    "contractor": "Richards Disposal",
    "rowid": "1023866",
    "final_x": "3671204.24276",
    "final_y": "536838.852104",
    "longitude": "-90.10039997732386",
    "latitude": "29.970429339973748",
    "geocoded_column": {
      "latitude": "29.970429339973748",
      "longitude": "-90.10039997732386"
    }
  },
  {
    "service_request": "2023-1023865",
    "request_type": "Trash/Recycling",
    "request_reason": "Request a Large Item Pick Up",
    "date_created": "2023-08-06T15:42:38.000",
    "date_modified": "2023-08-06T15:42:39.000",
    "request_status": "Pending",
    "responsible_agency": "Department of Sanitation",
    "final_address": "2411 St Nick Dr",
    "address_councildis": "C",
    "status": "Assigned to Contractor",
    "contractor": "Richards Disposal",
    "rowid": "1023865",
    "final_x": "3699472.38756",
    "final_y": "522284.788794",
    "longitude": "-90.01165671014314",
    "latitude": "29.929544157584374",
    "geocoded_column": {
      "latitude": "29.929544157584374",
      "longitude": "-90.01165671014314"
    }
  },
  {
    "service_request": "2023-1023864",
    "request_type": "Trash/Recycling",
    "request_reason": "Request a Large Item Pick Up",
    "date_created": "2023-08-06T15:35:59.000",
    "date_modified": "2023-08-06T15:36:00.000",
    "request_status": "Pending",
    "responsible_agency": "Department of Sanitation",
    "final_address": "1907 Short St",
    "address_councildis": "A",
    "status": "Assigned to Contractor",
    "contractor": "Richards Disposal",
    "rowid": "1023864",
    "final_x": "3664029.8448",
    "final_y": "529912.713985",
    "longitude": "-90.12328862769789",
    "latitude": "29.951595040065808",
    "geocoded_column": {
      "latitude": "29.951595040065808",
      "longitude": "-90.12328862769789"
    }
  },
  {
    "service_request": "2023-1023863",
    "request_type": "Roads/Drainage",
    "request_reason": "Pothole",
    "date_created": "2023-08-06T15:32:55.000",
    "date_modified": "2023-08-06T15:32:55.000",
    "request_status": "Pending",
    "responsible_agency": "Department of Public Works",
    "final_address": "1407 Valence St",
    "address_councildis": "B",
    "status": "Pending",
    "rowid": "1023863",
    "final_x": "3669839.25287",
    "final_y": "520292.863992",
    "longitude": "-90.10527081865904",
    "latitude": "29.924973591096933",
    "geocoded_column": {
      "latitude": "29.924973591096933",
      "longitude": "-90.10527081865904"
    }
  },
  {
    "service_request": "2023-1023862",
    "request_type": "Trash/Recycling",
    "request_reason": "Replace Trash Cart",
    "date_created": "2023-08-06T15:31:22.000",
    "date_modified": "2023-08-06T15:31:23.000",
    "request_status": "Pending",
    "responsible_agency": "Department of Sanitation",
    "final_address": "4407 Lonely Oak Dr",
    "address_councildis": "E",
    "status": "Assigned to Contractor",
    "contractor": "Waste Pro",
    "rowid": "1023862",
    "final_x": "3702515.00119",
    "final_y": "552924.406807",
    "longitude": "-90.00092708035764",
    "latitude": "30.013695114211068",
    "geocoded_column": {
      "latitude": "30.013695114211068",
      "longitude": "-90.00092708035764"
    }
  },
  {
    "service_request": "2023-1023861",
    "request_type": "Trash/Recycling",
    "request_reason": "Request a Large Item Pick Up",
    "date_created": "2023-08-06T15:30:21.000",
    "date_modified": "2023-08-06T15:30:21.000",
    "request_status": "Pending",
    "responsible_agency": "Department of Sanitation",
    "final_address": "932 Hagan St",
    "address_councildis": "A",
    "status": "Assigned to Contractor",
    "contractor": "Richards Disposal",
    "rowid": "1023861",
    "final_x": "3675317.5515",
    "final_y": "539263.40353",
    "longitude": "-90.0873264068237",
    "latitude": "29.97697368982236",
    "geocoded_column": {
      "latitude": "29.97697368982236",
      "longitude": "-90.0873264068237"
    }
  },
  {
    "service_request": "2023-1023860",
    "request_type": "Trash/Recycling",
    "request_reason": "Request a Large Item Pick Up",
    "date_created": "2023-08-06T15:29:09.000",
    "date_modified": "2023-08-06T15:29:09.000",
    "request_status": "Pending",
    "responsible_agency": "Department of Sanitation",
    "final_address": "934 Hagan St",
    "address_councildis": "A",
    "status": "Assigned to Contractor",
    "contractor": "Richards Disposal",
    "rowid": "1023860",
    "final_x": "3675327.21275",
    "final_y": "539278.58561",
    "longitude": "-90.08729537204412",
    "latitude": "29.977015146467032",
    "geocoded_column": {
      "latitude": "29.977015146467032",
      "longitude": "-90.08729537204412"
    }
  },
  {
    "service_request": "2023-1023859",
    "request_type": "Trash/Recycling",
    "request_reason": "Illegal Dumping",
    "date_created": "2023-08-06T15:27:46.000",
    "date_modified": "2023-08-06T15:27:47.000",
    "request_status": "Pending",
    "responsible_agency": "Department of Sanitation",
    "final_address": "CHEF MENTEUR HWY & W ADAMS CT",
    "address_councildis": "E",
    "status": "Pending",
    "rowid": "1023859",
    "final_x": "3718575.3",
    "final_y": "556568.88",
    "longitude": "-89.95004647466949",
    "latitude": "30.02319268995833",
    "geocoded_column": {
      "latitude": "30.02319268995833",
      "longitude": "-89.95004647466949"
    }
  },
  {
    "service_request": "2023-1023858",
    "request_type": "Trash/Recycling",
    "request_reason": "Dead Animal Pick Up",
    "date_created": "2023-08-06T15:21:15.000",
    "date_modified": "2023-08-06T15:21:16.000",
    "request_status": "Pending",
    "responsible_agency": "Department of Sanitation",
    "status": "Assigned to Contractor",
    "rowid": "1023858",
    "longitude": "0.0",
    "latitude": "0.0",
    "geocoded_column": {
      "latitude": "0.0",
      "longitude": "0.0"
    }
  },
  {
    "service_request": "2023-1023857",
    "request_type": "Roads/Drainage",
    "request_reason": "Pothole",
    "date_created": "2023-08-06T15:18:15.000",
    "date_modified": "2023-08-06T15:18:15.000",
    "request_status": "Pending",
    "responsible_agency": "Department of Public Works",
    "final_address": "5214 Danneel St",
    "address_councildis": "B",
    "status": "Pending",
    "rowid": "1023857",
    "final_x": "3668039.14682",
    "final_y": "522118.464826",
    "longitude": "-90.11089170543494",
    "latitude": "29.930046339659754",
    "geocoded_column": {
      "latitude": "29.930046339659754",
      "longitude": "-90.11089170543494"
    }
  },
  {
    "service_request": "2023-1023856",
    "request_type": "Roads/Drainage",
    "request_reason": "Man hole cover issue",
    "date_created": "2023-08-06T14:57:44.000",
    "date_modified": "2023-08-06T14:57:45.000",
    "request_status": "Pending",
    "responsible_agency": "Department of Public Works",
    "final_address": "LOUISIANA AVE & CAMP ST",
    "address_councildis": "B",
    "status": "Pending",
    "rowid": "1023856",
    "final_x": "3674866.3",
    "final_y": "519966.08",
    "longitude": "-90.0894132451498",
    "latitude": "29.923925936909892",
    "geocoded_column": {
      "latitude": "29.923925936909892",
      "longitude": "-90.0894132451498"
    }
  },
  {
    "service_request": "2023-1023855",
    "request_type": "Roads/Drainage",
    "request_reason": "Man hole cover issue",
    "date_created": "2023-08-06T14:49:41.000",
    "date_modified": "2023-08-06T14:49:41.000",
    "request_status": "Pending",
    "responsible_agency": "Department of Public Works",
    "final_address": "1534 Gentilly Blvd",
    "address_councildis": "D",
    "status": "Pending",
    "rowid": "1023855",
    "final_x": "3678392.60654",
    "final_y": "540101.081803",
    "longitude": "-90.0775854034972",
    "latitude": "29.979184712603693",
    "geocoded_column": {
      "latitude": "29.979184712603693",
      "longitude": "-90.0775854034972"
    }
  },
  {
    "service_request": "2023-1023854",
    "request_type": "Trash/Recycling",
    "request_reason": "MIssed Recycling Pick-Up",
    "date_created": "2023-08-06T14:46:44.000",
    "date_modified": "2023-08-06T14:46:45.000",
    "request_status": "Pending",
    "responsible_agency": "Department of Sanitation",
    "final_address": "3017 Hollygrove St",
    "address_councildis": "A",
    "status": "Assigned to Contractor",
    "contractor": "Richards Disposal",
    "rowid": "1023854",
    "final_x": "3664086.72653",
    "final_y": "535376.002182",
    "longitude": "-90.1229267970931",
    "latitude": "29.966615648541083",
    "geocoded_column": {
      "latitude": "29.966615648541083",
      "longitude": "-90.1229267970931"
    }
  },
  {
    "service_request": "2023-1023853",
    "request_type": "Traffic Signals/Signs/Striping/Streetlights",
    "request_reason": "Street Light Outage/Malfunction",
    "date_created": "2023-08-06T14:46:36.000",
    "date_modified": "2023-08-06T14:46:36.000",
    "request_status": "Pending",
    "responsible_agency": "Department of Public Works",
    "final_address": "1534 Gentilly Blvd",
    "address_councildis": "D",
    "status": "Assigned to Contractor",
    "contractor": "Legacy Professional Services",
    "rowid": "1023853",
    "final_x": "3678392.60654",
    "final_y": "540101.081803",
    "longitude": "-90.0775854034972",
    "latitude": "29.979184712603693",
    "geocoded_column": {
      "latitude": "29.979184712603693",
      "longitude": "-90.0775854034972"
    }
  },
  {
    "service_request": "2023-1023852",
    "request_type": "Traffic Signals/Signs/Striping/Streetlights",
    "request_reason": "Street Light Outage/Malfunction",
    "date_created": "2023-08-06T14:44:01.000",
    "date_modified": "2023-08-06T14:44:02.000",
    "request_status": "Pending",
    "responsible_agency": "Department of Public Works",
    "final_address": "2706 Acacia St",
    "address_councildis": "D",
    "status": "Assigned to Contractor",
    "contractor": "Legacy Professional Services",
    "rowid": "1023852",
    "final_x": "3687942.83913",
    "final_y": "546332.125072",
    "longitude": "-90.04720123305923",
    "latitude": "29.996026613190196",
    "geocoded_column": {
      "latitude": "29.996026613190196",
      "longitude": "-90.04720123305923"
    }
  },
  {
    "service_request": "2023-1023851",
    "request_type": "Property Maintenance",
    "request_reason": "Property Maintenance",
    "date_created": "2023-08-06T14:42:29.000",
    "date_modified": "2023-08-06T14:42:29.000",
    "request_status": "Pending",
    "responsible_agency": "Department of Code Enforcement",
    "final_address": "3801 Tchoupitoulas St",
    "address_councildis": "B",
    "status": "Pending",
    "rowid": "1023851",
    "final_x": "3673671.26804",
    "final_y": "517749.470262",
    "longitude": "-90.09326126339094",
    "latitude": "29.917866587178136",
    "geocoded_column": {
      "latitude": "29.917866587178136",
      "longitude": "-90.09326126339094"
    }
  },
  {
    "service_request": "2023-1023850",
    "request_type": "Roads/Drainage",
    "request_reason": "Pothole",
    "date_created": "2023-08-06T14:20:41.000",
    "date_modified": "2023-08-06T14:20:41.000",
    "request_status": "Pending",
    "responsible_agency": "Department of Public Works",
    "final_address": "2116 Independence St",
    "address_councildis": "D",
    "status": "Pending",
    "rowid": "1023850",
    "final_x": "3691875.89648",
    "final_y": "539424.662922",
    "longitude": "-90.03502429189591",
    "latitude": "29.97691160778575",
    "geocoded_column": {
      "latitude": "29.97691160778575",
      "longitude": "-90.03502429189591"
    }
  },
  {
    "service_request": "2023-1023849",
    "request_type": "Trash/Recycling",
    "request_reason": "Request a Large Item Pick Up",
    "date_created": "2023-08-06T14:17:42.000",
    "date_modified": "2023-08-06T14:17:43.000",
    "request_status": "Pending",
    "responsible_agency": "Department of Sanitation",
    "final_address": "209 Morgan St",
    "address_councildis": "C",
    "status": "Assigned to Contractor",
    "contractor": "Richards Disposal",
    "rowid": "1023849",
    "final_x": "3685834.12124",
    "final_y": "530865.192386",
    "longitude": "-90.05440783293689",
    "latitude": "29.953562880070354",
    "geocoded_column": {
      "latitude": "29.953562880070354",
      "longitude": "-90.05440783293689"
    }
  },
  {
    "service_request": "2023-1023848",
    "request_type": "Trash/Recycling",
    "request_reason": "Request a Large Item Pick Up",
    "date_created": "2023-08-06T14:16:16.000",
    "date_modified": "2023-08-06T14:16:17.000",
    "request_status": "Pending",
    "responsible_agency": "Department of Sanitation",
    "final_address": "1527 Crete St, New Orleans, Louisiana, 70119",
    "address_councildis": "A",
    "status": "Assigned to Contractor",
    "contractor": "IV Waste",
    "rowid": "1023848",
    "final_x": "3677978.402",
    "final_y": "539908.676682",
    "longitude": "-90.07890027612537",
    "latitude": "29.978668140095067",
    "geocoded_column": {
      "latitude": "29.978668140095067",
      "longitude": "-90.07890027612537"
    }
  },
  {
    "service_request": "2023-1023847",
    "request_type": "Trash/Recycling",
    "request_reason": "MIssed Recycling Pick-Up",
    "date_created": "2023-08-06T14:11:58.000",
    "date_modified": "2023-08-06T14:11:58.000",
    "request_status": "Pending",
    "responsible_agency": "Department of Sanitation",
    "final_address": "1528 St Philip St",
    "address_councildis": "C",
    "status": "Assigned to Contractor",
    "contractor": "Richards Disposal",
    "rowid": "1023847",
    "final_x": "3680772.24552",
    "final_y": "535182.214022",
    "longitude": "-90.07024083428946",
    "latitude": "29.96558760095176",
    "geocoded_column": {
      "latitude": "29.96558760095176",
      "longitude": "-90.07024083428946"
    }
  },
  {
    "service_request": "2023-1023846",
    "request_type": "Trash/Recycling",
    "request_reason": "Replace Trash Cart",
    "date_created": "2023-08-06T14:10:27.000",
    "date_modified": "2023-08-06T14:10:27.000",
    "request_status": "Pending",
    "responsible_agency": "Department of Sanitation",
    "final_address": "2116 Independence St",
    "address_councildis": "D",
    "status": "Assigned to Contractor",
    "contractor": "IV Waste",
    "rowid": "1023846",
    "final_x": "3691875.89648",
    "final_y": "539424.662922",
    "longitude": "-90.03502429189591",
    "latitude": "29.97691160778575",
    "geocoded_column": {
      "latitude": "29.97691160778575",
      "longitude": "-90.03502429189591"
    }
  },
  {
    "service_request": "2023-1023845",
    "request_type": "Trash/Recycling",
    "request_reason": "Request a Large Item Pick Up",
    "date_created": "2023-08-06T14:08:33.000",
    "date_modified": "2023-08-06T14:08:34.000",
    "request_status": "Pending",
    "responsible_agency": "Department of Sanitation",
    "final_address": "4503 Prytania St",
    "address_councildis": "B",
    "status": "Assigned to Contractor",
    "contractor": "Richards Disposal",
    "rowid": "1023845",
    "final_x": "3670450.00225",
    "final_y": "520377.11052",
    "longitude": "-90.10334002194892",
    "latitude": "29.925187229378917",
    "geocoded_column": {
      "latitude": "29.925187229378917",
      "longitude": "-90.10334002194892"
    }
  },
  {
    "service_request": "2023-1023844",
    "request_type": "Trash/Recycling",
    "request_reason": "Request a Large Item Pick Up",
    "date_created": "2023-08-06T13:39:04.000",
    "date_modified": "2023-08-06T13:39:04.000",
    "request_status": "Pending",
    "responsible_agency": "Department of Sanitation",
    "final_address": "2917 Ursulines Ave, New Orleans, Louisiana, 70119",
    "address_councildis": "A",
    "status": "Assigned to Contractor",
    "contractor": "Richards Disposal",
    "rowid": "1023844",
    "final_x": "3676684.91182",
    "final_y": "538985.24737",
    "longitude": "-90.08301742865254",
    "latitude": "29.976167900639656",
    "geocoded_column": {
      "latitude": "29.976167900639656",
      "longitude": "-90.08301742865254"
    }
  },
  {
    "service_request": "2023-1023843",
    "request_type": "Trash/Recycling",
    "request_reason": "Request a Large Item Pick Up",
    "date_created": "2023-08-06T13:33:45.000",
    "date_modified": "2023-08-06T13:33:46.000",
    "request_status": "Pending",
    "responsible_agency": "Department of Sanitation",
    "final_address": "920 Wilson Dr",
    "address_councildis": "A",
    "status": "Assigned to Contractor",
    "contractor": "Richards Disposal",
    "rowid": "1023843",
    "final_x": "3674156.83246",
    "final_y": "540014.275979",
    "longitude": "-90.09096662139247",
    "latitude": "29.97907298709386",
    "geocoded_column": {
      "latitude": "29.97907298709386",
      "longitude": "-90.09096662139247"
    }
  },
  {
    "service_request": "2023-1023842",
    "request_type": "Trash/Recycling",
    "request_reason": "Order Trash Cart",
    "date_created": "2023-08-06T13:30:47.000",
    "date_modified": "2023-08-06T13:30:47.000",
    "request_status": "Pending",
    "responsible_agency": "Department of Sanitation",
    "final_address": "6001 Marigny St",
    "address_councildis": "D",
    "status": "Assigned to Contractor",
    "contractor": "IV Waste",
    "rowid": "1023842",
    "final_x": "3683950.51241",
    "final_y": "555032.425497",
    "longitude": "-90.0595071329762",
    "latitude": "30.02007189662954",
    "geocoded_column": {
      "latitude": "30.02007189662954",
      "longitude": "-90.0595071329762"
    }
  },
  {
    "service_request": "2023-1023841",
    "request_type": "Trash/Recycling",
    "request_reason": "Replace Trash Cart",
    "date_created": "2023-08-06T13:27:12.000",
    "date_modified": "2023-08-06T13:27:13.000",
    "request_status": "Pending",
    "responsible_agency": "Department of Sanitation",
    "final_address": "5406 Hewes St",
    "address_councildis": "A",
    "status": "Assigned to Contractor",
    "contractor": "Richards Disposal",
    "rowid": "1023841",
    "final_x": "3668892.06977",
    "final_y": "529195.004608",
    "longitude": "-90.10796025960018",
    "latitude": "29.9494794918591",
    "geocoded_column": {
      "latitude": "29.9494794918591",
      "longitude": "-90.10796025960018"
    }
  },
  {
    "service_request": "2023-1023840",
    "request_type": "Trash/Recycling",
    "request_reason": "MIssed Recycling Pick-Up",
    "date_created": "2023-08-06T13:03:39.000",
    "date_modified": "2023-08-06T13:03:39.000",
    "request_status": "Pending",
    "responsible_agency": "Department of Sanitation",
    "final_address": "916 Cadiz St",
    "address_councildis": "B",
    "status": "Assigned to Contractor",
    "contractor": "Richards Disposal",
    "rowid": "1023840",
    "final_x": "3670235.75687",
    "final_y": "518862.953015",
    "longitude": "-90.10406760526669",
    "latitude": "29.921030099444632",
    "geocoded_column": {
      "latitude": "29.921030099444632",
      "longitude": "-90.10406760526669"
    }
  },
  {
    "service_request": "2023-1023839",
    "request_type": "Trash/Recycling",
    "request_reason": "Damaged Caused By Contractor",
    "date_created": "2023-08-06T12:55:17.000",
    "date_modified": "2023-08-06T12:55:17.000",
    "request_status": "Pending",
    "responsible_agency": "Department of Sanitation",
    "final_address": "1427 Oretha Castle Haley Blvd",
    "address_councildis": "B",
    "status": "Assigned to Contractor",
    "contractor": "Richards Disposal",
    "rowid": "1023839",
    "final_x": "3678026.09224",
    "final_y": "526368.689342",
    "longitude": "-90.07921770566836",
    "latitude": "29.94143631561387",
    "geocoded_column": {
      "latitude": "29.94143631561387",
      "longitude": "-90.07921770566836"
    }
  },
  {
    "service_request": "2023-1023838",
    "request_type": "Trash/Recycling",
    "request_reason": "Request a Large Item Pick Up",
    "date_created": "2023-08-06T12:45:05.000",
    "date_modified": "2023-08-06T12:45:06.000",
    "request_status": "Pending",
    "responsible_agency": "Department of Sanitation",
    "final_address": "1535 Congress St, New Orleans, Louisiana, 70117",
    "address_councildis": "D",
    "status": "Assigned to Contractor",
    "contractor": "IV Waste",
    "rowid": "1023838",
    "final_x": "3691190.65737",
    "final_y": "537320.230408",
    "longitude": "-90.03726366537471",
    "latitude": "29.97114649550123",
    "geocoded_column": {
      "latitude": "29.97114649550123",
      "longitude": "-90.03726366537471"
    }
  },
  {
    "service_request": "2023-1023837",
    "request_type": "Abandoned Vehicles",
    "request_reason": "Abandoned/Junk Vehicles",
    "date_created": "2023-08-06T12:42:45.000",
    "date_modified": "2023-08-06T12:42:45.000",
    "request_status": "Pending",
    "responsible_agency": "Department of Public Works",
    "final_address": "4824 Banks St",
    "address_councildis": "A",
    "status": "Pending",
    "rowid": "1023837",
    "final_x": "3667891.54189",
    "final_y": "539181.623434",
    "longitude": "-90.11078295393767",
    "latitude": "29.976968771827917",
    "geocoded_column": {
      "latitude": "29.976968771827917",
      "longitude": "-90.11078295393767"
    }
  },
  {
    "service_request": "2023-1023836",
    "request_type": "Traffic Signals/Signs/Striping/Streetlights",
    "request_reason": "Street Light Outage/Malfunction",
    "date_created": "2023-08-06T12:41:57.000",
    "date_modified": "2023-08-06T12:41:58.000",
    "request_status": "Pending",
    "responsible_agency": "Department of Public Works",
    "final_address": "1 Almonaster Ave",
    "address_councildis": "D",
    "status": "Assigned to Contractor",
    "contractor": "Legacy Professional Services",
    "rowid": "1023836",
    "final_x": "3688053.015",
    "final_y": "540761.172875",
    "longitude": "-90.04705074841057",
    "latitude": "29.98070508640901",
    "geocoded_column": {
      "latitude": "29.98070508640901",
      "longitude": "-90.04705074841057"
    }
  },
  {
    "service_request": "2023-1023834",
    "request_type": "Traffic Signals/Signs/Striping/Streetlights",
    "request_reason": "Street Name Sign Damaged or Missing",
    "date_created": "2023-08-06T12:37:45.000",
    "date_modified": "2023-08-06T12:37:45.000",
    "request_status": "Pending",
    "responsible_agency": "Department of Public Works",
    "final_address": "3715 Elysian Fields Ave",
    "address_councildis": "D",
    "status": "Pending",
    "rowid": "1023834",
    "final_x": "3684354.58761",
    "final_y": "546363.03624",
    "longitude": "-90.05853513872074",
    "latitude": "29.996221864008312",
    "geocoded_column": {
      "latitude": "29.996221864008312",
      "longitude": "-90.05853513872074"
    }
  },
  {
    "service_request": "2023-1023833",
    "request_type": "Roads/Drainage",
    "request_reason": "Pothole",
    "date_created": "2023-08-06T12:28:06.000",
    "date_modified": "2023-08-06T12:28:06.000",
    "request_status": "Pending",
    "responsible_agency": "Department of Public Works",
    "final_address": "1138 Webster St",
    "address_councildis": "A",
    "status": "Pending",
    "rowid": "1023833",
    "final_x": "3664540.24397",
    "final_y": "520668.993977",
    "longitude": "-90.12198558548621",
    "latitude": "29.926162927916074",
    "geocoded_column": {
      "latitude": "29.926162927916074",
      "longitude": "-90.12198558548621"
    }
  },
  {
    "service_request": "2023-1023832",
    "request_type": "Trash/Recycling",
    "request_reason": "Illegal Dumping",
    "date_created": "2023-08-06T12:24:49.000",
    "date_modified": "2023-08-06T12:24:50.000",
    "request_status": "Pending",
    "responsible_agency": "Department of Sanitation",
    "final_address": "1729 Marais St",
    "address_councildis": "C",
    "status": "Pending",
    "rowid": "1023832",
    "final_x": "3683350.5126",
    "final_y": "536571.498375",
    "longitude": "-90.06205010611903",
    "latitude": "29.969329253424014",
    "geocoded_column": {
      "latitude": "29.969329253424014",
      "longitude": "-90.06205010611903"
    }
  },
  {
    "service_request": "2023-1023831",
    "request_type": "Parks & Parkways",
    "request_reason": "Request Tree Service (Right of Way/Public Property)",
    "date_created": "2023-08-06T12:15:50.000",
    "date_modified": "2023-08-06T12:15:50.000",
    "request_status": "Pending",
    "responsible_agency": "Department of Parks & Parkway",
    "final_address": "3800 S Carrollton Ave",
    "address_councildis": "A",
    "status": "Pending",
    "rowid": "1023831",
    "final_x": "3668219.71425",
    "final_y": "535411.318918",
    "longitude": "-90.10987362213439",
    "latitude": "29.966592063794067",
    "geocoded_column": {
      "latitude": "29.966592063794067",
      "longitude": "-90.10987362213439"
    }
  },
  {
    "service_request": "2023-1023830",
    "request_type": "Trash/Recycling",
    "request_reason": "Request a Large Item Pick Up",
    "date_created": "2023-08-06T12:06:06.000",
    "date_modified": "2023-08-06T12:06:06.000",
    "request_status": "Pending",
    "responsible_agency": "Department of Sanitation",
    "final_address": "1415 Constantinople St",
    "address_councildis": "B",
    "status": "Assigned to Contractor",
    "contractor": "Richards Disposal",
    "rowid": "1023830",
    "final_x": "3672389.11003",
    "final_y": "520600.754296",
    "longitude": "-90.09721124839871",
    "latitude": "29.925744800635343",
    "geocoded_column": {
      "latitude": "29.925744800635343",
      "longitude": "-90.09721124839871"
    }
  },
  {
    "service_request": "2023-1023829",
    "request_type": "Trash/Recycling",
    "request_reason": "Missed Trash Pick-Up",
    "date_created": "2023-08-06T12:05:41.000",
    "date_modified": "2023-08-06T12:05:42.000",
    "request_status": "Pending",
    "responsible_agency": "Department of Sanitation",
    "final_address": "11211 N Idlewood Ct, New Orleans, Louisiana, 70128",
    "address_councildis": "E",
    "status": "Assigned to Contractor",
    "contractor": "Waste Pro",
    "rowid": "1023829",
    "final_x": "3716025.86207",
    "final_y": "560277.469149",
    "longitude": "-89.9579613954362",
    "latitude": "30.03347420878148",
    "geocoded_column": {
      "latitude": "30.03347420878148",
      "longitude": "-89.9579613954362"
    }
  },
  {
    "service_request": "2023-1023828",
    "request_type": "Trash/Recycling",
    "request_reason": "Request a Large Item Pick Up",
    "date_created": "2023-08-06T12:02:58.000",
    "date_modified": "2023-08-06T12:02:58.000",
    "request_status": "Pending",
    "responsible_agency": "Department of Sanitation",
    "final_address": "7929 Freret St",
    "address_councildis": "A",
    "status": "Assigned to Contractor",
    "contractor": "Richards Disposal",
    "rowid": "1023828",
    "final_x": "3661926.85114",
    "final_y": "527522.518655",
    "longitude": "-90.13000815603785",
    "latitude": "29.9450836666227",
    "geocoded_column": {
      "latitude": "29.9450836666227",
      "longitude": "-90.13000815603785"
    }
  },
  {
    "service_request": "2023-1023827",
    "request_type": "Abandoned Vehicles",
    "request_reason": "Abandoned/Junk Vehicles",
    "date_created": "2023-08-06T12:00:03.000",
    "date_modified": "2023-08-06T12:00:03.000",
    "request_status": "Pending",
    "responsible_agency": "Department of Public Works",
    "final_address": "4400 BLK Camp St",
    "address_councildis": "B",
    "status": "Pending",
    "rowid": "1023827",
    "final_x": "3670801.57339",
    "final_y": "519124.652155",
    "longitude": "-90.1022726977373",
    "latitude": "29.921732985947983",
    "geocoded_column": {
      "latitude": "29.921732985947983",
      "longitude": "-90.1022726977373"
    }
  },
  {
    "service_request": "2023-1023826",
    "request_type": "Trash/Recycling",
    "request_reason": "Request a Large Item Pick Up",
    "date_created": "2023-08-06T11:50:30.000",
    "date_modified": "2023-08-06T11:50:30.000",
    "request_status": "Pending",
    "responsible_agency": "Department of Sanitation",
    "final_address": "2427 Palmer Ave",
    "address_councildis": "A",
    "status": "Assigned to Contractor",
    "contractor": "Richards Disposal",
    "rowid": "1023826",
    "final_x": "3666459.01319",
    "final_y": "525736.874941",
    "longitude": "-90.11575856675698",
    "latitude": "29.940042071464298",
    "geocoded_column": {
      "latitude": "29.940042071464298",
      "longitude": "-90.11575856675698"
    }
  },
  {
    "service_request": "2023-1023825",
    "request_type": "Trash/Recycling",
    "request_reason": "Request a Large Item Pick Up",
    "date_created": "2023-08-06T11:44:33.000",
    "date_modified": "2023-08-06T11:44:34.000",
    "request_status": "Pending",
    "responsible_agency": "Department of Sanitation",
    "final_address": "3576 Desaix Blvd",
    "address_councildis": "A",
    "status": "Assigned to Contractor",
    "contractor": "IV Waste",
    "rowid": "1023825",
    "final_x": "3675718.41973",
    "final_y": "543597.915854",
    "longitude": "-90.08591130137981",
    "latitude": "29.9888801106967",
    "geocoded_column": {
      "latitude": "29.9888801106967",
      "longitude": "-90.08591130137981"
    }
  },
  {
    "service_request": "2023-1023824",
    "request_type": "Property Maintenance",
    "request_reason": "Property Maintenance",
    "date_created": "2023-08-06T11:30:44.000",
    "date_modified": "2023-08-06T11:30:44.000",
    "request_status": "Pending",
    "responsible_agency": "Department of Code Enforcement",
    "final_address": "7901 Oleander St",
    "address_councildis": "B",
    "status": "Pending",
    "rowid": "1023824",
    "final_x": "3667341.0025",
    "final_y": "533190.92186",
    "longitude": "-90.11272329137297",
    "latitude": "29.960512474913905",
    "geocoded_column": {
      "latitude": "29.960512474913905",
      "longitude": "-90.11272329137297"
    }
  },
  {
    "service_request": "2023-1023823",
    "request_type": "Abandoned Vehicles",
    "request_reason": "Abandoned/Junk Vehicles",
    "date_created": "2023-08-06T11:24:22.000",
    "date_modified": "2023-08-06T11:24:22.000",
    "request_status": "Pending",
    "responsible_agency": "Department of Public Works",
    "final_address": "5400 BLK Danneel St",
    "address_councildis": "A",
    "status": "Pending",
    "rowid": "1023823",
    "final_x": "3667360.01695",
    "final_y": "522300.046395",
    "longitude": "-90.1130295090984",
    "latitude": "29.93056553599016",
    "geocoded_column": {
      "latitude": "29.93056553599016",
      "longitude": "-90.1130295090984"
    }
  },
  {
    "service_request": "2023-1023822",
    "request_type": "Taxi Issues",
    "request_reason": "Taxi Lost & Found Item",
    "date_created": "2023-08-06T11:22:47.000",
    "date_modified": "2023-08-06T11:22:47.000",
    "request_status": "Pending",
    "responsible_agency": "Ground Transportation Bureau",
    "final_address": "3930 Palmyra St",
    "address_councildis": "A",
    "status": "Pending",
    "rowid": "1023822",
    "final_x": "3671059.70279",
    "final_y": "537247.421704",
    "longitude": "-90.10084257307058",
    "latitude": "29.971557044538482",
    "geocoded_column": {
      "latitude": "29.971557044538482",
      "longitude": "-90.10084257307058"
    }
  },
  {
    "service_request": "2023-1023821",
    "request_type": "Trash/Recycling",
    "request_reason": "Request a Large Item Pick Up",
    "date_created": "2023-08-06T11:14:35.000",
    "date_modified": "2023-08-06T11:14:35.000",
    "request_status": "Pending",
    "responsible_agency": "Department of Sanitation",
    "final_address": "4800 Charlene Dr",
    "address_councildis": "E",
    "status": "Assigned to Contractor",
    "contractor": "Waste Pro",
    "rowid": "1023821",
    "final_x": "3707797.7043",
    "final_y": "556025.716633",
    "longitude": "-89.98412124622081",
    "latitude": "30.02205255176008",
    "geocoded_column": {
      "latitude": "30.02205255176008",
      "longitude": "-89.98412124622081"
    }
  },
  {
    "service_request": "2023-1023820",
    "request_type": "Trash/Recycling",
    "request_reason": "Request a Large Item Pick Up",
    "date_created": "2023-08-06T11:08:57.000",
    "date_modified": "2023-08-06T11:08:57.000",
    "request_status": "Pending",
    "responsible_agency": "Department of Sanitation",
    "final_address": "1564 N Rocheblave St",
    "address_councildis": "D",
    "status": "Assigned to Contractor",
    "contractor": "IV Waste",
    "rowid": "1023820",
    "final_x": "3679862.65755",
    "final_y": "539357.717322",
    "longitude": "-90.0729682355092",
    "latitude": "29.977096337568145",
    "geocoded_column": {
      "latitude": "29.977096337568145",
      "longitude": "-90.0729682355092"
    }
  },
  {
    "service_request": "2023-1023819",
    "request_type": "Abandoned Vehicles",
    "request_reason": "Abandoned/Junk Vehicles",
    "date_created": "2023-08-06T11:04:52.000",
    "date_modified": "2023-08-06T11:04:52.000",
    "request_status": "Pending",
    "responsible_agency": "Department of Public Works",
    "final_address": "5400 BLK Danneel St",
    "address_councildis": "A",
    "status": "Pending",
    "rowid": "1023819",
    "final_x": "3667360.01695",
    "final_y": "522300.046395",
    "longitude": "-90.1130295090984",
    "latitude": "29.93056553599016",
    "geocoded_column": {
      "latitude": "29.93056553599016",
      "longitude": "-90.1130295090984"
    }
  },
  {
    "service_request": "2023-1023818",
    "request_type": "Trash/Recycling",
    "request_reason": "Missed Trash Pick-Up",
    "date_created": "2023-08-06T10:57:08.000",
    "date_modified": "2023-08-06T10:57:09.000",
    "request_status": "Pending",
    "responsible_agency": "Department of Sanitation",
    "final_address": "926 Second St",
    "address_councildis": "B",
    "status": "Assigned to Contractor",
    "contractor": "Richards Disposal",
    "rowid": "1023818",
    "final_x": "3678073.77365",
    "final_y": "520882.191993",
    "longitude": "-90.07925674785686",
    "latitude": "29.926348813256748",
    "geocoded_column": {
      "latitude": "29.926348813256748",
      "longitude": "-90.07925674785686"
    }
  },
  {
    "service_request": "2023-1023817",
    "request_type": "Trash/Recycling",
    "request_reason": "Repair Trash Cart",
    "date_created": "2023-08-06T10:56:25.000",
    "date_modified": "2023-08-06T10:56:26.000",
    "request_status": "Pending",
    "responsible_agency": "Department of Sanitation",
    "final_address": "926 Second St",
    "address_councildis": "B",
    "status": "Assigned to Contractor",
    "contractor": "Richards Disposal",
    "rowid": "1023817",
    "final_x": "3678073.77365",
    "final_y": "520882.191993",
    "longitude": "-90.07925674785686",
    "latitude": "29.926348813256748",
    "geocoded_column": {
      "latitude": "29.926348813256748",
      "longitude": "-90.07925674785686"
    }
  },
  {
    "service_request": "2023-1023816",
    "request_type": "Property Maintenance",
    "request_reason": "Property Maintenance",
    "date_created": "2023-08-06T10:55:23.000",
    "date_modified": "2023-08-06T10:55:23.000",
    "request_status": "Pending",
    "responsible_agency": "Department of Code Enforcement",
    "final_address": "2112 Oretha Castle Haley Blvd",
    "address_councildis": "B",
    "status": "Pending",
    "rowid": "1023816",
    "final_x": "3677051.6244",
    "final_y": "524859.17254",
    "longitude": "-90.082346324493",
    "latitude": "29.93731493211876",
    "geocoded_column": {
      "latitude": "29.93731493211876",
      "longitude": "-90.082346324493"
    }
  },
  {
    "service_request": "2023-1023815",
    "request_type": "Roads/Drainage",
    "request_reason": "Pothole",
    "date_created": "2023-08-06T10:54:06.000",
    "date_modified": "2023-08-06T10:54:06.000",
    "request_status": "Pending",
    "responsible_agency": "Department of Public Works",
    "final_address": "1400 BLK Valmont St",
    "address_councildis": "B",
    "status": "Pending",
    "rowid": "1023815",
    "final_x": "3667712.85712",
    "final_y": "520309.891911",
    "longitude": "-90.11198260783861",
    "latitude": "29.925082905801226",
    "geocoded_column": {
      "latitude": "29.925082905801226",
      "longitude": "-90.11198260783861"
    }
  },
  {
    "service_request": "2023-1023814",
    "request_type": "Abandoned Vehicles",
    "request_reason": "Abandoned/Junk Vehicles",
    "date_created": "2023-08-06T10:40:19.000",
    "date_modified": "2023-08-06T10:40:19.000",
    "request_status": "Pending",
    "responsible_agency": "Department of Public Works",
    "final_address": "4400 BLK Camp St",
    "address_councildis": "B",
    "status": "Pending",
    "rowid": "1023814",
    "final_x": "3670801.57339",
    "final_y": "519124.652155",
    "longitude": "-90.1022726977373",
    "latitude": "29.921732985947983",
    "geocoded_column": {
      "latitude": "29.921732985947983",
      "longitude": "-90.1022726977373"
    }
  },
  {
    "service_request": "2023-1023813",
    "request_type": "Property Maintenance",
    "request_reason": "Property Maintenance",
    "date_created": "2023-08-06T10:21:53.000",
    "date_modified": "2023-08-06T10:21:53.000",
    "request_status": "Pending",
    "responsible_agency": "Department of Code Enforcement",
    "final_address": "10139 Pressburg St",
    "address_councildis": "E",
    "status": "Pending",
    "rowid": "1023813",
    "final_x": "3713020.53547",
    "final_y": "557247.154075",
    "longitude": "-89.96757259450844",
    "latitude": "30.02524089169316",
    "geocoded_column": {
      "latitude": "30.02524089169316",
      "longitude": "-89.96757259450844"
    }
  },
  {
    "service_request": "2023-1023811",
    "request_type": "Abandoned Vehicles",
    "request_reason": "Abandoned/Junk Vehicles",
    "date_created": "2023-08-06T10:19:34.000",
    "date_modified": "2023-08-06T10:19:34.000",
    "request_status": "Pending",
    "responsible_agency": "Department of Public Works",
    "final_address": "10139 Pressburg St",
    "address_councildis": "E",
    "status": "Pending",
    "rowid": "1023811",
    "final_x": "3713020.53547",
    "final_y": "557247.154075",
    "longitude": "-89.96757259450844",
    "latitude": "30.02524089169316",
    "geocoded_column": {
      "latitude": "30.02524089169316",
      "longitude": "-89.96757259450844"
    }
  },
  {
    "service_request": "2023-1023810",
    "request_type": "Trash/Recycling",
    "request_reason": "Missed Trash Pick-Up",
    "date_created": "2023-08-06T10:15:57.000",
    "date_modified": "2023-08-06T10:15:58.000",
    "request_status": "Pending",
    "responsible_agency": "Department of Sanitation",
    "final_address": "1601 St Ann St",
    "address_councildis": "C",
    "status": "Assigned to Contractor",
    "contractor": "Richards Disposal",
    "rowid": "1023810",
    "final_x": "3680275.71087",
    "final_y": "534701.056646",
    "longitude": "-90.07182559856783",
    "latitude": "29.96427962334309",
    "geocoded_column": {
      "latitude": "29.96427962334309",
      "longitude": "-90.07182559856783"
    }
  },
  {
    "service_request": "2023-1023809",
    "request_type": "Trash/Recycling",
    "request_reason": "Request a Large Item Pick Up",
    "date_created": "2023-08-06T10:08:15.000",
    "date_modified": "2023-08-06T10:08:16.000",
    "request_status": "Pending",
    "responsible_agency": "Department of Sanitation",
    "final_address": "3151 State Street Dr",
    "address_councildis": "A",
    "status": "Assigned to Contractor",
    "contractor": "Richards Disposal",
    "rowid": "1023809",
    "final_x": "3667576.48231",
    "final_y": "527927.590591",
    "longitude": "-90.11215682414108",
    "latitude": "29.946033134414193",
    "geocoded_column": {
      "latitude": "29.946033134414193",
      "longitude": "-90.11215682414108"
    }
  },
  {
    "service_request": "2023-1023808",
    "request_type": "Trash/Recycling",
    "request_reason": "Replace Trash Cart",
    "date_created": "2023-08-06T10:02:56.000",
    "date_modified": "2023-08-06T10:02:57.000",
    "request_status": "Pending",
    "responsible_agency": "Department of Sanitation",
    "final_address": "8237 Apricot St",
    "address_councildis": "A",
    "status": "Assigned to Contractor",
    "contractor": "Richards Disposal",
    "rowid": "1023808",
    "final_x": "3665372.41389",
    "final_y": "533087.166724",
    "longitude": "-90.11894319578644",
    "latitude": "29.960284697163896",
    "geocoded_column": {
      "latitude": "29.960284697163896",
      "longitude": "-90.11894319578644"
    }
  },
  {
    "service_request": "2023-1023807",
    "request_type": "Property Maintenance",
    "request_reason": "Property Maintenance",
    "date_created": "2023-08-06T09:38:53.000",
    "date_modified": "2023-08-06T09:38:54.000",
    "request_status": "Pending",
    "responsible_agency": "Department of Code Enforcement",
    "final_address": "3201 Short St",
    "address_councildis": "B",
    "status": "Pending",
    "rowid": "1023807",
    "final_x": "3667191.56461",
    "final_y": "533399.555332",
    "longitude": "-90.11318817236696",
    "latitude": "29.96109052456628",
    "geocoded_column": {
      "latitude": "29.96109052456628",
      "longitude": "-90.11318817236696"
    }
  },
  {
    "service_request": "2023-1023806",
    "request_type": "Property Maintenance",
    "request_reason": "Property Maintenance",
    "date_created": "2023-08-06T09:37:53.000",
    "date_modified": "2023-08-06T09:37:53.000",
    "request_status": "Pending",
    "responsible_agency": "Department of Code Enforcement",
    "final_address": "1 Mars Pl",
    "address_councildis": "B",
    "status": "Pending",
    "rowid": "1023806",
    "final_x": "3667427.13377",
    "final_y": "533271.447428",
    "longitude": "-90.11244859583438",
    "latitude": "29.960731370551994",
    "geocoded_column": {
      "latitude": "29.960731370551994",
      "longitude": "-90.11244859583438"
    }
  },
  {
    "service_request": "2023-1023805",
    "request_type": "Property Maintenance",
    "request_reason": "Property Maintenance",
    "date_created": "2023-08-06T09:34:20.000",
    "date_modified": "2023-08-06T09:34:20.000",
    "request_status": "Pending",
    "responsible_agency": "Department of Code Enforcement",
    "final_address": "1 Mars Pl",
    "address_councildis": "B",
    "status": "Pending",
    "rowid": "1023805",
    "final_x": "3667427.13377",
    "final_y": "533271.447428",
    "longitude": "-90.11244859583438",
    "latitude": "29.960731370551994",
    "geocoded_column": {
      "latitude": "29.960731370551994",
      "longitude": "-90.11244859583438"
    }
  },
  {
    "service_request": "2023-1023804",
    "request_type": "Property Maintenance",
    "request_reason": "Property Maintenance",
    "date_created": "2023-08-06T09:33:28.000",
    "date_modified": "2023-08-06T09:33:28.000",
    "request_status": "Pending",
    "responsible_agency": "Department of Code Enforcement",
    "final_address": "17 Mars Pl",
    "address_councildis": "B",
    "status": "Pending",
    "rowid": "1023804",
    "final_x": "3667343.09441",
    "final_y": "533345.759108",
    "longitude": "-90.1127114769626",
    "latitude": "29.96093816505934",
    "geocoded_column": {
      "latitude": "29.96093816505934",
      "longitude": "-90.1127114769626"
    }
  },
  {
    "service_request": "2023-1023803",
    "request_type": "Property Maintenance",
    "request_reason": "Property Maintenance",
    "date_created": "2023-08-06T09:32:31.000",
    "date_modified": "2023-08-06T09:32:31.000",
    "request_status": "Pending",
    "responsible_agency": "Department of Code Enforcement",
    "final_address": "13 Mars Pl",
    "address_councildis": "B",
    "status": "Pending",
    "rowid": "1023803",
    "final_x": "3667364.17172",
    "final_y": "533326.842692",
    "longitude": "-90.11264555490746",
    "latitude": "29.96088553375347",
    "geocoded_column": {
      "latitude": "29.96088553375347",
      "longitude": "-90.11264555490746"
    }
  },
  {
    "service_request": "2023-1023802",
    "request_type": "Abandoned Vehicles",
    "request_reason": "Abandoned/Junk Vehicles",
    "date_created": "2023-08-06T09:31:03.000",
    "date_modified": "2023-08-06T09:31:03.000",
    "request_status": "Pending",
    "responsible_agency": "Department of Public Works",
    "final_address": "13 Mars Pl",
    "address_councildis": "B",
    "status": "Pending",
    "rowid": "1023802",
    "final_x": "3667364.17172",
    "final_y": "533326.842692",
    "longitude": "-90.11264555490746",
    "latitude": "29.96088553375347",
    "geocoded_column": {
      "latitude": "29.96088553375347",
      "longitude": "-90.11264555490746"
    }
  },
  {
    "service_request": "2023-1023801",
    "request_type": "Trash/Recycling",
    "request_reason": "Request a Large Item Pick Up",
    "date_created": "2023-08-06T09:26:58.000",
    "date_modified": "2023-08-06T09:26:59.000",
    "request_status": "Pending",
    "responsible_agency": "Department of Sanitation",
    "final_address": "6125 Patton St",
    "address_councildis": "A",
    "status": "Assigned to Contractor",
    "contractor": "Richards Disposal",
    "rowid": "1023801",
    "final_x": "3663704.36954",
    "final_y": "518927.199991",
    "longitude": "-90.12468221000961",
    "latitude": "29.92139781066274",
    "geocoded_column": {
      "latitude": "29.92139781066274",
      "longitude": "-90.12468221000961"
    }
  },
  {
    "service_request": "2023-1023800",
    "request_type": "Trash/Recycling",
    "request_reason": "Start Trash Service",
    "date_created": "2023-08-06T08:49:48.000",
    "date_modified": "2023-08-06T08:49:48.000",
    "request_status": "Pending",
    "responsible_agency": "Department of Sanitation",
    "final_address": "2311 DAbadie St",
    "address_councildis": "D",
    "status": "Assigned to Contractor",
    "contractor": "IV Waste",
    "rowid": "1023800",
    "final_x": "3680610.51336",
    "final_y": "539971.617739",
    "longitude": "-90.07058489874862",
    "latitude": "29.978761710683422",
    "geocoded_column": {
      "latitude": "29.978761710683422",
      "longitude": "-90.07058489874862"
    }
  },
  {
    "service_request": "2023-1023799",
    "request_type": "Trash/Recycling",
    "request_reason": "Repair Trash Cart",
    "date_created": "2023-08-06T08:48:25.000",
    "date_modified": "2023-08-06T08:48:26.000",
    "request_status": "Pending",
    "responsible_agency": "Department of Sanitation",
    "final_address": "2001 Franklin Ave",
    "address_councildis": "D",
    "status": "Assigned to Contractor",
    "contractor": "IV Waste",
    "rowid": "1023799",
    "final_x": "3687734.57475",
    "final_y": "539891.799626",
    "longitude": "-90.04808731876183",
    "latitude": "29.978324442897257",
    "geocoded_column": {
      "latitude": "29.978324442897257",
      "longitude": "-90.04808731876183"
    }
  },
  {
    "service_request": "2023-1023798",
    "request_type": "Trash/Recycling",
    "request_reason": "Replace Trash Cart",
    "date_created": "2023-08-06T08:46:43.000",
    "date_modified": "2023-08-06T08:46:43.000",
    "request_status": "Pending",
    "responsible_agency": "Department of Sanitation",
    "final_address": "2001 Franklin Ave",
    "address_councildis": "D",
    "status": "Assigned to Contractor",
    "contractor": "IV Waste",
    "rowid": "1023798",
    "final_x": "3687734.57475",
    "final_y": "539891.799626",
    "longitude": "-90.04808731876183",
    "latitude": "29.978324442897257",
    "geocoded_column": {
      "latitude": "29.978324442897257",
      "longitude": "-90.04808731876183"
    }
  },
  {
    "service_request": "2023-1023795",
    "request_type": "Abandoned Vehicles",
    "request_reason": "Abandoned/Junk Vehicles",
    "date_created": "2023-08-06T08:11:30.000",
    "date_modified": "2023-08-06T08:11:31.000",
    "request_status": "Pending",
    "responsible_agency": "Department of Public Works",
    "final_address": "1961 Sumpter St",
    "address_councildis": "D",
    "status": "Pending",
    "rowid": "1023795",
    "final_x": "3682248.8356",
    "final_y": "549464.611027",
    "longitude": "-90.06507860999926",
    "latitude": "30.004814333868758",
    "geocoded_column": {
      "latitude": "30.004814333868758",
      "longitude": "-90.06507860999926"
    }
  },
  {
    "service_request": "2023-1023794",
    "request_type": "Property Maintenance",
    "request_reason": "Property Maintenance",
    "date_created": "2023-08-06T07:44:24.000",
    "date_modified": "2023-08-06T07:44:24.000",
    "request_status": "Pending",
    "responsible_agency": "Department of Code Enforcement",
    "final_address": "8803 Gervais St",
    "address_councildis": "E",
    "status": "Pending",
    "rowid": "1023794",
    "final_x": "3704544.94455",
    "final_y": "563107.579232",
    "longitude": "-89.99413753495051",
    "latitude": "30.041629818914824",
    "geocoded_column": {
      "latitude": "30.041629818914824",
      "longitude": "-89.99413753495051"
    }
  },
  {
    "service_request": "2023-1023792",
    "request_type": "Abandoned Vehicles",
    "request_reason": "Abandoned/Junk Vehicles",
    "date_created": "2023-08-06T07:39:55.000",
    "date_modified": "2023-08-06T07:39:55.000",
    "request_status": "Pending",
    "responsible_agency": "Department of Public Works",
    "final_address": "2141 S Roman St",
    "address_councildis": "B",
    "status": "Pending",
    "rowid": "1023792",
    "final_x": "3674185.35969",
    "final_y": "528339.914048",
    "longitude": "-90.09127620456125",
    "latitude": "29.94697156339113",
    "geocoded_column": {
      "latitude": "29.94697156339113",
      "longitude": "-90.09127620456125"
    }
  },
  {
    "service_request": "2023-1023791",
    "request_type": "Traffic Signals/Signs/Striping/Streetlights",
    "request_reason": "Street Light Outage/Malfunction",
    "date_created": "2023-08-06T07:28:59.000",
    "date_modified": "2023-08-06T07:28:59.000",
    "request_status": "Pending",
    "responsible_agency": "Department of Public Works",
    "final_address": "2214 Milton St",
    "address_councildis": "D",
    "status": "Assigned to Contractor",
    "contractor": "Legacy Professional Services",
    "rowid": "1023791",
    "final_x": "3684399.99509",
    "final_y": "546591.351057",
    "longitude": "-90.05838367498465",
    "latitude": "29.996848258889386",
    "geocoded_column": {
      "latitude": "29.996848258889386",
      "longitude": "-90.05838367498465"
    }
  },
  {
    "service_request": "2023-1023790",
    "request_type": "Abandoned Vehicles",
    "request_reason": "Abandoned/Junk Vehicles",
    "date_created": "2023-08-06T07:08:27.000",
    "date_modified": "2023-08-06T07:08:27.000",
    "request_status": "Pending",
    "responsible_agency": "Department of Public Works",
    "final_address": "1217 Elysian Fields Ave",
    "address_councildis": "C",
    "status": "Pending",
    "rowid": "1023790",
    "final_x": "3685083.14127",
    "final_y": "536823.7666",
    "longitude": "-90.0565694629023",
    "latitude": "29.96996993266262",
    "geocoded_column": {
      "latitude": "29.96996993266262",
      "longitude": "-90.0565694629023"
    }
  },
  {
    "service_request": "2023-1023789",
    "request_type": "Roads/Drainage",
    "request_reason": "Pothole",
    "date_created": "2023-08-06T06:46:10.000",
    "date_modified": "2023-08-06T06:46:10.000",
    "request_status": "Pending",
    "responsible_agency": "Department of Public Works",
    "final_address": "4814 Prytania St",
    "address_councildis": "B",
    "status": "Pending",
    "rowid": "1023789",
    "final_x": "3669270.429",
    "final_y": "520113.468024",
    "longitude": "-90.10707247616587",
    "latitude": "29.924497060065338",
    "geocoded_column": {
      "latitude": "29.924497060065338",
      "longitude": "-90.10707247616587"
    }
  },
  {
    "service_request": "2023-1023788",
    "request_type": "Roads/Drainage",
    "request_reason": "Pothole",
    "date_created": "2023-08-06T05:35:18.000",
    "date_modified": "2023-08-06T05:35:18.000",
    "request_status": "Pending",
    "responsible_agency": "Department of Public Works",
    "final_address": "1315 Milan St",
    "address_councildis": "B",
    "status": "Pending",
    "rowid": "1023788",
    "final_x": "3671703.18324",
    "final_y": "520260.436728",
    "longitude": "-90.09938808639757",
    "latitude": "29.924829365152263",
    "geocoded_column": {
      "latitude": "29.924829365152263",
      "longitude": "-90.09938808639757"
    }
  },
  {
    "service_request": "2023-1023787",
    "request_type": "Traffic Signals/Signs/Striping/Streetlights",
    "request_reason": "Traffic Sign Missing/Damaged",
    "date_created": "2023-08-06T03:47:31.000",
    "date_modified": "2023-08-06T03:47:31.000",
    "request_status": "Pending",
    "responsible_agency": "Department of Public Works",
    "final_address": "DUBLIN ST & WILLOW ST",
    "address_councildis": "A",
    "status": "Pending",
    "rowid": "1023787",
    "final_x": "3662182.1",
    "final_y": "529126.58",
    "longitude": "-90.12914902804255",
    "latitude": "29.949486948638548",
    "geocoded_column": {
      "latitude": "29.949486948638548",
      "longitude": "-90.12914902804255"
    }
  },
  {
    "service_request": "2023-1023786",
    "request_type": "Roads/Drainage",
    "request_reason": "Pothole",
    "date_created": "2023-08-06T01:30:13.000",
    "date_modified": "2023-08-06T01:30:13.000",
    "request_status": "Pending",
    "responsible_agency": "Department of Public Works",
    "final_address": "4200 Perrier St",
    "address_councildis": "B",
    "status": "Pending",
    "rowid": "1023786",
    "final_x": "3671579.76411",
    "final_y": "520095.16844",
    "longitude": "-90.09978329705561",
    "latitude": "29.924378584144126",
    "geocoded_column": {
      "latitude": "29.924378584144126",
      "longitude": "-90.09978329705561"
    }
  },
  {
    "service_request": "2023-1023785",
    "request_type": "Roads/Drainage",
    "request_reason": "Road Shoulder Repair",
    "date_created": "2023-08-06T00:41:45.000",
    "date_modified": "2023-08-06T00:41:45.000",
    "request_status": "Pending",
    "responsible_agency": "Department of Public Works",
    "final_address": "3601 Coliseum St",
    "address_councildis": "B",
    "status": "Pending",
    "rowid": "1023785",
    "final_x": "3673660.91604",
    "final_y": "520279.949048",
    "longitude": "-90.09320749331103",
    "latitude": "29.924824902150238",
    "geocoded_column": {
      "latitude": "29.924824902150238",
      "longitude": "-90.09320749331103"
    }
  },
  {
    "service_request": "2023-1023784",
    "request_type": "Roads/Drainage",
    "request_reason": "Pothole",
    "date_created": "2023-08-05T23:20:54.000",
    "date_modified": "2023-08-05T23:20:54.000",
    "request_status": "Pending",
    "responsible_agency": "Department of Public Works",
    "final_address": "1423 General Pershing St",
    "address_councildis": "B",
    "status": "Pending",
    "rowid": "1023784",
    "final_x": "3671330.69185",
    "final_y": "520571.244024",
    "longitude": "-90.1005533659415",
    "latitude": "29.925695010510914",
    "geocoded_column": {
      "latitude": "29.925695010510914",
      "longitude": "-90.1005533659415"
    }
  },
  {
    "service_request": "2023-1023783",
    "request_type": "Mosquito, Termite & Rodent Control",
    "request_reason": "Rodent Complaint (Rats)",
    "date_created": "2023-08-05T22:09:10.000",
    "date_modified": "2023-08-05T22:09:10.000",
    "request_status": "Pending",
    "responsible_agency": "Mosquito, Termite & Rodent Control Board",
    "final_address": "917 Peniston St",
    "address_councildis": "B",
    "status": "Pending",
    "rowid": "1023783",
    "final_x": "3673382.61147",
    "final_y": "519220.913271",
    "longitude": "-90.09412216486727",
    "latitude": "29.92192117239339",
    "geocoded_column": {
      "latitude": "29.92192117239339",
      "longitude": "-90.09412216486727"
    }
  },
  {
    "service_request": "2023-1023782",
    "request_type": "Trash/Recycling",
    "request_reason": "Replace Trash Cart",
    "date_created": "2023-08-05T21:55:44.000",
    "date_modified": "2023-08-05T21:55:45.000",
    "request_status": "Pending",
    "responsible_agency": "Department of Sanitation",
    "final_address": "2396 St Thomas St",
    "address_councildis": "B",
    "status": "Assigned to Contractor",
    "contractor": "Richards Disposal",
    "rowid": "1023782",
    "final_x": "3679137.83471",
    "final_y": "519970.731384",
    "longitude": "-90.07592938076506",
    "latitude": "29.923810528748575",
    "geocoded_column": {
      "latitude": "29.923810528748575",
      "longitude": "-90.07592938076506"
    }
  },
  {
    "service_request": "2023-1023781",
    "request_type": "Property Maintenance",
    "request_reason": "Property Maintenance",
    "date_created": "2023-08-05T20:47:37.000",
    "date_modified": "2023-08-05T20:47:37.000",
    "request_status": "Pending",
    "responsible_agency": "Department of Code Enforcement",
    "final_address": "2020 Farragut St",
    "address_councildis": "C",
    "status": "Pending",
    "rowid": "1023781",
    "final_x": "3692428.73078",
    "final_y": "523779.683259",
    "longitude": "-90.03383864993584",
    "latitude": "29.933876128727483",
    "geocoded_column": {
      "latitude": "29.933876128727483",
      "longitude": "-90.03383864993584"
    }
  },
  {
    "service_request": "2023-1023780",
    "request_type": "Trash/Recycling",
    "request_reason": "Repair Trash Cart",
    "date_created": "2023-08-05T20:25:43.000",
    "date_modified": "2023-08-05T20:25:44.000",
    "request_status": "Pending",
    "responsible_agency": "Department of Sanitation",
    "final_address": "1018 Piety St",
    "address_councildis": "C",
    "status": "Assigned to Contractor",
    "contractor": "IV Waste",
    "rowid": "1023780",
    "final_x": "3689743.15881",
    "final_y": "535519.220934",
    "longitude": "-90.04189915213323",
    "latitude": "29.9662392920178",
    "geocoded_column": {
      "latitude": "29.9662392920178",
      "longitude": "-90.04189915213323"
    }
  },
  {
    "service_request": "2023-1023779",
    "request_type": "Trash/Recycling",
    "request_reason": "MIssed Recycling Pick-Up",
    "date_created": "2023-08-05T20:05:14.000",
    "date_modified": "2023-08-05T20:05:15.000",
    "request_status": "Pending",
    "responsible_agency": "Department of Sanitation",
    "final_address": "2221 St Andrew St",
    "address_councildis": "B",
    "status": "Assigned to Contractor",
    "contractor": "Richards Disposal",
    "rowid": "1023779",
    "final_x": "3676687.80053",
    "final_y": "526101.662718",
    "longitude": "-90.08345215295915",
    "latitude": "29.940742288413517",
    "geocoded_column": {
      "latitude": "29.940742288413517",
      "longitude": "-90.08345215295915"
    }
  },
  {
    "service_request": "2023-1023778",
    "request_type": "Trash/Recycling",
    "request_reason": "Order Trash Cart",
    "date_created": "2023-08-05T20:05:06.000",
    "date_modified": "2023-08-05T20:05:06.000",
    "request_status": "Pending",
    "responsible_agency": "Department of Sanitation",
    "final_address": "2505 Hamilton St",
    "address_councildis": "A",
    "status": "Assigned to Contractor",
    "contractor": "Richards Disposal",
    "rowid": "1023778",
    "final_x": "3662586.54695",
    "final_y": "534251.889221",
    "longitude": "-90.12770172708838",
    "latitude": "29.96356819483978",
    "geocoded_column": {
      "latitude": "29.96356819483978",
      "longitude": "-90.12770172708838"
    }
  },
  {
    "service_request": "2023-1023777",
    "request_type": "Trash/Recycling",
    "request_reason": "Order Trash Cart",
    "date_created": "2023-08-05T20:02:19.000",
    "date_modified": "2023-08-05T20:02:19.000",
    "request_status": "Pending",
    "responsible_agency": "Department of Sanitation",
    "final_address": "2507 Hamilton St",
    "address_councildis": "A",
    "status": "Assigned to Contractor",
    "contractor": "Richards Disposal",
    "rowid": "1023777",
    "final_x": "3662594.78701",
    "final_y": "534259.219845",
    "longitude": "-90.12767546213449",
    "latitude": "29.963588113261036",
    "geocoded_column": {
      "latitude": "29.963588113261036",
      "longitude": "-90.12767546213449"
    }
  },
  {
    "service_request": "2023-1023776",
    "request_type": "Trash/Recycling",
    "request_reason": "MIssed Recycling Pick-Up",
    "date_created": "2023-08-05T19:45:35.000",
    "date_modified": "2023-08-05T19:45:35.000",
    "request_status": "Pending",
    "responsible_agency": "Department of Sanitation",
    "final_address": "4715 Rhodes Dr",
    "address_councildis": "E",
    "status": "Assigned to Contractor",
    "contractor": "Waste Pro",
    "rowid": "1023776",
    "final_x": "3702603.64113",
    "final_y": "554175.997976",
    "longitude": "-90.00060103259554",
    "latitude": "30.017133677784727",
    "geocoded_column": {
      "latitude": "30.017133677784727",
      "longitude": "-90.00060103259554"
    }
  },
  {
    "service_request": "2023-1023775",
    "request_type": "Roads/Drainage",
    "request_reason": "Catch Basin - Clogged",
    "date_created": "2023-08-05T19:26:10.000",
    "date_modified": "2023-08-05T19:26:10.000",
    "request_status": "Pending",
    "responsible_agency": "Department of Public Works",
    "final_address": "8608 Spruce St",
    "address_councildis": "A",
    "status": "Pending",
    "rowid": "1023775",
    "final_x": "3662443.02752",
    "final_y": "531679.386947",
    "longitude": "-90.12824038659149",
    "latitude": "29.95649880177037",
    "geocoded_column": {
      "latitude": "29.95649880177037",
      "longitude": "-90.12824038659149"
    }
  },
  {
    "service_request": "2023-1023774",
    "request_type": "Trash/Recycling",
    "request_reason": "Request a Large Item Pick Up",
    "date_created": "2023-08-05T19:20:29.000",
    "date_modified": "2023-08-05T19:20:30.000",
    "request_status": "Pending",
    "responsible_agency": "Department of Sanitation",
    "final_address": "7611 Dominican St",
    "address_councildis": "A",
    "status": "Assigned to Contractor",
    "contractor": "Richards Disposal",
    "rowid": "1023774",
    "final_x": "3661323.85696",
    "final_y": "525210.993597",
    "longitude": "-90.13198852336303",
    "latitude": "29.938745105025575",
    "geocoded_column": {
      "latitude": "29.938745105025575",
      "longitude": "-90.13198852336303"
    }
  },