[
  {
    "service_request": "2023-979070",
    "request_type": "Abandoned Vehicles",
    "request_reason": "Abandoned/Junk Vehicles",
    "date_created": "2023-03-01T00:00:56.000",
    "date_modified": "2023-03-01T00:00:56.000",
    "request_status": "Pending",
    "responsible_agency": "Department of Public Works",
    "final_address": "2401 St Ann St",
    "address_councildis": "D",
    "status": "Pending",
    "rowid": "979070",
    "final_x": "3678006.47618",
    "final_y": "536449.586183",
    "longitude": "-90.07893120924889",
    "latitude": "29.969155983851625",
    "geocoded_column": {
      "latitude": "29.969155983851625",
      "longitude": "-90.07893120924889"
    }
  },
  {
    "service_request": "2023-979069",
    "request_type": "Property Maintenance",
    "request_reason": "Property Maintenance",
    "date_created": "2023-02-28T23:52:32.000",
    "date_modified": "2023-02-28T23:52:32.000",
    "request_status": "Pending",
    "responsible_agency": "Department of Code Enforcement",
    "final_address": "2323 Ursulines Ave",
    "address_councildis": "D",
    "status": "Pending",
    "rowid": "979069",
    "final_x": "3678865.44328",
    "final_y": "537264.142728",
    "longitude": "-90.07619030582468",
    "latitude": "29.971369850917124",
    "geocoded_column": {
      "latitude": "29.971369850917124",
      "longitude": "-90.07619030582468"
    }
  },
  {
    "service_request": "2023-979068",
    "request_type": "Abandoned Vehicles",
    "request_reason": "Abandoned/Junk Vehicles",
    "date_created": "2023-02-28T23:47:34.000",
    "date_modified": "2023-02-28T23:47:34.000",
    "request_status": "Pending",
    "responsible_agency": "Department of Public Works",
    "final_address": "2323 Ursulines Ave",
    "address_councildis": "D",
    "status": "Pending",
    "rowid": "979068",
    "final_x": "3678865.44328",
    "final_y": "537264.142728",
    "longitude": "-90.07619030582468",
    "latitude": "29.971369850917124",
    "geocoded_column": {
      "latitude": "29.971369850917124",
      "longitude": "-90.07619030582468"
    }
  },
  {
    "service_request": "2023-979067",
    "request_type": "Trash/Recycling",
    "request_reason": "Return Recycling Cart",
    "date_created": "2023-02-28T23:39:35.000",
    "date_modified": "2023-02-28T23:39:35.000",
    "request_status": "Pending",
    "responsible_agency": "Department of Sanitation",
    "final_address": "916 N Dorgenois St",
    "address_councildis": "D",
    "status": "Pending",
    "rowid": "979067",
    "final_x": "3677730.46363",
    "final_y": "537284.018504",
    "longitude": "-90.07977404790164",
    "latitude": "29.9714586931646",
    "geocoded_column": {
      "latitude": "29.9714586931646",
      "longitude": "-90.07977404790164"
    }
  },
  {
    "service_request": "2023-979066",
    "request_type": "Trash/Recycling",
    "request_reason": "Missed Trash Pick-Up",
    "date_created": "2023-02-28T23:37:41.000",
    "date_modified": "2023-02-28T23:37:41.000",
    "request_status": "Pending",
    "responsible_agency": "Department of Sanitation",
    "final_address": "916 N Dorgenois St",
    "address_councildis": "D",
    "status": "Assigned to Contractor",
    "contractor": "Richards Disposal",
    "rowid": "979066",
    "final_x": "3677730.46363",
    "final_y": "537284.018504",
    "longitude": "-90.07977404790164",
    "latitude": "29.9714586931646",
    "geocoded_column": {
      "latitude": "29.9714586931646",
      "longitude": "-90.07977404790164"
    }
  },
  {
    "service_request": "2023-979065",
    "request_type": "Trash/Recycling",
    "request_reason": "Missed Trash Pick-Up",
    "date_created": "2023-02-28T23:35:02.000",
    "date_modified": "2023-02-28T23:35:03.000",
    "request_status": "Pending",
    "responsible_agency": "Department of Sanitation",
    "final_address": "2549 Dumaine St",
    "address_councildis": "D",
    "status": "Assigned to Contractor",
    "contractor": "Richards Disposal",
    "rowid": "979065",
    "final_x": "3677667.18952",
    "final_y": "537167.238472",
    "longitude": "-90.07997791095183",
    "latitude": "29.97113949124866",
    "geocoded_column": {
      "latitude": "29.97113949124866",
      "longitude": "-90.07997791095183"
    }
  },
  {
    "service_request": "2023-979064",
    "request_type": "Trash/Recycling",
    "request_reason": "Illegal Dumping",
    "date_created": "2023-02-28T23:28:23.000",
    "date_modified": "2023-02-28T23:28:23.000",
    "request_status": "Pending",
    "responsible_agency": "Department of Sanitation",
    "final_address": "2900 BLK Lafitte Ave",
    "address_councildis": "A",
    "status": "Pending",
    "rowid": "979064",
    "final_x": "3675435.14876",
    "final_y": "537019.972992",
    "longitude": "-90.08703206354076",
    "latitude": "29.970801504669062",
    "geocoded_column": {
      "latitude": "29.970801504669062",
      "longitude": "-90.08703206354076"
    }
  },
  {
    "service_request": "2023-979063",
    "request_type": "Roads/Drainage",
    "request_reason": "Debris in Roadway",
    "date_created": "2023-02-28T23:24:10.000",
    "date_modified": "2023-02-28T23:24:10.000",
    "request_status": "Pending",
    "responsible_agency": "Department of Public Works",
    "final_address": "2519 St Ann St",
    "address_councildis": "D",
    "status": "Pending",
    "rowid": "979063",
    "final_x": "3677628.07387",
    "final_y": "536746.431176",
    "longitude": "-90.080115978554",
    "latitude": "29.969983591392836",
    "geocoded_column": {
      "latitude": "29.969983591392836",
      "longitude": "-90.080115978554"
    }
  },
  {
    "service_request": "2023-979062",
    "request_type": "Trash/Recycling",
    "request_reason": "Illegal Dumping",
    "date_created": "2023-02-28T23:21:13.000",
    "date_modified": "2023-02-28T23:21:13.000",
    "request_status": "Pending",
    "responsible_agency": "Department of Sanitation",
    "final_address": "1024 N Dorgenois St",
    "address_councildis": "D",
    "status": "Pending",
    "rowid": "979062",
    "final_x": "3678002.25326",
    "final_y": "537651.719496",
    "longitude": "-90.07890298347294",
    "latitude": "29.972461566288096",
    "geocoded_column": {
      "latitude": "29.972461566288096",
      "longitude": "-90.07890298347294"
    }
  },
  {
    "service_request": "2023-979061",
    "request_type": "Property Maintenance",
    "request_reason": "Property Maintenance",
    "date_created": "2023-02-28T23:17:47.000",
    "date_modified": "2023-02-28T23:17:47.000",
    "request_status": "Pending",
    "responsible_agency": "Department of Code Enforcement",
    "final_address": "1024 N Dorgenois St",
    "address_councildis": "D",
    "status": "Pending",
    "rowid": "979061",
    "final_x": "3678002.25326",
    "final_y": "537651.719496",
    "longitude": "-90.07890298347294",
    "latitude": "29.972461566288096",
    "geocoded_column": {
      "latitude": "29.972461566288096",
      "longitude": "-90.07890298347294"
    }
  },
  {
    "service_request": "2023-979060",
    "request_type": "Trash/Recycling",
    "request_reason": "Order Recycling Cart",
    "date_created": "2023-02-28T22:40:00.000",
    "date_modified": "2023-02-28T22:40:00.000",
    "request_status": "Pending",
    "responsible_agency": "Department of Sanitation",
    "final_address": "2004 Jena St",
    "address_councildis": "B",
    "status": "Pending",
    "rowid": "979060",
    "final_x": "3670257.2857",
    "final_y": "522310.836154",
    "longitude": "-90.10388287257686",
    "latitude": "29.93051004382195",
    "geocoded_column": {
      "latitude": "29.93051004382195",
      "longitude": "-90.10388287257686"
    }
  },
  {
    "service_request": "2023-979059",
    "request_type": "Trash/Recycling",
    "request_reason": "MIssed Recycling Pick-Up",
    "date_created": "2023-02-28T22:35:52.000",
    "date_modified": "2023-02-28T22:35:52.000",
    "request_status": "Pending",
    "responsible_agency": "Department of Sanitation",
    "final_address": "3131 Dickens Dr",
    "address_councildis": "C",
    "status": "Assigned to Contractor",
    "contractor": "Richards Disposal",
    "rowid": "979059",
    "final_x": "3708272.32113",
    "final_y": "518685.824119",
    "longitude": "-89.98401095336939",
    "latitude": "29.919366233392076",
    "geocoded_column": {
      "latitude": "29.919366233392076",
      "longitude": "-89.98401095336939"
    }
  },
  {
    "service_request": "2023-979058",
    "request_type": "Roads/Drainage",
    "request_reason": "Pothole",
    "date_created": "2023-02-28T22:11:42.000",
    "date_modified": "2023-02-28T22:11:42.000",
    "request_status": "Pending",
    "responsible_agency": "Department of Public Works",
    "final_address": "5712 S Claiborne Ave",
    "address_councildis": "A",
    "status": "Pending",
    "rowid": "979058",
    "final_x": "3667316.37121",
    "final_y": "526228.279486",
    "longitude": "-90.11303522589489",
    "latitude": "29.94136819756626",
    "geocoded_column": {
      "latitude": "29.94136819756626",
      "longitude": "-90.11303522589489"
    }
  },
  {
    "service_request": "2023-979057",
    "request_type": "Roads/Drainage",
    "request_reason": "Debris in Roadway",
    "date_created": "2023-02-28T22:09:03.000",
    "date_modified": "2023-02-28T22:09:03.000",
    "request_status": "Pending",
    "responsible_agency": "Department of Public Works",
    "final_address": "5712 S Claiborne Ave",
    "address_councildis": "A",
    "status": "Pending",
    "rowid": "979057",
    "final_x": "3667316.37121",
    "final_y": "526228.279486",
    "longitude": "-90.11303522589489",
    "latitude": "29.94136819756626",
    "geocoded_column": {
      "latitude": "29.94136819756626",
      "longitude": "-90.11303522589489"
    }
  },
  {
    "service_request": "2023-979056",
    "request_type": "Trash/Recycling",
    "request_reason": "Illegal Dumping",
    "date_created": "2023-02-28T21:59:06.000",
    "date_modified": "2023-02-28T21:59:06.000",
    "request_status": "Pending",
    "responsible_agency": "Department of Sanitation",
    "final_address": "2618 S Saratoga St",
    "address_councildis": "B",
    "status": "Pending",
    "rowid": "979056",
    "final_x": "3675329.83246",
    "final_y": "524244.9239",
    "longitude": "-90.0878032188674",
    "latitude": "29.935677524849268",
    "geocoded_column": {
      "latitude": "29.935677524849268",
      "longitude": "-90.0878032188674"
    }
  },
  {
    "service_request": "2023-979055",
    "request_type": "Trash/Recycling",
    "request_reason": "Request a Large Item Pick Up",
    "date_created": "2023-02-28T21:57:45.000",
    "date_modified": "2023-02-28T21:57:46.000",
    "request_status": "Pending",
    "responsible_agency": "Department of Sanitation",
    "final_address": "2618 S Saratoga St",
    "address_councildis": "B",
    "status": "Assigned to Contractor",
    "contractor": "Richards Disposal",
    "rowid": "979055",
    "final_x": "3675329.83246",
    "final_y": "524244.9239",
    "longitude": "-90.0878032188674",
    "latitude": "29.935677524849268",
    "geocoded_column": {
      "latitude": "29.935677524849268",
      "longitude": "-90.0878032188674"
    }
  },
  {
    "service_request": "2023-979054",
    "request_type": "Trash/Recycling",
    "request_reason": "Request a Large Item Pick Up",
    "date_created": "2023-02-28T21:55:45.000",
    "date_modified": "2023-02-28T21:55:46.000",
    "request_status": "Pending",
    "responsible_agency": "Department of Sanitation",
    "final_address": "10720 Roger Dr Apt D",
    "address_councildis": "E",
    "status": "Assigned to Contractor",
    "contractor": "Waste Pro",
    "rowid": "979054",
    "final_x": "3711644.80683",
    "final_y": "562940.561248",
    "longitude": "-89.97170586169754",
    "latitude": "30.04094051359983",
    "geocoded_column": {
      "latitude": "30.04094051359983",
      "longitude": "-89.97170586169754"
    }
  },
  {
    "service_request": "2023-979053",
    "request_type": "Trash/Recycling",
    "request_reason": "Request a Large Item Pick Up",
    "date_created": "2023-02-28T21:55:45.000",
    "date_modified": "2023-02-28T21:55:45.000",
    "request_status": "Pending",
    "responsible_agency": "Department of Sanitation",
    "final_address": "2618 S Saratoga St",
    "address_councildis": "B",
    "status": "Assigned to Contractor",
    "contractor": "Richards Disposal",
    "rowid": "979053",
    "final_x": "3675329.83246",
    "final_y": "524244.9239",
    "longitude": "-90.0878032188674",
    "latitude": "29.935677524849268",
    "geocoded_column": {
      "latitude": "29.935677524849268",
      "longitude": "-90.0878032188674"
    }
  },
  {
    "service_request": "2023-979051",
    "request_type": "Trash/Recycling",
    "request_reason": "Request a Large Item Pick Up",
    "date_created": "2023-02-28T21:48:11.000",
    "date_modified": "2023-02-28T21:48:12.000",
    "request_status": "Pending",
    "responsible_agency": "Department of Sanitation",
    "final_address": "6314 Ransom St",
    "address_councildis": "D",
    "status": "Assigned to Contractor",
    "contractor": "Waste Pro",
    "rowid": "979051",
    "final_x": "3698159.59408",
    "final_y": "552853.378391",
    "longitude": "-90.0146904145094",
    "latitude": "30.01363835042148",
    "geocoded_column": {
      "latitude": "30.01363835042148",
      "longitude": "-90.0146904145094"
    }
  },
  {
    "service_request": "2023-979050",
    "request_type": "Traffic Signals/Signs/Striping/Streetlights",
    "request_reason": "Street Light Outage/Malfunction",
    "date_created": "2023-02-28T21:47:28.000",
    "date_modified": "2023-02-28T21:47:29.000",
    "request_status": "Pending",
    "responsible_agency": "Department of Public Works",
    "final_address": "1021 Bordeaux St",
    "address_councildis": "B",
    "status": "Assigned to Contractor",
    "contractor": "Legacy Professional Services",
    "rowid": "979050",
    "final_x": "3669576.23809",
    "final_y": "519194.499575",
    "longitude": "-90.10613820660505",
    "latitude": "29.921961185976397",
    "geocoded_column": {
      "latitude": "29.921961185976397",
      "longitude": "-90.10613820660505"
    }
  },
  {
    "service_request": "2023-979049",
    "request_type": "Trash/Recycling",
    "request_reason": "Replace Trash Cart",
    "date_created": "2023-02-28T21:40:58.000",
    "date_modified": "2023-02-28T21:40:58.000",
    "request_status": "Pending",
    "responsible_agency": "Department of Sanitation",
    "final_address": "1811 Baronne St",
    "address_councildis": "B",
    "status": "Assigned to Contractor",
    "contractor": "Richards Disposal",
    "rowid": "979049",
    "final_x": "3677772.31406",
    "final_y": "525124.958653",
    "longitude": "-90.08006188182834",
    "latitude": "29.938024101706638",
    "geocoded_column": {
      "latitude": "29.938024101706638",
      "longitude": "-90.08006188182834"
    }
  },
  {
    "service_request": "2023-979048",
    "request_type": "Abandoned Vehicles",
    "request_reason": "Vehicle Blocking Your Driveway",
    "date_created": "2023-02-28T21:15:59.000",
    "date_modified": "2023-02-28T21:15:59.000",
    "request_status": "Pending",
    "responsible_agency": "Department of Public Works",
    "final_address": "2124 Cadiz St, New Orleans, Louisiana, 70115",
    "address_councildis": "B",
    "status": "Pending",
    "rowid": "979048",
    "final_x": "3669865.32929",
    "final_y": "522784.302842",
    "longitude": "-90.10510420209272",
    "latitude": "29.93182348363025",
    "geocoded_column": {
      "latitude": "29.93182348363025",
      "longitude": "-90.10510420209272"
    }
  },
  {
    "service_request": "2023-979047",
    "request_type": "Trash/Recycling",
    "request_reason": "Replace Trash Cart",
    "date_created": "2023-02-28T21:04:25.000",
    "date_modified": "2023-02-28T21:04:26.000",
    "request_status": "Pending",
    "responsible_agency": "Department of Sanitation",
    "final_address": "6241 Wales St",
    "address_councildis": "E",
    "status": "Assigned to Contractor",
    "contractor": "Waste Pro",
    "rowid": "979047",
    "final_x": "3695976.22902",
    "final_y": "559786.852381",
    "longitude": "-90.02133785141996",
    "latitude": "30.032771681332832",
    "geocoded_column": {
      "latitude": "30.032771681332832",
      "longitude": "-90.02133785141996"
    }
  },
  {
    "service_request": "2023-979046",
    "request_type": "Trash/Recycling",
    "request_reason": "Request a Large Item Pick Up",
    "date_created": "2023-02-28T21:02:14.000",
    "date_modified": "2023-02-28T21:02:15.000",
    "request_status": "Pending",
    "responsible_agency": "Department of Sanitation",
    "final_address": "1834 S Norman C Francis Prkwy",
    "address_councildis": "B",
    "status": "Assigned to Contractor",
    "contractor": "Richards Disposal",
    "rowid": "979046",
    "final_x": "3669037.0194",
    "final_y": "530380.455042",
    "longitude": "-90.10746254275895",
    "latitude": "29.95273482967095",
    "geocoded_column": {
      "latitude": "29.95273482967095",
      "longitude": "-90.10746254275895"
    }
  },
  {
    "service_request": "2023-979045",
    "request_type": "Trash/Recycling",
    "request_reason": "MIssed Recycling Pick-Up",
    "date_created": "2023-02-28T21:01:43.000",
    "date_modified": "2023-02-28T21:01:44.000",
    "request_status": "Pending",
    "responsible_agency": "Department of Sanitation",
    "final_address": "220 S Solomon St",
    "address_councildis": "A",
    "status": "Assigned to Contractor",
    "contractor": "Richards Disposal",
    "rowid": "979045",
    "final_x": "3670248.74311",
    "final_y": "538208.997833",
    "longitude": "-90.10337111327594",
    "latitude": "29.974225015194648",
    "geocoded_column": {
      "latitude": "29.974225015194648",
      "longitude": "-90.10337111327594"
    }
  },
  {
    "service_request": "2023-979044",
    "request_type": "Roads/Drainage",
    "request_reason": "Pothole",
    "date_created": "2023-02-28T20:49:18.000",
    "date_modified": "2023-02-28T20:49:18.000",
    "request_status": "Pending",
    "responsible_agency": "Department of Public Works",
    "final_address": "4607 Coliseum St",
    "address_councildis": "B",
    "status": "Pending",
    "rowid": "979044",
    "final_x": "3670111.87393",
    "final_y": "519788.806008",
    "longitude": "-90.10442730534166",
    "latitude": "29.923579555083787",
    "geocoded_column": {
      "latitude": "29.923579555083787",
      "longitude": "-90.10442730534166"
    }
  },
  {
    "service_request": "2023-979043",
    "request_type": "Roads/Drainage",
    "request_reason": "Street Flooding / Drainage",
    "date_created": "2023-02-28T20:33:56.000",
    "date_modified": "2023-02-28T20:33:56.000",
    "request_status": "Pending",
    "responsible_agency": "Department of Public Works",
    "final_address": "5661 Bullard Ave",
    "address_councildis": "E",
    "status": "Pending",
    "rowid": "979043",
    "final_x": "3717217.88274",
    "final_y": "562232.219551",
    "longitude": "-89.95412017240513",
    "latitude": "30.038809587180545",
    "geocoded_column": {
      "latitude": "30.038809587180545",
      "longitude": "-89.95412017240513"
    }
  },
  {
    "service_request": "2023-979042",
    "request_type": "Traffic Signals/Signs/Striping/Streetlights",
    "request_reason": "Street Light Outage/Malfunction",
    "date_created": "2023-02-28T20:32:32.000",
    "date_modified": "2023-02-28T20:32:33.000",
    "request_status": "Pending",
    "responsible_agency": "Department of Public Works",
    "final_address": "8002 Cohn St",
    "address_councildis": "A",
    "status": "Assigned to Contractor",
    "contractor": "Legacy Professional Services",
    "rowid": "979042",
    "final_x": "3663883.72839",
    "final_y": "529887.555329",
    "longitude": "-90.12375083334992",
    "latitude": "29.951530103922668",
    "geocoded_column": {
      "latitude": "29.951530103922668",
      "longitude": "-90.12375083334992"
    }
  },
  {
    "service_request": "2023-979041",
    "request_type": "Traffic Signals/Signs/Striping/Streetlights",
    "request_reason": "Street Light Outage/Malfunction",
    "date_created": "2023-02-28T20:29:05.000",
    "date_modified": "2023-02-28T20:29:05.000",
    "request_status": "Pending",
    "responsible_agency": "Department of Public Works",
    "final_address": "8015 Ebbtide Ct, New Orleans, Louisiana, 70126",
    "status": "Assigned to Contractor",
    "contractor": "Legacy Professional Services",
    "rowid": "979041",
    "longitude": "0.0",
    "latitude": "0.0",
    "geocoded_column": {
      "latitude": "0.0",
      "longitude": "0.0"
    }
  },
  {
    "service_request": "2023-979040",
    "request_type": "Traffic Signals/Signs/Striping/Streetlights",
    "request_reason": "Street Light Outage/Malfunction",
    "date_created": "2023-02-28T20:04:34.000",
    "date_modified": "2023-02-28T20:04:35.000",
    "request_status": "Pending",
    "responsible_agency": "Department of Public Works",
    "final_address": "8015 Ebbtide Dr",
    "address_councildis": "E",
    "status": "Assigned to Contractor",
    "contractor": "Legacy Professional Services",
    "rowid": "979040",
    "final_x": "3701980.99306",
    "final_y": "562361.502047",
    "longitude": "-90.00226789702086",
    "latitude": "30.039660545430923",
    "geocoded_column": {
      "latitude": "30.039660545430923",
      "longitude": "-90.00226789702086"
    }
  },
  {
    "service_request": "2023-979039",
    "request_type": "Trash/Recycling",
    "request_reason": "Order Recycling Cart",
    "date_created": "2023-02-28T19:52:21.000",
    "date_modified": "2023-02-28T19:52:21.000",
    "request_status": "Pending",
    "responsible_agency": "Department of Sanitation",
    "final_address": "1823 Martin Luther King, Jr. Blvd",
    "address_councildis": "B",
    "status": "Pending",
    "rowid": "979039",
    "final_x": "3678293.37557",
    "final_y": "526182.716926",
    "longitude": "-90.07838027043971",
    "latitude": "29.940916906441064",
    "geocoded_column": {
      "latitude": "29.940916906441064",
      "longitude": "-90.07838027043971"
    }
  },
  {
    "service_request": "2023-979038",
    "request_type": "Traffic Signals/Signs/Striping/Streetlights",
    "request_reason": "Street Light Outage/Malfunction",
    "date_created": "2023-02-28T19:49:06.000",
    "date_modified": "2023-02-28T19:49:07.000",
    "request_status": "Pending",
    "responsible_agency": "Department of Public Works",
    "final_address": "1432 Chartres St",
    "address_councildis": "C",
    "status": "Assigned to Contractor",
    "contractor": "Legacy Professional Services",
    "rowid": "979038",
    "final_x": "3684565.83516",
    "final_y": "534395.091845",
    "longitude": "-90.0582885121374",
    "latitude": "29.96330775661264",
    "geocoded_column": {
      "latitude": "29.96330775661264",
      "longitude": "-90.0582885121374"
    }
  },
  {
    "service_request": "2023-979037",
    "request_type": "Trash/Recycling",
    "request_reason": "Missed Trash Pick-Up",
    "date_created": "2023-02-28T19:44:19.000",
    "date_modified": "2023-02-28T19:44:20.000",
    "request_status": "Pending",
    "responsible_agency": "Department of Sanitation",
    "final_address": "4920 St Charles Ave",
    "address_councildis": "B",
    "status": "Assigned to Contractor",
    "contractor": "Richards Disposal",
    "rowid": "979037",
    "final_x": "3668914.26746",
    "final_y": "520619.304952",
    "longitude": "-90.10817968746933",
    "latitude": "29.92589842684097",
    "geocoded_column": {
      "latitude": "29.92589842684097",
      "longitude": "-90.10817968746933"
    }
  },
  {
    "service_request": "2023-979036",
    "request_type": "Trash/Recycling",
    "request_reason": "Request a Large Item Pick Up",
    "date_created": "2023-02-28T19:43:20.000",
    "date_modified": "2023-02-28T19:43:21.000",
    "request_status": "Pending",
    "responsible_agency": "Department of Sanitation",
    "final_address": "6950 Bunker Hill Rd",
    "address_councildis": "E",
    "status": "Assigned to Contractor",
    "contractor": "Waste Pro",
    "rowid": "979036",
    "final_x": "3706035.68395",
    "final_y": "560059.771229",
    "longitude": "-89.98953925197735",
    "latitude": "30.033201558481878",
    "geocoded_column": {
      "latitude": "30.033201558481878",
      "longitude": "-89.98953925197735"
    }
  },
  {
    "service_request": "2023-979035",
    "request_type": "Abandoned Vehicles",
    "request_reason": "Vehicle Blocking Your Driveway",
    "date_created": "2023-02-28T19:29:21.000",
    "date_modified": "2023-02-28T19:29:21.000",
    "request_status": "Pending",
    "responsible_agency": "Department of Public Works",
    "final_address": "1933 Fern St",
    "address_councildis": "A",
    "status": "Pending",
    "rowid": "979035",
    "final_x": "3664405.5154",
    "final_y": "529845.334721",
    "longitude": "-90.12210468529486",
    "latitude": "29.95139885505022",
    "geocoded_column": {
      "latitude": "29.95139885505022",
      "longitude": "-90.12210468529486"
    }
  },
  {
    "service_request": "2023-979034",
    "request_type": "Trash/Recycling",
    "request_reason": "MIssed Recycling Pick-Up",
    "date_created": "2023-02-28T19:21:28.000",
    "date_modified": "2023-02-28T19:21:29.000",
    "request_status": "Pending",
    "responsible_agency": "Department of Sanitation",
    "final_address": "211 S Pierce St",
    "address_councildis": "A",
    "status": "Assigned to Contractor",
    "contractor": "Richards Disposal",
    "rowid": "979034",
    "final_x": "3671097.77646",
    "final_y": "537684.220744",
    "longitude": "-90.10070749090565",
    "latitude": "29.972756968583056",
    "geocoded_column": {
      "latitude": "29.972756968583056",
      "longitude": "-90.10070749090565"
    }
  },
  {
    "service_request": "2023-979033",
    "request_type": "Trash/Recycling",
    "request_reason": "MIssed Recycling Pick-Up",
    "date_created": "2023-02-28T19:20:38.000",
    "date_modified": "2023-02-28T19:20:39.000",
    "request_status": "Pending",
    "responsible_agency": "Department of Sanitation",
    "final_address": "119 Ringold St",
    "address_councildis": "A",
    "status": "Assigned to Contractor",
    "contractor": "IV Waste",
    "rowid": "979033",
    "final_x": "3666792.43565",
    "final_y": "548581.657939",
    "longitude": "-90.11393835410577",
    "latitude": "30.002847863155292",
    "geocoded_column": {
      "latitude": "30.002847863155292",
      "longitude": "-90.11393835410577"
    }
  },
  {
    "service_request": "2023-979030",
    "request_type": "Trash/Recycling",
    "request_reason": "MIssed Recycling Pick-Up",
    "date_created": "2023-02-28T18:38:26.000",
    "date_modified": "2023-02-28T18:38:27.000",
    "request_status": "Pending",
    "responsible_agency": "Department of Sanitation",
    "final_address": "600 Verret St",
    "address_councildis": "C",
    "status": "Assigned to Contractor",
    "contractor": "Richards Disposal",
    "rowid": "979030",
    "final_x": "3687079.53295",
    "final_y": "529449.930689",
    "longitude": "-90.05052538655315",
    "latitude": "29.949633114079695",
    "geocoded_column": {
      "latitude": "29.949633114079695",
      "longitude": "-90.05052538655315"
    }
  },
  {
    "service_request": "2023-979028",
    "request_type": "Trash/Recycling",
    "request_reason": "MIssed Recycling Pick-Up",
    "date_created": "2023-02-28T18:36:18.000",
    "date_modified": "2023-02-28T18:36:19.000",
    "request_status": "Pending",
    "responsible_agency": "Department of Sanitation",
    "final_address": "604 Verret St",
    "address_councildis": "C",
    "status": "Assigned to Contractor",
    "contractor": "Richards Disposal",
    "rowid": "979028",
    "final_x": "3687082.71497",
    "final_y": "529426.237377",
    "longitude": "-90.05051617702954",
    "latitude": "29.94956786761005",
    "geocoded_column": {
      "latitude": "29.94956786761005",
      "longitude": "-90.05051617702954"
    }
  },
  {
    "service_request": "2023-979027",
    "request_type": "Traffic Signals/Signs/Striping/Streetlights",
    "request_reason": "Street Light Outage/Malfunction",
    "date_created": "2023-02-28T18:34:34.000",
    "date_modified": "2023-02-28T18:34:35.000",
    "request_status": "Pending",
    "responsible_agency": "Department of Public Works",
    "final_address": "2034 Elysian Fields Ave",
    "address_councildis": "D",
    "status": "Assigned to Contractor",
    "contractor": "Legacy Professional Services",
    "rowid": "979027",
    "final_x": "3684626.76073",
    "final_y": "539885.680458",
    "longitude": "-90.05790312060894",
    "latitude": "29.978403101923764",
    "geocoded_column": {
      "latitude": "29.978403101923764",
      "longitude": "-90.05790312060894"
    }
  },
  {
    "service_request": "2023-979026",
    "request_type": "Trash/Recycling",
    "request_reason": "MIssed Recycling Pick-Up",
    "date_created": "2023-02-28T18:34:32.000",
    "date_modified": "2023-02-28T18:34:32.000",
    "request_status": "Pending",
    "responsible_agency": "Department of Sanitation",
    "final_address": "616 Delaronde St",
    "address_councildis": "C",
    "status": "Assigned to Contractor",
    "contractor": "Richards Disposal",
    "rowid": "979026",
    "final_x": "3687372.21244",
    "final_y": "531236.979714",
    "longitude": "-90.04953804812723",
    "latitude": "29.954537873504975",
    "geocoded_column": {
      "latitude": "29.954537873504975",
      "longitude": "-90.04953804812723"
    }
  },
  {
    "service_request": "2023-979025",
    "request_type": "Trash/Recycling",
    "request_reason": "Order Recycling Cart",
    "date_created": "2023-02-28T18:33:33.000",
    "date_modified": "2023-02-28T18:33:33.000",
    "request_status": "Pending",
    "responsible_agency": "Department of Sanitation",
    "final_address": "6050 Pratt Dr",
    "address_councildis": "D",
    "status": "Pending",
    "rowid": "979025",
    "final_x": "3680088.47656",
    "final_y": "554891.441112",
    "longitude": "-90.07171484930703",
    "latitude": "30.019801728608673",
    "geocoded_column": {
      "latitude": "30.019801728608673",
      "longitude": "-90.07171484930703"
    }
  },
  {
    "service_request": "2023-979024",
    "request_type": "Trash/Recycling",
    "request_reason": "Request a Large Item Pick Up",
    "date_created": "2023-02-28T18:30:26.000",
    "date_modified": "2023-02-28T18:30:27.000",
    "request_status": "Pending",
    "responsible_agency": "Department of Sanitation",
    "final_address": "6946 Louis Xiv St",
    "address_councildis": "A",
    "status": "Assigned to Contractor",
    "contractor": "IV Waste",
    "rowid": "979024",
    "final_x": "3668567.39521",
    "final_y": "553731.496727",
    "longitude": "-90.1081570374526",
    "latitude": "30.016956057256895",
    "geocoded_column": {
      "latitude": "30.016956057256895",
      "longitude": "-90.1081570374526"
    }
  },
  {
    "service_request": "2023-979023",
    "request_type": "Traffic Signals/Signs/Striping/Streetlights",
    "request_reason": "Traffic Sign Missing/Damaged",
    "date_created": "2023-02-28T18:25:24.000",
    "date_modified": "2023-02-28T18:25:24.000",
    "request_status": "Pending",
    "responsible_agency": "Department of Public Works",
    "final_address": "3411 Marais St",
    "address_councildis": "C",
    "status": "Pending",
    "rowid": "979023",
    "final_x": "3690428.80694",
    "final_y": "536063.471943",
    "longitude": "-90.0397144926417",
    "latitude": "29.967714524926173",
    "geocoded_column": {
      "latitude": "29.967714524926173",
      "longitude": "-90.0397144926417"
    }
  },
  {
    "service_request": "2023-979022",
    "request_type": "Trash/Recycling",
    "request_reason": "Missed Trash Pick-Up",
    "date_created": "2023-02-28T18:18:18.000",
    "date_modified": "2023-02-28T18:18:19.000",
    "request_status": "Pending",
    "responsible_agency": "Department of Sanitation",
    "final_address": "3327 General Taylor St",
    "address_councildis": "B",
    "status": "Assigned to Contractor",
    "contractor": "Richards Disposal",
    "rowid": "979022",
    "final_x": "3671232.2578",
    "final_y": "527219.966783",
    "longitude": "-90.10063830407029",
    "latitude": "29.943979762985556",
    "geocoded_column": {
      "latitude": "29.943979762985556",
      "longitude": "-90.10063830407029"
    }
  },
  {
    "service_request": "2023-979021",
    "request_type": "Trash/Recycling",
    "request_reason": "Request a Large Item Pick Up",
    "date_created": "2023-02-28T18:15:03.000",
    "date_modified": "2023-02-28T18:15:03.000",
    "request_status": "Pending",
    "responsible_agency": "Department of Sanitation",
    "final_address": "10121 Deerfield Dr",
    "address_councildis": "E",
    "status": "Assigned to Contractor",
    "contractor": "Waste Pro",
    "rowid": "979021",
    "final_x": "3709668.59089",
    "final_y": "563377.701216",
    "longitude": "-89.97793498589819",
    "latitude": "30.04220689723152",
    "geocoded_column": {
      "latitude": "30.04220689723152",
      "longitude": "-89.97793498589819"
    }
  },
  {
    "service_request": "2023-979020",
    "request_type": "Abandoned Vehicles",
    "request_reason": "Abandoned/Junk Vehicles",
    "date_created": "2023-02-28T18:14:46.000",
    "date_modified": "2023-02-28T18:14:46.000",
    "request_status": "Pending",
    "responsible_agency": "Department of Public Works",
    "final_address": "7114 Colapissa St",
    "address_councildis": "B",
    "status": "Pending",
    "rowid": "979020",
    "final_x": "3668010.79821",
    "final_y": "532016.552195",
    "longitude": "-90.11064777561926",
    "latitude": "29.957263709133404",
    "geocoded_column": {
      "latitude": "29.957263709133404",
      "longitude": "-90.11064777561926"
    }
  },
  {
    "service_request": "2023-979019",
    "request_type": "Trash/Recycling",
    "request_reason": "Missed Trash Pick-Up",
    "date_created": "2023-02-28T18:10:52.000",
    "date_modified": "2023-02-28T18:10:52.000",
    "request_status": "Pending",
    "responsible_agency": "Department of Sanitation",
    "final_address": "7700 Branch Dr",
    "address_councildis": "E",
    "status": "Assigned to Contractor",
    "contractor": "Waste Pro",
    "rowid": "979019",
    "final_x": "3714486.69842",
    "final_y": "568955.348581",
    "longitude": "-89.96249718935007",
    "latitude": "30.05738556494383",
    "geocoded_column": {
      "latitude": "30.05738556494383",
      "longitude": "-89.96249718935007"
    }
  },
  {
    "service_request": "2023-979018",
    "request_type": "Trash/Recycling",
    "request_reason": "Request a Large Item Pick Up",
    "date_created": "2023-02-28T18:08:06.000",
    "date_modified": "2023-02-28T18:08:07.000",
    "request_status": "Pending",
    "responsible_agency": "Department of Sanitation",
    "final_address": "5410 Norgate Dr",
    "address_councildis": "E",
    "status": "Assigned to Contractor",
    "contractor": "Waste Pro",
    "rowid": "979018",
    "final_x": "3707183.85547",
    "final_y": "557723.299355",
    "longitude": "-89.98599776476887",
    "latitude": "30.026740102688457",
    "geocoded_column": {
      "latitude": "30.026740102688457",
      "longitude": "-89.98599776476887"
    }
  },
  {
    "service_request": "2023-979017",
    "request_type": "Roads/Drainage",
    "request_reason": "Pothole",
    "date_created": "2023-02-28T18:02:39.000",
    "date_modified": "2023-02-28T18:02:39.000",
    "request_status": "Pending",
    "responsible_agency": "Department of Public Works",
    "final_address": "1011 Conti St",
    "address_councildis": "C",
    "status": "Pending",
    "rowid": "979017",
    "final_x": "3680969.66203",
    "final_y": "532332.916227",
    "longitude": "-90.06971662960923",
    "latitude": "29.957747018459333",
    "geocoded_column": {
      "latitude": "29.957747018459333",
      "longitude": "-90.06971662960923"
    }
  },
  {
    "service_request": "2023-979016",
    "request_type": "Abandoned Vehicles",
    "request_reason": "Abandoned/Junk Vehicles",
    "date_created": "2023-02-28T17:59:31.000",
    "date_modified": "2023-02-28T17:59:31.000",
    "request_status": "Pending",
    "responsible_agency": "Department of Public Works",
    "final_address": "3100 Audubon St",
    "address_councildis": "B",
    "status": "Pending",
    "rowid": "979016",
    "final_x": "3668118.56673",
    "final_y": "531997.339011",
    "longitude": "-90.11030812184775",
    "latitude": "29.95720771674986",
    "geocoded_column": {
      "latitude": "29.95720771674986",
      "longitude": "-90.11030812184775"
    }
  },
  {
    "service_request": "2023-979015",
    "request_type": "Roads/Drainage",
    "request_reason": "Street Flooding / Drainage",
    "date_created": "2023-02-28T17:57:56.000",
    "date_modified": "2023-02-28T17:57:56.000",
    "request_status": "Pending",
    "responsible_agency": "Department of Public Works",
    "final_address": "509 S Carrollton Ave",
    "address_councildis": "A",
    "status": "Pending",
    "rowid": "979015",
    "final_x": "3660548.00672",
    "final_y": "526578.53267",
    "longitude": "-90.13439280581177",
    "latitude": "29.942527748700638",
    "geocoded_column": {
      "latitude": "29.942527748700638",
      "longitude": "-90.13439280581177"
    }
  },
  {
    "service_request": "2023-979014",
    "request_type": "Abandoned Vehicles",
    "request_reason": "Vehicle Blocking Your Driveway",
    "date_created": "2023-02-28T17:56:35.000",
    "date_modified": "2023-02-28T17:56:35.000",
    "request_status": "Pending",
    "responsible_agency": "Department of Public Works",
    "final_address": "3100 Audubon st",
    "address_councildis": "B",
    "status": "Pending",
    "rowid": "979014",
    "final_x": "3668118.56673",
    "final_y": "531997.339011",
    "longitude": "-90.11030812184775",
    "latitude": "29.95720771674986",
    "geocoded_column": {
      "latitude": "29.95720771674986",
      "longitude": "-90.11030812184775"
    }
  },
  {
    "service_request": "2023-979013",
    "request_type": "Trash/Recycling",
    "request_reason": "Request a Large Item Pick Up",
    "date_created": "2023-02-28T17:56:24.000",
    "date_modified": "2023-02-28T17:56:25.000",
    "request_status": "Pending",
    "responsible_agency": "Department of Sanitation",
    "final_address": "2317 Jena St",
    "address_councildis": "B",
    "status": "Assigned to Contractor",
    "contractor": "Richards Disposal",
    "rowid": "979013",
    "final_x": "3670224.54535",
    "final_y": "523474.156091",
    "longitude": "-90.10394682726233",
    "latitude": "29.933709766065302",
    "geocoded_column": {
      "latitude": "29.933709766065302",
      "longitude": "-90.10394682726233"
    }
  },
  {
    "service_request": "2023-979012",
    "request_type": "Parks & Parkways",
    "request_reason": "Request Tree Service (Right of Way/Public Property)",
    "date_created": "2023-02-28T17:56:13.000",
    "date_modified": "2023-02-28T17:56:13.000",
    "request_status": "Pending",
    "responsible_agency": "Department of Parks & Parkway",
    "final_address": "Le Chat Noir",
    "status": "Pending",
    "rowid": "979012",
    "longitude": "0.0",
    "latitude": "0.0",
    "geocoded_column": {
      "latitude": "0.0",
      "longitude": "0.0"
    }
  },
  {
    "service_request": "2023-979011",
    "request_type": "Trash/Recycling",
    "request_reason": "MIssed Recycling Pick-Up",
    "date_created": "2023-02-28T17:52:57.000",
    "date_modified": "2023-02-28T17:52:57.000",
    "request_status": "Pending",
    "responsible_agency": "Department of Sanitation",
    "final_address": "221 S Solomon St",
    "address_councildis": "A",
    "status": "Assigned to Contractor",
    "contractor": "Richards Disposal",
    "rowid": "979011",
    "final_x": "3670188.28474",
    "final_y": "538266.980041",
    "longitude": "-90.10356009003696",
    "latitude": "29.97438623102531",
    "geocoded_column": {
      "latitude": "29.97438623102531",
      "longitude": "-90.10356009003696"
    }
  },
  {
    "service_request": "2023-979010",
    "request_type": "Roads/Drainage",
    "request_reason": "Street Flooding / Drainage",
    "date_created": "2023-02-28T17:48:28.000",
    "date_modified": "2023-02-28T17:48:28.000",
    "request_status": "Pending",
    "responsible_agency": "Department of Public Works",
    "final_address": "10038 Chef Menteur Hwy",
    "address_councildis": "E",
    "status": "Pending",
    "rowid": "979010",
    "final_x": "3713073.78296",
    "final_y": "554653.45724",
    "longitude": "-89.96750203382743",
    "latitude": "30.01810750153953",
    "geocoded_column": {
      "latitude": "30.01810750153953",
      "longitude": "-89.96750203382743"
    }
  },
  {
    "service_request": "2023-979009",
    "request_type": "Trash/Recycling",
    "request_reason": "Request a Large Item Pick Up",
    "date_created": "2023-02-28T17:48:09.000",
    "date_modified": "2023-02-28T17:48:09.000",
    "request_status": "Pending",
    "responsible_agency": "Department of Sanitation",
    "final_address": "1834 Elysian Fields Ave",
    "address_councildis": "D",
    "status": "Assigned to Contractor",
    "contractor": "IV Waste",
    "rowid": "979009",
    "final_x": "3684670.35657",
    "final_y": "539165.081354",
    "longitude": "-90.057790764599",
    "latitude": "29.97642037246964",
    "geocoded_column": {
      "latitude": "29.97642037246964",
      "longitude": "-90.057790764599"
    }
  },
  {
    "service_request": "2023-979008",
    "request_type": "Trash/Recycling",
    "request_reason": "Missed Trash Pick-Up",
    "date_created": "2023-02-28T17:45:38.000",
    "date_modified": "2023-02-28T17:45:38.000",
    "request_status": "Pending",
    "responsible_agency": "Department of Sanitation",
    "final_address": "1917 General Taylor St",
    "address_councildis": "B",
    "status": "Assigned to Contractor",
    "contractor": "Richards Disposal",
    "rowid": "979008",
    "final_x": "3672391.62331",
    "final_y": "522259.410298",
    "longitude": "-90.09714682757276",
    "latitude": "29.930305497094775",
    "geocoded_column": {
      "latitude": "29.930305497094775",
      "longitude": "-90.09714682757276"
    }
  },
  {
    "service_request": "2023-979007",
    "request_type": "Roads/Drainage",
    "request_reason": "Pothole",
    "date_created": "2023-02-28T17:43:45.000",
    "date_modified": "2023-02-28T17:43:45.000",
    "request_status": "Pending",
    "responsible_agency": "Department of Public Works",
    "final_address": "BURDETTE ST & JEANNETTE ST",
    "address_councildis": "A",
    "status": "Pending",
    "rowid": "979007",
    "final_x": "3663509.7",
    "final_y": "528398.28",
    "longitude": "-90.12498142845564",
    "latitude": "29.947445927797947",
    "geocoded_column": {
      "latitude": "29.947445927797947",
      "longitude": "-90.12498142845564"
    }
  },
  {
    "service_request": "2023-979006",
    "request_type": "Roads/Drainage",
    "request_reason": "Pothole",
    "date_created": "2023-02-28T17:41:35.000",
    "date_modified": "2023-02-28T17:41:35.000",
    "request_status": "Pending",
    "responsible_agency": "Department of Public Works",
    "final_address": "8000 BLK Willow St",
    "address_councildis": "A",
    "status": "Pending",
    "rowid": "979006",
    "final_x": "3662645.29245",
    "final_y": "528698.553939",
    "longitude": "-90.12770073391604",
    "latitude": "29.948296621542088",
    "geocoded_column": {
      "latitude": "29.948296621542088",
      "longitude": "-90.12770073391604"
    }
  },
  {
    "service_request": "2023-979005",
    "request_type": "Trash/Recycling",
    "request_reason": "Request a Large Item Pick Up",
    "date_created": "2023-02-28T17:22:58.000",
    "date_modified": "2023-02-28T17:22:58.000",
    "request_status": "Pending",
    "responsible_agency": "Department of Sanitation",
    "final_address": "7515 Lehigh St",
    "address_councildis": "E",
    "status": "Assigned to Contractor",
    "contractor": "Waste Pro",
    "rowid": "979005",
    "final_x": "3710937.94616",
    "final_y": "565109.590242",
    "longitude": "-89.97385843446231",
    "latitude": "30.046927548938815",
    "geocoded_column": {
      "latitude": "30.046927548938815",
      "longitude": "-89.97385843446231"
    }
  },
  {
    "service_request": "2023-979004",
    "request_type": "Property Maintenance",
    "request_reason": "Property Maintenance",
    "date_created": "2023-02-28T17:22:14.000",
    "date_modified": "2023-02-28T17:22:14.000",
    "request_status": "Pending",
    "responsible_agency": "Department of Code Enforcement",
    "final_address": "335 S Telemachus St",
    "address_councildis": "A",
    "status": "Pending",
    "rowid": "979004",
    "final_x": "3671645.04583",
    "final_y": "536557.758087",
    "longitude": "-90.09901743121198",
    "latitude": "29.969643376836807",
    "geocoded_column": {
      "latitude": "29.969643376836807",
      "longitude": "-90.09901743121198"
    }
  },
  {
    "service_request": "2023-979003",
    "request_type": "Traffic Signals/Signs/Striping/Streetlights",
    "request_reason": "Street Light Outage/Malfunction",
    "date_created": "2023-02-28T17:18:24.000",
    "date_modified": "2023-02-28T17:18:24.000",
    "request_status": "Pending",
    "responsible_agency": "Department of Public Works",
    "final_address": "4550 Bonita Dr",
    "address_councildis": "E",
    "status": "Assigned to Contractor",
    "contractor": "Legacy Professional Services",
    "rowid": "979003",
    "final_x": "3704548.97233",
    "final_y": "554034.245912",
    "longitude": "-89.99445986281965",
    "latitude": "30.01668155679216",
    "geocoded_column": {
      "latitude": "30.01668155679216",
      "longitude": "-89.99445986281965"
    }
  },
  {
    "service_request": "2023-979002",
    "request_type": "Traffic Signals/Signs/Striping/Streetlights",
    "request_reason": "Street Light Outage/Malfunction",
    "date_created": "2023-02-28T17:17:10.000",
    "date_modified": "2023-02-28T17:17:10.000",
    "request_status": "Pending",
    "responsible_agency": "Department of Public Works",
    "final_address": "TULSA ST & BONITA DR",
    "address_councildis": "E",
    "status": "Assigned to Contractor",
    "contractor": "Legacy Professional Services",
    "rowid": "979002",
    "final_x": "3704643.6",
    "final_y": "553654.08",
    "longitude": "-89.994174919894",
    "latitude": "30.015633205872444",
    "geocoded_column": {
      "latitude": "30.015633205872444",
      "longitude": "-89.994174919894"
    }
  },
  {
    "service_request": "2023-979001",
    "request_type": "Trash/Recycling",
    "request_reason": "Missed Trash Pick-Up",
    "date_created": "2023-02-28T17:16:09.000",
    "date_modified": "2023-02-28T17:16:09.000",
    "request_status": "Pending",
    "responsible_agency": "Department of Sanitation",
    "final_address": "7420 Kenyon Rd",
    "address_councildis": "E",
    "status": "Assigned to Contractor",
    "contractor": "Waste Pro",
    "rowid": "979001",
    "final_x": "3704418.40164",
    "final_y": "561738.092831",
    "longitude": "-89.99458802101672",
    "latitude": "30.037868337035192",
    "geocoded_column": {
      "latitude": "30.037868337035192",
      "longitude": "-89.99458802101672"
    }
  },
  {
    "service_request": "2023-979000",
    "request_type": "Trash/Recycling",
    "request_reason": "MIssed Recycling Pick-Up",
    "date_created": "2023-02-28T17:08:15.000",
    "date_modified": "2023-02-28T17:08:16.000",
    "request_status": "Pending",
    "responsible_agency": "Department of Sanitation",
    "final_address": "820 N Prieur St",
    "address_councildis": "D",
    "status": "Assigned to Contractor",
    "contractor": "Richards Disposal",
    "rowid": "979000",
    "final_x": "3679266.60744",
    "final_y": "535661.640966",
    "longitude": "-90.0749789511362",
    "latitude": "29.966951411768832",
    "geocoded_column": {
      "latitude": "29.966951411768832",
      "longitude": "-90.0749789511362"
    }
  },
  {
    "service_request": "2023-978998",
    "request_type": "Trash/Recycling",
    "request_reason": "MIssed Recycling Pick-Up",
    "date_created": "2023-02-28T17:06:11.000",
    "date_modified": "2023-02-28T17:06:12.000",
    "request_status": "Pending",
    "responsible_agency": "Department of Sanitation",
    "final_address": "10901 Morrison Rd",
    "address_councildis": "E",
    "status": "Assigned to Contractor",
    "contractor": "Waste Pro",
    "rowid": "978998",
    "final_x": "3710752.20824",
    "final_y": "564858.67101",
    "longitude": "-89.97445486473423",
    "latitude": "30.046243680097923",
    "geocoded_column": {
      "latitude": "30.046243680097923",
      "longitude": "-89.97445486473423"
    }
  },
  {
    "service_request": "2023-978997",
    "request_type": "Abandoned Vehicles",
    "request_reason": "Abandoned/Junk Vehicles",
    "date_created": "2023-02-28T17:02:02.000",
    "date_modified": "2023-02-28T17:04:23.000",
    "request_status": "Pending",
    "responsible_agency": "Department of Public Works",
    "final_address": "4508 Croyden Ave",
    "address_councildis": "C",
    "status": "Pending",
    "rowid": "978997",
    "final_x": "3702155.41732",
    "final_y": "524319.463228",
    "longitude": "-90.0031123650012",
    "latitude": "29.93505343580847",
    "geocoded_column": {
      "latitude": "29.93505343580847",
      "longitude": "-90.0031123650012"
    }
  },
  {
    "service_request": "2023-978996",
    "request_type": "Trash/Recycling",
    "request_reason": "Request a Large Item Pick Up",
    "date_created": "2023-02-28T17:00:08.000",
    "date_modified": "2023-02-28T17:00:09.000",
    "request_status": "Pending",
    "responsible_agency": "Department of Sanitation",
    "final_address": "5534 Charlotte Dr",
    "address_councildis": "D",
    "status": "Assigned to Contractor",
    "contractor": "IV Waste",
    "rowid": "978996",
    "final_x": "3679945.41909",
    "final_y": "552888.518999",
    "longitude": "-90.07223651601741",
    "latitude": "30.01429875003412",
    "geocoded_column": {
      "latitude": "30.01429875003412",
      "longitude": "-90.07223651601741"
    }
  },
  {
    "service_request": "2023-978995",
    "request_type": "Trash/Recycling",
    "request_reason": "Request a Large Item Pick Up",
    "date_created": "2023-02-28T16:54:17.000",
    "date_modified": "2023-02-28T16:54:17.000",
    "request_status": "Pending",
    "responsible_agency": "Department of Sanitation",
    "final_address": "6218 Catina St",
    "address_councildis": "A",
    "status": "Assigned to Contractor",
    "contractor": "IV Waste",
    "rowid": "978995",
    "final_x": "3666820.73325",
    "final_y": "549161.607571",
    "longitude": "-90.11382945844709",
    "latitude": "30.004441695663893",
    "geocoded_column": {
      "latitude": "30.004441695663893",
      "longitude": "-90.11382945844709"
    }
  },
  {
    "service_request": "2023-978994",
    "request_type": "Trash/Recycling",
    "request_reason": "Repair Trash Cart",
    "date_created": "2023-02-28T16:53:40.000",
    "date_modified": "2023-02-28T16:53:41.000",
    "request_status": "Pending",
    "responsible_agency": "Department of Sanitation",
    "final_address": "1917 Odeon St",
    "address_councildis": "C",
    "status": "Assigned to Contractor",
    "contractor": "Richards Disposal",
    "rowid": "978994",
    "final_x": "3695848.5279",
    "final_y": "524187.151292",
    "longitude": "-90.02302784653325",
    "latitude": "29.934889440310826",
    "geocoded_column": {
      "latitude": "29.934889440310826",
      "longitude": "-90.02302784653325"
    }
  },
  {
    "service_request": "2023-978993",
    "request_type": "Trash/Recycling",
    "request_reason": "Missed Trash Pick-Up",
    "date_created": "2023-02-28T16:50:22.000",
    "date_modified": "2023-02-28T16:50:23.000",
    "request_status": "Pending",
    "responsible_agency": "Department of Sanitation",
    "final_address": "114 Winthrop Pl",
    "address_councildis": "D",
    "status": "Assigned to Contractor",
    "contractor": "IV Waste",
    "rowid": "978993",
    "final_x": "3677725.90094",
    "final_y": "544044.765774",
    "longitude": "-90.07955483028987",
    "latitude": "29.99004854688652",
    "geocoded_column": {
      "latitude": "29.99004854688652",
      "longitude": "-90.07955483028987"
    }
  },
  {
    "service_request": "2023-978992",
    "request_type": "Roads/Drainage",
    "request_reason": "Catch Basin - Clogged",
    "date_created": "2023-02-28T16:44:04.000",
    "date_modified": "2023-02-28T16:44:05.000",
    "request_status": "Pending",
    "responsible_agency": "Department of Public Works",
    "final_address": "1711 Holiday Dr",
    "address_councildis": "C",
    "status": "Pending",
    "rowid": "978992",
    "final_x": "3698851.47588",
    "final_y": "524523.506428",
    "longitude": "-90.01353540266118",
    "latitude": "29.93571953624502",
    "geocoded_column": {
      "latitude": "29.93571953624502",
      "longitude": "-90.01353540266118"
    }
  },
  {
    "service_request": "2023-978991",
    "request_type": "Traffic Signals/Signs/Striping/Streetlights",
    "request_reason": "Traffic Sign Missing/Damaged",
    "date_created": "2023-02-28T16:43:13.000",
    "date_modified": "2023-02-28T16:43:13.000",
    "request_status": "Pending",
    "responsible_agency": "Department of Public Works",
    "final_address": "1305 Soniat St",
    "address_councildis": "B",
    "status": "Pending",
    "rowid": "978991",
    "final_x": "3668436.1513",
    "final_y": "519958.490488",
    "longitude": "-90.10971123935538",
    "latitude": "29.924095444548882",
    "geocoded_column": {
      "latitude": "29.924095444548882",
      "longitude": "-90.10971123935538"
    }
  },
  {
    "service_request": "2023-978990",
    "request_type": "Trash/Recycling",
    "request_reason": "Illegal Dumping",
    "date_created": "2023-02-28T16:42:50.000",
    "date_modified": "2023-02-28T16:42:50.000",
    "request_status": "Pending",
    "responsible_agency": "Department of Code Enforcement",
    "final_address": "3413 First St",
    "address_councildis": "B",
    "status": "Pending",
    "rowid": "978990",
    "final_x": "3673383.37435",
    "final_y": "528664.266688",
    "longitude": "-90.09379729517934",
    "latitude": "29.947887305615286",
    "geocoded_column": {
      "latitude": "29.947887305615286",
      "longitude": "-90.09379729517934"
    }
  },
  {
    "service_request": "2023-978989",
    "request_type": "Trash/Recycling",
    "request_reason": "Request a Large Item Pick Up",
    "date_created": "2023-02-28T16:40:55.000",
    "date_modified": "2023-02-28T16:40:56.000",
    "request_status": "Pending",
    "responsible_agency": "Department of Sanitation",
    "final_address": "7800 Newcastle St",
    "address_councildis": "E",
    "status": "Assigned to Contractor",
    "contractor": "Waste Pro",
    "rowid": "978989",
    "final_x": "3696978.28573",
    "final_y": "559790.159581",
    "longitude": "-90.01817116261057",
    "latitude": "30.032749188624734",
    "geocoded_column": {
      "latitude": "30.032749188624734",
      "longitude": "-90.01817116261057"
    }
  },
  {
    "service_request": "2023-978988",
    "request_type": "Trash/Recycling",
    "request_reason": "Dead Animal Pick Up",
    "date_created": "2023-02-28T16:38:35.000",
    "date_modified": "2023-02-28T16:38:36.000",
    "request_status": "Pending",
    "responsible_agency": "Department of Sanitation",
    "final_address": "DELERY ST & MARAIS ST",
    "address_councildis": "E",
    "status": "Assigned to Contractor",
    "contractor": "Waste Pro",
    "rowid": "978988",
    "final_x": "3700544.6",
    "final_y": "533214.68",
    "longitude": "-90.00787282873641",
    "latitude": "29.959563468960827",
    "geocoded_column": {
      "latitude": "29.959563468960827",
      "longitude": "-90.00787282873641"
    }
  },
  {
    "service_request": "2023-978987",
    "request_type": "Trash/Recycling",
    "request_reason": "Request a Large Item Pick Up",
    "date_created": "2023-02-28T16:31:07.000",
    "date_modified": "2023-02-28T16:31:08.000",
    "request_status": "Pending",
    "responsible_agency": "Department of Sanitation",
    "final_address": "4729 Corinne St",
    "address_councildis": "E",
    "status": "Assigned to Contractor",
    "contractor": "Waste Pro",
    "rowid": "978987",
    "final_x": "3715115.48043",
    "final_y": "556819.672538",
    "longitude": "-89.96096913964354",
    "latitude": "30.023996661919245",
    "geocoded_column": {
      "latitude": "30.023996661919245",
      "longitude": "-89.96096913964354"
    }
  },
  {
    "service_request": "2023-978986",
    "request_type": "Trash/Recycling",
    "request_reason": "Missed Trash Pick-Up",
    "date_created": "2023-02-28T16:28:29.000",
    "date_modified": "2023-02-28T16:28:29.000",
    "request_status": "Pending",
    "responsible_agency": "Department of Sanitation",
    "final_address": "3677 Oliver St",
    "address_councildis": "C",
    "status": "Assigned to Contractor",
    "contractor": "Richards Disposal",
    "rowid": "978986",
    "final_x": "3714234.45074",
    "final_y": "517904.74591",
    "longitude": "-89.96522115339486",
    "latitude": "29.91702414697708",
    "geocoded_column": {
      "latitude": "29.91702414697708",
      "longitude": "-89.96522115339486"
    }
  },
  {
    "service_request": "2023-978985",
    "request_type": "Trash/Recycling",
    "request_reason": "Illegal Dumping",
    "date_created": "2023-02-28T16:27:00.000",
    "date_modified": "2023-02-28T16:27:00.000",
    "request_status": "Pending",
    "responsible_agency": "Department of Sanitation",
    "final_address": "2200 Esplanade Ave",
    "address_councildis": "D",
    "status": "Pending",
    "rowid": "978985",
    "final_x": "3679498.05947",
    "final_y": "537843.426505",
    "longitude": "-90.0741723101898",
    "latitude": "29.972943582483644",
    "geocoded_column": {
      "latitude": "29.972943582483644",
      "longitude": "-90.0741723101898"
    }
  },
  {
    "service_request": "2023-978984",
    "request_type": "Traffic Signals/Signs/Striping/Streetlights",
    "request_reason": "Traffic Signal Malfunctioning/Damaged",
    "date_created": "2023-02-28T16:25:31.000",
    "date_modified": "2023-02-28T16:25:32.000",
    "request_status": "Pending",
    "responsible_agency": "Department of Public Works",
    "final_address": "CALLIOPE ST & ANNUNCIATION ST & GAIENNIE ST",
    "address_councildis": "B",
    "status": "Pending",
    "rowid": "978984",
    "final_x": "3681532.2",
    "final_y": "525857.38",
    "longitude": "-90.06816607131924",
    "latitude": "29.93992440362708",
    "geocoded_column": {
      "latitude": "29.93992440362708",
      "longitude": "-90.06816607131924"
    }
  },
  {
    "service_request": "2023-978983",
    "request_type": "Trash/Recycling",
    "request_reason": "Repair Trash Cart",
    "date_created": "2023-02-28T16:23:48.000",
    "date_modified": "2023-02-28T16:23:49.000",
    "request_status": "Pending",
    "responsible_agency": "Department of Sanitation",
    "final_address": "1718 Cadiz St",
    "address_councildis": "B",
    "status": "Assigned to Contractor",
    "contractor": "Richards Disposal",
    "rowid": "978983",
    "final_x": "3669961.08212",
    "final_y": "521337.086073",
    "longitude": "-90.10485090221152",
    "latitude": "29.927841278092455",
    "geocoded_column": {
      "latitude": "29.927841278092455",
      "longitude": "-90.10485090221152"
    }
  },
  {
    "service_request": "2023-978982",
    "request_type": "Traffic Signals/Signs/Striping/Streetlights",
    "request_reason": "Street Light Outage/Malfunction",
    "date_created": "2023-02-28T16:23:04.000",
    "date_modified": "2023-02-28T16:23:05.000",
    "request_status": "Pending",
    "responsible_agency": "Department of Public Works",
    "final_address": "7919 Jeannette St",
    "address_councildis": "A",
    "status": "Assigned to Contractor",
    "contractor": "Legacy Professional Services",
    "rowid": "978982",
    "final_x": "3663158.81843",
    "final_y": "528766.001216",
    "longitude": "-90.12607706930883",
    "latitude": "29.948467212795027",
    "geocoded_column": {
      "latitude": "29.948467212795027",
      "longitude": "-90.12607706930883"
    }
  },
  {
    "service_request": "2023-978981",
    "request_type": "Abandoned Vehicles",
    "request_reason": "Abandoned/Junk Vehicles",
    "date_created": "2023-02-28T16:17:27.000",
    "date_modified": "2023-02-28T16:17:27.000",
    "request_status": "Pending",
    "responsible_agency": "Department of Public Works",
    "final_address": "2104 Benefit St",
    "address_councildis": "D",
    "status": "Pending",
    "rowid": "978981",
    "final_x": "3683644.60079",
    "final_y": "544316.841551",
    "longitude": "-90.06084971555408",
    "latitude": "29.9906172572289",
    "geocoded_column": {
      "latitude": "29.9906172572289",
      "longitude": "-90.06084971555408"
    }
  },
  {
    "service_request": "2023-978980",
    "request_type": "Traffic Signals/Signs/Striping/Streetlights",
    "request_reason": "Traffic Signal Malfunctioning/Damaged",
    "date_created": "2023-02-28T16:16:44.000",
    "date_modified": "2023-02-28T16:18:30.000",
    "request_status": "Pending",
    "responsible_agency": "Department of Public Works",
    "final_address": "N BROAD ST & ORLEANS AVE",
    "address_councildis": "D",
    "status": "Pending",
    "rowid": "978980",
    "final_x": "3676798.0",
    "final_y": "537021.58",
    "longitude": "-90.08272795144497",
    "latitude": "29.970765093782056",
    "geocoded_column": {
      "latitude": "29.970765093782056",
      "longitude": "-90.08272795144497"
    }
  },
  {
    "service_request": "2023-978979",
    "request_type": "Trash/Recycling",
    "request_reason": "Repair Trash Cart",
    "date_created": "2023-02-28T16:15:18.000",
    "date_modified": "2023-02-28T16:15:19.000",
    "request_status": "Pending",
    "responsible_agency": "Department of Sanitation",
    "final_address": "10218 Springwood St",
    "address_councildis": "E",
    "status": "Assigned to Contractor",
    "contractor": "Waste Pro",
    "rowid": "978979",
    "final_x": "3713405.87179",
    "final_y": "555626.508953",
    "longitude": "-89.9664160934333",
    "latitude": "30.02077212274711",
    "geocoded_column": {
      "latitude": "30.02077212274711",
      "longitude": "-89.9664160934333"
    }
  },
  {
    "service_request": "2023-978978",
    "request_type": "Trash/Recycling",
    "request_reason": "Request a Large Item Pick Up",
    "date_created": "2023-02-28T16:13:36.000",
    "date_modified": "2023-02-28T16:13:38.000",
    "request_status": "Pending",
    "responsible_agency": "Department of Sanitation",
    "final_address": "8520 Bill St",
    "address_councildis": "E",
    "status": "Assigned to Contractor",
    "contractor": "Waste Pro",
    "rowid": "978978",
    "final_x": "3703539.41911",
    "final_y": "563044.233632",
    "longitude": "-89.99731767508419",
    "latitude": "30.041487918765867",
    "geocoded_column": {
      "latitude": "30.041487918765867",
      "longitude": "-89.99731767508419"
    }
  },
  {
    "service_request": "2023-978977",
    "request_type": "Trash/Recycling",
    "request_reason": "MIssed Recycling Pick-Up",
    "date_created": "2023-02-28T16:12:25.000",
    "date_modified": "2023-02-28T16:12:26.000",
    "request_status": "Pending",
    "responsible_agency": "Department of Sanitation",
    "final_address": "11 Grand Ave",
    "address_councildis": "E",
    "status": "Assigned to Contractor",
    "contractor": "Waste Pro",
    "rowid": "978977",
    "final_x": "3717841.10201",
    "final_y": "551027.952277",
    "longitude": "-89.95257732776805",
    "latitude": "30.0079816806259",
    "geocoded_column": {
      "latitude": "30.0079816806259",
      "longitude": "-89.95257732776805"
    }
  },
  {
    "service_request": "2023-978976",
    "request_type": "Roads/Drainage",
    "request_reason": "Catch Basin - Clogged",
    "date_created": "2023-02-28T16:09:31.000",
    "date_modified": "2023-02-28T16:09:31.000",
    "request_status": "Pending",
    "responsible_agency": "Department of Public Works",
    "final_address": "920 St Louis St Unit 5",
    "address_councildis": "C",
    "status": "Pending",
    "rowid": "978976",
    "final_x": "3681348.64309",
    "final_y": "532346.447299",
    "longitude": "-90.06851944603731",
    "latitude": "29.957772727070946",
    "geocoded_column": {
      "latitude": "29.957772727070946",
      "longitude": "-90.06851944603731"
    }
  },
  {
    "service_request": "2023-978975",
    "request_type": "Trash/Recycling",
    "request_reason": "Repair Trash Cart",
    "date_created": "2023-02-28T16:09:13.000",
    "date_modified": "2023-02-28T16:09:13.000",
    "request_status": "Pending",
    "responsible_agency": "Department of Sanitation",
    "final_address": "1418 Third St",
    "address_councildis": "B",
    "status": "Assigned to Contractor",
    "contractor": "Richards Disposal",
    "rowid": "978975",
    "final_x": "3676798.73416",
    "final_y": "522218.720186",
    "longitude": "-90.08323566154529",
    "latitude": "29.93006214093838",
    "geocoded_column": {
      "latitude": "29.93006214093838",
      "longitude": "-90.08323566154529"
    }
  },
  {
    "service_request": "2023-978974",
    "request_type": "Trash/Recycling",
    "request_reason": "Replace Recycling Cart",
    "date_created": "2023-02-28T16:08:12.000",
    "date_modified": "2023-02-28T16:08:12.000",
    "request_status": "Pending",
    "responsible_agency": "Department of Sanitation",
    "final_address": "2623 Joliet St",
    "address_councildis": "A",
    "status": "Pending",
    "rowid": "978974",
    "final_x": "3664462.4313",
    "final_y": "533185.791876",
    "longitude": "-90.12181345070285",
    "latitude": "29.960582371079607",
    "geocoded_column": {
      "latitude": "29.960582371079607",
      "longitude": "-90.12181345070285"
    }
  },
  {
    "service_request": "2023-978973",
    "request_type": "Traffic Signals/Signs/Striping/Streetlights",
    "request_reason": "Traffic Sign Missing/Damaged",
    "date_created": "2023-02-28T16:07:38.000",
    "date_modified": "2023-02-28T16:07:39.000",
    "request_status": "Pending",
    "responsible_agency": "Department of Public Works",
    "final_address": "CARTIER AVE & MANDOLIN ST & JUMONVILLE ST",
    "address_councildis": "D",
    "status": "Pending",
    "rowid": "978973",
    "final_x": "3677969.4",
    "final_y": "547972.48",
    "longitude": "-90.07864983031476",
    "latitude": "30.0008410496525",
    "geocoded_column": {
      "latitude": "30.0008410496525",
      "longitude": "-90.07864983031476"
    }
  },
  {
    "service_request": "2023-978972",
    "request_type": "Abandoned Vehicles",
    "request_reason": "Abandoned/Junk Vehicles",
    "date_created": "2023-02-28T16:02:07.000",
    "date_modified": "2023-02-28T16:04:01.000",
    "request_status": "Pending",
    "responsible_agency": "Department of Public Works",
    "final_address": "2025 Octavia St",
    "address_councildis": "A",
    "status": "Pending",
    "rowid": "978972",
    "final_x": "3667455.41972",
    "final_y": "523239.211515",
    "longitude": "-90.11269675229401",
    "latitude": "29.933145146657502",
    "geocoded_column": {
      "latitude": "29.933145146657502",
      "longitude": "-90.11269675229401"
    }
  },
  {
    "service_request": "2023-978971",
    "request_type": "Trash/Recycling",
    "request_reason": "Request a Large Item Pick Up",
    "date_created": "2023-02-28T16:01:38.000",
    "date_modified": "2023-02-28T16:01:38.000",
    "request_status": "Pending",
    "responsible_agency": "Department of Sanitation",
    "final_address": "11235 Fernley Dr",
    "address_councildis": "E",
    "status": "Assigned to Contractor",
    "contractor": "Waste Pro",
    "rowid": "978971",
    "final_x": "3717363.37208",
    "final_y": "559934.145117",
    "longitude": "-89.95374783157818",
    "latitude": "30.032485994731484",
    "geocoded_column": {
      "latitude": "30.032485994731484",
      "longitude": "-89.95374783157818"
    }
  },
  {
    "service_request": "2023-978969",
    "request_type": "Trash/Recycling",
    "request_reason": "Order Trash Cart",
    "date_created": "2023-02-28T15:56:58.000",
    "date_modified": "2023-02-28T15:57:00.000",
    "request_status": "Pending",
    "responsible_agency": "Department of Sanitation",
    "final_address": "6228 Arts St",
    "address_councildis": "D",
    "status": "Assigned to Contractor",
    "contractor": "IV Waste",
    "rowid": "978969",
    "final_x": "3685573.5407",
    "final_y": "556188.423258",
    "longitude": "-90.05433811521856",
    "latitude": "30.023200751198743",
    "geocoded_column": {
      "latitude": "30.023200751198743",
      "longitude": "-90.05433811521856"
    }
  },
  {
    "service_request": "2023-978968",
    "request_type": "Roads/Drainage",
    "request_reason": "Pothole",
    "date_created": "2023-02-28T15:56:04.000",
    "date_modified": "2023-02-28T15:56:04.000",
    "request_status": "Pending",
    "responsible_agency": "Department of Public Works",
    "final_address": "5917 Painters St",
    "address_councildis": "D",
    "status": "Pending",
    "rowid": "978968",
    "final_x": "3686160.9878",
    "final_y": "554940.143448",
    "longitude": "-90.0525260022647",
    "latitude": "30.019750400964888",
    "geocoded_column": {
      "latitude": "30.019750400964888",
      "longitude": "-90.0525260022647"
    }
  },
  {
    "service_request": "2023-978967",
    "request_type": "Trash/Recycling",
    "request_reason": "Missed Trash Pick-Up",
    "date_created": "2023-02-28T15:55:14.000",
    "date_modified": "2023-02-28T15:55:15.000",
    "request_status": "Pending",
    "responsible_agency": "Department of Sanitation",
    "final_address": "7400 BLK Benson St",
    "address_councildis": "E",
    "status": "Assigned to Contractor",
    "contractor": "Waste Pro",
    "rowid": "978967",
    "final_x": "3704675.89671",
    "final_y": "561984.851868",
    "longitude": "-89.99376516248917",
    "latitude": "30.03853855264118",
    "geocoded_column": {
      "latitude": "30.03853855264118",
      "longitude": "-89.99376516248917"
    }
  },
  {
    "service_request": "2023-978966",
    "request_type": "Traffic Signals/Signs/Striping/Streetlights",
    "request_reason": "Street Light Outage/Malfunction",
    "date_created": "2023-02-28T15:47:05.000",
    "date_modified": "2023-02-28T15:47:06.000",
    "request_status": "Pending",
    "responsible_agency": "Department of Public Works",
    "final_address": "FOCH RD & DOROTHEA ST",
    "address_councildis": "D",
    "status": "Assigned to Contractor",
    "contractor": "Legacy Professional Services",
    "rowid": "978966",
    "final_x": "3696293.9",
    "final_y": "557464.68",
    "longitude": "-90.02041807125228",
    "latitude": "30.026376590105215",
    "geocoded_column": {
      "latitude": "30.026376590105215",
      "longitude": "-90.02041807125228"
    }
  },
  {
    "service_request": "2023-978965",
    "request_type": "Traffic Signals/Signs/Striping/Streetlights",
    "request_reason": "Traffic Signal Malfunctioning/Damaged",
    "date_created": "2023-02-28T15:43:58.000",
    "date_modified": "2023-02-28T15:43:59.000",
    "request_status": "Pending",
    "responsible_agency": "Department of Public Works",
    "final_address": "PERRIER ST & SONIAT ST",
    "address_councildis": "B",
    "status": "Pending",
    "rowid": "978965",
    "final_x": "3668384.2",
    "final_y": "519895.28",
    "longitude": "-90.10987736227452",
    "latitude": "29.923923161081493",
    "geocoded_column": {
      "latitude": "29.923923161081493",
      "longitude": "-90.10987736227452"
    }
  },
  {
    "service_request": "2023-978964",
    "request_type": "Trash/Recycling",
    "request_reason": "Return Trash Cart",
    "date_created": "2023-02-28T15:39:12.000",
    "date_modified": "2023-02-28T15:39:13.000",
    "request_status": "Pending",
    "responsible_agency": "Department of Sanitation",
    "final_address": "5820 Wright Rd",
    "address_councildis": "E",
    "status": "Assigned to Contractor",
    "contractor": "Waste Pro",
    "rowid": "978964",
    "final_x": "3714037.02047",
    "final_y": "561271.026846",
    "longitude": "-89.96420876710835",
    "latitude": "30.036271584558637",
    "geocoded_column": {
      "latitude": "30.036271584558637",
      "longitude": "-89.96420876710835"
    }
  },
  {
    "service_request": "2023-978963",
    "request_type": "Abandoned Vehicles",
    "request_reason": "Abandoned/Junk Vehicles",
    "date_created": "2023-02-28T15:33:17.000",
    "date_modified": "2023-02-28T15:33:17.000",
    "request_status": "Pending",
    "responsible_agency": "Department of Public Works",
    "final_address": "5143 Forest Park Ln",
    "address_councildis": "C",
    "status": "Pending",
    "rowid": "978963",
    "final_x": "3703223.1937",
    "final_y": "510772.036655",
    "longitude": "-90.0002390109056",
    "latitude": "29.89776853761777",
    "geocoded_column": {
      "latitude": "29.89776853761777",
      "longitude": "-90.0002390109056"
    }
  },
  {
    "service_request": "2023-978962",
    "request_type": "Abandoned Vehicles",
    "request_reason": "Abandoned/Junk Vehicles",
    "date_created": "2023-02-28T15:31:53.000",
    "date_modified": "2023-02-28T15:31:53.000",
    "request_status": "Pending",
    "responsible_agency": "Department of Public Works",
    "final_address": "5143 Forest Park Ln",
    "address_councildis": "C",
    "status": "Pending",
    "rowid": "978962",
    "final_x": "3703223.1937",
    "final_y": "510772.036655",
    "longitude": "-90.0002390109056",
    "latitude": "29.89776853761777",
    "geocoded_column": {
      "latitude": "29.89776853761777",
      "longitude": "-90.0002390109056"
    }
  },
  {
    "service_request": "2023-978961",
    "request_type": "Abandoned Vehicles",
    "request_reason": "Abandoned/Junk Vehicles",
    "date_created": "2023-02-28T15:30:30.000",
    "date_modified": "2023-02-28T15:30:30.000",
    "request_status": "Pending",
    "responsible_agency": "Department of Public Works",
    "final_address": "6039 Pitt St",
    "address_councildis": "A",
    "status": "Pending",
    "rowid": "978961",
    "final_x": "3665013.93076",
    "final_y": "521354.949753",
    "longitude": "-90.12046736608438",
    "latitude": "29.928035312217723",
    "geocoded_column": {
      "latitude": "29.928035312217723",
      "longitude": "-90.12046736608438"
    }
  },
  {
    "service_request": "2023-978960",
    "request_type": "Trash/Recycling",
    "request_reason": "Repair Trash Cart",
    "date_created": "2023-02-28T15:28:29.000",
    "date_modified": "2023-02-28T15:28:30.000",
    "request_status": "Pending",
    "responsible_agency": "Department of Sanitation",
    "final_address": "9003 Nelson St",
    "address_councildis": "A",
    "status": "Assigned to Contractor",
    "contractor": "Richards Disposal",
    "rowid": "978960",
    "final_x": "3662760.40717",
    "final_y": "534047.651205",
    "longitude": "-90.12715948126662",
    "latitude": "29.963001575862812",
    "geocoded_column": {
      "latitude": "29.963001575862812",
      "longitude": "-90.12715948126662"
    }
  },
  {
    "service_request": "2023-978959",
    "request_type": "Trash/Recycling",
    "request_reason": "Replace Trash Cart",
    "date_created": "2023-02-28T15:23:01.000",
    "date_modified": "2023-02-28T15:23:02.000",
    "request_status": "Pending",
    "responsible_agency": "Department of Sanitation",
    "final_address": "6119 Annunciation St",
    "address_councildis": "A",
    "status": "Assigned to Contractor",
    "contractor": "Richards Disposal",
    "rowid": "978959",
    "final_x": "3663471.42746",
    "final_y": "518206.94111",
    "longitude": "-90.12544147606796",
    "latitude": "29.91942407725432",
    "geocoded_column": {
      "latitude": "29.91942407725432",
      "longitude": "-90.12544147606796"
    }
  },
  {
    "service_request": "2023-978958",
    "request_type": "Trash/Recycling",
    "request_reason": "Missed Trash Pick-Up",
    "date_created": "2023-02-28T15:19:36.000",
    "date_modified": "2023-02-28T15:19:37.000",
    "request_status": "Pending",
    "responsible_agency": "Department of Sanitation",
    "final_address": "7470 Camberley Dr",
    "address_councildis": "E",
    "status": "Assigned to Contractor",
    "contractor": "Waste Pro",
    "rowid": "978958",
    "final_x": "3712515.44376",
    "final_y": "565746.891811",
    "longitude": "-89.96884876413546",
    "latitude": "30.048628313647228",
    "geocoded_column": {
      "latitude": "30.048628313647228",
      "longitude": "-89.96884876413546"
    }
  },
  {
    "service_request": "2023-978957",
    "request_type": "Roads/Drainage",
    "request_reason": "Leaking Hydrant",
    "date_created": "2023-02-28T15:19:14.000",
    "date_modified": "2023-02-28T15:19:14.000",
    "request_status": "Pending",
    "responsible_agency": "Department of Public Works",
    "final_address": "1605 Robert C. Blakes, Sr. Dr",
    "address_councildis": "B",
    "status": "Pending",
    "rowid": "978957",
    "final_x": "3678584.94248",
    "final_y": "525495.191997",
    "longitude": "-90.07748353180183",
    "latitude": "29.939017656545925",
    "geocoded_column": {
      "latitude": "29.939017656545925",
      "longitude": "-90.07748353180183"
    }
  },
  {
    "service_request": "2023-978956",
    "request_type": "Trash/Recycling",
    "request_reason": "Request a Large Item Pick Up",
    "date_created": "2023-02-28T15:16:15.000",
    "date_modified": "2023-02-28T15:16:16.000",
    "request_status": "Pending",
    "responsible_agency": "Department of Sanitation",
    "final_address": "5979 Argonne Blvd",
    "address_councildis": "A",
    "status": "Assigned to Contractor",
    "contractor": "IV Waste",
    "rowid": "978956",
    "final_x": "3670205.19316",
    "final_y": "547067.167761",
    "longitude": "-90.1032083142158",
    "latitude": "29.99858323808711",
    "geocoded_column": {
      "latitude": "29.99858323808711",
      "longitude": "-90.1032083142158"
    }
  },
  {
    "service_request": "2023-978955",
    "request_type": "Trash/Recycling",
    "request_reason": "Repair Trash Cart",
    "date_created": "2023-02-28T15:15:58.000",
    "date_modified": "2023-02-28T15:20:35.000",
    "request_status": "Pending",
    "responsible_agency": "Department of Sanitation",
    "final_address": "2433 Peniston St",
    "address_councildis": "B",
    "status": "Assigned to Contractor",
    "contractor": "Richards Disposal",
    "rowid": "978955",
    "final_x": "3672232.45185",
    "final_y": "524158.460796",
    "longitude": "-90.09758465387955",
    "latitude": "29.935531993428288",
    "geocoded_column": {
      "latitude": "29.935531993428288",
      "longitude": "-90.09758465387955"
    }
  },
  {
    "service_request": "2023-978954",
    "request_type": "Trash/Recycling",
    "request_reason": "Request a Large Item Pick Up",
    "date_created": "2023-02-28T15:14:55.000",
    "date_modified": "2023-02-28T15:14:56.000",
    "request_status": "Pending",
    "responsible_agency": "Department of Sanitation",
    "final_address": "7607 Jonlee Dr",
    "address_councildis": "E",
    "status": "Assigned to Contractor",
    "contractor": "Waste Pro",
    "rowid": "978954",
    "final_x": "3717266.53708",
    "final_y": "570425.824807",
    "longitude": "-89.95365463000992",
    "latitude": "30.06133702833923",
    "geocoded_column": {
      "latitude": "30.06133702833923",
      "longitude": "-89.95365463000992"
    }
  },
  {
    "service_request": "2023-978953",
    "request_type": "Tax and Revenue",
    "request_reason": "Occupational License Tax",
    "date_created": "2023-02-28T15:11:16.000",
    "date_modified": "2023-02-28T15:11:16.000",
    "request_status": "Pending",
    "responsible_agency": "Bureau of Revenue",
    "final_address": "6044 Milne Blvd",
    "address_councildis": "A",
    "status": "Pending",
    "rowid": "978953",
    "final_x": "3667002.17914",
    "final_y": "547921.97205",
    "longitude": "-90.11329793274484",
    "latitude": "30.001027816036093",
    "geocoded_column": {
      "latitude": "30.001027816036093",
      "longitude": "-90.11329793274484"
    }
  },
  {
    "service_request": "2023-978952",
    "request_type": "Abandoned Vehicles",
    "request_reason": "Abandoned/Junk Vehicles",
    "date_created": "2023-02-28T15:11:04.000",
    "date_modified": "2023-02-28T15:11:04.000",
    "request_status": "Pending",
    "responsible_agency": "Department of Public Works",
    "final_address": "850 N Carrollton Ave",
    "address_councildis": "A",
    "status": "Pending",
    "rowid": "978952",
    "final_x": "3673086.18651",
    "final_y": "540315.753163",
    "longitude": "-90.09433784495378",
    "latitude": "29.97993382197307",
    "geocoded_column": {
      "latitude": "29.97993382197307",
      "longitude": "-90.09433784495378"
    }
  },
  {
    "service_request": "2023-978951",
    "request_type": "Trash/Recycling",
    "request_reason": "Replace Trash Cart",
    "date_created": "2023-02-28T15:07:32.000",
    "date_modified": "2023-02-28T15:07:33.000",
    "request_status": "Pending",
    "responsible_agency": "Department of Sanitation",
    "final_address": "1529 Rev. John Raphael, Jr. Way",
    "address_councildis": "B",
    "status": "Assigned to Contractor",
    "contractor": "Richards Disposal",
    "rowid": "978951",
    "final_x": "3676474.68129",
    "final_y": "526920.438974",
    "longitude": "-90.0840968250467",
    "latitude": "29.94300004355622",
    "geocoded_column": {
      "latitude": "29.94300004355622",
      "longitude": "-90.0840968250467"
    }
  },
  {
    "service_request": "2023-978950",
    "request_type": "Trash/Recycling",
    "request_reason": "Missed Trash Pick-Up",
    "date_created": "2023-02-28T14:59:12.000",
    "date_modified": "2023-02-28T14:59:13.000",
    "request_status": "Pending",
    "responsible_agency": "Department of Sanitation",
    "final_address": "1006 Marengo St",
    "address_councildis": "B",
    "status": "Assigned to Contractor",
    "contractor": "Richards Disposal",
    "rowid": "978950",
    "final_x": "3672068.33153",
    "final_y": "519327.041271",
    "longitude": "-90.09826718990797",
    "latitude": "29.9222520083748",
    "geocoded_column": {
      "latitude": "29.9222520083748",
      "longitude": "-90.09826718990797"
    }
  },
  {
    "service_request": "2023-978949",
    "request_type": "Trash/Recycling",
    "request_reason": "Replace Trash Cart",
    "date_created": "2023-02-28T14:54:56.000",
    "date_modified": "2023-02-28T14:54:57.000",
    "request_status": "Pending",
    "responsible_agency": "Department of Sanitation",
    "final_address": "2701 Hamilton St",
    "address_councildis": "A",
    "status": "Assigned to Contractor",
    "contractor": "Richards Disposal",
    "rowid": "978949",
    "final_x": "3663033.69811",
    "final_y": "534741.60199",
    "longitude": "-90.12627337287338",
    "latitude": "29.964901800336328",
    "geocoded_column": {
      "latitude": "29.964901800336328",
      "longitude": "-90.12627337287338"
    }
  },
  {
    "service_request": "2023-978948",
    "request_type": "Trash/Recycling",
    "request_reason": "MIssed Recycling Pick-Up",
    "date_created": "2023-02-28T14:53:55.000",
    "date_modified": "2023-02-28T14:53:56.000",
    "request_status": "Pending",
    "responsible_agency": "Department of Sanitation",
    "final_address": "8401 Apple St",
    "address_councildis": "A",
    "status": "Assigned to Contractor",
    "contractor": "Richards Disposal",
    "rowid": "978948",
    "final_x": "3664554.47917",
    "final_y": "532878.666052",
    "longitude": "-90.12153303731714",
    "latitude": "29.959735199086555",
    "geocoded_column": {
      "latitude": "29.959735199086555",
      "longitude": "-90.12153303731714"
    }
  },
  {
    "service_request": "2023-978947",
    "request_type": "Trash/Recycling",
    "request_reason": "Order Recycling Cart",
    "date_created": "2023-02-28T14:51:47.000",
    "date_modified": "2023-02-28T14:51:48.000",
    "request_status": "Pending",
    "responsible_agency": "Department of Sanitation",
    "final_address": "7630 Dalewood Rd",
    "address_councildis": "E",
    "status": "Pending",
    "rowid": "978947",
    "final_x": "3699867.56874",
    "final_y": "560481.836574",
    "longitude": "-90.0090155758239",
    "latitude": "30.03455953190295",
    "geocoded_column": {
      "latitude": "30.03455953190295",
      "longitude": "-90.0090155758239"
    }
  },
  {
    "service_request": "2023-978946",
    "request_type": "Trash/Recycling",
    "request_reason": "Order Trash Cart",
    "date_created": "2023-02-28T14:51:10.000",
    "date_modified": "2023-02-28T14:51:11.000",
    "request_status": "Pending",
    "responsible_agency": "Department of Sanitation",
    "final_address": "7630 Dalewood Rd",
    "address_councildis": "E",
    "status": "Assigned to Contractor",
    "contractor": "Waste Pro",
    "rowid": "978946",
    "final_x": "3699867.56874",
    "final_y": "560481.836574",
    "longitude": "-90.0090155758239",
    "latitude": "30.03455953190295",
    "geocoded_column": {
      "latitude": "30.03455953190295",
      "longitude": "-90.0090155758239"
    }
  },
  {
    "service_request": "2023-978945",
    "request_type": "Trash/Recycling",
    "request_reason": "Missed Trash Pick-Up",
    "date_created": "2023-02-28T14:50:21.000",
    "date_modified": "2023-02-28T14:50:22.000",
    "request_status": "Pending",
    "responsible_agency": "Department of Sanitation",
    "final_address": "1008 Soniat St",
    "address_councildis": "B",
    "status": "Assigned to Contractor",
    "contractor": "Richards Disposal",
    "rowid": "978945",
    "final_x": "3668294.56782",
    "final_y": "519071.903671",
    "longitude": "-90.11018804439786",
    "latitude": "29.92166176771244",
    "geocoded_column": {
      "latitude": "29.92166176771244",
      "longitude": "-90.11018804439786"
    }
  },
  {
    "service_request": "2023-978944",
    "request_type": "Traffic Signals/Signs/Striping/Streetlights",
    "request_reason": "Additional signage",
    "date_created": "2023-02-28T14:49:26.000",
    "date_modified": "2023-02-28T14:49:26.000",
    "request_status": "Pending",
    "responsible_agency": "Department of Public Works",
    "final_address": "WASHINGTON AVE & SHORT ST",
    "address_councildis": "B",
    "status": "Pending",
    "rowid": "978944",
    "final_x": "3668412.4",
    "final_y": "534786.08",
    "longitude": "-90.10928621295972",
    "latitude": "29.964867206005533",
    "geocoded_column": {
      "latitude": "29.964867206005533",
      "longitude": "-90.10928621295972"
    }
  },
  {
    "service_request": "2023-978943",
    "request_type": "Trash/Recycling",
    "request_reason": "MIssed Recycling Pick-Up",
    "date_created": "2023-02-28T14:48:24.000",
    "date_modified": "2023-02-28T14:48:24.000",
    "request_status": "Pending",
    "responsible_agency": "Department of Sanitation",
    "final_address": "7401 Burke Ave",
    "address_councildis": "E",
    "status": "Assigned to Contractor",
    "contractor": "Waste Pro",
    "rowid": "978943",
    "final_x": "3705826.4522",
    "final_y": "562329.947807",
    "longitude": "-89.99011634265469",
    "latitude": "30.039450395350887",
    "geocoded_column": {
      "latitude": "30.039450395350887",
      "longitude": "-89.99011634265469"
    }
  },
  {
    "service_request": "2023-978942",
    "request_type": "Trash/Recycling",
    "request_reason": "Request a Large Item Pick Up",
    "date_created": "2023-02-28T14:45:12.000",
    "date_modified": "2023-02-28T14:45:12.000",
    "request_status": "Pending",
    "responsible_agency": "Department of Sanitation",
    "final_address": "511 N Murat St, New Orleans, Louisiana, 70119",
    "status": "Assigned to Contractor",
    "rowid": "978942",
    "longitude": "0.0",
    "latitude": "0.0",
    "geocoded_column": {
      "latitude": "0.0",
      "longitude": "0.0"
    }
  },
  {
    "service_request": "2023-978941",
    "request_type": "Trash/Recycling",
    "request_reason": "MIssed Recycling Pick-Up",
    "date_created": "2023-02-28T14:42:59.000",
    "date_modified": "2023-02-28T14:43:00.000",
    "request_status": "Pending",
    "responsible_agency": "Department of Sanitation",
    "final_address": "7401 Burke Rd",
    "status": "Assigned to Contractor",
    "rowid": "978941",
    "longitude": "0.0",
    "latitude": "0.0",
    "geocoded_column": {
      "latitude": "0.0",
      "longitude": "0.0"
    }
  },
  {
    "service_request": "2023-978940",
    "request_type": "Traffic Signals/Signs/Striping/Streetlights",
    "request_reason": "Street Light Outage/Malfunction",
    "date_created": "2023-02-28T14:42:28.000",
    "date_modified": "2023-02-28T14:45:01.000",
    "request_status": "Pending",
    "responsible_agency": "Department of Public Works",
    "final_address": "2922 New Orleans St",
    "address_councildis": "D",
    "status": "Assigned to Contractor",
    "contractor": "Legacy Professional Services",
    "rowid": "978940",
    "final_x": "3681788.80015",
    "final_y": "543303.470926",
    "longitude": "-90.06674710715164",
    "latitude": "29.98788738276442",
    "geocoded_column": {
      "latitude": "29.98788738276442",
      "longitude": "-90.06674710715164"
    }
  },
  {
    "service_request": "2023-978939",
    "request_type": "Abandoned Vehicles",
    "request_reason": "Abandoned/Junk Vehicles",
    "date_created": "2023-02-28T14:40:10.000",
    "date_modified": "2023-02-28T14:40:11.000",
    "request_status": "Pending",
    "responsible_agency": "Department of Public Works",
    "final_address": "3901 Toulouse St",
    "address_councildis": "A",
    "status": "Pending",
    "rowid": "978939",
    "final_x": "3672864.31918",
    "final_y": "539308.925066",
    "longitude": "-90.09507295971285",
    "latitude": "29.97717198271486",
    "geocoded_column": {
      "latitude": "29.97717198271486",
      "longitude": "-90.09507295971285"
    }
  },
  {
    "service_request": "2023-978938",
    "request_type": "Traffic Signals/Signs/Striping/Streetlights",
    "request_reason": "Street Light Outage/Malfunction",
    "date_created": "2023-02-28T14:39:19.000",
    "date_modified": "2023-02-28T14:39:19.000",
    "request_status": "Pending",
    "responsible_agency": "Department of Public Works",
    "final_address": "MANDEVILLE ST & ABUNDANCE ST",
    "address_councildis": "D",
    "status": "Assigned to Contractor",
    "contractor": "Legacy Professional Services",
    "rowid": "978938",
    "final_x": "3685183.3",
    "final_y": "543731.78",
    "longitude": "-90.05600995708967",
    "latitude": "29.988961471448945",
    "geocoded_column": {
      "latitude": "29.988961471448945",
      "longitude": "-90.05600995708967"
    }
  },
  {
    "service_request": "2023-978937",
    "request_type": "Traffic Signals/Signs/Striping/Streetlights",
    "request_reason": "Additional signage",
    "date_created": "2023-02-28T14:38:07.000",
    "date_modified": "2023-02-28T14:38:07.000",
    "request_status": "Pending",
    "responsible_agency": "Department of Public Works",
    "final_address": "WASHINGTON AVE & SHORT ST",
    "address_councildis": "B",
    "status": "Pending",
    "rowid": "978937",
    "final_x": "3668412.4",
    "final_y": "534786.08",
    "longitude": "-90.10928621295972",
    "latitude": "29.964867206005533",
    "geocoded_column": {
      "latitude": "29.964867206005533",
      "longitude": "-90.10928621295972"
    }
  },
  {
    "service_request": "2023-978936",
    "request_type": "Trash/Recycling",
    "request_reason": "Request a Large Item Pick Up",
    "date_created": "2023-02-28T14:37:11.000",
    "date_modified": "2023-02-28T14:37:54.000",
    "request_status": "Pending",
    "responsible_agency": "Department of Sanitation",
    "final_address": "532 Burgundy St",
    "address_councildis": "C",
    "status": "Assigned to Contractor",
    "contractor": "Empire Services",
    "rowid": "978936",
    "final_x": "3681408.5204",
    "final_y": "532705.342212",
    "longitude": "-90.06831785930844",
    "latitude": "29.958757748524246",
    "geocoded_column": {
      "latitude": "29.958757748524246",
      "longitude": "-90.06831785930844"
    }
  },
  {
    "service_request": "2023-978935",
    "request_type": "Trash/Recycling",
    "request_reason": "Missed Trash Pick-Up",
    "date_created": "2023-02-28T14:36:53.000",
    "date_modified": "2023-02-28T14:36:54.000",
    "request_status": "Pending",
    "responsible_agency": "Department of Sanitation",
    "final_address": "2546 Dumaine St",
    "address_councildis": "D",
    "status": "Assigned to Contractor",
    "contractor": "Richards Disposal",
    "rowid": "978935",
    "final_x": "3677631.4349",
    "final_y": "537108.97012",
    "longitude": "-90.08009284159667",
    "latitude": "29.97098034853283",
    "geocoded_column": {
      "latitude": "29.97098034853283",
      "longitude": "-90.08009284159667"
    }
  },
  {
    "service_request": "2023-978934",
    "request_type": "Trash/Recycling",
    "request_reason": "Request a Large Item Pick Up",
    "date_created": "2023-02-28T14:33:27.000",
    "date_modified": "2023-02-28T14:33:28.000",
    "request_status": "Pending",
    "responsible_agency": "Department of Sanitation",
    "final_address": "514 Vallette st. new Orleans, la 70114",
    "address_councildis": "C",
    "status": "Assigned to Contractor",
    "contractor": "Richards Disposal",
    "rowid": "978934",
    "final_x": "3687566.61327",
    "final_y": "529782.729409",
    "longitude": "-90.04897567834557",
    "latitude": "29.950533193711152",
    "geocoded_column": {
      "latitude": "29.950533193711152",
      "longitude": "-90.04897567834557"
    }
  },
  {
    "service_request": "2023-978933",
    "request_type": "Roads/Drainage",
    "request_reason": "Pothole",
    "date_created": "2023-02-28T14:31:06.000",
    "date_modified": "2023-02-28T14:31:07.000",
    "request_status": "Pending",
    "responsible_agency": "Department of Public Works",
    "final_address": "1490 Mandolin St",
    "address_councildis": "D",
    "status": "Pending",
    "rowid": "978933",
    "final_x": "3678709.70325",
    "final_y": "547973.430098",
    "longitude": "-90.07631112329881",
    "latitude": "30.0008213520181",
    "geocoded_column": {
      "latitude": "30.0008213520181",
      "longitude": "-90.07631112329881"
    }
  },
  {
    "service_request": "2023-978932",
    "request_type": "Traffic Signals/Signs/Striping/Streetlights",
    "request_reason": "Street Light Outage/Malfunction",
    "date_created": "2023-02-28T14:29:16.000",
    "date_modified": "2023-02-28T14:29:16.000",
    "request_status": "Pending",
    "responsible_agency": "Department of Public Works",
    "final_address": "4301 Jeanne Marie Pl",
    "address_councildis": "D",
    "status": "Assigned to Contractor",
    "contractor": "Legacy Professional Services",
    "rowid": "978932",
    "final_x": "3678653.68859",
    "final_y": "548082.35861",
    "longitude": "-90.07648430331521",
    "latitude": "30.00112255628835",
    "geocoded_column": {
      "latitude": "30.00112255628835",
      "longitude": "-90.07648430331521"
    }
  },
  {
    "service_request": "2023-978931",
    "request_type": "Property Maintenance",
    "request_reason": "Property Maintenance",
    "date_created": "2023-02-28T14:27:07.000",
    "date_modified": "2023-02-28T14:27:07.000",
    "request_status": "Pending",
    "responsible_agency": "Department of Code Enforcement",
    "final_address": "7810 Edinburgh St",
    "address_councildis": "B",
    "status": "Pending",
    "rowid": "978931",
    "final_x": "3668178.08289",
    "final_y": "533750.388805",
    "longitude": "-90.11006109063482",
    "latitude": "29.962026278828457",
    "geocoded_column": {
      "latitude": "29.962026278828457",
      "longitude": "-90.11006109063482"
    }
  },
  {
    "service_request": "2023-978930",
    "request_type": "Trash/Recycling",
    "request_reason": "Request a Large Item Pick Up",
    "date_created": "2023-02-28T14:22:51.000",
    "date_modified": "2023-02-28T14:22:51.000",
    "request_status": "Pending",
    "responsible_agency": "Department of Sanitation",
    "final_address": "7531 Devine Ave",
    "address_councildis": "E",
    "status": "Assigned to Contractor",
    "contractor": "Waste Pro",
    "rowid": "978930",
    "final_x": "3705835.51089",
    "final_y": "562897.245728",
    "longitude": "-89.99006669746348",
    "latitude": "30.041009948226026",
    "geocoded_column": {
      "latitude": "30.041009948226026",
      "longitude": "-89.99006669746348"
    }
  },
  {
    "service_request": "2023-978929",
    "request_type": "Trash/Recycling",
    "request_reason": "Order Trash Cart",
    "date_created": "2023-02-28T14:22:00.000",
    "date_modified": "2023-02-28T14:22:01.000",
    "request_status": "Pending",
    "responsible_agency": "Department of Sanitation",
    "final_address": "2929 Pauger St",
    "address_councildis": "D",
    "status": "Assigned to Contractor",
    "contractor": "IV Waste",
    "rowid": "978929",
    "final_x": "3683573.52572",
    "final_y": "540494.402123",
    "longitude": "-90.06120827212423",
    "latitude": "29.980109066899395",
    "geocoded_column": {
      "latitude": "29.980109066899395",
      "longitude": "-90.06120827212423"
    }
  },
  {
    "service_request": "2023-978928",
    "request_type": "Abandoned Vehicles",
    "request_reason": "Abandoned/Junk Vehicles",
    "date_created": "2023-02-28T14:18:09.000",
    "date_modified": "2023-02-28T14:18:09.000",
    "request_status": "Pending",
    "responsible_agency": "Department of Public Works",
    "final_address": "640 Frenchmen St",
    "address_councildis": "C",
    "status": "Pending",
    "rowid": "978928",
    "final_x": "3684674.75036",
    "final_y": "534785.78471",
    "longitude": "-90.0579308381368",
    "latitude": "29.964378694274583",
    "geocoded_column": {
      "latitude": "29.964378694274583",
      "longitude": "-90.0579308381368"
    }
  },
  {
    "service_request": "2023-978925",
    "request_type": "Roads/Drainage",
    "request_reason": "Damaged Sidewalk",
    "date_created": "2023-02-28T14:15:38.000",
    "date_modified": "2023-02-28T14:15:39.000",
    "request_status": "Pending",
    "responsible_agency": "Department of Public Works",
    "final_address": "402 Audubon St",
    "address_councildis": "A",
    "status": "Pending",
    "rowid": "978925",
    "final_x": "3662089.68135",
    "final_y": "522932.876091",
    "longitude": "-90.12964627301545",
    "latitude": "29.932458901345072",
    "geocoded_column": {
      "latitude": "29.932458901345072",
      "longitude": "-90.12964627301545"
    }
  },