[
  {
    "service_request": "2023-965008",
    "request_type": "Trash/Recycling",
    "request_reason": "Order Recycling Cart",
    "date_created": "2023-01-11T01:24:22.000",
    "date_modified": "2023-01-11T01:24:22.000",
    "request_status": "Pending",
    "responsible_agency": "Department of Sanitation",
    "final_address": "6227 Fleur-De-Lis Dr",
    "address_councildis": "A",
    "status": "Pending",
    "rowid": "965008",
    "final_x": "3665336.83738",
    "final_y": "549444.568403",
    "longitude": "-90.11850790838783",
    "latitude": "30.005263081601086",
    "geocoded_column": {
      "latitude": "30.005263081601086",
      "longitude": "-90.11850790838783"
    }
  },
  {
    "service_request": "2023-965007",
    "request_type": "Traffic Signals/Signs/Striping/Streetlights",
    "request_reason": "Street Light Outage/Malfunction",
    "date_created": "2023-01-11T01:15:39.000",
    "date_modified": "2023-01-11T01:15:40.000",
    "request_status": "Pending",
    "responsible_agency": "Department of Public Works",
    "final_address": "6227 Fleur-De-Lis Dr",
    "address_councildis": "A",
    "status": "Assigned to Contractor",
    "contractor": "Legacy Professional Services",
    "rowid": "965007",
    "final_x": "3665336.83738",
    "final_y": "549444.568403",
    "longitude": "-90.11850790838783",
    "latitude": "30.005263081601086",
    "geocoded_column": {
      "latitude": "30.005263081601086",
      "longitude": "-90.11850790838783"
    }
  },
  {
    "service_request": "2023-965006",
    "request_type": "Trash/Recycling",
    "request_reason": "Missed Trash Pick-Up",
    "date_created": "2023-01-11T00:50:41.000",
    "date_modified": "2023-01-11T00:50:42.000",
    "request_status": "Pending",
    "responsible_agency": "Department of Sanitation",
    "final_address": "1108 Milan St",
    "address_councildis": "B",
    "status": "Assigned to Contractor",
    "contractor": "Richards Disposal",
    "rowid": "965006",
    "final_x": "3671681.31124",
    "final_y": "519663.417016",
    "longitude": "-90.09947742280646",
    "latitude": "29.923188399219377",
    "geocoded_column": {
      "latitude": "29.923188399219377",
      "longitude": "-90.09947742280646"
    }
  },
  {
    "service_request": "2023-965005",
    "request_type": "Trash/Recycling",
    "request_reason": "Illegal Dumping",
    "date_created": "2023-01-11T00:31:47.000",
    "date_modified": "2023-01-11T00:31:47.000",
    "request_status": "Pending",
    "responsible_agency": "Department of Sanitation",
    "final_address": "2342 Pauline St",
    "address_councildis": "D",
    "status": "Pending",
    "rowid": "965005",
    "final_x": "3692374.41648",
    "final_y": "540312.133579",
    "longitude": "-90.03341801573113",
    "latitude": "29.979336294152926",
    "geocoded_column": {
      "latitude": "29.979336294152926",
      "longitude": "-90.03341801573113"
    }
  },
  {
    "service_request": "2023-965004",
    "request_type": "Safety & Permits",
    "request_reason": "Construction permit",
    "date_created": "2023-01-11T00:29:26.000",
    "date_modified": "2023-01-11T00:29:26.000",
    "request_status": "Pending",
    "responsible_agency": "Department of Code Enforcement",
    "final_address": "3309 St Charles Ave",
    "address_councildis": "B",
    "status": "Pending",
    "rowid": "965004",
    "final_x": "3674355.00283",
    "final_y": "521822.17817",
    "longitude": "-90.09096370304022",
    "latitude": "29.92904486098415",
    "geocoded_column": {
      "latitude": "29.92904486098415",
      "longitude": "-90.09096370304022"
    }
  },
  {
    "service_request": "2023-965003",
    "request_type": "Trash/Recycling",
    "request_reason": "Missed Trash Pick-Up",
    "date_created": "2023-01-11T00:26:06.000",
    "date_modified": "2023-01-11T00:26:07.000",
    "request_status": "Pending",
    "responsible_agency": "Department of Sanitation",
    "final_address": "919 Antonine St",
    "address_councildis": "B",
    "status": "Assigned to Contractor",
    "contractor": "Richards Disposal",
    "rowid": "965003",
    "final_x": "3674089.47451",
    "final_y": "518678.922231",
    "longitude": "-90.09190942868536",
    "latitude": "29.920409831437752",
    "geocoded_column": {
      "latitude": "29.920409831437752",
      "longitude": "-90.09190942868536"
    }
  },
  {
    "service_request": "2023-965002",
    "request_type": "Trash/Recycling",
    "request_reason": "Order Trash Cart",
    "date_created": "2023-01-11T00:12:38.000",
    "date_modified": "2023-01-11T00:12:38.000",
    "request_status": "Pending",
    "responsible_agency": "Department of Sanitation",
    "final_address": "610 N Johnson St",
    "address_councildis": "D",
    "status": "Assigned to Contractor",
    "contractor": "Richards Disposal",
    "rowid": "965002",
    "final_x": "3678552.22222",
    "final_y": "535259.267142",
    "longitude": "-90.07724891137845",
    "latitude": "29.96586657354928",
    "geocoded_column": {
      "latitude": "29.96586657354928",
      "longitude": "-90.07724891137845"
    }
  },
  {
    "service_request": "2023-965001",
    "request_type": "Trash/Recycling",
    "request_reason": "Replace Recycling Cart",
    "date_created": "2023-01-11T00:07:51.000",
    "date_modified": "2023-01-11T00:07:51.000",
    "request_status": "Pending",
    "responsible_agency": "Department of Sanitation",
    "final_address": "3219 Octavia St",
    "address_councildis": "A",
    "status": "Pending",
    "rowid": "965001",
    "final_x": "3668424.4585",
    "final_y": "527570.566207",
    "longitude": "-90.10949150578085",
    "latitude": "29.945026556441217",
    "geocoded_column": {
      "latitude": "29.945026556441217",
      "longitude": "-90.10949150578085"
    }
  },
  {
    "service_request": "2023-965000",
    "request_type": "Trash/Recycling",
    "request_reason": "Missed Trash Pick-Up",
    "date_created": "2023-01-11T00:07:26.000",
    "date_modified": "2023-01-11T00:07:27.000",
    "request_status": "Pending",
    "responsible_agency": "Department of Sanitation",
    "final_address": "1118 N Roman St",
    "address_councildis": "D",
    "status": "Assigned to Contractor",
    "contractor": "Richards Disposal",
    "rowid": "965000",
    "final_x": "3680240.38402",
    "final_y": "536364.715207",
    "longitude": "-90.07187931995807",
    "latitude": "29.9688551842507",
    "geocoded_column": {
      "latitude": "29.9688551842507",
      "longitude": "-90.07187931995807"
    }
  },
  {
    "service_request": "2023-964999",
    "request_type": "Trash/Recycling",
    "request_reason": "Missed Trash Pick-Up",
    "date_created": "2023-01-11T00:04:22.000",
    "date_modified": "2023-01-11T00:04:23.000",
    "request_status": "Pending",
    "responsible_agency": "Department of Sanitation",
    "final_address": "815 N Villere St",
    "address_councildis": "C",
    "status": "Assigned to Contractor",
    "contractor": "Richards Disposal",
    "rowid": "964999",
    "final_x": "3680579.09218",
    "final_y": "534588.803653",
    "longitude": "-90.07087145135482",
    "latitude": "29.963961778442698",
    "geocoded_column": {
      "latitude": "29.963961778442698",
      "longitude": "-90.07087145135482"
    }
  },
  {
    "service_request": "2023-964998",
    "request_type": "Traffic Signals/Signs/Striping/Streetlights",
    "request_reason": "Street Light Outage/Malfunction",
    "date_created": "2023-01-10T23:57:39.000",
    "date_modified": "2023-01-10T23:57:39.000",
    "request_status": "Pending",
    "responsible_agency": "Department of Public Works",
    "final_address": "3226 Octavia St",
    "address_councildis": "A",
    "status": "Assigned to Contractor",
    "contractor": "Legacy Professional Services",
    "rowid": "964998",
    "final_x": "3668310.26874",
    "final_y": "527590.337855",
    "longitude": "-90.10985137272179",
    "latitude": "29.945084275149018",
    "geocoded_column": {
      "latitude": "29.945084275149018",
      "longitude": "-90.10985137272179"
    }
  },
  {
    "service_request": "2023-964997",
    "request_type": "Trash/Recycling",
    "request_reason": "Missed Trash Pick-Up",
    "date_created": "2023-01-10T23:43:58.000",
    "date_modified": "2023-01-10T23:43:59.000",
    "request_status": "Pending",
    "responsible_agency": "Department of Sanitation",
    "final_address": "825 Belleville St",
    "address_councildis": "C",
    "status": "Assigned to Contractor",
    "contractor": "Richards Disposal",
    "rowid": "964997",
    "final_x": "3687759.37289",
    "final_y": "528522.85664",
    "longitude": "-90.0484116534583",
    "latitude": "29.94706303185815",
    "geocoded_column": {
      "latitude": "29.94706303185815",
      "longitude": "-90.0484116534583"
    }
  },
  {
    "service_request": "2023-964996",
    "request_type": "Trash/Recycling",
    "request_reason": "MIssed Recycling Pick-Up",
    "date_created": "2023-01-10T23:15:38.000",
    "date_modified": "2023-01-10T23:15:39.000",
    "request_status": "Pending",
    "responsible_agency": "Department of Sanitation",
    "final_address": "1127 Crete St",
    "address_councildis": "A",
    "status": "Assigned to Contractor",
    "contractor": "Richards Disposal",
    "rowid": "964996",
    "final_x": "3677579.27682",
    "final_y": "538946.068618",
    "longitude": "-90.08019411278619",
    "latitude": "29.97603330803299",
    "geocoded_column": {
      "latitude": "29.97603330803299",
      "longitude": "-90.08019411278619"
    }
  },
  {
    "service_request": "2023-964995",
    "request_type": "Trash/Recycling",
    "request_reason": "Missed Trash Pick-Up",
    "date_created": "2023-01-10T23:13:15.000",
    "date_modified": "2023-01-10T23:13:17.000",
    "request_status": "Pending",
    "responsible_agency": "Department of Sanitation",
    "final_address": "115 W Hubbell Rd",
    "address_councildis": "C",
    "status": "Assigned to Contractor",
    "contractor": "Richards Disposal",
    "rowid": "964995",
    "final_x": "3689009.51209",
    "final_y": "531118.248066",
    "longitude": "-90.04437232791753",
    "latitude": "29.95416086042573",
    "geocoded_column": {
      "latitude": "29.95416086042573",
      "longitude": "-90.04437232791753"
    }
  },
  {
    "service_request": "2023-964994",
    "request_type": "Traffic Signals/Signs/Striping/Streetlights",
    "request_reason": "Street Light Outage/Malfunction",
    "date_created": "2023-01-10T23:01:13.000",
    "date_modified": "2023-01-10T23:03:02.000",
    "request_status": "Pending",
    "responsible_agency": "Department of Public Works",
    "final_address": "117 W Hubbell Rd",
    "address_councildis": "C",
    "status": "Assigned to Contractor",
    "contractor": "Legacy Professional Services",
    "rowid": "964994",
    "final_x": "3689070.24931",
    "final_y": "531076.297026",
    "longitude": "-90.04418203511044",
    "latitude": "29.95404363073047",
    "geocoded_column": {
      "latitude": "29.95404363073047",
      "longitude": "-90.04418203511044"
    }
  },
  {
    "service_request": "2023-964993",
    "request_type": "Trash/Recycling",
    "request_reason": "Missed Trash Pick-Up",
    "date_created": "2023-01-10T22:53:44.000",
    "date_modified": "2023-01-10T22:55:17.000",
    "request_status": "Pending",
    "responsible_agency": "Department of Sanitation",
    "final_address": "1301 General Taylor St",
    "address_councildis": "B",
    "status": "Assigned to Contractor",
    "contractor": "Richards Disposal",
    "rowid": "964993",
    "final_x": "3672844.37032",
    "final_y": "520291.135864",
    "longitude": "-90.09578468200387",
    "latitude": "29.924879936904606",
    "geocoded_column": {
      "latitude": "29.924879936904606",
      "longitude": "-90.09578468200387"
    }
  },
  {
    "service_request": "2023-964992",
    "request_type": "Abandoned Vehicles",
    "request_reason": "Abandoned/Junk Vehicles",
    "date_created": "2023-01-10T22:51:40.000",
    "date_modified": "2023-01-10T22:51:40.000",
    "request_status": "Pending",
    "responsible_agency": "Department of Public Works",
    "final_address": "3800 Virgil Blvd",
    "address_councildis": "D",
    "status": "Pending",
    "rowid": "964992",
    "final_x": "3680558.95957",
    "final_y": "546500.607633",
    "longitude": "-90.0705204640828",
    "latitude": "29.996715702641783",
    "geocoded_column": {
      "latitude": "29.996715702641783",
      "longitude": "-90.0705204640828"
    }
  },
  {
    "service_request": "2023-964991",
    "request_type": "Trash/Recycling",
    "request_reason": "MIssed Recycling Pick-Up",
    "date_created": "2023-01-10T22:23:06.000",
    "date_modified": "2023-01-10T22:23:06.000",
    "request_status": "Pending",
    "responsible_agency": "Department of Sanitation",
    "final_address": "69 Allard Blvd",
    "address_councildis": "A",
    "status": "Assigned to Contractor",
    "contractor": "Richards Disposal",
    "rowid": "964991",
    "final_x": "3672748.7476",
    "final_y": "540457.344331",
    "longitude": "-90.09539878710879",
    "latitude": "29.980333177737332",
    "geocoded_column": {
      "latitude": "29.980333177737332",
      "longitude": "-90.09539878710879"
    }
  },
  {
    "service_request": "2023-964990",
    "request_type": "Trash/Recycling",
    "request_reason": "Missed Trash Pick-Up",
    "date_created": "2023-01-10T22:22:07.000",
    "date_modified": "2023-01-10T22:22:08.000",
    "request_status": "Pending",
    "responsible_agency": "Department of Sanitation",
    "final_address": "69 Allard Blvd",
    "address_councildis": "A",
    "status": "Assigned to Contractor",
    "contractor": "Richards Disposal",
    "rowid": "964990",
    "final_x": "3672748.7476",
    "final_y": "540457.344331",
    "longitude": "-90.09539878710879",
    "latitude": "29.980333177737332",
    "geocoded_column": {
      "latitude": "29.980333177737332",
      "longitude": "-90.09539878710879"
    }
  },
  {
    "service_request": "2023-964988",
    "request_type": "Trash/Recycling",
    "request_reason": "MIssed Recycling Pick-Up",
    "date_created": "2023-01-10T22:03:36.000",
    "date_modified": "2023-01-10T22:03:37.000",
    "request_status": "Pending",
    "responsible_agency": "Department of Sanitation",
    "final_address": "3218 Orleans Ave",
    "address_councildis": "A",
    "status": "Assigned to Contractor",
    "contractor": "Richards Disposal",
    "rowid": "964988",
    "final_x": "3674845.58632",
    "final_y": "538393.958025",
    "longitude": "-90.08884684959648",
    "latitude": "29.974597115035806",
    "geocoded_column": {
      "latitude": "29.974597115035806",
      "longitude": "-90.08884684959648"
    }
  },
  {
    "service_request": "2023-964987",
    "request_type": "Trash/Recycling",
    "request_reason": "Missed Trash Pick-Up",
    "date_created": "2023-01-10T21:45:16.000",
    "date_modified": "2023-01-10T21:45:17.000",
    "request_status": "Pending",
    "responsible_agency": "Department of Sanitation",
    "final_address": "2400 Valence St",
    "address_councildis": "B",
    "status": "Assigned to Contractor",
    "contractor": "Richards Disposal",
    "rowid": "964987",
    "final_x": "3669410.20314",
    "final_y": "523614.494971",
    "longitude": "-90.10651292946616",
    "latitude": "29.934119652199325",
    "geocoded_column": {
      "latitude": "29.934119652199325",
      "longitude": "-90.10651292946616"
    }
  },
  {
    "service_request": "2023-964986",
    "request_type": "Trash/Recycling",
    "request_reason": "Repair Trash Cart",
    "date_created": "2023-01-10T21:43:45.000",
    "date_modified": "2023-01-10T21:43:46.000",
    "request_status": "Pending",
    "responsible_agency": "Department of Sanitation",
    "final_address": "3116 N Miro St",
    "address_councildis": "D",
    "status": "Assigned to Contractor",
    "contractor": "IV Waste",
    "rowid": "964986",
    "final_x": "3690241.11126",
    "final_y": "540050.221579",
    "longitude": "-90.04016514804849",
    "latitude": "29.978682502766496",
    "geocoded_column": {
      "latitude": "29.978682502766496",
      "longitude": "-90.04016514804849"
    }
  },
  {
    "service_request": "2023-964985",
    "request_type": "Trash/Recycling",
    "request_reason": "Order Recycling Cart",
    "date_created": "2023-01-10T21:38:17.000",
    "date_modified": "2023-01-10T21:38:17.000",
    "request_status": "Pending",
    "responsible_agency": "Department of Sanitation",
    "final_address": "7611 Founders Ct",
    "address_councildis": "E",
    "status": "Pending",
    "rowid": "964985",
    "final_x": "3725727.92556",
    "final_y": "570936.221159",
    "longitude": "-89.92688884145244",
    "latitude": "30.062457552762524",
    "geocoded_column": {
      "latitude": "30.062457552762524",
      "longitude": "-89.92688884145244"
    }
  },
  {
    "service_request": "2023-964984",
    "request_type": "Trash/Recycling",
    "request_reason": "Missed Trash Pick-Up",
    "date_created": "2023-01-10T21:23:39.000",
    "date_modified": "2023-01-10T21:23:40.000",
    "request_status": "Pending",
    "responsible_agency": "Department of Sanitation",
    "final_address": "4819 Carondelet St",
    "address_councildis": "B",
    "status": "Assigned to Contractor",
    "contractor": "Richards Disposal",
    "rowid": "964984",
    "final_x": "3669166.86868",
    "final_y": "521163.278585",
    "longitude": "-90.10736392540642",
    "latitude": "29.927386752325763",
    "geocoded_column": {
      "latitude": "29.927386752325763",
      "longitude": "-90.10736392540642"
    }
  },
  {
    "service_request": "2023-964983",
    "request_type": "Trash/Recycling",
    "request_reason": "Order Recycling Cart",
    "date_created": "2023-01-10T21:22:57.000",
    "date_modified": "2023-01-10T21:22:57.000",
    "request_status": "Pending",
    "responsible_agency": "Department of Sanitation",
    "final_address": "8036 Lacombe St Apt A",
    "address_councildis": "E",
    "status": "Pending",
    "rowid": "964983",
    "final_x": "3708932.77675",
    "final_y": "566340.212387",
    "longitude": "-89.98014985232584",
    "latitude": "30.050376526277173",
    "geocoded_column": {
      "latitude": "30.050376526277173",
      "longitude": "-89.98014985232584"
    }
  },
  {
    "service_request": "2023-964982",
    "request_type": "Trash/Recycling",
    "request_reason": "Missed Trash Pick-Up",
    "date_created": "2023-01-10T21:19:27.000",
    "date_modified": "2023-01-10T21:19:28.000",
    "request_status": "Pending",
    "responsible_agency": "Department of Sanitation",
    "final_address": "139 N Genois St",
    "address_councildis": "B",
    "status": "Assigned to Contractor",
    "contractor": "Richards Disposal",
    "rowid": "964982",
    "final_x": "3672762.56603",
    "final_y": "537571.66068",
    "longitude": "-90.09545360574924",
    "latitude": "29.97239811841257",
    "geocoded_column": {
      "latitude": "29.97239811841257",
      "longitude": "-90.09545360574924"
    }
  },
  {
    "service_request": "2023-964981",
    "request_type": "Trash/Recycling",
    "request_reason": "Missed Trash Pick-Up",
    "date_created": "2023-01-10T21:07:48.000",
    "date_modified": "2023-01-10T21:07:49.000",
    "request_status": "Pending",
    "responsible_agency": "Department of Sanitation",
    "final_address": "1835 St Philip St",
    "address_councildis": "D",
    "status": "Assigned to Contractor",
    "contractor": "Richards Disposal",
    "rowid": "964981",
    "final_x": "3679948.03567",
    "final_y": "535923.029575",
    "longitude": "-90.0728179188473",
    "latitude": "29.967649546567568",
    "geocoded_column": {
      "latitude": "29.967649546567568",
      "longitude": "-90.0728179188473"
    }
  },
  {
    "service_request": "2023-964980",
    "request_type": "Abandoned Vehicles",
    "request_reason": "Abandoned/Junk Vehicles",
    "date_created": "2023-01-10T21:01:52.000",
    "date_modified": "2023-01-10T21:01:52.000",
    "request_status": "Pending",
    "responsible_agency": "Department of Public Works",
    "final_address": "1939 Conti St",
    "address_councildis": "B",
    "status": "Pending",
    "rowid": "964980",
    "final_x": "3678292.48034",
    "final_y": "534379.931525",
    "longitude": "-90.07809958843181",
    "latitude": "29.9634565261488",
    "geocoded_column": {
      "latitude": "29.9634565261488",
      "longitude": "-90.07809958843181"
    }
  },
  {
    "service_request": "2023-964979",
    "request_type": "Trash/Recycling",
    "request_reason": "Missed Trash Pick-Up",
    "date_created": "2023-01-10T21:01:06.000",
    "date_modified": "2023-01-10T21:01:06.000",
    "request_status": "Pending",
    "responsible_agency": "Department of Sanitation",
    "final_address": "3904 Camp St",
    "address_councildis": "B",
    "status": "Assigned to Contractor",
    "contractor": "Richards Disposal",
    "rowid": "964979",
    "final_x": "3672986.51982",
    "final_y": "519296.239607",
    "longitude": "-90.09536989245822",
    "latitude": "29.92214006852543",
    "geocoded_column": {
      "latitude": "29.92214006852543",
      "longitude": "-90.09536989245822"
    }
  },
  {
    "service_request": "2023-964978",
    "request_type": "Trash/Recycling",
    "request_reason": "Missed Trash Pick-Up",
    "date_created": "2023-01-10T20:58:04.000",
    "date_modified": "2023-01-10T20:58:05.000",
    "request_status": "Pending",
    "responsible_agency": "Department of Sanitation",
    "final_address": "4918 S Prieur St",
    "address_councildis": "B",
    "status": "Assigned to Contractor",
    "contractor": "Richards Disposal",
    "rowid": "964978",
    "final_x": "3669090.91943",
    "final_y": "526637.515006",
    "longitude": "-90.10741879456256",
    "latitude": "29.942441378548565",
    "geocoded_column": {
      "latitude": "29.942441378548565",
      "longitude": "-90.10741879456256"
    }
  },
  {
    "service_request": "2023-964977",
    "request_type": "Trash/Recycling",
    "request_reason": "Missed Trash Pick-Up",
    "date_created": "2023-01-10T20:52:39.000",
    "date_modified": "2023-01-10T20:52:40.000",
    "request_status": "Pending",
    "responsible_agency": "Department of Sanitation",
    "final_address": "404 Vallette St",
    "address_councildis": "C",
    "status": "Assigned to Contractor",
    "contractor": "Richards Disposal",
    "rowid": "964977",
    "final_x": "3687583.72489",
    "final_y": "530284.558337",
    "longitude": "-90.04890388722292",
    "latitude": "29.951912523944806",
    "geocoded_column": {
      "latitude": "29.951912523944806",
      "longitude": "-90.04890388722292"
    }
  },
  {
    "service_request": "2023-964976",
    "request_type": "Trash/Recycling",
    "request_reason": "Order Trash Cart",
    "date_created": "2023-01-10T20:51:59.000",
    "date_modified": "2023-01-10T20:52:00.000",
    "request_status": "Pending",
    "responsible_agency": "Department of Sanitation",
    "final_address": "6821 Glengary Rd",
    "address_councildis": "E",
    "status": "Assigned to Contractor",
    "contractor": "Waste Pro",
    "rowid": "964976",
    "final_x": "3701787.71223",
    "final_y": "557161.002651",
    "longitude": "-90.00306952281774",
    "latitude": "30.025367364833084",
    "geocoded_column": {
      "latitude": "30.025367364833084",
      "longitude": "-90.00306952281774"
    }
  },
  {
    "service_request": "2023-964974",
    "request_type": "Trash/Recycling",
    "request_reason": "Missed Trash Pick-Up",
    "date_created": "2023-01-10T20:45:28.000",
    "date_modified": "2023-01-10T20:45:29.000",
    "request_status": "Pending",
    "responsible_agency": "Department of Sanitation",
    "final_address": "4011 DHemecourt St",
    "address_councildis": "A",
    "status": "Assigned to Contractor",
    "contractor": "Richards Disposal",
    "rowid": "964974",
    "final_x": "3670180.48948",
    "final_y": "536661.804807",
    "longitude": "-90.1036391146166",
    "latitude": "29.969972768916328",
    "geocoded_column": {
      "latitude": "29.969972768916328",
      "longitude": "-90.1036391146166"
    }
  },
  {
    "service_request": "2023-964973",
    "request_type": "Trash/Recycling",
    "request_reason": "MIssed Recycling Pick-Up",
    "date_created": "2023-01-10T20:34:27.000",
    "date_modified": "2023-01-10T20:34:27.000",
    "request_status": "Pending",
    "responsible_agency": "Department of Sanitation",
    "final_address": "213 Helena St",
    "address_councildis": "A",
    "status": "Assigned to Contractor",
    "contractor": "Richards Disposal",
    "rowid": "964973",
    "final_x": "3668539.15476",
    "final_y": "540986.318283",
    "longitude": "-90.10867666040778",
    "latitude": "29.981912057845687",
    "geocoded_column": {
      "latitude": "29.981912057845687",
      "longitude": "-90.10867666040778"
    }
  },
  {
    "service_request": "2023-964972",
    "request_type": "Trash/Recycling",
    "request_reason": "MIssed Recycling Pick-Up",
    "date_created": "2023-01-10T20:33:58.000",
    "date_modified": "2023-01-10T20:33:59.000",
    "request_status": "Pending",
    "responsible_agency": "Department of Sanitation",
    "final_address": "3104 Dumaine St",
    "address_councildis": "A",
    "status": "Assigned to Contractor",
    "contractor": "Richards Disposal",
    "rowid": "964972",
    "final_x": "3675629.24091",
    "final_y": "538644.852425",
    "longitude": "-90.08636325099864",
    "latitude": "29.975263562735798",
    "geocoded_column": {
      "latitude": "29.975263562735798",
      "longitude": "-90.08636325099864"
    }
  },
  {
    "service_request": "2023-964971",
    "request_type": "Trash/Recycling",
    "request_reason": "Request a Large Item Pick Up",
    "date_created": "2023-01-10T20:30:33.000",
    "date_modified": "2023-01-10T20:30:34.000",
    "request_status": "Pending",
    "responsible_agency": "Department of Sanitation",
    "final_address": "4735 Sherwood Dr",
    "address_councildis": "E",
    "status": "Assigned to Contractor",
    "contractor": "Waste Pro",
    "rowid": "964971",
    "final_x": "3718084.70431",
    "final_y": "556817.537562",
    "longitude": "-89.95158715701086",
    "latitude": "30.023892674773005",
    "geocoded_column": {
      "latitude": "30.023892674773005",
      "longitude": "-89.95158715701086"
    }
  },
  {
    "service_request": "2023-964970",
    "request_type": "Abandoned Vehicles",
    "request_reason": "Abandoned/Junk Vehicles",
    "date_created": "2023-01-10T20:29:34.000",
    "date_modified": "2023-01-10T20:29:34.000",
    "request_status": "Pending",
    "responsible_agency": "Department of Public Works",
    "final_address": "MILAN ST & ST CHARLES AVE",
    "address_councildis": "B",
    "status": "Pending",
    "rowid": "964970",
    "final_x": "3671603.9",
    "final_y": "520894.78",
    "longitude": "-90.09967993281145",
    "latitude": "29.926576545750862",
    "geocoded_column": {
      "latitude": "29.926576545750862",
      "longitude": "-90.09967993281145"
    }
  },
  {
    "service_request": "2023-964969",
    "request_type": "Trash/Recycling",
    "request_reason": "MIssed Recycling Pick-Up",
    "date_created": "2023-01-10T20:29:27.000",
    "date_modified": "2023-01-10T20:29:28.000",
    "request_status": "Pending",
    "responsible_agency": "Department of Sanitation",
    "final_address": "1528 St Philip St",
    "address_councildis": "C",
    "status": "Assigned to Contractor",
    "contractor": "Richards Disposal",
    "rowid": "964969",
    "final_x": "3680772.24552",
    "final_y": "535182.214022",
    "longitude": "-90.07024083428946",
    "latitude": "29.96558760095176",
    "geocoded_column": {
      "latitude": "29.96558760095176",
      "longitude": "-90.07024083428946"
    }
  },
  {
    "service_request": "2023-964968",
    "request_type": "Trash/Recycling",
    "request_reason": "Request a Large Item Pick Up",
    "date_created": "2023-01-10T20:28:42.000",
    "date_modified": "2023-01-10T20:28:43.000",
    "request_status": "Pending",
    "responsible_agency": "Department of Sanitation",
    "final_address": "4610 Rhodes Dr",
    "address_councildis": "E",
    "status": "Assigned to Contractor",
    "contractor": "Waste Pro",
    "rowid": "964968",
    "final_x": "3702551.13015",
    "final_y": "553604.340631",
    "longitude": "-90.00078794967034",
    "latitude": "30.01556351774773",
    "geocoded_column": {
      "latitude": "30.01556351774773",
      "longitude": "-90.00078794967034"
    }
  },
  {
    "service_request": "2023-964967",
    "request_type": "Trash/Recycling",
    "request_reason": "Missed Trash Pick-Up",
    "date_created": "2023-01-10T20:26:24.000",
    "date_modified": "2023-01-10T20:26:25.000",
    "request_status": "Pending",
    "responsible_agency": "Department of Sanitation",
    "final_address": "8530 Zimple St",
    "address_councildis": "A",
    "status": "Assigned to Contractor",
    "contractor": "Richards Disposal",
    "rowid": "964967",
    "final_x": "3660453.38669",
    "final_y": "529216.545792",
    "longitude": "-90.13460441201262",
    "latitude": "29.94978416682552",
    "geocoded_column": {
      "latitude": "29.94978416682552",
      "longitude": "-90.13460441201262"
    }
  },
  {
    "service_request": "2023-964966",
    "request_type": "Trash/Recycling",
    "request_reason": "Missed Trash Pick-Up",
    "date_created": "2023-01-10T20:22:56.000",
    "date_modified": "2023-01-10T20:22:57.000",
    "request_status": "Pending",
    "responsible_agency": "Department of Sanitation",
    "final_address": "6410 Paris Ave",
    "address_councildis": "D",
    "status": "Assigned to Contractor",
    "contractor": "IV Waste",
    "rowid": "964966",
    "final_x": "3678183.74683",
    "final_y": "556935.154906",
    "longitude": "-90.07766241550026",
    "latitude": "30.025478725209314",
    "geocoded_column": {
      "latitude": "30.025478725209314",
      "longitude": "-90.07766241550026"
    }
  },
  {
    "service_request": "2023-964965",
    "request_type": "Trash/Recycling",
    "request_reason": "MIssed Recycling Pick-Up",
    "date_created": "2023-01-10T20:11:20.000",
    "date_modified": "2023-01-10T20:11:20.000",
    "request_status": "Pending",
    "responsible_agency": "Department of Sanitation",
    "final_address": "200 N Norman C Francis Pkwy, New Orleans, Louisiana, 70119",
    "status": "Assigned to Contractor",
    "rowid": "964965",
    "longitude": "0.0",
    "latitude": "0.0",
    "geocoded_column": {
      "latitude": "0.0",
      "longitude": "0.0"
    }
  },
  {
    "service_request": "2023-964964",
    "request_type": "Trash/Recycling",
    "request_reason": "Missed Trash Pick-Up",
    "date_created": "2023-01-10T20:10:25.000",
    "date_modified": "2023-01-10T20:10:25.000",
    "request_status": "Pending",
    "responsible_agency": "Department of Sanitation",
    "final_address": "200 N Norman C Francis Pkwy, New Orleans, Louisiana, 70119",
    "status": "Assigned to Contractor",
    "rowid": "964964",
    "longitude": "0.0",
    "latitude": "0.0",
    "geocoded_column": {
      "latitude": "0.0",
      "longitude": "0.0"
    }
  },
  {
    "service_request": "2023-964963",
    "request_type": "Trash/Recycling",
    "request_reason": "Missed Trash Pick-Up",
    "date_created": "2023-01-10T20:08:38.000",
    "date_modified": "2023-01-10T20:08:38.000",
    "request_status": "Pending",
    "responsible_agency": "Department of Sanitation",
    "final_address": "224 Abalon Ct",
    "address_councildis": "C",
    "status": "Assigned to Contractor",
    "contractor": "Richards Disposal",
    "rowid": "964963",
    "final_x": "3689062.45315",
    "final_y": "530924.937154",
    "longitude": "-90.04421202909664",
    "latitude": "29.953627684453252",
    "geocoded_column": {
      "latitude": "29.953627684453252",
      "longitude": "-90.04421202909664"
    }
  },
  {
    "service_request": "2023-964962",
    "request_type": "Traffic Signals/Signs/Striping/Streetlights",
    "request_reason": "Street Light Outage/Malfunction",
    "date_created": "2023-01-10T20:07:23.000",
    "date_modified": "2023-01-10T20:07:24.000",
    "request_status": "Pending",
    "responsible_agency": "Department of Public Works",
    "final_address": "4901 Moore Dr",
    "address_councildis": "D",
    "status": "Assigned to Contractor",
    "contractor": "Legacy Professional Services",
    "rowid": "964962",
    "final_x": "3680083.59554",
    "final_y": "549576.596115",
    "longitude": "-90.07191514243578",
    "latitude": "30.005187971913102",
    "geocoded_column": {
      "latitude": "30.005187971913102",
      "longitude": "-90.07191514243578"
    }
  },
  {
    "service_request": "2023-964961",
    "request_type": "Traffic Signals/Signs/Striping/Streetlights",
    "request_reason": "Street Light Outage/Malfunction",
    "date_created": "2023-01-10T20:04:11.000",
    "date_modified": "2023-01-10T20:04:12.000",
    "request_status": "Pending",
    "responsible_agency": "Department of Public Works",
    "final_address": "4966 Miles Dr",
    "address_councildis": "D",
    "status": "Assigned to Contractor",
    "contractor": "Legacy Professional Services",
    "rowid": "964961",
    "final_x": "3680166.68834",
    "final_y": "549660.898772",
    "longitude": "-90.07164970210066",
    "latitude": "30.005417258557646",
    "geocoded_column": {
      "latitude": "30.005417258557646",
      "longitude": "-90.07164970210066"
    }
  },
  {
    "service_request": "2023-964959",
    "request_type": "Traffic Signals/Signs/Striping/Streetlights",
    "request_reason": "Street Light Outage/Malfunction",
    "date_created": "2023-01-10T20:02:41.000",
    "date_modified": "2023-01-10T20:02:42.000",
    "request_status": "Pending",
    "responsible_agency": "Department of Public Works",
    "final_address": "2060 Mirabeau Ave",
    "address_councildis": "D",
    "status": "Assigned to Contractor",
    "contractor": "Legacy Professional Services",
    "rowid": "964959",
    "final_x": "3682928.00898",
    "final_y": "550549.8253",
    "longitude": "-90.06289495497816",
    "latitude": "30.00777759411963",
    "geocoded_column": {
      "latitude": "30.00777759411963",
      "longitude": "-90.06289495497816"
    }
  },
  {
    "service_request": "2023-964958",
    "request_type": "Trash/Recycling",
    "request_reason": "Missed Trash Pick-Up",
    "date_created": "2023-01-10T20:01:48.000",
    "date_modified": "2023-01-10T20:01:49.000",
    "request_status": "Pending",
    "responsible_agency": "Department of Sanitation",
    "final_address": "1238 N Galvez St",
    "address_councildis": "D",
    "status": "Assigned to Contractor",
    "contractor": "Richards Disposal",
    "rowid": "964958",
    "final_x": "3679679.64674",
    "final_y": "537368.590536",
    "longitude": "-90.07361530940352",
    "latitude": "29.971632458895183",
    "geocoded_column": {
      "latitude": "29.971632458895183",
      "longitude": "-90.07361530940352"
    }
  },
  {
    "service_request": "2023-964957",
    "request_type": "Trash/Recycling",
    "request_reason": "MIssed Recycling Pick-Up",
    "date_created": "2023-01-10T19:59:27.000",
    "date_modified": "2023-01-10T19:59:28.000",
    "request_status": "Pending",
    "responsible_agency": "Department of Sanitation",
    "final_address": "3013 Hyman Pl",
    "address_councildis": "C",
    "status": "Assigned to Contractor",
    "contractor": "Richards Disposal",
    "rowid": "964957",
    "final_x": "3700952.24349",
    "final_y": "520050.60812",
    "longitude": "-90.00706673886198",
    "latitude": "29.92335391308665",
    "geocoded_column": {
      "latitude": "29.92335391308665",
      "longitude": "-90.00706673886198"
    }
  },
  {
    "service_request": "2023-964956",
    "request_type": "Trash/Recycling",
    "request_reason": "Request a Large Item Pick Up",
    "date_created": "2023-01-10T19:55:57.000",
    "date_modified": "2023-01-10T19:55:58.000",
    "request_status": "Pending",
    "responsible_agency": "Department of Sanitation",
    "final_address": "1432 Joliet St",
    "address_councildis": "A",
    "status": "Assigned to Contractor",
    "contractor": "Richards Disposal",
    "rowid": "964956",
    "final_x": "3661522.8288",
    "final_y": "530076.837697",
    "longitude": "-90.13119917661888",
    "latitude": "29.952118886618813",
    "geocoded_column": {
      "latitude": "29.952118886618813",
      "longitude": "-90.13119917661888"
    }
  },
  {
    "service_request": "2023-964955",
    "request_type": "Roads/Drainage",
    "request_reason": "Street Flooding / Drainage",
    "date_created": "2023-01-10T19:55:05.000",
    "date_modified": "2023-01-10T19:55:05.000",
    "request_status": "Pending",
    "responsible_agency": "Department of Public Works",
    "final_address": "7600 Lady Gray St",
    "address_councildis": "E",
    "status": "Pending",
    "rowid": "964955",
    "final_x": "3710023.75435",
    "final_y": "565118.734434",
    "longitude": "-89.97674740000936",
    "latitude": "30.046982483437837",
    "geocoded_column": {
      "latitude": "30.046982483437837",
      "longitude": "-89.97674740000936"
    }
  },
  {
    "service_request": "2023-964954",
    "request_type": "Roads/Drainage",
    "request_reason": "Pothole",
    "date_created": "2023-01-10T19:51:31.000",
    "date_modified": "2023-01-10T19:51:31.000",
    "request_status": "Pending",
    "responsible_agency": "Department of Public Works",
    "final_address": "4018 Laurel St",
    "address_councildis": "B",
    "status": "Pending",
    "rowid": "964954",
    "final_x": "3672444.07668",
    "final_y": "518094.514998",
    "longitude": "-90.09712308893906",
    "latitude": "29.91885181229599",
    "geocoded_column": {
      "latitude": "29.91885181229599",
      "longitude": "-90.09712308893906"
    }
  },
  {
    "service_request": "2023-964953",
    "request_type": "Trash/Recycling",
    "request_reason": "MIssed Recycling Pick-Up",
    "date_created": "2023-01-10T19:50:22.000",
    "date_modified": "2023-01-10T19:50:23.000",
    "request_status": "Pending",
    "responsible_agency": "Department of Sanitation",
    "final_address": "10920 Zenith St",
    "address_councildis": "E",
    "status": "Assigned to Contractor",
    "contractor": "Waste Pro",
    "rowid": "964953",
    "final_x": "3710575.90904",
    "final_y": "565329.583778",
    "longitude": "-89.97499441196027",
    "latitude": "30.04754424812881",
    "geocoded_column": {
      "latitude": "30.04754424812881",
      "longitude": "-89.97499441196027"
    }
  },
  {
    "service_request": "2023-964952",
    "request_type": "Trash/Recycling",
    "request_reason": "Missed Trash Pick-Up",
    "date_created": "2023-01-10T19:49:07.000",
    "date_modified": "2023-01-10T19:49:08.000",
    "request_status": "Pending",
    "responsible_agency": "Department of Sanitation",
    "final_address": "4018 Laurel St",
    "address_councildis": "B",
    "status": "Assigned to Contractor",
    "contractor": "Richards Disposal",
    "rowid": "964952",
    "final_x": "3672444.07668",
    "final_y": "518094.514998",
    "longitude": "-90.09712308893906",
    "latitude": "29.91885181229599",
    "geocoded_column": {
      "latitude": "29.91885181229599",
      "longitude": "-90.09712308893906"
    }
  },
  {
    "service_request": "2023-964951",
    "request_type": "Trash/Recycling",
    "request_reason": "Missed Trash Pick-Up",
    "date_created": "2023-01-10T19:48:16.000",
    "date_modified": "2023-01-10T19:48:17.000",
    "request_status": "Pending",
    "responsible_agency": "Department of Sanitation",
    "final_address": "1238 N Galvez St",
    "address_councildis": "D",
    "status": "Assigned to Contractor",
    "contractor": "Richards Disposal",
    "rowid": "964951",
    "final_x": "3679679.64674",
    "final_y": "537368.590536",
    "longitude": "-90.07361530940352",
    "latitude": "29.971632458895183",
    "geocoded_column": {
      "latitude": "29.971632458895183",
      "longitude": "-90.07361530940352"
    }
  },
  {
    "service_request": "2023-964950",
    "request_type": "Trash/Recycling",
    "request_reason": "Missed Trash Pick-Up",
    "date_created": "2023-01-10T19:47:55.000",
    "date_modified": "2023-01-10T19:47:56.000",
    "request_status": "Pending",
    "responsible_agency": "Department of Sanitation",
    "final_address": "4311 S Galvez St",
    "address_councildis": "B",
    "status": "Assigned to Contractor",
    "contractor": "Richards Disposal",
    "rowid": "964950",
    "final_x": "3670479.87988",
    "final_y": "527624.171135",
    "longitude": "-90.10300007179369",
    "latitude": "29.945113427846763",
    "geocoded_column": {
      "latitude": "29.945113427846763",
      "longitude": "-90.10300007179369"
    }
  },
  {
    "service_request": "2023-964949",
    "request_type": "Trash/Recycling",
    "request_reason": "MIssed Recycling Pick-Up",
    "date_created": "2023-01-10T19:42:44.000",
    "date_modified": "2023-01-10T19:42:45.000",
    "request_status": "Pending",
    "responsible_agency": "Department of Sanitation",
    "final_address": "809 N Rocheblave St",
    "address_councildis": "D",
    "status": "Assigned to Contractor",
    "contractor": "Richards Disposal",
    "rowid": "964949",
    "final_x": "3677765.29634",
    "final_y": "536713.153927",
    "longitude": "-90.07968376611245",
    "latitude": "29.969887962881344",
    "geocoded_column": {
      "latitude": "29.969887962881344",
      "longitude": "-90.07968376611245"
    }
  },
  {
    "service_request": "2023-964948",
    "request_type": "Trash/Recycling",
    "request_reason": "MIssed Recycling Pick-Up",
    "date_created": "2023-01-10T19:41:57.000",
    "date_modified": "2023-01-10T19:41:57.000",
    "request_status": "Pending",
    "responsible_agency": "Department of Sanitation",
    "final_address": "6958 General Haig St",
    "address_councildis": "A",
    "status": "Assigned to Contractor",
    "contractor": "IV Waste",
    "rowid": "964948",
    "final_x": "3671006.61441",
    "final_y": "553465.168151",
    "longitude": "-90.10045915023834",
    "latitude": "30.01615180921859",
    "geocoded_column": {
      "latitude": "30.01615180921859",
      "longitude": "-90.10045915023834"
    }
  },
  {
    "service_request": "2023-964947",
    "request_type": "Trash/Recycling",
    "request_reason": "Request a Large Item Pick Up",
    "date_created": "2023-01-10T19:39:06.000",
    "date_modified": "2023-01-10T19:39:07.000",
    "request_status": "Pending",
    "responsible_agency": "Department of Sanitation",
    "final_address": "7301 Chatelain Dr",
    "address_councildis": "E",
    "status": "Assigned to Contractor",
    "contractor": "Waste Pro",
    "rowid": "964947",
    "final_x": "3715272.30098",
    "final_y": "567227.589732",
    "longitude": "-89.96007948312568",
    "latitude": "30.052609072070528",
    "geocoded_column": {
      "latitude": "30.052609072070528",
      "longitude": "-89.96007948312568"
    }
  },
  {
    "service_request": "2023-964946",
    "request_type": "Trash/Recycling",
    "request_reason": "Missed Trash Pick-Up",
    "date_created": "2023-01-10T19:32:55.000",
    "date_modified": "2023-01-10T19:32:56.000",
    "request_status": "Pending",
    "responsible_agency": "Department of Sanitation",
    "final_address": "115 Vallette St",
    "address_councildis": "C",
    "status": "Assigned to Contractor",
    "contractor": "Richards Disposal",
    "rowid": "964946",
    "final_x": "3687559.76905",
    "final_y": "531309.957762",
    "longitude": "-90.0489432360965",
    "latitude": "29.954732758635625",
    "geocoded_column": {
      "latitude": "29.954732758635625",
      "longitude": "-90.0489432360965"
    }
  },
  {
    "service_request": "2023-964945",
    "request_type": "Abandoned Vehicles",
    "request_reason": "Abandoned/Junk Vehicles",
    "date_created": "2023-01-10T19:28:56.000",
    "date_modified": "2023-01-10T19:28:56.000",
    "request_status": "Pending",
    "responsible_agency": "Department of Public Works",
    "final_address": "417 Red Allen Way",
    "address_councildis": "C",
    "status": "Pending",
    "rowid": "964945",
    "final_x": "3686693.89372",
    "final_y": "528646.756096",
    "longitude": "-90.05177138571395",
    "latitude": "29.94743652334121",
    "geocoded_column": {
      "latitude": "29.94743652334121",
      "longitude": "-90.05177138571395"
    }
  },
  {
    "service_request": "2023-964944",
    "request_type": "Trash/Recycling",
    "request_reason": "Missed Trash Pick-Up",
    "date_created": "2023-01-10T19:26:08.000",
    "date_modified": "2023-01-10T19:26:09.000",
    "request_status": "Pending",
    "responsible_agency": "Department of Sanitation",
    "final_address": "2124 S Gayoso St",
    "address_councildis": "B",
    "status": "Assigned to Contractor",
    "contractor": "Richards Disposal",
    "rowid": "964944",
    "final_x": "3669691.5625",
    "final_y": "528928.721152",
    "longitude": "-90.10544490426787",
    "latitude": "29.948723765931963",
    "geocoded_column": {
      "latitude": "29.948723765931963",
      "longitude": "-90.10544490426787"
    }
  },
  {
    "service_request": "2023-964943",
    "request_type": "Trash/Recycling",
    "request_reason": "MIssed Recycling Pick-Up",
    "date_created": "2023-01-10T19:24:35.000",
    "date_modified": "2023-01-10T19:24:36.000",
    "request_status": "Pending",
    "responsible_agency": "Department of Sanitation",
    "final_address": "2124 S Gayoso St",
    "address_councildis": "B",
    "status": "Assigned to Contractor",
    "contractor": "Richards Disposal",
    "rowid": "964943",
    "final_x": "3669691.5625",
    "final_y": "528928.721152",
    "longitude": "-90.10544490426787",
    "latitude": "29.948723765931963",
    "geocoded_column": {
      "latitude": "29.948723765931963",
      "longitude": "-90.10544490426787"
    }
  },
  {
    "service_request": "2023-964942",
    "request_type": "Trash/Recycling",
    "request_reason": "MIssed Recycling Pick-Up",
    "date_created": "2023-01-10T19:24:19.000",
    "date_modified": "2023-01-10T19:24:20.000",
    "request_status": "Pending",
    "responsible_agency": "Department of Sanitation",
    "final_address": "2308 Conti St",
    "address_councildis": "B",
    "status": "Assigned to Contractor",
    "contractor": "Richards Disposal",
    "rowid": "964942",
    "final_x": "3677312.6669",
    "final_y": "535033.132934",
    "longitude": "-90.08117119363384",
    "latitude": "29.96528208583582",
    "geocoded_column": {
      "latitude": "29.96528208583582",
      "longitude": "-90.08117119363384"
    }
  },
  {
    "service_request": "2023-964941",
    "request_type": "Trash/Recycling",
    "request_reason": "Missed Trash Pick-Up",
    "date_created": "2023-01-10T19:22:52.000",
    "date_modified": "2023-01-10T19:22:53.000",
    "request_status": "Pending",
    "responsible_agency": "Department of Sanitation",
    "final_address": "415 Red Allen Way",
    "address_councildis": "C",
    "status": "Assigned to Contractor",
    "contractor": "Richards Disposal",
    "rowid": "964941",
    "final_x": "3686671.44201",
    "final_y": "528661.202368",
    "longitude": "-90.05184176412031",
    "latitude": "29.947476936122307",
    "geocoded_column": {
      "latitude": "29.947476936122307",
      "longitude": "-90.05184176412031"
    }
  },
  {
    "service_request": "2023-964940",
    "request_type": "Trash/Recycling",
    "request_reason": "Missed Trash Pick-Up",
    "date_created": "2023-01-10T19:22:51.000",
    "date_modified": "2023-01-10T19:22:52.000",
    "request_status": "Pending",
    "responsible_agency": "Department of Sanitation",
    "final_address": "2308 Conti St",
    "address_councildis": "B",
    "status": "Assigned to Contractor",
    "contractor": "Richards Disposal",
    "rowid": "964940",
    "final_x": "3677312.6669",
    "final_y": "535033.132934",
    "longitude": "-90.08117119363384",
    "latitude": "29.96528208583582",
    "geocoded_column": {
      "latitude": "29.96528208583582",
      "longitude": "-90.08117119363384"
    }
  },
  {
    "service_request": "2023-964939",
    "request_type": "Trash/Recycling",
    "request_reason": "MIssed Recycling Pick-Up",
    "date_created": "2023-01-10T19:18:24.000",
    "date_modified": "2023-01-10T19:18:25.000",
    "request_status": "Pending",
    "responsible_agency": "Department of Sanitation",
    "final_address": "134 N Alexander St",
    "address_councildis": "A",
    "status": "Assigned to Contractor",
    "contractor": "Richards Disposal",
    "rowid": "964939",
    "final_x": "3670253.93831",
    "final_y": "539432.27457",
    "longitude": "-90.10331323336244",
    "latitude": "29.97758845966334",
    "geocoded_column": {
      "latitude": "29.97758845966334",
      "longitude": "-90.10331323336244"
    }
  },
  {
    "service_request": "2023-964938",
    "request_type": "Trash/Recycling",
    "request_reason": "Illegal Dumping",
    "date_created": "2023-01-10T19:17:58.000",
    "date_modified": "2023-01-10T19:17:58.000",
    "request_status": "Pending",
    "responsible_agency": "Department of Sanitation",
    "final_address": "2254 N Prieur St",
    "address_councildis": "D",
    "status": "Pending",
    "rowid": "964938",
    "final_x": "3685363.65026",
    "final_y": "539185.44993",
    "longitude": "-90.05560042043216",
    "latitude": "29.976455139694497",
    "geocoded_column": {
      "latitude": "29.976455139694497",
      "longitude": "-90.05560042043216"
    }
  },
  {
    "service_request": "2023-964937",
    "request_type": "Trash/Recycling",
    "request_reason": "Repair Trash Cart",
    "date_created": "2023-01-10T19:15:55.000",
    "date_modified": "2023-01-10T19:15:56.000",
    "request_status": "Pending",
    "responsible_agency": "Department of Sanitation",
    "final_address": "7241 Beauvoir Ct",
    "address_councildis": "E",
    "status": "Assigned to Contractor",
    "contractor": "Waste Pro",
    "rowid": "964937",
    "final_x": "3716234.58732",
    "final_y": "567821.32746",
    "longitude": "-89.95701546433737",
    "latitude": "30.054209861228298",
    "geocoded_column": {
      "latitude": "30.054209861228298",
      "longitude": "-89.95701546433737"
    }
  },
  {
    "service_request": "2023-964936",
    "request_type": "Trash/Recycling",
    "request_reason": "Illegal Dumping",
    "date_created": "2023-01-10T19:14:24.000",
    "date_modified": "2023-01-10T19:14:24.000",
    "request_status": "Pending",
    "responsible_agency": "Department of Sanitation",
    "final_address": "2825 Monticello Ave",
    "address_councildis": "A",
    "status": "Pending",
    "rowid": "964936",
    "final_x": "3662609.70451",
    "final_y": "535964.583879",
    "longitude": "-90.12757168402511",
    "latitude": "29.96827687392088",
    "geocoded_column": {
      "latitude": "29.96827687392088",
      "longitude": "-90.12757168402511"
    }
  },
  {
    "service_request": "2023-964935",
    "request_type": "Traffic Signals/Signs/Striping/Streetlights",
    "request_reason": "Street Light Outage/Malfunction",
    "date_created": "2023-01-10T19:13:06.000",
    "date_modified": "2023-01-10T19:13:07.000",
    "request_status": "Pending",
    "responsible_agency": "Department of Public Works",
    "final_address": "2336 Allen Toussaint Blvd",
    "address_councildis": "D",
    "status": "Assigned to Contractor",
    "contractor": "Legacy Professional Services",
    "rowid": "964935",
    "final_x": "3684477.61967",
    "final_y": "555703.706521",
    "longitude": "-90.05781803229118",
    "latitude": "30.021901549160525",
    "geocoded_column": {
      "latitude": "30.021901549160525",
      "longitude": "-90.05781803229118"
    }
  },
  {
    "service_request": "2023-964934",
    "request_type": "Property Maintenance",
    "request_reason": "Property Maintenance",
    "date_created": "2023-01-10T19:12:58.000",
    "date_modified": "2023-01-10T19:12:58.000",
    "request_status": "Pending",
    "responsible_agency": "Department of Code Enforcement",
    "final_address": "3323 Hollygrove St",
    "address_councildis": "A",
    "status": "Pending",
    "rowid": "964934",
    "final_x": "3664807.9097",
    "final_y": "536164.268807",
    "longitude": "-90.12062295064244",
    "latitude": "29.968762154325013",
    "geocoded_column": {
      "latitude": "29.968762154325013",
      "longitude": "-90.12062295064244"
    }
  },
  {
    "service_request": "2023-964933",
    "request_type": "Trash/Recycling",
    "request_reason": "Request a Large Item Pick Up",
    "date_created": "2023-01-10T19:12:49.000",
    "date_modified": "2023-01-10T19:12:50.000",
    "request_status": "Pending",
    "responsible_agency": "Department of Sanitation",
    "final_address": "2254 N Prieur St",
    "address_councildis": "D",
    "status": "Assigned to Contractor",
    "contractor": "IV Waste",
    "rowid": "964933",
    "final_x": "3685363.65026",
    "final_y": "539185.44993",
    "longitude": "-90.05560042043216",
    "latitude": "29.976455139694497",
    "geocoded_column": {
      "latitude": "29.976455139694497",
      "longitude": "-90.05560042043216"
    }
  },
  {
    "service_request": "2023-964932",
    "request_type": "Trash/Recycling",
    "request_reason": "MIssed Recycling Pick-Up",
    "date_created": "2023-01-10T19:09:56.000",
    "date_modified": "2023-01-10T19:09:56.000",
    "request_status": "Pending",
    "responsible_agency": "Department of Sanitation",
    "final_address": "2928 Cherry St",
    "address_councildis": "A",
    "status": "Assigned to Contractor",
    "contractor": "Richards Disposal",
    "rowid": "964932",
    "final_x": "3663046.95635",
    "final_y": "535900.233159",
    "longitude": "-90.12619295764681",
    "latitude": "29.968087271678986",
    "geocoded_column": {
      "latitude": "29.968087271678986",
      "longitude": "-90.12619295764681"
    }
  },
  {
    "service_request": "2023-964931",
    "request_type": "Trash/Recycling",
    "request_reason": "Missed Trash Pick-Up",
    "date_created": "2023-01-10T19:07:24.000",
    "date_modified": "2023-01-10T19:07:25.000",
    "request_status": "Pending",
    "responsible_agency": "Department of Sanitation",
    "final_address": "2928 Cherry St",
    "address_councildis": "A",
    "status": "Assigned to Contractor",
    "contractor": "Richards Disposal",
    "rowid": "964931",
    "final_x": "3663046.95635",
    "final_y": "535900.233159",
    "longitude": "-90.12619295764681",
    "latitude": "29.968087271678986",
    "geocoded_column": {
      "latitude": "29.968087271678986",
      "longitude": "-90.12619295764681"
    }
  },
  {
    "service_request": "2023-964930",
    "request_type": "Trash/Recycling",
    "request_reason": "Missed Trash Pick-Up",
    "date_created": "2023-01-10T19:06:25.000",
    "date_modified": "2023-01-10T19:06:26.000",
    "request_status": "Pending",
    "responsible_agency": "Department of Sanitation",
    "final_address": "9300 Palmetto St",
    "address_councildis": "A",
    "status": "Assigned to Contractor",
    "contractor": "Richards Disposal",
    "rowid": "964930",
    "final_x": "3664914.41984",
    "final_y": "537953.704329",
    "longitude": "-90.12022675482285",
    "latitude": "29.973679408591824",
    "geocoded_column": {
      "latitude": "29.973679408591824",
      "longitude": "-90.12022675482285"
    }
  },
  {
    "service_request": "2023-964929",
    "request_type": "Trash/Recycling",
    "request_reason": "MIssed Recycling Pick-Up",
    "date_created": "2023-01-10T19:05:10.000",
    "date_modified": "2023-01-10T19:05:11.000",
    "request_status": "Pending",
    "responsible_agency": "Department of Sanitation",
    "final_address": "2900 St Peter St",
    "address_councildis": "A",
    "status": "Assigned to Contractor",
    "contractor": "Richards Disposal",
    "rowid": "964929",
    "final_x": "3675873.25333",
    "final_y": "537398.609864",
    "longitude": "-90.08563545268144",
    "latitude": "29.971829517306773",
    "geocoded_column": {
      "latitude": "29.971829517306773",
      "longitude": "-90.08563545268144"
    }
  },
  {
    "service_request": "2023-964928",
    "request_type": "Trash/Recycling",
    "request_reason": "MIssed Recycling Pick-Up",
    "date_created": "2023-01-10T19:04:08.000",
    "date_modified": "2023-01-10T19:04:09.000",
    "request_status": "Pending",
    "responsible_agency": "Department of Sanitation",
    "final_address": "6200 Cartier Ave",
    "address_councildis": "D",
    "status": "Assigned to Contractor",
    "contractor": "IV Waste",
    "rowid": "964928",
    "final_x": "3677535.62939",
    "final_y": "555649.817241",
    "longitude": "-90.07975480784933",
    "latitude": "30.021964027437583",
    "geocoded_column": {
      "latitude": "30.021964027437583",
      "longitude": "-90.07975480784933"
    }
  },
  {
    "service_request": "2023-964927",
    "request_type": "Traffic Signals/Signs/Striping/Streetlights",
    "request_reason": "Street Light Outage/Malfunction",
    "date_created": "2023-01-10T19:01:13.000",
    "date_modified": "2023-01-10T19:01:14.000",
    "request_status": "Pending",
    "responsible_agency": "Department of Public Works",
    "final_address": "76 Audubon Blvd",
    "address_councildis": "A",
    "status": "Assigned to Contractor",
    "contractor": "Legacy Professional Services",
    "rowid": "964927",
    "final_x": "3665685.25613",
    "final_y": "527653.766335",
    "longitude": "-90.11813726209179",
    "latitude": "29.94533549199607",
    "geocoded_column": {
      "latitude": "29.94533549199607",
      "longitude": "-90.11813726209179"
    }
  },
  {
    "service_request": "2023-964926",
    "request_type": "Trash/Recycling",
    "request_reason": "Missed Trash Pick-Up",
    "date_created": "2023-01-10T18:59:52.000",
    "date_modified": "2023-01-10T18:59:52.000",
    "request_status": "Pending",
    "responsible_agency": "Department of Sanitation",
    "final_address": "3455 Camp St",
    "address_councildis": "B",
    "status": "Assigned to Contractor",
    "contractor": "Richards Disposal",
    "rowid": "964926",
    "final_x": "3674372.18715",
    "final_y": "519806.282872",
    "longitude": "-90.09097845355465",
    "latitude": "29.923501286377128",
    "geocoded_column": {
      "latitude": "29.923501286377128",
      "longitude": "-90.09097845355465"
    }
  },
  {
    "service_request": "2023-964925",
    "request_type": "Trash/Recycling",
    "request_reason": "Replace Recycling Cart",
    "date_created": "2023-01-10T18:56:36.000",
    "date_modified": "2023-01-10T18:56:36.000",
    "request_status": "Pending",
    "responsible_agency": "Department of Sanitation",
    "final_address": "417 16Th St",
    "address_councildis": "A",
    "status": "Pending",
    "rowid": "964925",
    "final_x": "3664623.7785",
    "final_y": "548511.97365",
    "longitude": "-90.12079180253694",
    "latitude": "30.00271953534681",
    "geocoded_column": {
      "latitude": "30.00271953534681",
      "longitude": "-90.12079180253694"
    }
  },
  {
    "service_request": "2023-964924",
    "request_type": "Trash/Recycling",
    "request_reason": "Missed Trash Pick-Up",
    "date_created": "2023-01-10T18:56:03.000",
    "date_modified": "2023-01-10T18:56:04.000",
    "request_status": "Pending",
    "responsible_agency": "Department of Sanitation",
    "final_address": "600 Verret St",
    "address_councildis": "C",
    "status": "Assigned to Contractor",
    "contractor": "Richards Disposal",
    "rowid": "964924",
    "final_x": "3687079.53295",
    "final_y": "529449.930689",
    "longitude": "-90.05052538655315",
    "latitude": "29.949633114079695",
    "geocoded_column": {
      "latitude": "29.949633114079695",
      "longitude": "-90.05052538655315"
    }
  },
  {
    "service_request": "2023-964923",
    "request_type": "Trash/Recycling",
    "request_reason": "Missed Trash Pick-Up",
    "date_created": "2023-01-10T18:54:41.000",
    "date_modified": "2023-01-10T18:54:42.000",
    "request_status": "Pending",
    "responsible_agency": "Department of Sanitation",
    "final_address": "604 Verret St",
    "address_councildis": "C",
    "status": "Assigned to Contractor",
    "contractor": "Richards Disposal",
    "rowid": "964923",
    "final_x": "3687082.71497",
    "final_y": "529426.237377",
    "longitude": "-90.05051617702954",
    "latitude": "29.94956786761005",
    "geocoded_column": {
      "latitude": "29.94956786761005",
      "longitude": "-90.05051617702954"
    }
  },
  {
    "service_request": "2023-964922",
    "request_type": "Trash/Recycling",
    "request_reason": "Order Trash Cart",
    "date_created": "2023-01-10T18:54:18.000",
    "date_modified": "2023-01-10T18:54:18.000",
    "request_status": "Pending",
    "responsible_agency": "Department of Sanitation",
    "final_address": "4713 Chestnut St",
    "address_councildis": "B",
    "status": "Assigned to Contractor",
    "contractor": "Richards Disposal",
    "rowid": "964922",
    "final_x": "3669743.06215",
    "final_y": "519434.831415",
    "longitude": "-90.10560348332311",
    "latitude": "29.922617108455835",
    "geocoded_column": {
      "latitude": "29.922617108455835",
      "longitude": "-90.10560348332311"
    }
  },
  {
    "service_request": "2023-964921",
    "request_type": "Trash/Recycling",
    "request_reason": "Request a Large Item Pick Up",
    "date_created": "2023-01-10T18:53:26.000",
    "date_modified": "2023-01-10T18:53:26.000",
    "request_status": "Pending",
    "responsible_agency": "Department of Sanitation",
    "final_address": "4220 Pitt St",
    "address_councildis": "B",
    "status": "Assigned to Contractor",
    "contractor": "Richards Disposal",
    "rowid": "964921",
    "final_x": "3671474.84142",
    "final_y": "520552.904568",
    "longitude": "-90.10009895141192",
    "latitude": "29.925640317700093",
    "geocoded_column": {
      "latitude": "29.925640317700093",
      "longitude": "-90.10009895141192"
    }
  },
  {
    "service_request": "2023-964920",
    "request_type": "Trash/Recycling",
    "request_reason": "Missed Trash Pick-Up",
    "date_created": "2023-01-10T18:48:48.000",
    "date_modified": "2023-01-10T18:48:48.000",
    "request_status": "Pending",
    "responsible_agency": "Department of Sanitation",
    "final_address": "533 Belleville St",
    "address_councildis": "C",
    "status": "Assigned to Contractor",
    "contractor": "Richards Disposal",
    "rowid": "964920",
    "final_x": "3687793.07811",
    "final_y": "529658.152897",
    "longitude": "-90.04826503279001",
    "latitude": "29.95018366923498",
    "geocoded_column": {
      "latitude": "29.95018366923498",
      "longitude": "-90.04826503279001"
    }
  },
  {
    "service_request": "2023-964919",
    "request_type": "Trash/Recycling",
    "request_reason": "Missed Trash Pick-Up",
    "date_created": "2023-01-10T18:41:55.000",
    "date_modified": "2023-01-10T18:41:56.000",
    "request_status": "Pending",
    "responsible_agency": "Department of Sanitation",
    "final_address": "4222 Pitt St",
    "address_councildis": "B",
    "status": "Assigned to Contractor",
    "contractor": "Richards Disposal",
    "rowid": "964919",
    "final_x": "3671437.90497",
    "final_y": "520554.902584",
    "longitude": "-90.10021548093425",
    "latitude": "29.92564690464922",
    "geocoded_column": {
      "latitude": "29.92564690464922",
      "longitude": "-90.10021548093425"
    }
  },
  {
    "service_request": "2023-964918",
    "request_type": "Trash/Recycling",
    "request_reason": "Order Recycling Cart",
    "date_created": "2023-01-10T18:39:55.000",
    "date_modified": "2023-01-10T18:39:55.000",
    "request_status": "Pending",
    "responsible_agency": "Department of Sanitation",
    "final_address": "4715 Odin St",
    "address_councildis": "D",
    "status": "Pending",
    "rowid": "964918",
    "final_x": "3691071.96675",
    "final_y": "553848.243991",
    "longitude": "-90.03704799495276",
    "latitude": "30.016596230843746",
    "geocoded_column": {
      "latitude": "30.016596230843746",
      "longitude": "-90.03704799495276"
    }
  },
  {
    "service_request": "2023-964917",
    "request_type": "Trash/Recycling",
    "request_reason": "Request a Large Item Pick Up",
    "date_created": "2023-01-10T18:38:33.000",
    "date_modified": "2023-01-10T18:38:33.000",
    "request_status": "Pending",
    "responsible_agency": "Department of Sanitation",
    "final_address": "965 Navarre St",
    "address_councildis": "A",
    "status": "Assigned to Contractor",
    "contractor": "IV Waste",
    "rowid": "964917",
    "final_x": "3670335.99034",
    "final_y": "543731.92763",
    "longitude": "-90.10290826236762",
    "latitude": "29.98940861754111",
    "geocoded_column": {
      "latitude": "29.98940861754111",
      "longitude": "-90.10290826236762"
    }
  },
  {
    "service_request": "2023-964916",
    "request_type": "Trash/Recycling",
    "request_reason": "Missed Trash Pick-Up",
    "date_created": "2023-01-10T18:38:15.000",
    "date_modified": "2023-01-10T18:38:16.000",
    "request_status": "Pending",
    "responsible_agency": "Department of Sanitation",
    "final_address": "3920 Annunciation St",
    "address_councildis": "B",
    "status": "Assigned to Contractor",
    "contractor": "Richards Disposal",
    "rowid": "964916",
    "final_x": "3673171.54939",
    "final_y": "517908.574326",
    "longitude": "-90.0948331748861",
    "latitude": "29.91831893388864",
    "geocoded_column": {
      "latitude": "29.91831893388864",
      "longitude": "-90.0948331748861"
    }
  },
  {
    "service_request": "2023-964915",
    "request_type": "Trash/Recycling",
    "request_reason": "Missed Trash Pick-Up",
    "date_created": "2023-01-10T18:35:38.000",
    "date_modified": "2023-01-10T18:35:38.000",
    "request_status": "Pending",
    "responsible_agency": "Department of Sanitation",
    "final_address": "2418 Somerset Dr",
    "address_councildis": "C",
    "status": "Assigned to Contractor",
    "contractor": "Richards Disposal",
    "rowid": "964915",
    "final_x": "3702953.12164",
    "final_y": "522120.909946",
    "longitude": "-90.00067476078239",
    "latitude": "29.928982693213577",
    "geocoded_column": {
      "latitude": "29.928982693213577",
      "longitude": "-90.00067476078239"
    }
  },
  {
    "service_request": "2023-964914",
    "request_type": "Traffic Signals/Signs/Striping/Streetlights",
    "request_reason": "Street Light Outage/Malfunction",
    "date_created": "2023-01-10T18:34:54.000",
    "date_modified": "2023-01-10T18:38:01.000",
    "request_status": "Pending",
    "responsible_agency": "Department of Public Works",
    "final_address": "975 Wilson Dr, New Orleans, Louisiana, 70119",
    "address_councildis": "A",
    "status": "Assigned to Contractor",
    "contractor": "Legacy Professional Services",
    "rowid": "964914",
    "final_x": "3674124.67009",
    "final_y": "540471.059147",
    "longitude": "-90.09105256149084",
    "latitude": "29.980329943177036",
    "geocoded_column": {
      "latitude": "29.980329943177036",
      "longitude": "-90.09105256149084"
    }
  },
  {
    "service_request": "2023-964913",
    "request_type": "Trash/Recycling",
    "request_reason": "MIssed Recycling Pick-Up",
    "date_created": "2023-01-10T18:34:15.000",
    "date_modified": "2023-01-10T18:34:16.000",
    "request_status": "Pending",
    "responsible_agency": "Department of Sanitation",
    "final_address": "2418 Somerset Dr",
    "address_councildis": "C",
    "status": "Assigned to Contractor",
    "contractor": "Richards Disposal",
    "rowid": "964913",
    "final_x": "3702953.12164",
    "final_y": "522120.909946",
    "longitude": "-90.00067476078239",
    "latitude": "29.928982693213577",
    "geocoded_column": {
      "latitude": "29.928982693213577",
      "longitude": "-90.00067476078239"
    }
  },
  {
    "service_request": "2023-964912",
    "request_type": "Trash/Recycling",
    "request_reason": "Missed Trash Pick-Up",
    "date_created": "2023-01-10T18:33:34.000",
    "date_modified": "2023-01-10T18:33:35.000",
    "request_status": "Pending",
    "responsible_agency": "Department of Sanitation",
    "final_address": "284 Abalon Ct",
    "address_councildis": "C",
    "status": "Assigned to Contractor",
    "contractor": "Richards Disposal",
    "rowid": "964912",
    "final_x": "3689436.85302",
    "final_y": "530705.869762",
    "longitude": "-90.0430376242343",
    "latitude": "29.953013737359697",
    "geocoded_column": {
      "latitude": "29.953013737359697",
      "longitude": "-90.0430376242343"
    }
  },
  {
    "service_request": "2023-964911",
    "request_type": "Trash/Recycling",
    "request_reason": "Missed Trash Pick-Up",
    "date_created": "2023-01-10T18:30:12.000",
    "date_modified": "2023-01-10T18:30:13.000",
    "request_status": "Pending",
    "responsible_agency": "Department of Sanitation",
    "final_address": "531 Belleville St",
    "address_councildis": "C",
    "status": "Assigned to Contractor",
    "contractor": "Richards Disposal",
    "rowid": "964911",
    "final_x": "3687794.24777",
    "final_y": "529671.020737",
    "longitude": "-90.04826088396355",
    "latitude": "29.950219015319774",
    "geocoded_column": {
      "latitude": "29.950219015319774",
      "longitude": "-90.04826088396355"
    }
  },
  {
    "service_request": "2023-964910",
    "request_type": "Trash/Recycling",
    "request_reason": "Missed Trash Pick-Up",
    "date_created": "2023-01-10T18:28:54.000",
    "date_modified": "2023-01-10T18:28:55.000",
    "request_status": "Pending",
    "responsible_agency": "Department of Sanitation",
    "final_address": "4621 S Johnson St",
    "address_councildis": "B",
    "status": "Assigned to Contractor",
    "contractor": "Richards Disposal",
    "rowid": "964910",
    "final_x": "3669323.73351",
    "final_y": "527169.473855",
    "longitude": "-90.10666576562919",
    "latitude": "29.943897241788157",
    "geocoded_column": {
      "latitude": "29.943897241788157",
      "longitude": "-90.10666576562919"
    }
  },
  {
    "service_request": "2023-964909",
    "request_type": "Trash/Recycling",
    "request_reason": "Repair Recycling Cart",
    "date_created": "2023-01-10T18:27:58.000",
    "date_modified": "2023-01-10T18:27:58.000",
    "request_status": "Pending",
    "responsible_agency": "Department of Sanitation",
    "final_address": "6830 Louisville St",
    "address_councildis": "A",
    "status": "Pending",
    "rowid": "964909",
    "final_x": "3668158.60666",
    "final_y": "553009.600215",
    "longitude": "-90.10947300622882",
    "latitude": "30.014983108672837",
    "geocoded_column": {
      "latitude": "30.014983108672837",
      "longitude": "-90.10947300622882"
    }
  },
  {
    "service_request": "2023-964908",
    "request_type": "Trash/Recycling",
    "request_reason": "MIssed Recycling Pick-Up",
    "date_created": "2023-01-10T18:27:14.000",
    "date_modified": "2023-01-10T18:27:14.000",
    "request_status": "Pending",
    "responsible_agency": "Department of Sanitation",
    "final_address": "6830 Louisville St",
    "address_councildis": "A",
    "status": "Assigned to Contractor",
    "contractor": "IV Waste",
    "rowid": "964908",
    "final_x": "3668158.60666",
    "final_y": "553009.600215",
    "longitude": "-90.10947300622882",
    "latitude": "30.014983108672837",
    "geocoded_column": {
      "latitude": "30.014983108672837",
      "longitude": "-90.10947300622882"
    }
  },
  {
    "service_request": "2023-964907",
    "request_type": "Trash/Recycling",
    "request_reason": "Missed Trash Pick-Up",
    "date_created": "2023-01-10T18:26:18.000",
    "date_modified": "2023-01-10T18:26:18.000",
    "request_status": "Pending",
    "responsible_agency": "Department of Sanitation",
    "final_address": "449 Abalon Ct",
    "address_councildis": "C",
    "status": "Assigned to Contractor",
    "contractor": "Richards Disposal",
    "rowid": "964907",
    "final_x": "3689207.88995",
    "final_y": "530067.056641",
    "longitude": "-90.0437832876647",
    "latitude": "29.951264308645396",
    "geocoded_column": {
      "latitude": "29.951264308645396",
      "longitude": "-90.0437832876647"
    }
  },
  {
    "service_request": "2023-964906",
    "request_type": "Trash/Recycling",
    "request_reason": "MIssed Recycling Pick-Up",
    "date_created": "2023-01-10T18:25:06.000",
    "date_modified": "2023-01-10T18:25:07.000",
    "request_status": "Pending",
    "responsible_agency": "Department of Sanitation",
    "final_address": "2309 Iberville St, New Orleans, Louisiana, 70119",
    "address_councildis": "B",
    "status": "Assigned to Contractor",
    "contractor": "Richards Disposal",
    "rowid": "964906",
    "final_x": "3676907.40226",
    "final_y": "534519.047429",
    "longitude": "-90.08246872239917",
    "latitude": "29.963880696021",
    "geocoded_column": {
      "latitude": "29.963880696021",
      "longitude": "-90.08246872239917"
    }
  },
  {
    "service_request": "2023-964905",
    "request_type": "Trash/Recycling",
    "request_reason": "Missed Trash Pick-Up",
    "date_created": "2023-01-10T18:23:43.000",
    "date_modified": "2023-01-10T18:23:43.000",
    "request_status": "Pending",
    "responsible_agency": "Department of Sanitation",
    "final_address": "2505 Napoleon Ave",
    "address_councildis": "B",
    "status": "Assigned to Contractor",
    "contractor": "Richards Disposal",
    "rowid": "964905",
    "final_x": "3670622.57812",
    "final_y": "524132.965436",
    "longitude": "-90.1026679162249",
    "latitude": "29.935509530840733",
    "geocoded_column": {
      "latitude": "29.935509530840733",
      "longitude": "-90.1026679162249"
    }
  },
  {
    "service_request": "2023-964904",
    "request_type": "Trash/Recycling",
    "request_reason": "Missed Trash Pick-Up",
    "date_created": "2023-01-10T18:21:08.000",
    "date_modified": "2023-01-10T18:21:09.000",
    "request_status": "Pending",
    "responsible_agency": "Department of Sanitation",
    "final_address": "831 Pacific Ave",
    "address_councildis": "C",
    "status": "Assigned to Contractor",
    "contractor": "Richards Disposal",
    "rowid": "964904",
    "final_x": "3688403.64739",
    "final_y": "528426.378816",
    "longitude": "-90.04638086550617",
    "latitude": "29.94677786941864",
    "geocoded_column": {
      "latitude": "29.94677786941864",
      "longitude": "-90.04638086550617"
    }
  },
  {
    "service_request": "2023-964903",
    "request_type": "Trash/Recycling",
    "request_reason": "MIssed Recycling Pick-Up",
    "date_created": "2023-01-10T18:19:29.000",
    "date_modified": "2023-01-10T18:19:30.000",
    "request_status": "Pending",
    "responsible_agency": "Department of Sanitation",
    "final_address": "540 Audubon St, New Orleans, Louisiana, 70118",
    "address_councildis": "A",
    "status": "Assigned to Contractor",
    "contractor": "Richards Disposal",
    "rowid": "964903",
    "final_x": "3662849.61095",
    "final_y": "524071.19782",
    "longitude": "-90.12720940469075",
    "latitude": "29.93556695424618",
    "geocoded_column": {
      "latitude": "29.93556695424618",
      "longitude": "-90.12720940469075"
    }
  },
  {
    "service_request": "2023-964902",
    "request_type": "Trash/Recycling",
    "request_reason": "MIssed Recycling Pick-Up",
    "date_created": "2023-01-10T18:17:43.000",
    "date_modified": "2023-01-10T18:17:44.000",
    "request_status": "Pending",
    "responsible_agency": "Department of Sanitation",
    "final_address": "2552 Dumaine St",
    "address_councildis": "D",
    "status": "Assigned to Contractor",
    "contractor": "Richards Disposal",
    "rowid": "964902",
    "final_x": "3677602.1677",
    "final_y": "537131.789768",
    "longitude": "-90.08018448309603",
    "latitude": "29.9710439749077",
    "geocoded_column": {
      "latitude": "29.9710439749077",
      "longitude": "-90.08018448309603"
    }
  },
  {
    "service_request": "2023-964901",
    "request_type": "Trash/Recycling",
    "request_reason": "Repair Trash Cart",
    "date_created": "2023-01-10T18:17:31.000",
    "date_modified": "2023-01-10T18:17:32.000",
    "request_status": "Pending",
    "responsible_agency": "Department of Sanitation",
    "final_address": "1214 Arabella St",
    "address_councildis": "A",
    "status": "Assigned to Contractor",
    "contractor": "Richards Disposal",
    "rowid": "964901",
    "final_x": "3666102.37306",
    "final_y": "520395.547192",
    "longitude": "-90.11706353703596",
    "latitude": "29.925365533933967",
    "geocoded_column": {
      "latitude": "29.925365533933967",
      "longitude": "-90.11706353703596"
    }
  },
  {
    "service_request": "2023-964900",
    "request_type": "Trash/Recycling",
    "request_reason": "Missed Trash Pick-Up",
    "date_created": "2023-01-10T18:17:27.000",
    "date_modified": "2023-01-10T18:17:28.000",
    "request_status": "Pending",
    "responsible_agency": "Department of Sanitation",
    "final_address": "811 Opelousas Ave",
    "address_councildis": "C",
    "status": "Assigned to Contractor",
    "contractor": "Richards Disposal",
    "rowid": "964900",
    "final_x": "3687924.93564",
    "final_y": "529038.100032",
    "longitude": "-90.04787066104254",
    "latitude": "29.948474669172093",
    "geocoded_column": {
      "latitude": "29.948474669172093",
      "longitude": "-90.04787066104254"
    }
  },
  {
    "service_request": "2023-964899",
    "request_type": "Traffic Signals/Signs/Striping/Streetlights",
    "request_reason": "Street Light Knocked Down/Leaning",
    "date_created": "2023-01-10T18:17:13.000",
    "date_modified": "2023-01-10T18:17:14.000",
    "request_status": "Pending",
    "responsible_agency": "Department of Public Works",
    "final_address": "6208 Pratt Pl",
    "address_councildis": "D",
    "status": "Pending",
    "contractor": "Legacy Professional Services",
    "rowid": "964899",
    "final_x": "3679890.83957",
    "final_y": "555683.170585",
    "longitude": "-90.07231178728918",
    "latitude": "30.02198467790487",
    "geocoded_column": {
      "latitude": "30.02198467790487",
      "longitude": "-90.07231178728918"
    }
  },
  {
    "service_request": "2023-964898",
    "request_type": "Trash/Recycling",
    "request_reason": "Missed Trash Pick-Up",
    "date_created": "2023-01-10T18:15:26.000",
    "date_modified": "2023-01-10T18:15:26.000",
    "request_status": "Pending",
    "responsible_agency": "Department of Sanitation",
    "final_address": "1139 Terry St",
    "address_councildis": "C",
    "status": "Assigned to Contractor",
    "contractor": "Richards Disposal",
    "rowid": "964898",
    "final_x": "3696941.0216",
    "final_y": "527091.059967",
    "longitude": "-90.01947375727",
    "latitude": "29.942839787627104",
    "geocoded_column": {
      "latitude": "29.942839787627104",
      "longitude": "-90.01947375727"
    }
  },
  {
    "service_request": "2023-964897",
    "request_type": "Trash/Recycling",
    "request_reason": "Request a Large Item Pick Up",
    "date_created": "2023-01-10T18:15:03.000",
    "date_modified": "2023-01-10T18:15:04.000",
    "request_status": "Pending",
    "responsible_agency": "Department of Sanitation",
    "final_address": "6432 Milne Blvd",
    "address_councildis": "A",
    "status": "Assigned to Contractor",
    "contractor": "IV Waste",
    "rowid": "964897",
    "final_x": "3667267.17485",
    "final_y": "550591.603348",
    "longitude": "-90.11237092175635",
    "latitude": "30.00836061416873",
    "geocoded_column": {
      "latitude": "30.00836061416873",
      "longitude": "-90.11237092175635"
    }
  },
  {
    "service_request": "2023-964896",
    "request_type": "Trash/Recycling",
    "request_reason": "Missed Trash Pick-Up",
    "date_created": "2023-01-10T18:14:46.000",
    "date_modified": "2023-01-10T18:14:47.000",
    "request_status": "Pending",
    "responsible_agency": "Department of Sanitation",
    "final_address": "2816 Orleans Ave",
    "address_councildis": "A",
    "status": "Assigned to Contractor",
    "contractor": "Richards Disposal",
    "rowid": "964896",
    "final_x": "3676159.07048",
    "final_y": "537405.583624",
    "longitude": "-90.08473255648053",
    "latitude": "29.97184013206989",
    "geocoded_column": {
      "latitude": "29.97184013206989",
      "longitude": "-90.08473255648053"
    }
  },
  {
    "service_request": "2023-964895",
    "request_type": "Property Maintenance",
    "request_reason": "Property Maintenance",
    "date_created": "2023-01-10T18:14:07.000",
    "date_modified": "2023-01-10T18:14:07.000",
    "request_status": "Pending",
    "responsible_agency": "Department of Code Enforcement",
    "final_address": "6208 Pratt Pl",
    "address_councildis": "D",
    "status": "Pending",
    "rowid": "964895",
    "final_x": "3679890.83957",
    "final_y": "555683.170585",
    "longitude": "-90.07231178728918",
    "latitude": "30.02198467790487",
    "geocoded_column": {
      "latitude": "30.02198467790487",
      "longitude": "-90.07231178728918"
    }
  },
  {
    "service_request": "2023-964894",
    "request_type": "Trash/Recycling",
    "request_reason": "MIssed Recycling Pick-Up",
    "date_created": "2023-01-10T18:14:05.000",
    "date_modified": "2023-01-10T18:14:06.000",
    "request_status": "Pending",
    "responsible_agency": "Department of Sanitation",
    "final_address": "849 Olga St",
    "address_councildis": "A",
    "status": "Assigned to Contractor",
    "contractor": "Richards Disposal",
    "rowid": "964894",
    "final_x": "3673303.3876",
    "final_y": "540157.306763",
    "longitude": "-90.09365724713349",
    "latitude": "29.979491688927357",
    "geocoded_column": {
      "latitude": "29.979491688927357",
      "longitude": "-90.09365724713349"
    }
  },
  {
    "service_request": "2023-964893",
    "request_type": "Trash/Recycling",
    "request_reason": "Missed Trash Pick-Up",
    "date_created": "2023-01-10T18:12:29.000",
    "date_modified": "2023-01-10T18:12:30.000",
    "request_status": "Pending",
    "responsible_agency": "Department of Sanitation",
    "final_address": "1021 N Dupre St",
    "address_councildis": "A",
    "status": "Assigned to Contractor",
    "contractor": "Richards Disposal",
    "rowid": "964893",
    "final_x": "3676687.14273",
    "final_y": "538603.398281",
    "longitude": "-90.08302354223287",
    "latitude": "29.97511787967159",
    "geocoded_column": {
      "latitude": "29.97511787967159",
      "longitude": "-90.08302354223287"
    }
  },
  {
    "service_request": "2023-964892",
    "request_type": "Trash/Recycling",
    "request_reason": "Missed Trash Pick-Up",
    "date_created": "2023-01-10T18:11:25.000",
    "date_modified": "2023-01-10T18:11:26.000",
    "request_status": "Pending",
    "responsible_agency": "Department of Sanitation",
    "final_address": "630 Majestic Pl",
    "address_councildis": "C",
    "status": "Assigned to Contractor",
    "contractor": "Richards Disposal",
    "rowid": "964892",
    "final_x": "3687952.87113",
    "final_y": "526312.277438",
    "longitude": "-90.04787900936857",
    "latitude": "29.940978723276704",
    "geocoded_column": {
      "latitude": "29.940978723276704",
      "longitude": "-90.04787900936857"
    }
  },
  {
    "service_request": "2023-964891",
    "request_type": "Trash/Recycling",
    "request_reason": "MIssed Recycling Pick-Up",
    "date_created": "2023-01-10T18:05:43.000",
    "date_modified": "2023-01-10T18:05:44.000",
    "request_status": "Pending",
    "responsible_agency": "Department of Sanitation",
    "final_address": "822 Jena St",
    "address_councildis": "B",
    "status": "Assigned to Contractor",
    "contractor": "Richards Disposal",
    "rowid": "964891",
    "final_x": "3670636.04039",
    "final_y": "518561.896055",
    "longitude": "-90.10281429248332",
    "latitude": "29.92019047439104",
    "geocoded_column": {
      "latitude": "29.92019047439104",
      "longitude": "-90.10281429248332"
    }
  },
  {
    "service_request": "2023-964890",
    "request_type": "Trash/Recycling",
    "request_reason": "Missed Trash Pick-Up",
    "date_created": "2023-01-10T18:04:46.000",
    "date_modified": "2023-01-10T18:04:47.000",
    "request_status": "Pending",
    "responsible_agency": "Department of Sanitation",
    "final_address": "426 S Bernadotte St",
    "address_councildis": "A",
    "status": "Assigned to Contractor",
    "contractor": "Richards Disposal",
    "rowid": "964890",
    "final_x": "3667967.39489",
    "final_y": "538886.774537",
    "longitude": "-90.11055332269713",
    "latitude": "29.97615581094481",
    "geocoded_column": {
      "latitude": "29.97615581094481",
      "longitude": "-90.11055332269713"
    }
  },
  {
    "service_request": "2023-964889",
    "request_type": "Abandoned Vehicles",
    "request_reason": "Abandoned/Junk Vehicles",
    "date_created": "2023-01-10T18:04:31.000",
    "date_modified": "2023-01-10T18:04:31.000",
    "request_status": "Pending",
    "responsible_agency": "Department of Public Works",
    "final_address": "1640 Tropic Dr",
    "address_councildis": "C",
    "status": "Pending",
    "rowid": "964889",
    "final_x": "3699539.25994",
    "final_y": "524628.59398",
    "longitude": "-90.01136024466365",
    "latitude": "29.935986689744134",
    "geocoded_column": {
      "latitude": "29.935986689744134",
      "longitude": "-90.01136024466365"
    }
  },
  {
    "service_request": "2023-964888",
    "request_type": "Trash/Recycling",
    "request_reason": "Missed Trash Pick-Up",
    "date_created": "2023-01-10T18:03:31.000",
    "date_modified": "2023-01-10T18:03:32.000",
    "request_status": "Pending",
    "responsible_agency": "Department of Sanitation",
    "final_address": "1633 Tropic Dr",
    "address_councildis": "C",
    "status": "Assigned to Contractor",
    "contractor": "Richards Disposal",
    "rowid": "964888",
    "final_x": "3699441.24791",
    "final_y": "524688.232124",
    "longitude": "-90.01166749723583",
    "latitude": "29.93615378283697",
    "geocoded_column": {
      "latitude": "29.93615378283697",
      "longitude": "-90.01166749723583"
    }
  },
  {
    "service_request": "2023-964887",
    "request_type": "Trash/Recycling",
    "request_reason": "Missed Trash Pick-Up",
    "date_created": "2023-01-10T18:00:20.000",
    "date_modified": "2023-01-10T18:00:21.000",
    "request_status": "Pending",
    "responsible_agency": "Department of Sanitation",
    "final_address": "413 Constantinople St",
    "address_councildis": "B",
    "status": "Assigned to Contractor",
    "contractor": "Richards Disposal",
    "rowid": "964887",
    "final_x": "3672691.84276",
    "final_y": "517475.15071",
    "longitude": "-90.09636212350053",
    "latitude": "29.917141405070293",
    "geocoded_column": {
      "latitude": "29.917141405070293",
      "longitude": "-90.09636212350053"
    }
  },
  {
    "service_request": "2023-964886",
    "request_type": "Trash/Recycling",
    "request_reason": "Repair Trash Cart",
    "date_created": "2023-01-10T17:59:40.000",
    "date_modified": "2023-01-10T17:59:40.000",
    "request_status": "Pending",
    "responsible_agency": "Department of Sanitation",
    "final_address": "6231 Kingston Ct",
    "address_councildis": "C",
    "status": "Assigned to Contractor",
    "contractor": "Richards Disposal",
    "rowid": "964886",
    "final_x": "3707081.42827",
    "final_y": "517736.819702",
    "longitude": "-89.9878051460584",
    "latitude": "29.916795307891338",
    "geocoded_column": {
      "latitude": "29.916795307891338",
      "longitude": "-89.9878051460584"
    }
  },
  {
    "service_request": "2023-964885",
    "request_type": "Trash/Recycling",
    "request_reason": "Repair Trash Cart",
    "date_created": "2023-01-10T17:59:38.000",
    "date_modified": "2023-01-10T17:59:39.000",
    "request_status": "Pending",
    "responsible_agency": "Department of Sanitation",
    "final_address": "6231 Kingston Ct",
    "address_councildis": "C",
    "status": "Assigned to Contractor",
    "contractor": "Richards Disposal",
    "rowid": "964885",
    "final_x": "3707081.42827",
    "final_y": "517736.819702",
    "longitude": "-89.9878051460584",
    "latitude": "29.916795307891338",
    "geocoded_column": {
      "latitude": "29.916795307891338",
      "longitude": "-89.9878051460584"
    }
  },
  {
    "service_request": "2023-964884",
    "request_type": "Trash/Recycling",
    "request_reason": "Missed Trash Pick-Up",
    "date_created": "2023-01-10T17:54:09.000",
    "date_modified": "2023-01-10T17:54:10.000",
    "request_status": "Pending",
    "responsible_agency": "Department of Sanitation",
    "final_address": "3422 Annunciation St",
    "address_councildis": "B",
    "status": "Assigned to Contractor",
    "contractor": "Richards Disposal",
    "rowid": "964884",
    "final_x": "3675289.0923",
    "final_y": "518499.996919",
    "longitude": "-90.08812893210879",
    "latitude": "29.919882052544125",
    "geocoded_column": {
      "latitude": "29.919882052544125",
      "longitude": "-90.08812893210879"
    }
  },
  {
    "service_request": "2023-964883",
    "request_type": "Trash/Recycling",
    "request_reason": "Order Trash Cart",
    "date_created": "2023-01-10T17:52:12.000",
    "date_modified": "2023-01-10T17:52:13.000",
    "request_status": "Pending",
    "responsible_agency": "Department of Sanitation",
    "final_address": "5541 Rickert Dr",
    "address_councildis": "E",
    "status": "Assigned to Contractor",
    "contractor": "Waste Pro",
    "rowid": "964883",
    "final_x": "3703212.14878",
    "final_y": "556364.060442",
    "longitude": "-89.99859788093094",
    "latitude": "30.0231305339389",
    "geocoded_column": {
      "latitude": "30.0231305339389",
      "longitude": "-89.99859788093094"
    }
  },
  {
    "service_request": "2023-964882",
    "request_type": "Trash/Recycling",
    "request_reason": "Missed Trash Pick-Up",
    "date_created": "2023-01-10T17:52:07.000",
    "date_modified": "2023-01-10T17:52:07.000",
    "request_status": "Pending",
    "responsible_agency": "Department of Sanitation",
    "final_address": "3817 Palmyra St",
    "address_councildis": "A",
    "status": "Assigned to Contractor",
    "contractor": "Richards Disposal",
    "rowid": "964882",
    "final_x": "3671489.92289",
    "final_y": "537096.625288",
    "longitude": "-90.09948899924301",
    "latitude": "29.971129674039933",
    "geocoded_column": {
      "latitude": "29.971129674039933",
      "longitude": "-90.09948899924301"
    }
  },
  {
    "service_request": "2023-964881",
    "request_type": "Trash/Recycling",
    "request_reason": "Replace Trash Cart",
    "date_created": "2023-01-10T17:50:20.000",
    "date_modified": "2023-01-10T17:50:21.000",
    "request_status": "Pending",
    "responsible_agency": "Department of Sanitation",
    "final_address": "2301 Comet St",
    "address_councildis": "C",
    "status": "Assigned to Contractor",
    "contractor": "Richards Disposal",
    "rowid": "964881",
    "final_x": "3700143.49879",
    "final_y": "522598.537338",
    "longitude": "-90.0095267044825",
    "latitude": "29.9303855555188",
    "geocoded_column": {
      "latitude": "29.9303855555188",
      "longitude": "-90.0095267044825"
    }
  },
  {
    "service_request": "2023-964880",
    "request_type": "Trash/Recycling",
    "request_reason": "Missed Trash Pick-Up",
    "date_created": "2023-01-10T17:49:42.000",
    "date_modified": "2023-01-10T17:49:43.000",
    "request_status": "Pending",
    "responsible_agency": "Department of Sanitation",
    "final_address": "232 N St Patrick St",
    "address_councildis": "A",
    "status": "Assigned to Contractor",
    "contractor": "Richards Disposal",
    "rowid": "964880",
    "final_x": "3669615.8761",
    "final_y": "540376.446347",
    "longitude": "-90.10529649664751",
    "latitude": "29.980203430472525",
    "geocoded_column": {
      "latitude": "29.980203430472525",
      "longitude": "-90.10529649664751"
    }
  },
  {
    "service_request": "2023-964879",
    "request_type": "Roads/Drainage",
    "request_reason": "Debris in Roadway",
    "date_created": "2023-01-10T17:49:32.000",
    "date_modified": "2023-01-10T17:49:32.000",
    "request_status": "Pending",
    "responsible_agency": "Department of Public Works",
    "final_address": "3910 Orleans Ave",
    "address_councildis": "A",
    "status": "Pending",
    "rowid": "964879",
    "final_x": "3673107.51099",
    "final_y": "539689.771018",
    "longitude": "-90.09429187257788",
    "latitude": "29.978211950747617",
    "geocoded_column": {
      "latitude": "29.978211950747617",
      "longitude": "-90.09429187257788"
    }
  },
  {
    "service_request": "2023-964878",
    "request_type": "Trash/Recycling",
    "request_reason": "MIssed Recycling Pick-Up",
    "date_created": "2023-01-10T17:47:58.000",
    "date_modified": "2023-01-10T17:47:59.000",
    "request_status": "Pending",
    "responsible_agency": "Department of Sanitation",
    "final_address": "728 S Hennessey St",
    "address_councildis": "A",
    "status": "Assigned to Contractor",
    "contractor": "Richards Disposal",
    "rowid": "964878",
    "final_x": "3668745.21543",
    "final_y": "536854.329864",
    "longitude": "-90.10816536387033",
    "latitude": "29.970544423651113",
    "geocoded_column": {
      "latitude": "29.970544423651113",
      "longitude": "-90.10816536387033"
    }
  },
  {
    "service_request": "2023-964877",
    "request_type": "Abandoned Vehicles",
    "request_reason": "Abandoned/Junk Vehicles",
    "date_created": "2023-01-10T17:47:10.000",
    "date_modified": "2023-01-10T17:47:11.000",
    "request_status": "Pending",
    "responsible_agency": "Department of Public Works",
    "final_address": "1028 Vallette St",
    "address_councildis": "C",
    "status": "Pending",
    "rowid": "964877",
    "final_x": "3687481.83983",
    "final_y": "527724.795583",
    "longitude": "-90.04931616299861",
    "latitude": "29.944877190281076",
    "geocoded_column": {
      "latitude": "29.944877190281076",
      "longitude": "-90.04931616299861"
    }
  },
  {
    "service_request": "2023-964876",
    "request_type": "Trash/Recycling",
    "request_reason": "MIssed Recycling Pick-Up",
    "date_created": "2023-01-10T17:42:33.000",
    "date_modified": "2023-01-10T17:42:34.000",
    "request_status": "Pending",
    "responsible_agency": "Department of Sanitation",
    "final_address": "1213 N Robertson St",
    "address_councildis": "D",
    "status": "Assigned to Contractor",
    "contractor": "Richards Disposal",
    "rowid": "964876",
    "final_x": "3681289.44981",
    "final_y": "536031.065031",
    "longitude": "-90.06857793693486",
    "latitude": "29.967905963108247",
    "geocoded_column": {
      "latitude": "29.967905963108247",
      "longitude": "-90.06857793693486"
    }
  },
  {
    "service_request": "2023-964875",
    "request_type": "Trash/Recycling",
    "request_reason": "Missed Trash Pick-Up",
    "date_created": "2023-01-10T17:40:04.000",
    "date_modified": "2023-01-10T17:40:05.000",
    "request_status": "Pending",
    "responsible_agency": "Department of Sanitation",
    "final_address": "2234 Upperline St",
    "address_councildis": "B",
    "status": "Assigned to Contractor",
    "contractor": "Richards Disposal",
    "rowid": "964875",
    "final_x": "3669058.16033",
    "final_y": "523103.464955",
    "longitude": "-90.10764157652953",
    "latitude": "29.93272484293292",
    "geocoded_column": {
      "latitude": "29.93272484293292",
      "longitude": "-90.10764157652953"
    }
  },
  {
    "service_request": "2023-964874",
    "request_type": "Trash/Recycling",
    "request_reason": "MIssed Recycling Pick-Up",
    "date_created": "2023-01-10T17:38:45.000",
    "date_modified": "2023-01-10T17:38:46.000",
    "request_status": "Pending",
    "responsible_agency": "Department of Sanitation",
    "final_address": "2563 Prancer St",
    "address_councildis": "C",
    "status": "Assigned to Contractor",
    "contractor": "Richards Disposal",
    "rowid": "964874",
    "final_x": "3699547.21885",
    "final_y": "521487.262073",
    "longitude": "-90.01144952724401",
    "latitude": "29.927348860238357",
    "geocoded_column": {
      "latitude": "29.927348860238357",
      "longitude": "-90.01144952724401"
    }
  },
  {
    "service_request": "2023-964873",
    "request_type": "Trash/Recycling",
    "request_reason": "Missed Trash Pick-Up",
    "date_created": "2023-01-10T17:37:27.000",
    "date_modified": "2023-01-10T17:37:28.000",
    "request_status": "Pending",
    "responsible_agency": "Department of Sanitation",
    "final_address": "3723 DHemecourt St",
    "address_councildis": "B",
    "status": "Assigned to Contractor",
    "contractor": "Richards Disposal",
    "rowid": "964873",
    "final_x": "3671012.44155",
    "final_y": "535999.306951",
    "longitude": "-90.10103422299287",
    "latitude": "29.96812654604858",
    "geocoded_column": {
      "latitude": "29.96812654604858",
      "longitude": "-90.10103422299287"
    }
  },
  {
    "service_request": "2023-964872",
    "request_type": "Trash/Recycling",
    "request_reason": "Missed Trash Pick-Up",
    "date_created": "2023-01-10T17:35:25.000",
    "date_modified": "2023-01-10T17:35:26.000",
    "request_status": "Pending",
    "responsible_agency": "Department of Sanitation",
    "final_address": "1421 General Pershing St",
    "address_councildis": "B",
    "status": "Assigned to Contractor",
    "contractor": "Richards Disposal",
    "rowid": "964872",
    "final_x": "3671361.78433",
    "final_y": "520550.771576",
    "longitude": "-90.10045591150714",
    "latitude": "29.925637797976027",
    "geocoded_column": {
      "latitude": "29.925637797976027",
      "longitude": "-90.10045591150714"
    }
  },
  {
    "service_request": "2023-964871",
    "request_type": "Trash/Recycling",
    "request_reason": "Missed Trash Pick-Up",
    "date_created": "2023-01-10T17:32:08.000",
    "date_modified": "2023-01-10T17:32:08.000",
    "request_status": "Pending",
    "responsible_agency": "Department of Sanitation",
    "final_address": "4528 S Prieur St",
    "address_councildis": "B",
    "status": "Assigned to Contractor",
    "contractor": "Richards Disposal",
    "rowid": "964871",
    "final_x": "3669595.38689",
    "final_y": "526744.150398",
    "longitude": "-90.10582246506299",
    "latitude": "29.942719741100138",
    "geocoded_column": {
      "latitude": "29.942719741100138",
      "longitude": "-90.10582246506299"
    }
  },
  {
    "service_request": "2023-964870",
    "request_type": "Abandoned Vehicles",
    "request_reason": "Abandoned/Junk Vehicles",
    "date_created": "2023-01-10T17:31:21.000",
    "date_modified": "2023-01-10T17:31:21.000",
    "request_status": "Pending",
    "responsible_agency": "Department of Public Works",
    "final_address": "6317 Constance St",
    "address_councildis": "A",
    "status": "Pending",
    "rowid": "964870",
    "final_x": "3663189.77472",
    "final_y": "519511.908407",
    "longitude": "-90.12628712526397",
    "latitude": "29.923020491789124",
    "geocoded_column": {
      "latitude": "29.923020491789124",
      "longitude": "-90.12628712526397"
    }
  },