[
  {
    "service_request": "2024-1107757",
    "request_type": "Roads/Drainage",
    "request_reason": "Pothole",
    "date_created": "2024-06-27T23:23:31.000",
    "date_modified": "2024-06-27T23:23:31.000",
    "request_status": "Pending",
    "responsible_agency": "Department of Public Works",
    "final_address": "1501 General Taylor St",
    "address_councildis": "B",
    "status": "Pending",
    "rowid": "1107757",
    "final_x": "3672757.23963",
    "final_y": "520814.498105",
    "longitude": "-90.09604188611411",
    "latitude": "29.926321602463354",
    "geocoded_column": {
      "latitude": "29.926321602463354",
      "longitude": "-90.09604188611411"
    }
  },
  {
    "service_request": "2024-1107756",
    "request_type": "Roads/Drainage",
    "request_reason": "Pothole",
    "date_created": "2024-06-27T22:55:25.000",
    "date_modified": "2024-06-27T22:55:25.000",
    "request_status": "Pending",
    "responsible_agency": "Department of Public Works",
    "final_address": "1400 BLK Valence St",
    "address_councildis": "B",
    "status": "Pending",
    "rowid": "1107756",
    "final_x": "3669784.65285",
    "final_y": "520336.257015",
    "longitude": "-90.1054417057675",
    "latitude": "29.925094517046503",
    "geocoded_column": {
      "latitude": "29.925094517046503",
      "longitude": "-90.1054417057675"
    }
  },
  {
    "service_request": "2024-1107754",
    "request_type": "Roads/Drainage",
    "request_reason": "Damaged Sidewalk",
    "date_created": "2024-06-27T22:20:33.000",
    "date_modified": "2024-06-27T22:20:33.000",
    "request_status": "Pending",
    "responsible_agency": "Department of Public Works",
    "final_address": "1725 Dufossat St",
    "address_councildis": "B",
    "status": "Pending",
    "rowid": "1107754",
    "final_x": "3668192.68743",
    "final_y": "522036.060218",
    "longitude": "-90.11040977787289",
    "latitude": "29.92981524824353",
    "geocoded_column": {
      "latitude": "29.92981524824353",
      "longitude": "-90.11040977787289"
    }
  },
  {
    "service_request": "2024-1107753",
    "request_type": "Trash/Recycling",
    "request_reason": "Request a Large Item Pick Up",
    "date_created": "2024-06-27T21:50:25.000",
    "date_modified": "2024-06-27T21:50:25.000",
    "request_status": "Pending",
    "responsible_agency": "Department of Sanitation",
    "final_address": "4927 Schindler Dr",
    "address_councildis": "E",
    "status": "Assigned to Contractor",
    "contractor": "Waste Pro",
    "rowid": "1107753",
    "final_x": "3714316.85874",
    "final_y": "557525.939611",
    "longitude": "-89.96346592368998",
    "latitude": "30.025964892483945",
    "geocoded_column": {
      "latitude": "30.025964892483945",
      "longitude": "-89.96346592368998"
    }
  },
  {
    "service_request": "2024-1107752",
    "request_type": "Trash/Recycling",
    "request_reason": "Request a Large Item Pick Up",
    "date_created": "2024-06-27T21:48:28.000",
    "date_modified": "2024-06-27T21:48:28.000",
    "request_status": "Pending",
    "responsible_agency": "Department of Sanitation",
    "final_address": "4927 Schindler Dr",
    "address_councildis": "E",
    "status": "Assigned to Contractor",
    "contractor": "Waste Pro",
    "rowid": "1107752",
    "final_x": "3714316.85874",
    "final_y": "557525.939611",
    "longitude": "-89.96346592368998",
    "latitude": "30.025964892483945",
    "geocoded_column": {
      "latitude": "30.025964892483945",
      "longitude": "-89.96346592368998"
    }
  },
  {
    "service_request": "2024-1107751",
    "request_type": "Property Maintenance",
    "request_reason": "Property Maintenance",
    "date_created": "2024-06-27T21:25:16.000",
    "date_modified": "2024-06-27T21:25:16.000",
    "request_status": "Pending",
    "responsible_agency": "Department of Code Enforcement",
    "final_address": "2012 Simon Bolivar Ave",
    "address_councildis": "B",
    "status": "Pending",
    "rowid": "1107751",
    "final_x": "3676747.56609",
    "final_y": "525790.059197",
    "longitude": "-90.08327419525467",
    "latitude": "29.939883688670534",
    "geocoded_column": {
      "latitude": "29.939883688670534",
      "longitude": "-90.08327419525467"
    }
  },
  {
    "service_request": "2024-1107750",
    "request_type": "Traffic Signals/Signs/Striping/Streetlights",
    "request_reason": "Street Light Outage/Malfunction",
    "date_created": "2024-06-27T21:21:04.000",
    "date_modified": "2024-06-27T21:21:04.000",
    "request_status": "Pending",
    "responsible_agency": "Department of Public Works",
    "final_address": "30 Tennyson Pl",
    "address_councildis": "C",
    "status": "Assigned to Contractor",
    "contractor": "Legacy Professional Services",
    "rowid": "1107750",
    "final_x": "3705035.4682",
    "final_y": "517724.88447",
    "longitude": "-89.99426343505233",
    "latitude": "29.91682839276157",
    "geocoded_column": {
      "latitude": "29.91682839276157",
      "longitude": "-89.99426343505233"
    }
  },
  {
    "service_request": "2024-1107748",
    "request_type": "Traffic Signals/Signs/Striping/Streetlights",
    "request_reason": "Street Light Outage/Malfunction",
    "date_created": "2024-06-27T21:19:38.000",
    "date_modified": "2024-06-27T21:19:39.000",
    "request_status": "Pending",
    "responsible_agency": "Department of Public Works",
    "final_address": "7114 W Laverne St",
    "address_councildis": "D",
    "status": "Assigned to Contractor",
    "contractor": "Legacy Professional Services",
    "rowid": "1107748",
    "final_x": "3695778.64861",
    "final_y": "556717.199002",
    "longitude": "-90.02207322699805",
    "latitude": "30.02433752466813",
    "geocoded_column": {
      "latitude": "30.02433752466813",
      "longitude": "-90.02207322699805"
    }
  },
  {
    "service_request": "2024-1107747",
    "request_type": "Trash/Recycling",
    "request_reason": "Request a Large Item Pick Up",
    "date_created": "2024-06-27T21:19:21.000",
    "date_modified": "2024-06-27T21:19:22.000",
    "request_status": "Pending",
    "responsible_agency": "Department of Sanitation",
    "final_address": "8121 Zimple St",
    "address_councildis": "A",
    "status": "Assigned to Contractor",
    "contractor": "IV Waste",
    "rowid": "1107747",
    "final_x": "3661617.28358",
    "final_y": "528270.96448",
    "longitude": "-90.1309607653579",
    "latitude": "29.947150589155818",
    "geocoded_column": {
      "latitude": "29.947150589155818",
      "longitude": "-90.1309607653579"
    }
  },
  {
    "service_request": "2024-1107746",
    "request_type": "Trash/Recycling",
    "request_reason": "Request a Large Item Pick Up",
    "date_created": "2024-06-27T21:18:42.000",
    "date_modified": "2024-06-27T21:18:42.000",
    "request_status": "Pending",
    "responsible_agency": "Department of Sanitation",
    "final_address": "8121 Zimple St",
    "address_councildis": "A",
    "status": "Assigned to Contractor",
    "contractor": "IV Waste",
    "rowid": "1107746",
    "final_x": "3661617.28358",
    "final_y": "528270.96448",
    "longitude": "-90.1309607653579",
    "latitude": "29.947150589155818",
    "geocoded_column": {
      "latitude": "29.947150589155818",
      "longitude": "-90.1309607653579"
    }
  },
  {
    "service_request": "2024-1107745",
    "request_type": "Trash/Recycling",
    "request_reason": "Request a Large Item Pick Up",
    "date_created": "2024-06-27T21:14:35.000",
    "date_modified": "2024-06-27T21:14:35.000",
    "request_status": "Pending",
    "responsible_agency": "Department of Sanitation",
    "final_address": "4141 Toulouse St",
    "address_councildis": "A",
    "status": "Assigned to Contractor",
    "contractor": "IV Waste",
    "rowid": "1107745",
    "final_x": "3671957.99662",
    "final_y": "539984.881355",
    "longitude": "-90.09791241000511",
    "latitude": "29.979057532289037",
    "geocoded_column": {
      "latitude": "29.979057532289037",
      "longitude": "-90.09791241000511"
    }
  },
  {
    "service_request": "2024-1107744",
    "request_type": "Property Maintenance",
    "request_reason": "Property Maintenance",
    "date_created": "2024-06-27T21:03:29.000",
    "date_modified": "2024-06-27T21:03:29.000",
    "request_status": "Pending",
    "responsible_agency": "Department of Code Enforcement",
    "final_address": "5378 Chamberlain Dr",
    "address_councildis": "D",
    "status": "Pending",
    "rowid": "1107744",
    "final_x": "3679395.55554",
    "final_y": "552186.56911",
    "longitude": "-90.07399818553313",
    "latitude": "30.012385269773027",
    "geocoded_column": {
      "latitude": "30.012385269773027",
      "longitude": "-90.07399818553313"
    }
  },
  {
    "service_request": "2024-1107743",
    "request_type": "Traffic Signals/Signs/Striping/Streetlights",
    "request_reason": "Street Light Outage/Malfunction",
    "date_created": "2024-06-27T21:02:11.000",
    "date_modified": "2024-06-27T21:02:12.000",
    "request_status": "Pending",
    "responsible_agency": "Department of Public Works",
    "final_address": "619 Ricks Pl",
    "address_councildis": "C",
    "status": "Assigned to Contractor",
    "contractor": "Legacy Professional Services",
    "rowid": "1107743",
    "final_x": "3688021.07228",
    "final_y": "524560.622524",
    "longitude": "-90.04772573517968",
    "latitude": "29.936160160724093",
    "geocoded_column": {
      "latitude": "29.936160160724093",
      "longitude": "-90.04772573517968"
    }
  },
  {
    "service_request": "2024-1107742",
    "request_type": "Trash/Recycling",
    "request_reason": "Request a Large Item Pick Up",
    "date_created": "2024-06-27T21:01:14.000",
    "date_modified": "2024-06-27T21:01:15.000",
    "request_status": "Pending",
    "responsible_agency": "Department of Sanitation",
    "final_address": "8023 Benson St",
    "address_councildis": "E",
    "status": "Assigned to Contractor",
    "contractor": "Waste Pro",
    "rowid": "1107742",
    "final_x": "3703899.70276",
    "final_y": "563611.358817",
    "longitude": "-89.99615814068312",
    "latitude": "30.043035733599485",
    "geocoded_column": {
      "latitude": "30.043035733599485",
      "longitude": "-89.99615814068312"
    }
  },
  {
    "service_request": "2024-1107741",
    "request_type": "Abandoned Vehicles",
    "request_reason": "Abandoned/Junk Vehicles",
    "date_created": "2024-06-27T20:48:12.000",
    "date_modified": "2024-06-27T20:48:12.000",
    "request_status": "Pending",
    "responsible_agency": "Department of Public Works",
    "final_address": "501 Burgundy St",
    "address_councildis": "C",
    "status": "Pending",
    "rowid": "1107741",
    "final_x": "3681232.29442",
    "final_y": "532556.58298",
    "longitude": "-90.06887951903755",
    "latitude": "29.958354059636303",
    "geocoded_column": {
      "latitude": "29.958354059636303",
      "longitude": "-90.06887951903755"
    }
  },
  {
    "service_request": "2024-1107740",
    "request_type": "Trash/Recycling",
    "request_reason": "Request a Large Item Pick Up",
    "date_created": "2024-06-27T20:04:31.000",
    "date_modified": "2024-06-27T20:04:31.000",
    "request_status": "Pending",
    "responsible_agency": "Department of Sanitation",
    "final_address": "8813 Curran Rd",
    "address_councildis": "E",
    "status": "Assigned to Contractor",
    "contractor": "Waste Pro",
    "rowid": "1107740",
    "final_x": "3704714.42647",
    "final_y": "562910.815584",
    "longitude": "-89.99360918468528",
    "latitude": "30.04108334905703",
    "geocoded_column": {
      "latitude": "30.04108334905703",
      "longitude": "-89.99360918468528"
    }
  },
  {
    "service_request": "2024-1107739",
    "request_type": "Trash/Recycling",
    "request_reason": "Illegal Dumping",
    "date_created": "2024-06-27T19:52:27.000",
    "date_modified": "2024-06-27T19:52:27.000",
    "request_status": "Pending",
    "responsible_agency": "Department of Sanitation",
    "final_address": "5015 St Claude Ave",
    "address_councildis": "E",
    "status": "Pending",
    "rowid": "1107739",
    "final_x": "3696113.05085",
    "final_y": "534351.361221",
    "longitude": "-90.02182547915295",
    "latitude": "29.962829149857008",
    "geocoded_column": {
      "latitude": "29.962829149857008",
      "longitude": "-90.02182547915295"
    }
  },
  {
    "service_request": "2024-1107738",
    "request_type": "Property Maintenance",
    "request_reason": "Property Maintenance",
    "date_created": "2024-06-27T19:38:10.000",
    "date_modified": "2024-06-27T19:38:10.000",
    "request_status": "Pending",
    "responsible_agency": "Department of Code Enforcement",
    "final_address": "7518 Lafourche St",
    "address_councildis": "E",
    "status": "Pending",
    "rowid": "1107738",
    "final_x": "3710488.51198",
    "final_y": "564994.56733",
    "longitude": "-89.97528318177193",
    "latitude": "30.046625936322616",
    "geocoded_column": {
      "latitude": "30.046625936322616",
      "longitude": "-89.97528318177193"
    }
  },
  {
    "service_request": "2024-1107737",
    "request_type": "Roads/Drainage",
    "request_reason": "Pothole",
    "date_created": "2024-06-27T19:02:27.000",
    "date_modified": "2024-06-27T19:02:27.000",
    "request_status": "Pending",
    "responsible_agency": "Department of Public Works",
    "final_address": "6215 Hurst St",
    "address_councildis": "A",
    "status": "Pending",
    "rowid": "1107737",
    "final_x": "3664668.32039",
    "final_y": "522243.373626",
    "longitude": "-90.12152872358996",
    "latitude": "29.93048825206563",
    "geocoded_column": {
      "latitude": "29.93048825206563",
      "longitude": "-90.12152872358996"
    }
  },
  {
    "service_request": "2024-1107736",
    "request_type": "Roads/Drainage",
    "request_reason": "Pothole",
    "date_created": "2024-06-27T19:01:20.000",
    "date_modified": "2024-06-27T19:01:20.000",
    "request_status": "Pending",
    "responsible_agency": "Department of Public Works",
    "final_address": "5923 Pitt St",
    "address_councildis": "A",
    "status": "Pending",
    "rowid": "1107736",
    "final_x": "3665490.05639",
    "final_y": "521140.942649",
    "longitude": "-90.11897149996602",
    "latitude": "29.92743299392239",
    "geocoded_column": {
      "latitude": "29.92743299392239",
      "longitude": "-90.11897149996602"
    }
  },
  {
    "service_request": "2024-1107735",
    "request_type": "Trash/Recycling",
    "request_reason": "MIssed Recycling Pick-Up",
    "date_created": "2024-06-27T18:16:49.000",
    "date_modified": "2024-06-27T18:16:49.000",
    "request_status": "Pending",
    "responsible_agency": "Department of Sanitation",
    "final_address": "2410 Palmer Ave",
    "address_councildis": "A",
    "status": "Assigned to Contractor",
    "contractor": "IV Waste",
    "rowid": "1107735",
    "final_x": "3666315.65345",
    "final_y": "525685.750333",
    "longitude": "-90.11621289133215",
    "latitude": "29.939905683116457",
    "geocoded_column": {
      "latitude": "29.939905683116457",
      "longitude": "-90.11621289133215"
    }
  },
  {
    "service_request": "2024-1107734",
    "request_type": "Trash/Recycling",
    "request_reason": "Replace Trash Cart",
    "date_created": "2024-06-27T18:15:49.000",
    "date_modified": "2024-06-27T18:15:50.000",
    "request_status": "Pending",
    "responsible_agency": "Department of Sanitation",
    "final_address": "3600 Rue Nichole",
    "address_councildis": "C",
    "status": "Assigned to Contractor",
    "contractor": "Richards Disposal",
    "rowid": "1107734",
    "final_x": "3704055.81054",
    "final_y": "517377.457333",
    "longitude": "-89.9973684048939",
    "latitude": "29.915904531290792",
    "geocoded_column": {
      "latitude": "29.915904531290792",
      "longitude": "-89.9973684048939"
    }
  },
  {
    "service_request": "2024-1107733",
    "request_type": "Trash/Recycling",
    "request_reason": "Request a Large Item Pick Up",
    "date_created": "2024-06-27T18:09:03.000",
    "date_modified": "2024-06-27T18:09:03.000",
    "request_status": "Pending",
    "responsible_agency": "Department of Sanitation",
    "final_address": "1517 Dumaine St, New Orleans, Louisiana, 70116",
    "address_councildis": "C",
    "status": "Assigned to Contractor",
    "contractor": "IV Waste",
    "rowid": "1107733",
    "final_x": "3680668.01416",
    "final_y": "534878.838598",
    "longitude": "-90.07058055051647",
    "latitude": "29.964756581199534",
    "geocoded_column": {
      "latitude": "29.964756581199534",
      "longitude": "-90.07058055051647"
    }
  },
  {
    "service_request": "2024-1107732",
    "request_type": "Abandoned Vehicles",
    "request_reason": "Abandoned/Junk Vehicles",
    "date_created": "2024-06-27T18:08:49.000",
    "date_modified": "2024-06-27T18:08:49.000",
    "request_status": "Pending",
    "responsible_agency": "Department of Public Works",
    "final_address": "614 Philip St",
    "address_councildis": "B",
    "status": "Pending",
    "rowid": "1107732",
    "final_x": "3679545.66472",
    "final_y": "520480.459256",
    "longitude": "-90.0746243341308",
    "latitude": "29.925199802101954",
    "geocoded_column": {
      "latitude": "29.925199802101954",
      "longitude": "-90.0746243341308"
    }
  },
  {
    "service_request": "2024-1107730",
    "request_type": "Property Maintenance",
    "request_reason": "Property Maintenance",
    "date_created": "2024-06-27T17:59:16.000",
    "date_modified": "2024-06-27T17:59:16.000",
    "request_status": "Pending",
    "responsible_agency": "Department of Code Enforcement",
    "final_address": "2025 Calhoun St",
    "address_councildis": "A",
    "status": "Pending",
    "rowid": "1107730",
    "final_x": "3665628.75802",
    "final_y": "524633.619452",
    "longitude": "-90.11841674957182",
    "latitude": "29.937032703964956",
    "geocoded_column": {
      "latitude": "29.937032703964956",
      "longitude": "-90.11841674957182"
    }
  },
  {
    "service_request": "2024-1107729",
    "request_type": "Trash/Recycling",
    "request_reason": "Request a Large Item Pick Up",
    "date_created": "2024-06-27T17:56:40.000",
    "date_modified": "2024-06-27T17:56:41.000",
    "request_status": "Pending",
    "responsible_agency": "Department of Sanitation",
    "final_address": "4106 Duplessis St",
    "address_councildis": "D",
    "status": "Assigned to Contractor",
    "contractor": "IV Waste",
    "rowid": "1107729",
    "final_x": "3678296.5092",
    "final_y": "547330.676625",
    "longitude": "-90.07763868629011",
    "latitude": "29.99906646498025",
    "geocoded_column": {
      "latitude": "29.99906646498025",
      "longitude": "-90.07763868629011"
    }
  },
  {
    "service_request": "2024-1107728",
    "request_type": "Property Maintenance",
    "request_reason": "Property Maintenance",
    "date_created": "2024-06-27T17:54:40.000",
    "date_modified": "2024-06-27T17:54:40.000",
    "request_status": "Pending",
    "responsible_agency": "Department of Code Enforcement",
    "final_address": "2039 Calhoun St",
    "address_councildis": "A",
    "status": "Pending",
    "rowid": "1107728",
    "final_x": "3665641.51066",
    "final_y": "524668.721852",
    "longitude": "-90.118375313562",
    "latitude": "29.93712885256039",
    "geocoded_column": {
      "latitude": "29.93712885256039",
      "longitude": "-90.118375313562"
    }
  },
  {
    "service_request": "2024-1107727",
    "request_type": "Safety & Permits",
    "request_reason": "Construction permit",
    "date_created": "2024-06-27T17:47:24.000",
    "date_modified": "2024-06-27T17:47:24.000",
    "request_status": "Pending",
    "responsible_agency": "Safety and Permits",
    "final_address": "2103 Calhoun St",
    "address_councildis": "A",
    "status": "Pending",
    "rowid": "1107727",
    "final_x": "3665686.63732",
    "final_y": "524774.057148",
    "longitude": "-90.11822931894653",
    "latitude": "29.937417175233307",
    "geocoded_column": {
      "latitude": "29.937417175233307",
      "longitude": "-90.11822931894653"
    }
  },
  {
    "service_request": "2024-1107726",
    "request_type": "Trash/Recycling",
    "request_reason": "Repair Trash Cart",
    "date_created": "2024-06-27T17:30:43.000",
    "date_modified": "2024-06-27T17:30:43.000",
    "request_status": "Pending",
    "responsible_agency": "Department of Sanitation",
    "final_address": "5128 Chestnut St",
    "address_councildis": "B",
    "status": "Assigned to Contractor",
    "contractor": "IV Waste",
    "rowid": "1107726",
    "final_x": "3668135.13844",
    "final_y": "519275.038007",
    "longitude": "-90.11068445411158",
    "latitude": "29.922225001593066",
    "geocoded_column": {
      "latitude": "29.922225001593066",
      "longitude": "-90.11068445411158"
    }
  },
  {
    "service_request": "2024-1107724",
    "request_type": "Abandoned Vehicles",
    "request_reason": "Abandoned/Junk Vehicles",
    "date_created": "2024-06-27T17:08:04.000",
    "date_modified": "2024-06-27T17:08:04.000",
    "request_status": "Pending",
    "responsible_agency": "Department of Public Works",
    "final_address": "2600 BLK Gravier St",
    "address_councildis": "B",
    "status": "Pending",
    "rowid": "1107724",
    "final_x": "3674298.35642",
    "final_y": "533191.795609",
    "longitude": "-90.09075330610133",
    "latitude": "29.960309256474655",
    "geocoded_column": {
      "latitude": "29.960309256474655",
      "longitude": "-90.09075330610133"
    }
  },
  {
    "service_request": "2024-1107723",
    "request_type": "Trash/Recycling",
    "request_reason": "Request a Large Item Pick Up",
    "date_created": "2024-06-27T16:59:56.000",
    "date_modified": "2024-06-27T16:59:56.000",
    "request_status": "Pending",
    "responsible_agency": "Department of Sanitation",
    "final_address": "4648 Francisco Verrett Dr",
    "address_councildis": "E",
    "status": "Assigned to Contractor",
    "contractor": "Waste Pro",
    "rowid": "1107723",
    "final_x": "3704241.02673",
    "final_y": "554667.783",
    "longitude": "-89.9954094604618",
    "latitude": "30.01843343067292",
    "geocoded_column": {
      "latitude": "30.01843343067292",
      "longitude": "-89.9954094604618"
    }
  },
  {
    "service_request": "2024-1107722",
    "request_type": "Trash/Recycling",
    "request_reason": "Request a Large Item Pick Up",
    "date_created": "2024-06-27T16:56:55.000",
    "date_modified": "2024-06-27T16:56:55.000",
    "request_status": "Pending",
    "responsible_agency": "Department of Sanitation",
    "final_address": "2600 Cleveland Ave",
    "address_councildis": "B",
    "status": "Assigned to Contractor",
    "contractor": "IV Waste",
    "rowid": "1107722",
    "final_x": "3675466.87208",
    "final_y": "534390.471621",
    "longitude": "-90.08702220164393",
    "latitude": "29.96357031747418",
    "geocoded_column": {
      "latitude": "29.96357031747418",
      "longitude": "-90.08702220164393"
    }
  },
  {
    "service_request": "2024-1107721",
    "request_type": "Property Maintenance",
    "request_reason": "Property Maintenance",
    "date_created": "2024-06-27T16:52:43.000",
    "date_modified": "2024-06-27T16:52:43.000",
    "request_status": "Pending",
    "responsible_agency": "Department of Code Enforcement",
    "final_address": "1800 Mirabeau Ave",
    "address_councildis": "D",
    "status": "Pending",
    "rowid": "1107721",
    "final_x": "3681195.93992",
    "final_y": "550371.379988",
    "longitude": "-90.06837329254212",
    "latitude": "30.007339624482423",
    "geocoded_column": {
      "latitude": "30.007339624482423",
      "longitude": "-90.06837329254212"
    }
  },
  {
    "service_request": "2024-1107720",
    "request_type": "Trash/Recycling",
    "request_reason": "Replace Trash Cart",
    "date_created": "2024-06-27T16:51:29.000",
    "date_modified": "2024-06-27T16:51:30.000",
    "request_status": "Pending",
    "responsible_agency": "Department of Sanitation",
    "final_address": "4918 S Prieur St",
    "address_councildis": "B",
    "status": "Assigned to Contractor",
    "contractor": "IV Waste",
    "rowid": "1107720",
    "final_x": "3669090.91943",
    "final_y": "526637.515006",
    "longitude": "-90.10741879456256",
    "latitude": "29.942441378548565",
    "geocoded_column": {
      "latitude": "29.942441378548565",
      "longitude": "-90.10741879456256"
    }
  },
  {
    "service_request": "2024-1107719",
    "request_type": "Trash/Recycling",
    "request_reason": "Request a Large Item Pick Up",
    "date_created": "2024-06-27T16:44:41.000",
    "date_modified": "2024-06-27T16:44:42.000",
    "request_status": "Pending",
    "responsible_agency": "Department of Sanitation",
    "final_address": "3911 Iberville St",
    "address_councildis": "A",
    "status": "Assigned to Contractor",
    "contractor": "IV Waste",
    "rowid": "1107719",
    "final_x": "3671992.07911",
    "final_y": "538289.713289",
    "longitude": "-90.09786249213481",
    "latitude": "29.97439538522974",
    "geocoded_column": {
      "latitude": "29.97439538522974",
      "longitude": "-90.09786249213481"
    }
  },
  {
    "service_request": "2024-1107718",
    "request_type": "Trash/Recycling",
    "request_reason": "Order Recycling Cart",
    "date_created": "2024-06-27T16:43:35.000",
    "date_modified": "2024-06-27T16:43:35.000",
    "request_status": "Pending",
    "responsible_agency": "Department of Sanitation",
    "final_address": "765 Jewel St",
    "address_councildis": "D",
    "status": "Pending",
    "rowid": "1107718",
    "final_x": "3669929.43028",
    "final_y": "555968.246681",
    "longitude": "-90.10377772347803",
    "latitude": "30.023066208917992",
    "geocoded_column": {
      "latitude": "30.023066208917992",
      "longitude": "-90.10377772347803"
    }
  },
  {
    "service_request": "2024-1107717",
    "request_type": "Roads/Drainage",
    "request_reason": "Catch Basin - Clogged",
    "date_created": "2024-06-27T16:41:09.000",
    "date_modified": "2024-06-27T16:41:09.000",
    "request_status": "Pending",
    "responsible_agency": "Department of Public Works",
    "final_address": "3737 Elysian Fields Ave",
    "address_councildis": "D",
    "status": "Pending",
    "rowid": "1107717",
    "final_x": "3684328.68175",
    "final_y": "546571.061585",
    "longitude": "-90.05860966285454",
    "latitude": "29.996794651719277",
    "geocoded_column": {
      "latitude": "29.996794651719277",
      "longitude": "-90.05860966285454"
    }
  },
  {
    "service_request": "2024-1107716",
    "request_type": "Trash/Recycling",
    "request_reason": "Repair Trash Cart",
    "date_created": "2024-06-27T16:40:32.000",
    "date_modified": "2024-06-27T16:40:32.000",
    "request_status": "Pending",
    "responsible_agency": "Department of Sanitation",
    "final_address": "3036 Cleveland Ave",
    "address_councildis": "B",
    "status": "Assigned to Contractor",
    "contractor": "IV Waste",
    "rowid": "1107716",
    "final_x": "3673828.1515",
    "final_y": "535684.898631",
    "longitude": "-90.09215284035969",
    "latitude": "29.96717846453971",
    "geocoded_column": {
      "latitude": "29.96717846453971",
      "longitude": "-90.09215284035969"
    }
  },
  {
    "service_request": "2024-1107715",
    "request_type": "Trash/Recycling",
    "request_reason": "Request a Large Item Pick Up",
    "date_created": "2024-06-27T16:40:08.000",
    "date_modified": "2024-06-27T16:40:09.000",
    "request_status": "Pending",
    "responsible_agency": "Department of Sanitation",
    "final_address": "3411 Burgundy St",
    "address_councildis": "C",
    "status": "Assigned to Contractor",
    "contractor": "IV Waste",
    "rowid": "1107715",
    "final_x": "3690094.85161",
    "final_y": "534920.566598",
    "longitude": "-90.04080984255931",
    "latitude": "29.96458229846882",
    "geocoded_column": {
      "latitude": "29.96458229846882",
      "longitude": "-90.04080984255931"
    }
  },
  {
    "service_request": "2024-1107714",
    "request_type": "Property Maintenance",
    "request_reason": "Property Maintenance",
    "date_created": "2024-06-27T16:37:52.000",
    "date_modified": "2024-06-27T16:37:52.000",
    "request_status": "Pending",
    "responsible_agency": "Department of Code Enforcement",
    "final_address": "4827 Downman Rd",
    "address_councildis": "D",
    "status": "Pending",
    "rowid": "1107714",
    "final_x": "3696063.08739",
    "final_y": "554497.269464",
    "longitude": "-90.02125477878829",
    "latitude": "30.018224605600896",
    "geocoded_column": {
      "latitude": "30.018224605600896",
      "longitude": "-90.02125477878829"
    }
  },
  {
    "service_request": "2024-1107713",
    "request_type": "Trash/Recycling",
    "request_reason": "Request a Large Item Pick Up",
    "date_created": "2024-06-27T16:35:49.000",
    "date_modified": "2024-06-27T16:35:49.000",
    "request_status": "Pending",
    "responsible_agency": "Department of Sanitation",
    "final_address": "6937 Virgilian St",
    "address_councildis": "D",
    "status": "Assigned to Contractor",
    "contractor": "Waste Pro",
    "rowid": "1107713",
    "final_x": "3696974.17117",
    "final_y": "556705.088666",
    "longitude": "-90.01829605128269",
    "latitude": "30.024266553581764",
    "geocoded_column": {
      "latitude": "30.024266553581764",
      "longitude": "-90.01829605128269"
    }
  },
  {
    "service_request": "2024-1107712",
    "request_type": "Property Maintenance",
    "request_reason": "Property Maintenance",
    "date_created": "2024-06-27T16:30:49.000",
    "date_modified": "2024-06-27T16:30:49.000",
    "request_status": "Pending",
    "responsible_agency": "Department of Code Enforcement",
    "final_address": "5155 Cameron Blvd",
    "address_councildis": "D",
    "status": "Pending",
    "rowid": "1107712",
    "final_x": "3682715.06236",
    "final_y": "551892.18159",
    "longitude": "-90.06352071810991",
    "latitude": "30.011475078121606",
    "geocoded_column": {
      "latitude": "30.011475078121606",
      "longitude": "-90.06352071810991"
    }
  },
  {
    "service_request": "2024-1107711",
    "request_type": "Trash/Recycling",
    "request_reason": "Repair Recycling Cart",
    "date_created": "2024-06-27T16:29:39.000",
    "date_modified": "2024-06-27T16:29:39.000",
    "request_status": "Pending",
    "responsible_agency": "Department of Sanitation",
    "final_address": "3818 Coliseum St",
    "address_councildis": "B",
    "status": "Pending",
    "rowid": "1107711",
    "final_x": "3672993.14792",
    "final_y": "519964.531768",
    "longitude": "-90.09532617822497",
    "latitude": "29.92397746117255",
    "geocoded_column": {
      "latitude": "29.92397746117255",
      "longitude": "-90.09532617822497"
    }
  },
  {
    "service_request": "2024-1107710",
    "request_type": "Trash/Recycling",
    "request_reason": "Repair Recycling Cart",
    "date_created": "2024-06-27T16:29:13.000",
    "date_modified": "2024-06-27T16:29:13.000",
    "request_status": "Pending",
    "responsible_agency": "Department of Sanitation",
    "final_address": "3816 Coliseum St",
    "address_councildis": "B",
    "status": "Pending",
    "rowid": "1107710",
    "final_x": "3672993.14792",
    "final_y": "519964.531768",
    "longitude": "-90.09532617822497",
    "latitude": "29.92397746117255",
    "geocoded_column": {
      "latitude": "29.92397746117255",
      "longitude": "-90.09532617822497"
    }
  },
  {
    "service_request": "2024-1107709",
    "request_type": "Property Maintenance",
    "request_reason": "Property Maintenance",
    "date_created": "2024-06-27T16:28:10.000",
    "date_modified": "2024-06-27T16:28:10.000",
    "request_status": "Pending",
    "responsible_agency": "Department of Code Enforcement",
    "final_address": "4502 General Meyer Ave",
    "address_councildis": "C",
    "status": "Pending",
    "rowid": "1107709",
    "final_x": "3700712.62084",
    "final_y": "524409.88582",
    "longitude": "-90.0076639306392",
    "latitude": "29.935348043426018",
    "geocoded_column": {
      "latitude": "29.935348043426018",
      "longitude": "-90.0076639306392"
    }
  },
  {
    "service_request": "2024-1107708",
    "request_type": "Trash/Recycling",
    "request_reason": "Replace Trash Cart",
    "date_created": "2024-06-27T16:26:39.000",
    "date_modified": "2024-06-27T16:26:40.000",
    "request_status": "Pending",
    "responsible_agency": "Department of Sanitation",
    "final_address": "524 Pacific Ave",
    "address_councildis": "C",
    "status": "Assigned to Contractor",
    "contractor": "Richards Disposal",
    "rowid": "1107708",
    "final_x": "3688531.53263",
    "final_y": "529681.876609",
    "longitude": "-90.04593254848888",
    "latitude": "29.95022610843723",
    "geocoded_column": {
      "latitude": "29.95022610843723",
      "longitude": "-90.04593254848888"
    }
  },
  {
    "service_request": "2024-1107707",
    "request_type": "Property Maintenance",
    "request_reason": "Property Maintenance",
    "date_created": "2024-06-27T16:25:18.000",
    "date_modified": "2024-06-27T16:25:18.000",
    "request_status": "Pending",
    "responsible_agency": "Department of Code Enforcement",
    "final_address": "1828 Fourth St",
    "address_councildis": "B",
    "status": "Pending",
    "rowid": "1107707",
    "final_x": "3675623.05941",
    "final_y": "523504.623163",
    "longitude": "-90.08690291969002",
    "latitude": "29.933633171947385",
    "geocoded_column": {
      "latitude": "29.933633171947385",
      "longitude": "-90.08690291969002"
    }
  },
  {
    "service_request": "2024-1107706",
    "request_type": "Trash/Recycling",
    "request_reason": "Request a Large Item Pick Up",
    "date_created": "2024-06-27T16:23:04.000",
    "date_modified": "2024-06-27T16:23:04.000",
    "request_status": "Pending",
    "responsible_agency": "Department of Sanitation",
    "final_address": "2216 Broadway St",
    "address_councildis": "A",
    "status": "Assigned to Contractor",
    "contractor": "IV Waste",
    "rowid": "1107706",
    "final_x": "3666184.92301",
    "final_y": "529592.050625",
    "longitude": "-90.11649465871754",
    "latitude": "29.950650566191843",
    "geocoded_column": {
      "latitude": "29.950650566191843",
      "longitude": "-90.11649465871754"
    }
  },
  {
    "service_request": "2024-1107705",
    "request_type": "Trash/Recycling",
    "request_reason": "Order Trash Cart",
    "date_created": "2024-06-27T16:22:09.000",
    "date_modified": "2024-06-27T16:22:09.000",
    "request_status": "Pending",
    "responsible_agency": "Department of Sanitation",
    "final_address": "2255 N Miro St",
    "address_councildis": "D",
    "status": "Assigned to Contractor",
    "contractor": "IV Waste",
    "rowid": "1107705",
    "final_x": "3685245.49865",
    "final_y": "540440.218443",
    "longitude": "-90.05592939880573",
    "latitude": "29.979908934681344",
    "geocoded_column": {
      "latitude": "29.979908934681344",
      "longitude": "-90.05592939880573"
    }
  },
  {
    "service_request": "2024-1107704",
    "request_type": "Trash/Recycling",
    "request_reason": "Order Trash Cart",
    "date_created": "2024-06-27T16:21:57.000",
    "date_modified": "2024-06-27T16:21:58.000",
    "request_status": "Pending",
    "responsible_agency": "Department of Sanitation",
    "final_address": "3132 Broadway St",
    "address_councildis": "B",
    "status": "Assigned to Contractor",
    "contractor": "IV Waste",
    "rowid": "1107704",
    "final_x": "3668052.17793",
    "final_y": "532389.077891",
    "longitude": "-90.1105045570084",
    "latitude": "29.958286818101765",
    "geocoded_column": {
      "latitude": "29.958286818101765",
      "longitude": "-90.1105045570084"
    }
  },
  {
    "service_request": "2024-1107703",
    "request_type": "Healthy Homes",
    "request_reason": "Healthy Homes",
    "date_created": "2024-06-27T16:17:05.000",
    "date_modified": "2024-06-27T16:17:05.000",
    "request_status": "Pending",
    "responsible_agency": "Department of Code Enforcement",
    "final_address": "5347 Royal St",
    "address_councildis": "E",
    "status": "Pending",
    "rowid": "1107703",
    "final_x": "3696718.73533",
    "final_y": "532543.065092",
    "longitude": "-90.01997826721907",
    "latitude": "29.957837899465613",
    "geocoded_column": {
      "latitude": "29.957837899465613",
      "longitude": "-90.01997826721907"
    }
  },
  {
    "service_request": "2024-1107702",
    "request_type": "Trash/Recycling",
    "request_reason": "Request a Large Item Pick Up",
    "date_created": "2024-06-27T16:16:41.000",
    "date_modified": "2024-06-27T16:16:42.000",
    "request_status": "Pending",
    "responsible_agency": "Department of Sanitation",
    "final_address": "3812 Socrates St",
    "address_councildis": "C",
    "status": "Assigned to Contractor",
    "contractor": "Richards Disposal",
    "rowid": "1107702",
    "final_x": "3698314.63351",
    "final_y": "526044.202238",
    "longitude": "-90.01517498338039",
    "latitude": "29.939917913808483",
    "geocoded_column": {
      "latitude": "29.939917913808483",
      "longitude": "-90.01517498338039"
    }
  },
  {
    "service_request": "2024-1107701",
    "request_type": "Property Maintenance",
    "request_reason": "Property Maintenance",
    "date_created": "2024-06-27T16:13:47.000",
    "date_modified": "2024-06-27T16:13:47.000",
    "request_status": "Pending",
    "responsible_agency": "Department of Code Enforcement",
    "final_address": "4619 Francis Dr",
    "address_councildis": "D",
    "status": "Pending",
    "rowid": "1107701",
    "final_x": "3698340.29655",
    "final_y": "553668.168279",
    "longitude": "-90.01408985309085",
    "latitude": "30.015872995679185",
    "geocoded_column": {
      "latitude": "30.015872995679185",
      "longitude": "-90.01408985309085"
    }
  },
  {
    "service_request": "2024-1107700",
    "request_type": "Abandoned Vehicles",
    "request_reason": "Abandoned/Junk Vehicles",
    "date_created": "2024-06-27T16:06:10.000",
    "date_modified": "2024-06-27T16:06:10.000",
    "request_status": "Pending",
    "responsible_agency": "Department of Public Works",
    "final_address": "1324 Lesseps St",
    "address_councildis": "D",
    "status": "Pending",
    "rowid": "1107700",
    "final_x": "3692895.78781",
    "final_y": "536037.135815",
    "longitude": "-90.03192467896152",
    "latitude": "29.9675652973834",
    "geocoded_column": {
      "latitude": "29.9675652973834",
      "longitude": "-90.03192467896152"
    }
  },
  {
    "service_request": "2024-1107699",
    "request_type": "Property Maintenance",
    "request_reason": "Property Maintenance",
    "date_created": "2024-06-27T16:05:34.000",
    "date_modified": "2024-06-27T16:05:34.000",
    "request_status": "Pending",
    "responsible_agency": "Department of Code Enforcement",
    "final_address": "2440 St Roch Ave",
    "address_councildis": "D",
    "status": "Pending",
    "rowid": "1107699",
    "final_x": "3686004.32386",
    "final_y": "541541.460108",
    "longitude": "-90.05349387147895",
    "latitude": "29.982913677870307",
    "geocoded_column": {
      "latitude": "29.982913677870307",
      "longitude": "-90.05349387147895"
    }
  },
  {
    "service_request": "2024-1107698",
    "request_type": "Trash/Recycling",
    "request_reason": "Request a Large Item Pick Up",
    "date_created": "2024-06-27T15:59:21.000",
    "date_modified": "2024-06-27T15:59:22.000",
    "request_status": "Pending",
    "responsible_agency": "Department of Sanitation",
    "final_address": "306 S Murat St",
    "address_councildis": "A",
    "status": "Assigned to Contractor",
    "contractor": "IV Waste",
    "rowid": "1107698",
    "final_x": "3669207.60308",
    "final_y": "538676.676553",
    "longitude": "-90.10664347293086",
    "latitude": "29.97554166270201",
    "geocoded_column": {
      "latitude": "29.97554166270201",
      "longitude": "-90.10664347293086"
    }
  },
  {
    "service_request": "2024-1107697",
    "request_type": "Mosquito, Termite & Rodent Control",
    "request_reason": "Non-Rodent Complaint (Mice, Possums, Snakes)",
    "date_created": "2024-06-27T15:52:59.000",
    "date_modified": "2024-06-27T15:52:59.000",
    "request_status": "Pending",
    "responsible_agency": "Mosquito, Termite & Rodent Control Board",
    "final_address": "MARCONI DR & ROBERT E LEE BLVD",
    "address_councildis": "D",
    "status": "Pending",
    "rowid": "1107697",
    "final_x": "3672213.4",
    "final_y": "554453.38",
    "longitude": "-90.09661253081411",
    "latitude": "30.01883328137718",
    "geocoded_column": {
      "latitude": "30.01883328137718",
      "longitude": "-90.09661253081411"
    }
  },
  {
    "service_request": "2024-1107696",
    "request_type": "Property Maintenance",
    "request_reason": "Property Maintenance",
    "date_created": "2024-06-27T15:52:35.000",
    "date_modified": "2024-06-27T15:52:35.000",
    "request_status": "Pending",
    "responsible_agency": "Department of Code Enforcement",
    "final_address": "2459 Mexico St",
    "address_councildis": "D",
    "status": "Pending",
    "rowid": "1107696",
    "final_x": "3685444.75605",
    "final_y": "556371.459482",
    "longitude": "-90.05473859245917",
    "latitude": "30.02370798499794",
    "geocoded_column": {
      "latitude": "30.02370798499794",
      "longitude": "-90.05473859245917"
    }
  },
  {
    "service_request": "2024-1107695",
    "request_type": "Trash/Recycling",
    "request_reason": "Repair Recycling Cart",
    "date_created": "2024-06-27T15:52:31.000",
    "date_modified": "2024-06-27T15:52:31.000",
    "request_status": "Pending",
    "responsible_agency": "Department of Sanitation",
    "final_address": "7000 Cove Dr",
    "address_councildis": "E",
    "status": "Pending",
    "rowid": "1107695",
    "final_x": "3700346.33834",
    "final_y": "558144.995931",
    "longitude": "-90.00758804699463",
    "latitude": "30.028118900315583",
    "geocoded_column": {
      "latitude": "30.028118900315583",
      "longitude": "-90.00758804699463"
    }
  },
  {
    "service_request": "2024-1107694",
    "request_type": "Abandoned Vehicles",
    "request_reason": "Abandoned/Junk Vehicles",
    "date_created": "2024-06-27T15:50:22.000",
    "date_modified": "2024-06-27T15:50:22.000",
    "request_status": "Pending",
    "responsible_agency": "Department of Public Works",
    "final_address": "2803 Bruxelles St",
    "address_councildis": "D",
    "status": "Pending",
    "rowid": "1107694",
    "final_x": "3680441.90075",
    "final_y": "542650.463117",
    "longitude": "-90.07102423264145",
    "latitude": "29.986132709214285",
    "geocoded_column": {
      "latitude": "29.986132709214285",
      "longitude": "-90.07102423264145"
    }
  },
  {
    "service_request": "2024-1107693",
    "request_type": "Abandoned Vehicles",
    "request_reason": "Abandoned/Junk Vehicles",
    "date_created": "2024-06-27T15:50:00.000",
    "date_modified": "2024-06-27T15:50:00.000",
    "request_status": "Pending",
    "responsible_agency": "Department of Public Works",
    "final_address": "4809 Francis Dr",
    "address_councildis": "D",
    "status": "Pending",
    "rowid": "1107693",
    "final_x": "3698251.47728",
    "final_y": "554670.332696",
    "longitude": "-90.014334031624",
    "latitude": "30.01863137981335",
    "geocoded_column": {
      "latitude": "30.01863137981335",
      "longitude": "-90.014334031624"
    }
  },
  {
    "service_request": "2024-1107692",
    "request_type": "Roads/Drainage",
    "request_reason": "Pothole",
    "date_created": "2024-06-27T15:49:29.000",
    "date_modified": "2024-06-27T15:49:29.000",
    "request_status": "Pending",
    "responsible_agency": "Department of Public Works",
    "final_address": "3817 Octavia St",
    "address_councildis": "A",
    "status": "Pending",
    "rowid": "1107692",
    "final_x": "3668845.60481",
    "final_y": "529468.915841",
    "longitude": "-90.10809772294161",
    "latitude": "29.950234024544727",
    "geocoded_column": {
      "latitude": "29.950234024544727",
      "longitude": "-90.10809772294161"
    }
  },
  {
    "service_request": "2024-1107691",
    "request_type": "Property Maintenance",
    "request_reason": "Property Maintenance",
    "date_created": "2024-06-27T15:47:54.000",
    "date_modified": "2024-06-27T15:47:54.000",
    "request_status": "Pending",
    "responsible_agency": "Department of Code Enforcement",
    "final_address": "2745 Athis St",
    "address_councildis": "D",
    "status": "Pending",
    "rowid": "1107691",
    "final_x": "3687404.26249",
    "final_y": "554580.591",
    "longitude": "-90.04861040667406",
    "latitude": "30.018723494066798",
    "geocoded_column": {
      "latitude": "30.018723494066798",
      "longitude": "-90.04861040667406"
    }
  },
  {
    "service_request": "2024-1107690",
    "request_type": "Trash/Recycling",
    "request_reason": "Request a Large Item Pick Up",
    "date_created": "2024-06-27T15:46:47.000",
    "date_modified": "2024-06-27T15:46:48.000",
    "request_status": "Pending",
    "responsible_agency": "Department of Sanitation",
    "final_address": "3603 Carondelet St",
    "address_councildis": "B",
    "status": "Assigned to Contractor",
    "contractor": "IV Waste",
    "rowid": "1107690",
    "final_x": "3673303.63451",
    "final_y": "521664.118713",
    "longitude": "-90.09428806728386",
    "latitude": "29.928641551168656",
    "geocoded_column": {
      "latitude": "29.928641551168656",
      "longitude": "-90.09428806728386"
    }
  },
  {
    "service_request": "2024-1107689",
    "request_type": "Property Maintenance",
    "request_reason": "Property Maintenance",
    "date_created": "2024-06-27T15:46:10.000",
    "date_modified": "2024-06-27T15:46:10.000",
    "request_status": "Pending",
    "responsible_agency": "Department of Code Enforcement",
    "final_address": "319 Atlantic Ave",
    "address_councildis": "C",
    "status": "Pending",
    "rowid": "1107689",
    "final_x": "3688791.19171",
    "final_y": "530530.809858",
    "longitude": "-90.04508254807944",
    "latitude": "29.95255235875351",
    "geocoded_column": {
      "latitude": "29.95255235875351",
      "longitude": "-90.04508254807944"
    }
  },
  {
    "service_request": "2024-1107688",
    "request_type": "Roads/Drainage",
    "request_reason": "Street Subsidence (Sinking)",
    "date_created": "2024-06-27T15:43:11.000",
    "date_modified": "2024-06-27T16:17:46.000",
    "case_close_date": "2024-06-27T11:17:46.000",
    "request_status": "Closed",
    "responsible_agency": "Department of Public Works",
    "final_address": "1012 Richard St",
    "address_councildis": "B",
    "status": "Duplicate Request",
    "rowid": "1107688",
    "final_x": "3680266.51432",
    "final_y": "523033.936699",
    "longitude": "-90.0722601309253",
    "latitude": "29.932199234201327",
    "geocoded_column": {
      "latitude": "29.932199234201327",
      "longitude": "-90.0722601309253"
    }
  },
  {
    "service_request": "2024-1107687",
    "request_type": "Abandoned Vehicles",
    "request_reason": "Abandoned/Junk Vehicles",
    "date_created": "2024-06-27T15:41:25.000",
    "date_modified": "2024-06-27T15:43:17.000",
    "request_status": "Pending",
    "responsible_agency": "Department of Public Works",
    "final_address": "754 Aurora Oaks Dr",
    "address_councildis": "C",
    "status": "Pending",
    "rowid": "1107687",
    "final_x": "3701267.62794",
    "final_y": "519581.8718",
    "longitude": "-90.00608833448155",
    "latitude": "29.922055008099644",
    "geocoded_column": {
      "latitude": "29.922055008099644",
      "longitude": "-90.00608833448155"
    }
  },
  {
    "service_request": "2024-1107686",
    "request_type": "Property Maintenance",
    "request_reason": "Property Maintenance",
    "date_created": "2024-06-27T15:41:12.000",
    "date_modified": "2024-06-27T15:41:12.000",
    "request_status": "Pending",
    "responsible_agency": "Department of Code Enforcement",
    "final_address": "4643 Francis Dr",
    "address_councildis": "D",
    "status": "Pending",
    "rowid": "1107686",
    "final_x": "3698335.99088",
    "final_y": "553846.250007",
    "longitude": "-90.01409697897421",
    "latitude": "30.016362789375282",
    "geocoded_column": {
      "latitude": "30.016362789375282",
      "longitude": "-90.01409697897421"
    }
  },
  {
    "service_request": "2024-1107685",
    "request_type": "Property Maintenance",
    "request_reason": "Property Maintenance",
    "date_created": "2024-06-27T15:40:48.000",
    "date_modified": "2024-06-27T15:40:48.000",
    "request_status": "Pending",
    "responsible_agency": "Department of Code Enforcement",
    "final_address": "7546 Marquis St",
    "address_councildis": "E",
    "status": "Pending",
    "rowid": "1107685",
    "final_x": "3711542.77227",
    "final_y": "565750.166115",
    "longitude": "-89.97192282511284",
    "latitude": "30.048669128800434",
    "geocoded_column": {
      "latitude": "30.048669128800434",
      "longitude": "-89.97192282511284"
    }
  },
  {
    "service_request": "2024-1107684",
    "request_type": "Trash/Recycling",
    "request_reason": "Request a Large Item Pick Up",
    "date_created": "2024-06-27T15:40:29.000",
    "date_modified": "2024-06-27T15:40:30.000",
    "request_status": "Pending",
    "responsible_agency": "Department of Sanitation",
    "final_address": "1007 Race St",
    "address_councildis": "B",
    "status": "Assigned to Contractor",
    "contractor": "IV Waste",
    "rowid": "1107684",
    "final_x": "3680507.72527",
    "final_y": "523815.155643",
    "longitude": "-90.07147149218021",
    "latitude": "29.934340026823723",
    "geocoded_column": {
      "latitude": "29.934340026823723",
      "longitude": "-90.07147149218021"
    }
  },
  {
    "service_request": "2024-1107683",
    "request_type": "Property Maintenance",
    "request_reason": "Property Maintenance",
    "date_created": "2024-06-27T15:40:19.000",
    "date_modified": "2024-06-27T15:40:19.000",
    "request_status": "Pending",
    "responsible_agency": "Department of Code Enforcement",
    "final_address": "4917 Nottingham Dr",
    "address_councildis": "E",
    "status": "Pending",
    "rowid": "1107683",
    "final_x": "3716395.26584",
    "final_y": "557671.827611",
    "longitude": "-89.95689296480201",
    "latitude": "30.026297540908427",
    "geocoded_column": {
      "latitude": "30.026297540908427",
      "longitude": "-89.95689296480201"
    }
  },
  {
    "service_request": "2024-1107682",
    "request_type": "Trash/Recycling",
    "request_reason": "Request a Large Item Pick Up",
    "date_created": "2024-06-27T15:36:47.000",
    "date_modified": "2024-06-27T15:36:48.000",
    "request_status": "Pending",
    "responsible_agency": "Department of Sanitation",
    "final_address": "5910 Kensington Blvd",
    "address_councildis": "E",
    "status": "Assigned to Contractor",
    "contractor": "Waste Pro",
    "rowid": "1107682",
    "final_x": "3712999.69438",
    "final_y": "561356.262878",
    "longitude": "-89.9674836769525",
    "latitude": "30.036539989284595",
    "geocoded_column": {
      "latitude": "30.036539989284595",
      "longitude": "-89.9674836769525"
    }
  },
  {
    "service_request": "2024-1107681",
    "request_type": "Abandoned Vehicles",
    "request_reason": "Abandoned/Junk Vehicles",
    "date_created": "2024-06-27T15:35:45.000",
    "date_modified": "2024-06-27T15:35:45.000",
    "request_status": "Pending",
    "responsible_agency": "Department of Public Works",
    "final_address": "WALES ST & MERCIER ST",
    "address_councildis": "E",
    "status": "Pending",
    "rowid": "1107681",
    "final_x": "3710971.1",
    "final_y": "567196.18",
    "longitude": "-89.97367539846931",
    "latitude": "30.052663744972833",
    "geocoded_column": {
      "latitude": "30.052663744972833",
      "longitude": "-89.97367539846931"
    }
  },
  {
    "service_request": "2024-1107680",
    "request_type": "Traffic Signals/Signs/Striping/Streetlights",
    "request_reason": "Additional signage",
    "date_created": "2024-06-27T15:32:12.000",
    "date_modified": "2024-06-27T15:32:12.000",
    "request_status": "Pending",
    "responsible_agency": "Department of Public Works",
    "final_address": "MAUMUS AVE & SULLEN PL",
    "address_councildis": "C",
    "status": "Pending",
    "rowid": "1107680",
    "final_x": "3707553.3",
    "final_y": "516713.98",
    "longitude": "-89.98635368809805",
    "latitude": "29.913967609003432",
    "geocoded_column": {
      "latitude": "29.913967609003432",
      "longitude": "-89.98635368809805"
    }
  },
  {
    "service_request": "2024-1107679",
    "request_type": "Trash/Recycling",
    "request_reason": "Request a Large Item Pick Up",
    "date_created": "2024-06-27T15:31:48.000",
    "date_modified": "2024-06-27T15:31:49.000",
    "request_status": "Pending",
    "responsible_agency": "Department of Sanitation",
    "final_address": "4501 Veronese Rd",
    "address_councildis": "E",
    "status": "Assigned to Contractor",
    "contractor": "Waste Pro",
    "rowid": "1107679",
    "final_x": "3763301.13821",
    "final_y": "573483.719786",
    "longitude": "-89.80801499923398",
    "latitude": "30.06814037891258",
    "geocoded_column": {
      "latitude": "30.06814037891258",
      "longitude": "-89.80801499923398"
    }
  },
  {
    "service_request": "2024-1107678",
    "request_type": "Roads/Drainage",
    "request_reason": "Damaged Sidewalk",
    "date_created": "2024-06-27T15:31:35.000",
    "date_modified": "2024-06-27T15:31:35.000",
    "request_status": "Pending",
    "responsible_agency": "Department of Public Works",
    "final_address": "N MAESTRI ST & CAMP ST",
    "address_councildis": "B",
    "status": "Pending",
    "rowid": "1107678",
    "final_x": "3681054.8",
    "final_y": "529033.38",
    "longitude": "-90.06956270168321",
    "latitude": "29.94867182663888",
    "geocoded_column": {
      "latitude": "29.94867182663888",
      "longitude": "-90.06956270168321"
    }
  },
  {
    "service_request": "2024-1107677",
    "request_type": "Abandoned Vehicles",
    "request_reason": "Abandoned/Junk Vehicles",
    "date_created": "2024-06-27T15:28:46.000",
    "date_modified": "2024-06-27T15:28:46.000",
    "request_status": "Pending",
    "responsible_agency": "Department of Public Works",
    "final_address": "8600 Belfast St",
    "address_councildis": "A",
    "status": "Pending",
    "rowid": "1107677",
    "final_x": "3664228.75111",
    "final_y": "533552.353221",
    "longitude": "-90.12253913803004",
    "latitude": "29.96159708653462",
    "geocoded_column": {
      "latitude": "29.96159708653462",
      "longitude": "-90.12253913803004"
    }
  },
  {
    "service_request": "2024-1107676",
    "request_type": "Trash/Recycling",
    "request_reason": "Repair Trash Cart",
    "date_created": "2024-06-27T15:28:36.000",
    "date_modified": "2024-06-27T15:28:37.000",
    "request_status": "Pending",
    "responsible_agency": "Department of Sanitation",
    "final_address": "4515 Plum Orchard St",
    "address_councildis": "E",
    "status": "Assigned to Contractor",
    "contractor": "Waste Pro",
    "rowid": "1107676",
    "final_x": "3701893.50148",
    "final_y": "553213.971095",
    "longitude": "-90.00288006120728",
    "latitude": "30.014511162561895",
    "geocoded_column": {
      "latitude": "30.014511162561895",
      "longitude": "-90.00288006120728"
    }
  },
  {
    "service_request": "2024-1107674",
    "request_type": "Trash/Recycling",
    "request_reason": "Order Trash Cart",
    "date_created": "2024-06-27T15:25:21.000",
    "date_modified": "2024-06-27T15:25:22.000",
    "request_status": "Pending",
    "responsible_agency": "Department of Sanitation",
    "final_address": "304 S Olympia St",
    "address_councildis": "A",
    "status": "Assigned to Contractor",
    "contractor": "IV Waste",
    "rowid": "1107674",
    "final_x": "3668915.11431",
    "final_y": "538917.540938",
    "longitude": "-90.10755909769628",
    "latitude": "29.97621256532707",
    "geocoded_column": {
      "latitude": "29.97621256532707",
      "longitude": "-90.10755909769628"
    }
  },
  {
    "service_request": "2024-1107673",
    "request_type": "Trash/Recycling",
    "request_reason": "Repair Trash Cart",
    "date_created": "2024-06-27T15:21:50.000",
    "date_modified": "2024-06-27T15:21:50.000",
    "request_status": "Pending",
    "responsible_agency": "Department of Sanitation",
    "final_address": "2430 Onzaga St",
    "address_councildis": "D",
    "status": "Assigned to Contractor",
    "contractor": "IV Waste",
    "rowid": "1107673",
    "final_x": "3679945.05826",
    "final_y": "539906.959498",
    "longitude": "-90.07268890261017",
    "latitude": "29.97860407075937",
    "geocoded_column": {
      "latitude": "29.97860407075937",
      "longitude": "-90.07268890261017"
    }
  },
  {
    "service_request": "2024-1107672",
    "request_type": "Trash/Recycling",
    "request_reason": "Request a Large Item Pick Up",
    "date_created": "2024-06-27T15:18:20.000",
    "date_modified": "2024-06-27T15:18:21.000",
    "request_status": "Pending",
    "responsible_agency": "Department of Sanitation",
    "final_address": "3401 River Oaks Dr",
    "address_councildis": "C",
    "status": "Assigned to Contractor",
    "contractor": "Richards Disposal",
    "rowid": "1107672",
    "final_x": "3701359.94935",
    "final_y": "518663.246647",
    "longitude": "-90.00583051068091",
    "latitude": "29.919526163552817",
    "geocoded_column": {
      "latitude": "29.919526163552817",
      "longitude": "-90.00583051068091"
    }
  },
  {
    "service_request": "2024-1107671",
    "request_type": "Property Maintenance",
    "request_reason": "Property Maintenance",
    "date_created": "2024-06-27T15:15:03.000",
    "date_modified": "2024-06-27T15:15:03.000",
    "request_status": "Pending",
    "responsible_agency": "Department of Code Enforcement",
    "final_address": "4774 Paris Ave",
    "address_councildis": "D",
    "status": "Pending",
    "rowid": "1107671",
    "final_x": "3678782.74171",
    "final_y": "550113.972372",
    "longitude": "-90.07600618864085",
    "latitude": "30.00670487724568",
    "geocoded_column": {
      "latitude": "30.00670487724568",
      "longitude": "-90.07600618864085"
    }
  },
  {
    "service_request": "2024-1107670",
    "request_type": "Trash/Recycling",
    "request_reason": "Illegal Dumping",
    "date_created": "2024-06-27T15:12:44.000",
    "date_modified": "2024-06-27T15:12:44.000",
    "request_status": "Pending",
    "responsible_agency": "Department of Sanitation",
    "final_address": "2831 St Roch Ave",
    "address_councildis": "D",
    "status": "Pending",
    "rowid": "1107670",
    "final_x": "3686007.49359",
    "final_y": "543318.154702",
    "longitude": "-90.05342117678815",
    "latitude": "29.987798860467354",
    "geocoded_column": {
      "latitude": "29.987798860467354",
      "longitude": "-90.05342117678815"
    }
  },
  {
    "service_request": "2024-1107669",
    "request_type": "Roads/Drainage",
    "request_reason": "Catch Basin - Clogged",
    "date_created": "2024-06-27T15:12:22.000",
    "date_modified": "2024-06-27T15:12:22.000",
    "request_status": "Pending",
    "responsible_agency": "Department of Public Works",
    "final_address": "8035 St Charles Ave",
    "address_councildis": "A",
    "status": "Pending",
    "rowid": "1107669",
    "final_x": "3660785.27968",
    "final_y": "526767.39699",
    "longitude": "-90.13363743336193",
    "latitude": "29.943040236930337",
    "geocoded_column": {
      "latitude": "29.943040236930337",
      "longitude": "-90.13363743336193"
    }
  },
  {
    "service_request": "2024-1107668",
    "request_type": "Trash/Recycling",
    "request_reason": "Return Recycling Cart",
    "date_created": "2024-06-27T15:11:58.000",
    "date_modified": "2024-06-27T15:11:58.000",
    "request_status": "Pending",
    "responsible_agency": "Department of Sanitation",
    "final_address": "935 Ursulines Ave",
    "address_councildis": "C",
    "status": "Pending",
    "rowid": "1107668",
    "final_x": "3682652.44124",
    "final_y": "534269.053317",
    "longitude": "-90.064335195745",
    "latitude": "29.963019599456096",
    "geocoded_column": {
      "latitude": "29.963019599456096",
      "longitude": "-90.064335195745"
    }
  },
  {
    "service_request": "2024-1107667",
    "request_type": "Trash/Recycling",
    "request_reason": "Return Trash Cart",
    "date_created": "2024-06-27T15:11:08.000",
    "date_modified": "2024-06-27T15:11:08.000",
    "request_status": "Pending",
    "responsible_agency": "Department of Sanitation",
    "final_address": "935 Ursulines Ave",
    "address_councildis": "C",
    "status": "Assigned to Contractor",
    "contractor": "Empire Services",
    "rowid": "1107667",
    "final_x": "3682652.44124",
    "final_y": "534269.053317",
    "longitude": "-90.064335195745",
    "latitude": "29.963019599456096",
    "geocoded_column": {
      "latitude": "29.963019599456096",
      "longitude": "-90.064335195745"
    }
  },
  {
    "service_request": "2024-1107666",
    "request_type": "Roads/Drainage",
    "request_reason": "WaterMain Break",
    "date_created": "2024-06-27T15:05:59.000",
    "date_modified": "2024-06-27T15:05:59.000",
    "request_status": "Pending",
    "responsible_agency": "Department of Public Works",
    "final_address": "1309 Dufossat St",
    "address_councildis": "B",
    "status": "Pending",
    "rowid": "1107666",
    "final_x": "3668121.94113",
    "final_y": "520014.512312",
    "longitude": "-90.11070120619415",
    "latitude": "29.924258709343157",
    "geocoded_column": {
      "latitude": "29.924258709343157",
      "longitude": "-90.11070120619415"
    }
  },
  {
    "service_request": "2024-1107665",
    "request_type": "Trash/Recycling",
    "request_reason": "Request a Large Item Pick Up",
    "date_created": "2024-06-27T15:05:41.000",
    "date_modified": "2024-06-27T15:05:41.000",
    "request_status": "Pending",
    "responsible_agency": "Department of Sanitation",
    "final_address": "133 N Scott St",
    "address_councildis": "A",
    "status": "Assigned to Contractor",
    "contractor": "IV Waste",
    "rowid": "1107665",
    "final_x": "3671908.17428",
    "final_y": "538142.970633",
    "longitude": "-90.09813248005362",
    "latitude": "29.973994379887714",
    "geocoded_column": {
      "latitude": "29.973994379887714",
      "longitude": "-90.09813248005362"
    }
  },
  {
    "service_request": "2024-1107664",
    "request_type": "Trash/Recycling",
    "request_reason": "Replace Recycling Cart",
    "date_created": "2024-06-27T15:04:36.000",
    "date_modified": "2024-06-27T15:04:36.000",
    "request_status": "Pending",
    "responsible_agency": "Department of Sanitation",
    "final_address": "3131 Preston Pl",
    "address_councildis": "C",
    "status": "Pending",
    "rowid": "1107664",
    "final_x": "3708533.11947",
    "final_y": "518662.288247",
    "longitude": "-89.98318862709078",
    "latitude": "29.91929307083374",
    "geocoded_column": {
      "latitude": "29.91929307083374",
      "longitude": "-89.98318862709078"
    }
  },
  {
    "service_request": "2024-1107663",
    "request_type": "Trash/Recycling",
    "request_reason": "Request a Large Item Pick Up",
    "date_created": "2024-06-27T15:04:02.000",
    "date_modified": "2024-06-27T15:04:02.000",
    "request_status": "Pending",
    "responsible_agency": "Department of Sanitation",
    "final_address": "6 St Claude Ct",
    "address_councildis": "E",
    "status": "Assigned to Contractor",
    "contractor": "Waste Pro",
    "rowid": "1107663",
    "final_x": "3697465.66051",
    "final_y": "533774.838661",
    "longitude": "-90.01757504074028",
    "latitude": "29.961201278896475",
    "geocoded_column": {
      "latitude": "29.961201278896475",
      "longitude": "-90.01757504074028"
    }
  },
  {
    "service_request": "2024-1107662",
    "request_type": "Trash/Recycling",
    "request_reason": "Request a Large Item Pick Up",
    "date_created": "2024-06-27T15:03:20.000",
    "date_modified": "2024-06-27T15:03:20.000",
    "request_status": "Pending",
    "responsible_agency": "Department of Sanitation",
    "final_address": "4 St Claude Ct",
    "address_councildis": "E",
    "status": "Assigned to Contractor",
    "contractor": "Waste Pro",
    "rowid": "1107662",
    "final_x": "3697471.00707",
    "final_y": "533793.989637",
    "longitude": "-90.01755746291838",
    "latitude": "29.96125376846973",
    "geocoded_column": {
      "latitude": "29.96125376846973",
      "longitude": "-90.01755746291838"
    }
  },
  {
    "service_request": "2024-1107661",
    "request_type": "Trash/Recycling",
    "request_reason": "Repair Trash Cart",
    "date_created": "2024-06-27T14:58:51.000",
    "date_modified": "2024-06-27T14:58:51.000",
    "request_status": "Pending",
    "responsible_agency": "Department of Sanitation",
    "final_address": "3131 Preston Pl",
    "address_councildis": "C",
    "status": "Assigned to Contractor",
    "contractor": "Richards Disposal",
    "rowid": "1107661",
    "final_x": "3708533.11947",
    "final_y": "518662.288247",
    "longitude": "-89.98318862709078",
    "latitude": "29.91929307083374",
    "geocoded_column": {
      "latitude": "29.91929307083374",
      "longitude": "-89.98318862709078"
    }
  },
  {
    "service_request": "2024-1107660",
    "request_type": "Roads/Drainage",
    "request_reason": "Street Subsidence (Sinking)",
    "date_created": "2024-06-27T14:57:39.000",
    "date_modified": "2024-06-27T14:57:39.000",
    "request_status": "Pending",
    "responsible_agency": "Department of Public Works",
    "final_address": "JEFFERSON AVE & FRERET ST",
    "address_councildis": "A",
    "status": "Pending",
    "rowid": "1107660",
    "final_x": "3667902.0",
    "final_y": "524002.78",
    "longitude": "-90.11126121450557",
    "latitude": "29.935231627090978",
    "geocoded_column": {
      "latitude": "29.935231627090978",
      "longitude": "-90.11126121450557"
    }
  },
  {
    "service_request": "2024-1107659",
    "request_type": "Trash/Recycling",
    "request_reason": "Request a Large Item Pick Up",
    "date_created": "2024-06-27T14:56:06.000",
    "date_modified": "2024-06-27T14:56:07.000",
    "request_status": "Pending",
    "responsible_agency": "Department of Sanitation",
    "final_address": "4803 Reynes St",
    "address_councildis": "E",
    "status": "Assigned to Contractor",
    "contractor": "Waste Pro",
    "rowid": "1107659",
    "final_x": "3699152.77207",
    "final_y": "555253.636313",
    "longitude": "-90.01146502166142",
    "latitude": "30.020206684698046",
    "geocoded_column": {
      "latitude": "30.020206684698046",
      "longitude": "-90.01146502166142"
    }
  },
  {
    "service_request": "2024-1107658",
    "request_type": "Trash/Recycling",
    "request_reason": "Repair Trash Cart",
    "date_created": "2024-06-27T14:45:17.000",
    "date_modified": "2024-06-27T14:45:18.000",
    "request_status": "Pending",
    "responsible_agency": "Department of Sanitation",
    "final_address": "5556 Tullis Dr",
    "address_councildis": "C",
    "status": "Assigned to Contractor",
    "contractor": "Richards Disposal",
    "rowid": "1107658",
    "final_x": "3704554.33271",
    "final_y": "512271.847025",
    "longitude": "-89.9959829746797",
    "latitude": "29.90184985727669",
    "geocoded_column": {
      "latitude": "29.90184985727669",
      "longitude": "-89.9959829746797"
    }
  },
  {
    "service_request": "2024-1107657",
    "request_type": "Trash/Recycling",
    "request_reason": "Request a Large Item Pick Up",
    "date_created": "2024-06-27T14:45:16.000",
    "date_modified": "2024-06-27T14:45:17.000",
    "request_status": "Pending",
    "responsible_agency": "Department of Sanitation",
    "final_address": "7828 Mercier St",
    "address_councildis": "E",
    "status": "Assigned to Contractor",
    "contractor": "Waste Pro",
    "rowid": "1107657",
    "final_x": "3710972.83921",
    "final_y": "567137.170212",
    "longitude": "-89.97367211454346",
    "latitude": "30.052501435261128",
    "geocoded_column": {
      "latitude": "30.052501435261128",
      "longitude": "-89.97367211454346"
    }
  },
  {
    "service_request": "2024-1107656",
    "request_type": "Traffic Signals/Signs/Striping/Streetlights",
    "request_reason": "Street Light Outage/Malfunction",
    "date_created": "2024-06-27T14:43:40.000",
    "date_modified": "2024-06-27T14:43:41.000",
    "request_status": "Pending",
    "responsible_agency": "Department of Public Works",
    "final_address": "1820 Old St Bernard St",
    "address_councildis": "D",
    "status": "Assigned to Contractor",
    "contractor": "Legacy Professional Services",
    "rowid": "1107656",
    "final_x": "3682440.24802",
    "final_y": "538874.628105",
    "longitude": "-90.06484426953992",
    "latitude": "29.975689799963757",
    "geocoded_column": {
      "latitude": "29.975689799963757",
      "longitude": "-90.06484426953992"
    }
  },
  {
    "service_request": "2024-1107655",
    "request_type": "Trash/Recycling",
    "request_reason": "Missed Trash Pick-Up",
    "date_created": "2024-06-27T14:40:09.000",
    "date_modified": "2024-06-27T16:48:03.000",
    "case_close_date": "2024-06-27T11:48:03.000",
    "request_status": "Closed",
    "responsible_agency": "Department of Sanitation",
    "final_address": "2204 Octavia St",
    "address_councildis": "A",
    "status": "Assigned to Contractor",
    "contractor": "IV Waste",
    "contractor_action": "Invalid Request",
    "rowid": "1107655",
    "final_x": "3667456.33172",
    "final_y": "523772.683899",
    "longitude": "-90.11267593212925",
    "latitude": "29.934611998580188",
    "geocoded_column": {
      "latitude": "29.934611998580188",
      "longitude": "-90.11267593212925"
    }
  },
  {
    "service_request": "2024-1107654",
    "request_type": "Traffic Signals/Signs/Striping/Streetlights",
    "request_reason": "Street Light Outage/Malfunction",
    "date_created": "2024-06-27T14:36:21.000",
    "date_modified": "2024-06-27T14:36:22.000",
    "request_status": "Pending",
    "responsible_agency": "Department of Public Works",
    "final_address": "741 Valence St",
    "address_councildis": "B",
    "status": "Assigned to Contractor",
    "contractor": "Legacy Professional Services",
    "rowid": "1107654",
    "final_x": "3670034.7458",
    "final_y": "518275.31455",
    "longitude": "-90.1047219974798",
    "latitude": "29.919420207777716",
    "geocoded_column": {
      "latitude": "29.919420207777716",
      "longitude": "-90.1047219974798"
    }
  },
  {
    "service_request": "2024-1107653",
    "request_type": "Trash/Recycling",
    "request_reason": "Request a Large Item Pick Up",
    "date_created": "2024-06-27T14:34:57.000",
    "date_modified": "2024-06-27T14:34:58.000",
    "request_status": "Pending",
    "responsible_agency": "Department of Sanitation",
    "final_address": "4811 Desire Dr",
    "address_councildis": "D",
    "status": "Assigned to Contractor",
    "contractor": "IV Waste",
    "rowid": "1107653",
    "final_x": "3691946.18582",
    "final_y": "551512.809429",
    "longitude": "-90.03436949610229",
    "latitude": "30.01014743060241",
    "geocoded_column": {
      "latitude": "30.01014743060241",
      "longitude": "-90.03436949610229"
    }
  },
  {
    "service_request": "2024-1107652",
    "request_type": "Trash/Recycling",
    "request_reason": "Request a Large Item Pick Up",
    "date_created": "2024-06-27T14:33:23.000",
    "date_modified": "2024-06-27T14:33:23.000",
    "request_status": "Pending",
    "responsible_agency": "Department of Sanitation",
    "final_address": "7200 Arbor Dr",
    "address_councildis": "E",
    "status": "Assigned to Contractor",
    "contractor": "Waste Pro",
    "rowid": "1107652",
    "final_x": "3700567.51575",
    "final_y": "557884.815643",
    "longitude": "-90.00689866171606",
    "latitude": "30.02739646652489",
    "geocoded_column": {
      "latitude": "30.02739646652489",
      "longitude": "-90.00689866171606"
    }
  },
  {
    "service_request": "2024-1107651",
    "request_type": "Property Maintenance",
    "request_reason": "Property Maintenance",
    "date_created": "2024-06-27T14:33:02.000",
    "date_modified": "2024-06-27T15:42:17.000",
    "case_close_date": "2024-06-27T10:42:17.000",
    "request_status": "Closed",
    "responsible_agency": "Department of Code Enforcement",
    "final_address": "5611 Music St",
    "address_councildis": "D",
    "status": "Referred to Code Enforcement",
    "rowid": "1107651",
    "final_x": "3685512.05474",
    "final_y": "553662.676119",
    "longitude": "-90.05462145980297",
    "latitude": "30.016257765059386",
    "geocoded_column": {
      "latitude": "30.016257765059386",
      "longitude": "-90.05462145980297"
    }
  },
  {
    "service_request": "2024-1107650",
    "request_type": "Trash/Recycling",
    "request_reason": "Request a Large Item Pick Up",
    "date_created": "2024-06-27T14:30:41.000",
    "date_modified": "2024-06-27T14:30:42.000",
    "request_status": "Pending",
    "responsible_agency": "Department of Sanitation",
    "final_address": "5037 St Ferdinand Dr",
    "address_councildis": "D",
    "status": "Assigned to Contractor",
    "contractor": "IV Waste",
    "rowid": "1107650",
    "final_x": "3689244.7919",
    "final_y": "551606.873365",
    "longitude": "-90.04290082616272",
    "latitude": "30.010489999877326",
    "geocoded_column": {
      "latitude": "30.010489999877326",
      "longitude": "-90.04290082616272"
    }
  },
  {
    "service_request": "2024-1107649",
    "request_type": "Trash/Recycling",
    "request_reason": "Missed Trash Pick-Up",
    "date_created": "2024-06-27T14:30:09.000",
    "date_modified": "2024-06-27T16:38:07.000",
    "case_close_date": "2024-06-27T11:38:07.000",
    "request_status": "Closed",
    "responsible_agency": "Department of Sanitation",
    "final_address": "5225 Canal Blvd",
    "address_councildis": "A",
    "status": "Invalid Request",
    "contractor": "IV Waste",
    "contractor_action": "Invalid Request",
    "rowid": "1107649",
    "final_x": "3668108.09165",
    "final_y": "542208.339853",
    "longitude": "-90.10999695965853",
    "latitude": "29.985284863695508",
    "geocoded_column": {
      "latitude": "29.985284863695508",
      "longitude": "-90.10999695965853"
    }
  },
  {
    "service_request": "2024-1107648",
    "request_type": "Trash/Recycling",
    "request_reason": "Request a Large Item Pick Up",
    "date_created": "2024-06-27T14:29:10.000",
    "date_modified": "2024-06-27T14:29:11.000",
    "request_status": "Pending",
    "responsible_agency": "Department of Sanitation",
    "final_address": "1717 S Dupre St, New Orleans, LA 70125",
    "address_councildis": "B",
    "status": "Assigned to Contractor",
    "contractor": "IV Waste",
    "rowid": "1107648",
    "final_x": "3670644.61966",
    "final_y": "530018.338305",
    "longitude": "-90.10239873061663",
    "latitude": "29.95169173880438",
    "geocoded_column": {
      "latitude": "29.95169173880438",
      "longitude": "-90.10239873061663"
    }
  },
  {
    "service_request": "2024-1107647",
    "request_type": "Abandoned Vehicles",
    "request_reason": "Abandoned/Junk Vehicles",
    "date_created": "2024-06-27T14:27:28.000",
    "date_modified": "2024-06-27T14:27:28.000",
    "request_status": "Pending",
    "responsible_agency": "Department of Public Works",
    "final_address": "4500 BLK Hickerson Dr",
    "address_councildis": "E",
    "status": "Inspected",
    "rowid": "1107647",
    "final_x": "3710499.46742",
    "final_y": "554518.727036",
    "longitude": "-89.97564086239218",
    "latitude": "30.017821168766478",
    "geocoded_column": {
      "latitude": "30.017821168766478",
      "longitude": "-89.97564086239218"
    }
  },
  {
    "service_request": "2024-1107646",
    "request_type": "Abandoned Vehicles",
    "request_reason": "Abandoned/Junk Vehicles",
    "date_created": "2024-06-27T14:27:09.000",
    "date_modified": "2024-06-27T14:29:10.000",
    "request_status": "Pending",
    "responsible_agency": "Department of Public Works",
    "final_address": "1735 Audubon St",
    "address_councildis": "A",
    "status": "Pending",
    "rowid": "1107646",
    "final_x": "3665599.76583",
    "final_y": "528036.728319",
    "longitude": "-90.11839436278602",
    "latitude": "29.946391006696786",
    "geocoded_column": {
      "latitude": "29.946391006696786",
      "longitude": "-90.11839436278602"
    }
  },
  {
    "service_request": "2024-1107645",
    "request_type": "Roads/Drainage",
    "request_reason": "Street Subsidence (Sinking)",
    "date_created": "2024-06-27T14:22:47.000",
    "date_modified": "2024-06-27T14:22:47.000",
    "request_status": "Pending",
    "responsible_agency": "Department of Public Works",
    "final_address": "6629 Peony St",
    "address_councildis": "C",
    "status": "Pending",
    "rowid": "1107645",
    "final_x": "3708413.61227",
    "final_y": "516344.79698",
    "longitude": "-89.98365201211037",
    "latitude": "29.91292464752084",
    "geocoded_column": {
      "latitude": "29.91292464752084",
      "longitude": "-89.98365201211037"
    }
  },
  {
    "service_request": "2024-1107644",
    "request_type": "Abandoned Vehicles",
    "request_reason": "Abandoned/Junk Vehicles",
    "date_created": "2024-06-27T14:22:43.000",
    "date_modified": "2024-06-27T14:26:37.000",
    "request_status": "Pending",
    "responsible_agency": "Department of Public Works",
    "final_address": "5948 Boeing St",
    "address_councildis": "D",
    "status": "Pending",
    "rowid": "1107644",
    "final_x": "3696521.59882",
    "final_y": "553024.899799",
    "longitude": "-90.01985938916093",
    "latitude": "30.014161699258718",
    "geocoded_column": {
      "latitude": "30.014161699258718",
      "longitude": "-90.01985938916093"
    }
  },
  {
    "service_request": "2024-1107643",
    "request_type": "Traffic Signals/Signs/Striping/Streetlights",
    "request_reason": "Street Light Outage/Malfunction",
    "date_created": "2024-06-27T14:20:32.000",
    "date_modified": "2024-06-27T14:20:33.000",
    "request_status": "Pending",
    "responsible_agency": "Department of Public Works",
    "final_address": "6629 Peony St",
    "address_councildis": "C",
    "status": "Assigned to Contractor",
    "contractor": "Legacy Professional Services",
    "rowid": "1107643",
    "final_x": "3708413.61227",
    "final_y": "516344.79698",
    "longitude": "-89.98365201211037",
    "latitude": "29.91292464752084",
    "geocoded_column": {
      "latitude": "29.91292464752084",
      "longitude": "-89.98365201211037"
    }
  },
  {
    "service_request": "2024-1107642",
    "request_type": "Trash/Recycling",
    "request_reason": "Request a Large Item Pick Up",
    "date_created": "2024-06-27T14:19:12.000",
    "date_modified": "2024-06-27T14:37:19.000",
    "request_status": "Pending",
    "responsible_agency": "Department of Sanitation",
    "final_address": "4745 Raymond Joseph Dr",
    "address_councildis": "E",
    "status": "Assigned to Contractor",
    "contractor": "Waste Pro",
    "rowid": "1107642",
    "final_x": "3703730.3978",
    "final_y": "555471.330457",
    "longitude": "-89.99699323780784",
    "latitude": "30.020659261405886",
    "geocoded_column": {
      "latitude": "30.020659261405886",
      "longitude": "-89.99699323780784"
    }
  },
  {
    "service_request": "2024-1107641",
    "request_type": "Trash/Recycling",
    "request_reason": "Request a Large Item Pick Up",
    "date_created": "2024-06-27T14:15:54.000",
    "date_modified": "2024-06-27T14:15:54.000",
    "request_status": "Pending",
    "responsible_agency": "Department of Sanitation",
    "final_address": "7106 Barrington Ct",
    "address_councildis": "E",
    "status": "Assigned to Contractor",
    "contractor": "Waste Pro",
    "rowid": "1107641",
    "final_x": "3713940.79359",
    "final_y": "565212.090594",
    "longitude": "-89.96436406221466",
    "latitude": "30.047111080597624",
    "geocoded_column": {
      "latitude": "30.047111080597624",
      "longitude": "-89.96436406221466"
    }
  },
  {
    "service_request": "2024-1107640",
    "request_type": "Trash/Recycling",
    "request_reason": "Replace Recycling Cart",
    "date_created": "2024-06-27T14:13:55.000",
    "date_modified": "2024-06-27T14:13:55.000",
    "request_status": "Pending",
    "responsible_agency": "Department of Sanitation",
    "final_address": "1307 Valence St",
    "address_councildis": "B",
    "status": "Pending",
    "rowid": "1107640",
    "final_x": "3669878.10695",
    "final_y": "520027.351096",
    "longitude": "-90.1051571522752",
    "latitude": "29.924242370002744",
    "geocoded_column": {
      "latitude": "29.924242370002744",
      "longitude": "-90.1051571522752"
    }
  },
  {
    "service_request": "2024-1107639",
    "request_type": "Parks & Parkways",
    "request_reason": "Request Tree Service (Right of Way/Public Property)",
    "date_created": "2024-06-27T14:09:37.000",
    "date_modified": "2024-06-27T14:09:54.000",
    "request_status": "Pending",
    "responsible_agency": "Department of Parks & Parkway",
    "final_address": "2203 Pine St",
    "address_councildis": "A",
    "status": "Pending",
    "rowid": "1107639",
    "final_x": "3665973.669",
    "final_y": "529626.998401",
    "longitude": "-90.11716052184538",
    "latitude": "29.950752828250476",
    "geocoded_column": {
      "latitude": "29.950752828250476",
      "longitude": "-90.11716052184538"
    }
  },
  {
    "service_request": "2024-1107638",
    "request_type": "Parks & Parkways",
    "request_reason": "Request Tree Service (Right of Way/Public Property)",
    "date_created": "2024-06-27T14:09:10.000",
    "date_modified": "2024-06-27T14:09:10.000",
    "request_status": "Pending",
    "responsible_agency": "Department of Parks & Parkway",
    "final_address": "4500 BLK Press Dr",
    "address_councildis": "D",
    "status": "Pending",
    "rowid": "1107638",
    "final_x": "3689818.51436",
    "final_y": "549944.553442",
    "longitude": "-90.04114745087215",
    "latitude": "30.00590145253682",
    "geocoded_column": {
      "latitude": "30.00590145253682",
      "longitude": "-90.04114745087215"
    }
  },
  {
    "service_request": "2024-1107637",
    "request_type": "Trash/Recycling",
    "request_reason": "Order Recycling Cart",
    "date_created": "2024-06-27T14:07:22.000",
    "date_modified": "2024-06-27T14:07:22.000",
    "request_status": "Pending",
    "responsible_agency": "Department of Sanitation",
    "final_address": "1234 Magazine St",
    "address_councildis": "B",
    "status": "Pending",
    "rowid": "1107637",
    "final_x": "3680620.61864",
    "final_y": "525336.061053",
    "longitude": "-90.07106219791643",
    "latitude": "29.93851859399711",
    "geocoded_column": {
      "latitude": "29.93851859399711",
      "longitude": "-90.07106219791643"
    }
  },
  {
    "service_request": "2024-1107636",
    "request_type": "Trash/Recycling",
    "request_reason": "Order Recycling Cart",
    "date_created": "2024-06-27T14:06:56.000",
    "date_modified": "2024-06-27T14:06:57.000",
    "request_status": "Pending",
    "responsible_agency": "Department of Sanitation",
    "final_address": "1232 Magazine St",
    "address_councildis": "B",
    "status": "Pending",
    "rowid": "1107636",
    "final_x": "3680624.22971",
    "final_y": "525348.283325",
    "longitude": "-90.07105037231962",
    "latitude": "29.938552091805473",
    "geocoded_column": {
      "latitude": "29.938552091805473",
      "longitude": "-90.07105037231962"
    }
  },
  {
    "service_request": "2024-1107635",
    "request_type": "Trash/Recycling",
    "request_reason": "Order Recycling Cart",
    "date_created": "2024-06-27T14:04:27.000",
    "date_modified": "2024-06-27T14:04:28.000",
    "request_status": "Pending",
    "responsible_agency": "Department of Sanitation",
    "final_address": "6123 Tchoupitoulas St",
    "address_councildis": "A",
    "status": "Pending",
    "rowid": "1107635",
    "final_x": "3663332.64346",
    "final_y": "517886.596342",
    "longitude": "-90.12589020500167",
    "latitude": "29.918547250750123",
    "geocoded_column": {
      "latitude": "29.918547250750123",
      "longitude": "-90.12589020500167"
    }
  },
  {
    "service_request": "2024-1107634",
    "request_type": "Trash/Recycling",
    "request_reason": "Return Trash Cart",
    "date_created": "2024-06-27T14:03:27.000",
    "date_modified": "2024-06-27T14:03:27.000",
    "request_status": "Pending",
    "responsible_agency": "Department of Sanitation",
    "final_address": "6125 Tchoupitoulas St",
    "address_councildis": "A",
    "status": "Assigned to Contractor",
    "contractor": "IV Waste",
    "rowid": "1107634",
    "final_x": "3663321.18515",
    "final_y": "517891.804726",
    "longitude": "-90.12592619976319",
    "latitude": "29.918561904188753",
    "geocoded_column": {
      "latitude": "29.918561904188753",
      "longitude": "-90.12592619976319"
    }
  },
  {
    "service_request": "2024-1107633",
    "request_type": "Trash/Recycling",
    "request_reason": "Return Trash Cart",
    "date_created": "2024-06-27T14:03:02.000",
    "date_modified": "2024-06-27T14:03:03.000",
    "request_status": "Pending",
    "responsible_agency": "Department of Sanitation",
    "final_address": "6123 Tchoupitoulas St",
    "address_councildis": "A",
    "status": "Assigned to Contractor",
    "contractor": "IV Waste",
    "rowid": "1107633",
    "final_x": "3663332.64346",
    "final_y": "517886.596342",
    "longitude": "-90.12589020500167",
    "latitude": "29.918547250750123",
    "geocoded_column": {
      "latitude": "29.918547250750123",
      "longitude": "-90.12589020500167"
    }
  },
  {
    "service_request": "2024-1107632",
    "request_type": "Abandoned Vehicles",
    "request_reason": "Abandoned/Junk Vehicles",
    "date_created": "2024-06-27T14:02:00.000",
    "date_modified": "2024-06-27T14:02:00.000",
    "request_status": "Pending",
    "responsible_agency": "Department of Public Works",
    "final_address": "1917 N Johnson St",
    "address_councildis": "D",
    "status": "Pending",
    "rowid": "1107632",
    "final_x": "3683022.66607",
    "final_y": "539511.222858",
    "longitude": "-90.06298254284049",
    "latitude": "29.977422472114416",
    "geocoded_column": {
      "latitude": "29.977422472114416",
      "longitude": "-90.06298254284049"
    }
  },
  {
    "service_request": "2024-1107631",
    "request_type": "Abandoned Vehicles",
    "request_reason": "Abandoned/Junk Vehicles",
    "date_created": "2024-06-27T13:59:30.000",
    "date_modified": "2024-06-27T13:59:30.000",
    "request_status": "Pending",
    "responsible_agency": "Department of Public Works",
    "final_address": "2529 Verbena St",
    "address_councildis": "D",
    "status": "Pending",
    "rowid": "1107631",
    "final_x": "3686563.35004",
    "final_y": "547798.846034",
    "longitude": "-90.05150709168008",
    "latitude": "30.000102070205795",
    "geocoded_column": {
      "latitude": "30.000102070205795",
      "longitude": "-90.05150709168008"
    }
  },
  {
    "service_request": "2024-1107630",
    "request_type": "Trash/Recycling",
    "request_reason": "Request a Large Item Pick Up",
    "date_created": "2024-06-27T13:58:43.000",
    "date_modified": "2024-06-27T13:58:44.000",
    "request_status": "Pending",
    "responsible_agency": "Department of Sanitation",
    "final_address": "4726 Rosemont Pl",
    "address_councildis": "E",
    "status": "Assigned to Contractor",
    "contractor": "Waste Pro",
    "rowid": "1107630",
    "final_x": "3702676.54577",
    "final_y": "554804.42396",
    "longitude": "-90.0003475868234",
    "latitude": "30.018859276852496",
    "geocoded_column": {
      "latitude": "30.018859276852496",
      "longitude": "-90.0003475868234"
    }
  },
  {
    "service_request": "2024-1107629",
    "request_type": "Abandoned Vehicles",
    "request_reason": "Abandoned/Junk Vehicles",
    "date_created": "2024-06-27T13:58:11.000",
    "date_modified": "2024-06-27T13:58:11.000",
    "request_status": "Pending",
    "responsible_agency": "Department of Public Works",
    "final_address": "4114 Clematis St",
    "address_councildis": "D",
    "status": "Pending",
    "rowid": "1107629",
    "final_x": "3685118.60924",
    "final_y": "548087.268754",
    "longitude": "-90.05606093812898",
    "latitude": "30.000939489384063",
    "geocoded_column": {
      "latitude": "30.000939489384063",
      "longitude": "-90.05606093812898"
    }
  },
  {
    "service_request": "2024-1107628",
    "request_type": "Abandoned Vehicles",
    "request_reason": "Abandoned/Junk Vehicles",
    "date_created": "2024-06-27T13:56:52.000",
    "date_modified": "2024-06-27T13:56:52.000",
    "request_status": "Pending",
    "responsible_agency": "Department of Public Works",
    "final_address": "4114 Clematis St",
    "address_councildis": "D",
    "status": "Pending",
    "rowid": "1107628",
    "final_x": "3685118.60924",
    "final_y": "548087.268754",
    "longitude": "-90.05606093812898",
    "latitude": "30.000939489384063",
    "geocoded_column": {
      "latitude": "30.000939489384063",
      "longitude": "-90.05606093812898"
    }
  },
  {
    "service_request": "2024-1107627",
    "request_type": "Parks & Parkways",
    "request_reason": "Request Tree Service (Right of Way/Public Property)",
    "date_created": "2024-06-27T13:56:43.000",
    "date_modified": "2024-06-27T13:56:43.000",
    "request_status": "Pending",
    "responsible_agency": "Department of Parks & Parkway",
    "final_address": "2100 St Charles Ave",
    "address_councildis": "B",
    "status": "Pending",
    "rowid": "1107627",
    "final_x": "3677924.5595",
    "final_y": "523842.254075",
    "longitude": "-90.07962553784965",
    "latitude": "29.93449250636537",
    "geocoded_column": {
      "latitude": "29.93449250636537",
      "longitude": "-90.07962553784965"
    }
  },
  {
    "service_request": "2024-1107626",
    "request_type": "Property Maintenance",
    "request_reason": "Property Maintenance",
    "date_created": "2024-06-27T13:54:32.000",
    "date_modified": "2024-06-27T15:41:39.000",
    "case_close_date": "2024-06-27T10:41:39.000",
    "request_status": "Closed",
    "responsible_agency": "Department of Code Enforcement",
    "final_address": "2531 Verbena St",
    "address_councildis": "D",
    "status": "Referred to Code Enforcement",
    "rowid": "1107626",
    "final_x": "3686592.41986",
    "final_y": "547806.894802",
    "longitude": "-90.05141497435581",
    "latitude": "30.000123307200358",
    "geocoded_column": {
      "latitude": "30.000123307200358",
      "longitude": "-90.05141497435581"
    }
  },
  {
    "service_request": "2024-1107625",
    "request_type": "Abandoned Vehicles",
    "request_reason": "Abandoned/Junk Vehicles",
    "date_created": "2024-06-27T13:50:38.000",
    "date_modified": "2024-06-27T13:50:38.000",
    "request_status": "Pending",
    "responsible_agency": "Department of Public Works",
    "final_address": "2042 Prytania St",
    "address_councildis": "B",
    "status": "Pending",
    "rowid": "1107625",
    "final_x": "3678288.99816",
    "final_y": "523508.028667",
    "longitude": "-90.078486568811",
    "latitude": "29.933562527002525",
    "geocoded_column": {
      "latitude": "29.933562527002525",
      "longitude": "-90.078486568811"
    }
  },
  {
    "service_request": "2024-1107624",
    "request_type": "Property Maintenance",
    "request_reason": "Property Maintenance",
    "date_created": "2024-06-27T13:50:18.000",
    "date_modified": "2024-06-27T13:50:18.000",
    "request_status": "Pending",
    "responsible_agency": "Department of Code Enforcement",
    "final_address": "2531 Verbena St",
    "address_councildis": "D",
    "status": "Pending",
    "rowid": "1107624",
    "final_x": "3686592.41986",
    "final_y": "547806.894802",
    "longitude": "-90.05141497435581",
    "latitude": "30.000123307200358",
    "geocoded_column": {
      "latitude": "30.000123307200358",
      "longitude": "-90.05141497435581"
    }
  },
  {
    "service_request": "2024-1107623",
    "request_type": "Mosquito, Termite & Rodent Control",
    "request_reason": "Rodent Complaint (Rats)",
    "date_created": "2024-06-27T13:50:14.000",
    "date_modified": "2024-06-27T13:50:15.000",
    "request_status": "Pending",
    "responsible_agency": "Mosquito, Termite & Rodent Control Board",
    "final_address": "4646 Chrysler St",
    "address_councildis": "E",
    "status": "Pending",
    "rowid": "1107623",
    "final_x": "3715263.57848",
    "final_y": "556434.709018",
    "longitude": "-89.9605157570778",
    "latitude": "30.02293328689707",
    "geocoded_column": {
      "latitude": "30.02293328689707",
      "longitude": "-89.9605157570778"
    }
  },
  {
    "service_request": "2024-1107622",
    "request_type": "Property Maintenance",
    "request_reason": "Property Maintenance",
    "date_created": "2024-06-27T13:48:16.000",
    "date_modified": "2024-06-27T13:48:17.000",
    "request_status": "Pending",
    "responsible_agency": "Department of Code Enforcement",
    "final_address": "2145 Law St",
    "address_councildis": "D",
    "status": "Pending",
    "rowid": "1107622",
    "final_x": "3683921.55701",
    "final_y": "541808.963148",
    "longitude": "-90.06006290838108",
    "latitude": "29.98371301868733",
    "geocoded_column": {
      "latitude": "29.98371301868733",
      "longitude": "-90.06006290838108"
    }
  },
  {
    "service_request": "2024-1107621",
    "request_type": "Trash/Recycling",
    "request_reason": "Missed Trash Pick-Up",
    "date_created": "2024-06-27T13:48:02.000",
    "date_modified": "2024-06-27T13:48:03.000",
    "request_status": "Pending",
    "responsible_agency": "Department of Sanitation",
    "final_address": "4834 Charlene Dr",
    "address_councildis": "E",
    "status": "Assigned to Contractor",
    "contractor": "Waste Pro",
    "rowid": "1107621",
    "final_x": "3707772.80196",
    "final_y": "556267.068698",
    "longitude": "-89.98419095145547",
    "latitude": "30.022716982199245",
    "geocoded_column": {
      "latitude": "30.022716982199245",
      "longitude": "-89.98419095145547"
    }
  },
  {
    "service_request": "2024-1107620",
    "request_type": "Trash/Recycling",
    "request_reason": "Request a Large Item Pick Up",
    "date_created": "2024-06-27T13:46:03.000",
    "date_modified": "2024-06-27T13:46:04.000",
    "request_status": "Pending",
    "responsible_agency": "Department of Sanitation",
    "final_address": "13015 Lemans St",
    "address_councildis": "E",
    "status": "Assigned to Contractor",
    "contractor": "Waste Pro",
    "rowid": "1107620",
    "final_x": "3723716.98591",
    "final_y": "562802.497312",
    "longitude": "-89.93355947416",
    "latitude": "30.04016091862489",
    "geocoded_column": {
      "latitude": "30.04016091862489",
      "longitude": "-89.93355947416"
    }
  },
  {
    "service_request": "2024-1107619",
    "request_type": "Trash/Recycling",
    "request_reason": "Repair Trash Cart",
    "date_created": "2024-06-27T13:45:02.000",
    "date_modified": "2024-06-27T13:45:03.000",
    "request_status": "Pending",
    "responsible_agency": "Department of Sanitation",
    "final_address": "2617 S Robertson St",
    "address_councildis": "B",
    "status": "Assigned to Contractor",
    "contractor": "IV Waste",
    "rowid": "1107619",
    "final_x": "3674291.03003",
    "final_y": "525832.158653",
    "longitude": "-90.0910284086694",
    "latitude": "29.94007291005781",
    "geocoded_column": {
      "latitude": "29.94007291005781",
      "longitude": "-90.0910284086694"
    }
  },
  {
    "service_request": "2024-1107618",
    "request_type": "Trash/Recycling",
    "request_reason": "Repair Recycling Cart",
    "date_created": "2024-06-27T13:42:00.000",
    "date_modified": "2024-06-27T13:42:00.000",
    "request_status": "Pending",
    "responsible_agency": "Department of Sanitation",
    "final_address": "3522 Vincennes Pl",
    "address_councildis": "A",
    "status": "Pending",
    "rowid": "1107618",
    "final_x": "3668080.74881",
    "final_y": "529098.099712",
    "longitude": "-90.11052523835802",
    "latitude": "29.949236867092463",
    "geocoded_column": {
      "latitude": "29.949236867092463",
      "longitude": "-90.11052523835802"
    }
  },
  {
    "service_request": "2024-1107617",
    "request_type": "Trash/Recycling",
    "request_reason": "Repair Trash Cart",
    "date_created": "2024-06-27T13:41:47.000",
    "date_modified": "2024-06-27T13:41:48.000",
    "request_status": "Pending",
    "responsible_agency": "Department of Sanitation",
    "final_address": "3522 Vincennes Pl",
    "address_councildis": "A",
    "status": "Assigned to Contractor",
    "contractor": "IV Waste",
    "rowid": "1107617",
    "final_x": "3668080.74881",
    "final_y": "529098.099712",
    "longitude": "-90.11052523835802",
    "latitude": "29.949236867092463",
    "geocoded_column": {
      "latitude": "29.949236867092463",
      "longitude": "-90.11052523835802"
    }
  },
  {
    "service_request": "2024-1107616",
    "request_type": "Trash/Recycling",
    "request_reason": "Request a Large Item Pick Up",
    "date_created": "2024-06-27T13:40:23.000",
    "date_modified": "2024-06-27T13:44:27.000",
    "request_status": "Pending",
    "responsible_agency": "Department of Sanitation",
    "final_address": "10121 Deerfield Dr",
    "address_councildis": "E",
    "status": "Assigned to Contractor",
    "contractor": "Waste Pro",
    "rowid": "1107616",
    "final_x": "3709668.59089",
    "final_y": "563377.701216",
    "longitude": "-89.97793498589819",
    "latitude": "30.04220689723152",
    "geocoded_column": {
      "latitude": "30.04220689723152",
      "longitude": "-89.97793498589819"
    }
  },
  {
    "service_request": "2024-1107615",
    "request_type": "Trash/Recycling",
    "request_reason": "Repair Trash Cart",
    "date_created": "2024-06-27T13:38:37.000",
    "date_modified": "2024-06-27T13:38:38.000",
    "request_status": "Pending",
    "responsible_agency": "Department of Sanitation",
    "final_address": "2711 Baronne St",
    "address_councildis": "B",
    "status": "Assigned to Contractor",
    "contractor": "IV Waste",
    "rowid": "1107615",
    "final_x": "3675669.39381",
    "final_y": "523289.521019",
    "longitude": "-90.08676403185021",
    "latitude": "29.933040325194955",
    "geocoded_column": {
      "latitude": "29.933040325194955",
      "longitude": "-90.08676403185021"
    }
  },