[
  {
    "service_request": "2022-863609",
    "request_type": "COVID-19",
    "request_reason": "COVID-19 Business Non-Compliance",
    "date_created": "2022-02-27T01:00:23.000",
    "date_modified": "2022-02-27T01:00:24.000",
    "request_status": "Pending",
    "responsible_agency": "Safety and Permits",
    "final_address": "1012 N Rampart St",
    "address_councildis": "C",
    "status": "Pending",
    "rowid": "863609",
    "final_x": "3682166.33576",
    "final_y": "534290.971333",
    "longitude": "-90.06586949054716",
    "latitude": "29.96309466041754",
    "geocoded_column": {
      "latitude": "29.96309466041754",
      "longitude": "-90.06586949054716"
    }
  },
  {
    "service_request": "2022-863608",
    "request_type": "COVID-19",
    "request_reason": "COVID-19 Business Non-Compliance",
    "date_created": "2022-02-27T00:57:10.000",
    "date_modified": "2022-02-27T00:57:11.000",
    "request_status": "Pending",
    "responsible_agency": "Safety and Permits",
    "final_address": "700 Burgundy St",
    "address_councildis": "C",
    "status": "Pending",
    "rowid": "863608",
    "final_x": "3681734.75855",
    "final_y": "533113.463428",
    "longitude": "-90.06727344428745",
    "latitude": "29.95987003534188",
    "geocoded_column": {
      "latitude": "29.95987003534188",
      "longitude": "-90.06727344428745"
    }
  },
  {
    "service_request": "2022-863607",
    "request_type": "Abandoned Vehicles",
    "request_reason": "Abandoned/Junk Vehicles",
    "date_created": "2022-02-27T00:14:09.000",
    "date_modified": "2022-02-27T00:14:09.000",
    "request_status": "Pending",
    "responsible_agency": "Department of Public Works",
    "final_address": "1241 Music St",
    "address_councildis": "C",
    "status": "Pending",
    "rowid": "863607",
    "final_x": "3686838.32386",
    "final_y": "537146.69748",
    "longitude": "-90.0510150241196",
    "latitude": "29.970803987213845",
    "geocoded_column": {
      "latitude": "29.970803987213845",
      "longitude": "-90.0510150241196"
    }
  },
  {
    "service_request": "2022-863606",
    "request_type": "Trash/Recycling",
    "request_reason": "Missed Trash Pick-Up",
    "date_created": "2022-02-26T22:15:58.000",
    "date_modified": "2022-02-26T22:15:58.000",
    "request_status": "Pending",
    "responsible_agency": "Department of Sanitation",
    "final_address": "2530 Palmer Ave",
    "address_councildis": "A",
    "status": "Assigned to Contractor",
    "contractor": "Richards Disposal",
    "rowid": "863606",
    "final_x": "3666507.57914",
    "final_y": "526176.081982",
    "longitude": "-90.11559049956274",
    "latitude": "29.941248330668945",
    "geocoded_column": {
      "latitude": "29.941248330668945",
      "longitude": "-90.11559049956274"
    }
  },
  {
    "service_request": "2022-863605",
    "request_type": "Traffic Signals/Signs/Striping/Streetlights",
    "request_reason": "Request for Stop Sign",
    "date_created": "2022-02-26T21:59:13.000",
    "date_modified": "2022-02-26T21:59:13.000",
    "request_status": "Pending",
    "responsible_agency": "Department of Public Works",
    "final_address": "2500 Marengo St",
    "address_councildis": "B",
    "status": "Pending",
    "rowid": "863605",
    "final_x": "3671585.08071",
    "final_y": "524177.938748",
    "longitude": "-90.0996277525683",
    "latitude": "29.935604732926834",
    "geocoded_column": {
      "latitude": "29.935604732926834",
      "longitude": "-90.0996277525683"
    }
  },
  {
    "service_request": "2022-863604",
    "request_type": "Taxi Issues",
    "request_reason": "Taxi Lost & Found Item",
    "date_created": "2022-02-26T21:16:39.000",
    "date_modified": "2022-02-26T21:16:39.000",
    "request_status": "Pending",
    "responsible_agency": "Ground Transportation Bureau",
    "final_address": "118 City Park Ave",
    "address_councildis": "A",
    "status": "Pending",
    "rowid": "863604",
    "final_x": "3667651.43245",
    "final_y": "540854.232907",
    "longitude": "-90.1114849682831",
    "latitude": "29.98157492613766",
    "geocoded_column": {
      "latitude": "29.98157492613766",
      "longitude": "-90.1114849682831"
    }
  },
  {
    "service_request": "2022-863603",
    "request_type": "Trash/Recycling",
    "request_reason": "Replace Trash Cart",
    "date_created": "2022-02-26T21:16:28.000",
    "date_modified": "2022-02-26T21:16:29.000",
    "request_status": "Pending",
    "responsible_agency": "Department of Sanitation",
    "final_address": "1324 Gordon St",
    "address_councildis": "E",
    "status": "Assigned to Contractor",
    "contractor": "Metro Disposal",
    "rowid": "863603",
    "final_x": "3699481.55479",
    "final_y": "534367.471045",
    "longitude": "-90.0111876549361",
    "latitude": "29.962767002501412",
    "geocoded_column": {
      "latitude": "29.962767002501412",
      "longitude": "-90.0111876549361"
    }
  },
  {
    "service_request": "2022-863602",
    "request_type": "Trash/Recycling",
    "request_reason": "Missed Trash Pick-Up",
    "date_created": "2022-02-26T20:27:56.000",
    "date_modified": "2022-02-26T20:27:56.000",
    "request_status": "Pending",
    "responsible_agency": "Department of Sanitation",
    "final_address": "2530 Palmer Ave",
    "address_councildis": "A",
    "status": "Assigned to Contractor",
    "contractor": "Richards Disposal",
    "rowid": "863602",
    "final_x": "3666507.57914",
    "final_y": "526176.081982",
    "longitude": "-90.11559049956274",
    "latitude": "29.941248330668945",
    "geocoded_column": {
      "latitude": "29.941248330668945",
      "longitude": "-90.11559049956274"
    }
  },
  {
    "service_request": "2022-863600",
    "request_type": "Trash/Recycling",
    "request_reason": "Request a Large Item Pick Up",
    "date_created": "2022-02-26T19:47:11.000",
    "date_modified": "2022-02-26T19:47:12.000",
    "request_status": "Pending",
    "responsible_agency": "Department of Sanitation",
    "final_address": "6051 Louisville St",
    "address_councildis": "A",
    "status": "Assigned to Contractor",
    "contractor": "Metro Disposal",
    "rowid": "863600",
    "final_x": "3667878.37921",
    "final_y": "547742.226386",
    "longitude": "-90.1105359958544",
    "latitude": "30.000507896128276",
    "geocoded_column": {
      "latitude": "30.000507896128276",
      "longitude": "-90.1105359958544"
    }
  },
  {
    "service_request": "2022-863599",
    "request_type": "Traffic Signals/Signs/Striping/Streetlights",
    "request_reason": "Traffic Sign Missing/Damaged",
    "date_created": "2022-02-26T19:24:34.000",
    "date_modified": "2022-02-26T19:24:34.000",
    "request_status": "Pending",
    "responsible_agency": "Department of Public Works",
    "final_address": "BEHRMAN PL & HOLIDAY DR",
    "address_councildis": "C",
    "status": "Pending",
    "rowid": "863599",
    "final_x": "3697879.1",
    "final_y": "518450.18",
    "longitude": "-90.01682548300117",
    "latitude": "29.919050729886365",
    "geocoded_column": {
      "latitude": "29.919050729886365",
      "longitude": "-90.01682548300117"
    }
  },
  {
    "service_request": "2022-863598",
    "request_type": "Trash/Recycling",
    "request_reason": "Missed Trash Pick-Up",
    "date_created": "2022-02-26T18:33:31.000",
    "date_modified": "2022-02-26T18:33:32.000",
    "request_status": "Pending",
    "responsible_agency": "Department of Sanitation",
    "final_address": "1426 Joliet St",
    "address_councildis": "A",
    "status": "Assigned to Contractor",
    "contractor": "Richards Disposal",
    "rowid": "863598",
    "final_x": "3661494.04442",
    "final_y": "530045.213313",
    "longitude": "-90.13129111225612",
    "latitude": "29.952032760056557",
    "geocoded_column": {
      "latitude": "29.952032760056557",
      "longitude": "-90.13129111225612"
    }
  },
  {
    "service_request": "2022-863597",
    "request_type": "Roads/Drainage",
    "request_reason": "Street Subsidence (Sinking)",
    "date_created": "2022-02-26T18:32:41.000",
    "date_modified": "2022-02-26T18:32:41.000",
    "request_status": "Pending",
    "responsible_agency": "Department of Public Works",
    "final_address": "1426 Joliet St",
    "address_councildis": "A",
    "status": "Pending",
    "rowid": "863597",
    "final_x": "3661494.04442",
    "final_y": "530045.213313",
    "longitude": "-90.13129111225612",
    "latitude": "29.952032760056557",
    "geocoded_column": {
      "latitude": "29.952032760056557",
      "longitude": "-90.13129111225612"
    }
  },
  {
    "service_request": "2022-863596",
    "request_type": "Trash/Recycling",
    "request_reason": "Missed Trash Pick-Up",
    "date_created": "2022-02-26T18:01:08.000",
    "date_modified": "2022-02-26T18:01:09.000",
    "request_status": "Pending",
    "responsible_agency": "Department of Sanitation",
    "final_address": "1033 Cambronne St",
    "address_councildis": "A",
    "status": "Assigned to Contractor",
    "contractor": "Richards Disposal",
    "rowid": "863596",
    "final_x": "3660900.95424",
    "final_y": "528746.14848",
    "longitude": "-90.13320678438693",
    "latitude": "29.94847784242557",
    "geocoded_column": {
      "latitude": "29.94847784242557",
      "longitude": "-90.13320678438693"
    }
  },
  {
    "service_request": "2022-863595",
    "request_type": "Trash/Recycling",
    "request_reason": "Missed Trash Pick-Up",
    "date_created": "2022-02-26T17:46:48.000",
    "date_modified": "2022-02-26T17:46:49.000",
    "request_status": "Pending",
    "responsible_agency": "Department of Sanitation",
    "final_address": "800 BLK Dublin St",
    "address_councildis": "A",
    "status": "Assigned to Contractor",
    "contractor": "Richards Disposal",
    "rowid": "863595",
    "final_x": "3660875.5916",
    "final_y": "527699.507053",
    "longitude": "-90.13332147452026",
    "latitude": "29.945600642847353",
    "geocoded_column": {
      "latitude": "29.945600642847353",
      "longitude": "-90.13332147452026"
    }
  },
  {
    "service_request": "2022-863594",
    "request_type": "Traffic Signals/Signs/Striping/Streetlights",
    "request_reason": "Traffic Signal Malfunctioning/Damaged",
    "date_created": "2022-02-26T17:42:42.000",
    "date_modified": "2022-02-26T17:42:42.000",
    "request_status": "Pending",
    "responsible_agency": "Department of Public Works",
    "final_address": "N BROAD ST & ORLEANS AVE",
    "address_councildis": "D",
    "status": "Pending",
    "rowid": "863594",
    "final_x": "3676798.0",
    "final_y": "537021.58",
    "longitude": "-90.08272795144497",
    "latitude": "29.970765093782056",
    "geocoded_column": {
      "latitude": "29.970765093782056",
      "longitude": "-90.08272795144497"
    }
  },
  {
    "service_request": "2022-863593",
    "request_type": "Trash/Recycling",
    "request_reason": "Missed Trash Pick-Up",
    "date_created": "2022-02-26T17:00:44.000",
    "date_modified": "2022-02-26T17:00:45.000",
    "request_status": "Pending",
    "responsible_agency": "Department of Sanitation",
    "final_address": "1227 Leonidas St",
    "address_councildis": "A",
    "status": "Assigned to Contractor",
    "contractor": "Richards Disposal",
    "rowid": "863593",
    "final_x": "3660847.15021",
    "final_y": "529727.962049",
    "longitude": "-90.13334420214194",
    "latitude": "29.951179064887057",
    "geocoded_column": {
      "latitude": "29.951179064887057",
      "longitude": "-90.13334420214194"
    }
  },
  {
    "service_request": "2022-863592",
    "request_type": "Trash/Recycling",
    "request_reason": "Start Trash Service",
    "date_created": "2022-02-26T16:44:17.000",
    "date_modified": "2022-02-26T16:44:17.000",
    "request_status": "Pending",
    "responsible_agency": "Department of Sanitation",
    "final_address": "2526 Joseph St",
    "address_councildis": "A",
    "status": "Assigned to Contractor",
    "contractor": "Richards Disposal",
    "rowid": "863592",
    "final_x": "3667440.64301",
    "final_y": "525368.476861",
    "longitude": "-90.11267179268276",
    "latitude": "29.93900037730013",
    "geocoded_column": {
      "latitude": "29.93900037730013",
      "longitude": "-90.11267179268276"
    }
  },
  {
    "service_request": "2022-863591",
    "request_type": "Trash/Recycling",
    "request_reason": "Order Recycling Cart",
    "date_created": "2022-02-26T16:42:31.000",
    "date_modified": "2022-02-26T16:42:31.000",
    "request_status": "Pending",
    "responsible_agency": "Department of Sanitation",
    "final_address": "2526 Joseph St",
    "address_councildis": "A",
    "status": "Pending",
    "rowid": "863591",
    "final_x": "3667440.64301",
    "final_y": "525368.476861",
    "longitude": "-90.11267179268276",
    "latitude": "29.93900037730013",
    "geocoded_column": {
      "latitude": "29.93900037730013",
      "longitude": "-90.11267179268276"
    }
  },
  {
    "service_request": "2022-863590",
    "request_type": "Trash/Recycling",
    "request_reason": "Missed Trash Pick-Up",
    "date_created": "2022-02-26T16:38:10.000",
    "date_modified": "2022-02-26T16:38:11.000",
    "request_status": "Pending",
    "responsible_agency": "Department of Sanitation",
    "final_address": "4730 Pontchartrain Blvd",
    "address_councildis": "A",
    "status": "Assigned to Contractor",
    "contractor": "Richards Disposal",
    "rowid": "863590",
    "final_x": "3667497.33172",
    "final_y": "538483.786121",
    "longitude": "-90.11205149100157",
    "latitude": "29.975061512618705",
    "geocoded_column": {
      "latitude": "29.975061512618705",
      "longitude": "-90.11205149100157"
    }
  },
  {
    "service_request": "2022-863589",
    "request_type": "Trash/Recycling",
    "request_reason": "Replace Recycling Cart",
    "date_created": "2022-02-26T16:16:58.000",
    "date_modified": "2022-02-26T16:16:58.000",
    "request_status": "Pending",
    "responsible_agency": "Department of Sanitation",
    "final_address": "1916 Burdette St",
    "address_councildis": "A",
    "status": "Pending",
    "rowid": "863589",
    "final_x": "3664523.79604",
    "final_y": "529575.722369",
    "longitude": "-90.12174021289066",
    "latitude": "29.95065406984298",
    "geocoded_column": {
      "latitude": "29.95065406984298",
      "longitude": "-90.12174021289066"
    }
  },
  {
    "service_request": "2022-863588",
    "request_type": "Trash/Recycling",
    "request_reason": "Request a Large Item Pick Up",
    "date_created": "2022-02-26T16:14:19.000",
    "date_modified": "2022-02-26T16:14:20.000",
    "request_status": "Pending",
    "responsible_agency": "Department of Sanitation",
    "final_address": "3242 Derby Pl",
    "address_councildis": "A",
    "status": "Assigned to Contractor",
    "contractor": "Metro Disposal",
    "rowid": "863588",
    "final_x": "3677655.26702",
    "final_y": "542870.048141",
    "longitude": "-90.0798185371974",
    "latitude": "29.98682060827312",
    "geocoded_column": {
      "latitude": "29.98682060827312",
      "longitude": "-90.0798185371974"
    }
  },
  {
    "service_request": "2022-863587",
    "request_type": "Trash/Recycling",
    "request_reason": "Missed Trash Pick-Up",
    "date_created": "2022-02-26T16:02:10.000",
    "date_modified": "2022-02-26T16:02:12.000",
    "request_status": "Pending",
    "responsible_agency": "Department of Sanitation",
    "final_address": "8614 Grant St, New Orleans, Louisiana, 70127",
    "address_councildis": "E",
    "status": "Assigned to Contractor",
    "contractor": "Metro Disposal",
    "rowid": "863587",
    "final_x": "3707222.73252",
    "final_y": "554303.67164",
    "longitude": "-89.98600197600724",
    "latitude": "30.0173361986526",
    "geocoded_column": {
      "latitude": "30.0173361986526",
      "longitude": "-89.98600197600724"
    }
  },
  {
    "service_request": "2022-863586",
    "request_type": "Property Maintenance",
    "request_reason": "Property Maintenance",
    "date_created": "2022-02-26T16:00:42.000",
    "date_modified": "2022-02-26T16:01:44.000",
    "request_status": "Pending",
    "responsible_agency": "Department of Code Enforcement",
    "final_address": "3633 Paul St",
    "address_councildis": "C",
    "status": "Pending",
    "rowid": "863586",
    "final_x": "3714422.49791",
    "final_y": "517195.058165",
    "longitude": "-89.96465436061932",
    "latitude": "29.915066581369445",
    "geocoded_column": {
      "latitude": "29.915066581369445",
      "longitude": "-89.96465436061932"
    }
  },
  {
    "service_request": "2022-863585",
    "request_type": "Roads/Drainage",
    "request_reason": "Pothole",
    "date_created": "2022-02-26T15:41:29.000",
    "date_modified": "2022-02-26T16:08:18.000",
    "request_status": "Pending",
    "responsible_agency": "Department of Public Works",
    "final_address": "New Orleans,LA",
    "address_councildis": "C",
    "rowid": "863585",
    "final_x": "3698398.08644",
    "final_y": "520234.064568",
    "longitude": "-90.01512254025162",
    "latitude": "29.923939398079646",
    "geocoded_column": {
      "latitude": "29.923939398079646",
      "longitude": "-90.01512254025162"
    }
  },
  {
    "service_request": "2022-863584",
    "request_type": "Abandoned Vehicles",
    "request_reason": "Abandoned/Junk Vehicles",
    "date_created": "2022-02-26T15:39:46.000",
    "date_modified": "2022-02-26T15:39:46.000",
    "request_status": "Pending",
    "responsible_agency": "Department of Public Works",
    "final_address": "2621 Banks St A",
    "address_councildis": "B",
    "status": "Pending",
    "rowid": "863584",
    "final_x": "3674944.06638",
    "final_y": "533980.767237",
    "longitude": "-90.08868722317226",
    "latitude": "29.962459393806533",
    "geocoded_column": {
      "latitude": "29.962459393806533",
      "longitude": "-90.08868722317226"
    }
  },
  {
    "service_request": "2022-863583",
    "request_type": "Trash/Recycling",
    "request_reason": "Missed Trash Pick-Up",
    "date_created": "2022-02-26T15:37:00.000",
    "date_modified": "2022-02-26T15:37:01.000",
    "request_status": "Pending",
    "responsible_agency": "Department of Sanitation",
    "final_address": "9029 Quince St",
    "address_councildis": "A",
    "status": "Assigned to Contractor",
    "contractor": "Richards Disposal",
    "rowid": "863583",
    "final_x": "3667086.22324",
    "final_y": "539110.236618",
    "longitude": "-90.11332881726408",
    "latitude": "29.97679608340101",
    "geocoded_column": {
      "latitude": "29.97679608340101",
      "longitude": "-90.11332881726408"
    }
  },
  {
    "service_request": "2022-863582",
    "request_type": "Roads/Drainage",
    "request_reason": "Pothole",
    "date_created": "2022-02-26T15:34:36.000",
    "date_modified": "2022-02-26T15:34:36.000",
    "request_status": "Pending",
    "responsible_agency": "Department of Public Works",
    "final_address": "3042 General Collins Ave",
    "address_councildis": "C",
    "status": "Pending",
    "rowid": "863582",
    "final_x": "3698398.08644",
    "final_y": "520234.064568",
    "longitude": "-90.01512254025162",
    "latitude": "29.923939398079646",
    "geocoded_column": {
      "latitude": "29.923939398079646",
      "longitude": "-90.01512254025162"
    }
  },
  {
    "service_request": "2022-863581",
    "request_type": "Trash/Recycling",
    "request_reason": "Repair Trash Cart",
    "date_created": "2022-02-26T15:34:06.000",
    "date_modified": "2022-02-26T15:34:07.000",
    "request_status": "Pending",
    "responsible_agency": "Department of Sanitation",
    "final_address": "7916 Oak St",
    "address_councildis": "A",
    "status": "Assigned to Contractor",
    "contractor": "Richards Disposal",
    "rowid": "863581",
    "final_x": "3662432.46611",
    "final_y": "527894.037311",
    "longitude": "-90.12839942970362",
    "latitude": "29.946090614223408",
    "geocoded_column": {
      "latitude": "29.946090614223408",
      "longitude": "-90.12839942970362"
    }
  },
  {
    "service_request": "2022-863580",
    "request_type": "Trash/Recycling",
    "request_reason": "MIssed Recycling Pick-Up",
    "date_created": "2022-02-26T15:24:08.000",
    "date_modified": "2022-02-26T15:24:09.000",
    "request_status": "Pending",
    "responsible_agency": "Department of Sanitation",
    "final_address": "1437 St Mary St",
    "address_councildis": "B",
    "status": "Assigned to Contractor",
    "contractor": "Richards Disposal",
    "rowid": "863580",
    "final_x": "3678886.61461",
    "final_y": "523808.468923",
    "longitude": "-90.07658952298718",
    "latitude": "29.93437062963516",
    "geocoded_column": {
      "latitude": "29.93437062963516",
      "longitude": "-90.07658952298718"
    }
  },
  {
    "service_request": "2022-863579",
    "request_type": "Traffic Signals/Signs/Striping/Streetlights",
    "request_reason": "Traffic Signal Malfunctioning/Damaged",
    "date_created": "2022-02-26T15:17:15.000",
    "date_modified": "2022-02-26T15:17:15.000",
    "request_status": "Pending",
    "responsible_agency": "Department of Public Works",
    "final_address": "W HARRISON AVE & PONTCHARTRAIN BLVD & HARRISON AVE",
    "address_councildis": "A",
    "status": "Pending",
    "rowid": "863579",
    "final_x": "3666195.8",
    "final_y": "549576.28",
    "longitude": "-90.11578982849903",
    "latitude": "30.005600174486602",
    "geocoded_column": {
      "latitude": "30.005600174486602",
      "longitude": "-90.11578982849903"
    }
  },
  {
    "service_request": "2022-863578",
    "request_type": "Traffic Signals/Signs/Striping/Streetlights",
    "request_reason": "Traffic Signal Malfunctioning/Damaged",
    "date_created": "2022-02-26T14:51:22.000",
    "date_modified": "2022-02-26T15:14:08.000",
    "request_status": "Pending",
    "responsible_agency": "Department of Public Works",
    "final_address": "New Orleans,LA",
    "address_councildis": "A",
    "rowid": "863578",
    "final_x": "3666195.8",
    "final_y": "549576.28",
    "longitude": "-90.11578982849903",
    "latitude": "30.005600174486602",
    "geocoded_column": {
      "latitude": "30.005600174486602",
      "longitude": "-90.11578982849903"
    }
  },
  {
    "service_request": "2022-863577",
    "request_type": "Trash/Recycling",
    "request_reason": "Missed Trash Pick-Up",
    "date_created": "2022-02-26T14:37:50.000",
    "date_modified": "2022-02-26T14:37:51.000",
    "request_status": "Pending",
    "responsible_agency": "Department of Sanitation",
    "final_address": "3110 Dante St",
    "address_councildis": "A",
    "status": "Assigned to Contractor",
    "contractor": "Richards Disposal",
    "rowid": "863577",
    "final_x": "3666046.21626",
    "final_y": "533984.845381",
    "longitude": "-90.11678536402034",
    "latitude": "29.9627333654912",
    "geocoded_column": {
      "latitude": "29.9627333654912",
      "longitude": "-90.11678536402034"
    }
  },
  {
    "service_request": "2022-863576",
    "request_type": "Safety & Permits",
    "request_reason": "Licenses & Permits",
    "date_created": "2022-02-26T14:21:55.000",
    "date_modified": "2022-02-26T14:21:55.000",
    "request_status": "Pending",
    "responsible_agency": "Safety and Permits",
    "status": "Pending",
    "rowid": "863576",
    "longitude": "0.0",
    "latitude": "0.0",
    "geocoded_column": {
      "latitude": "0.0",
      "longitude": "0.0"
    }
  },
  {
    "service_request": "2022-863575",
    "request_type": "Abandoned Vehicles",
    "request_reason": "Abandoned/Junk Vehicles",
    "date_created": "2022-02-26T13:56:28.000",
    "date_modified": "2022-02-26T13:56:28.000",
    "request_status": "Pending",
    "responsible_agency": "Department of Public Works",
    "final_address": "1834 Nie Prkwy",
    "address_councildis": "C",
    "status": "Pending",
    "rowid": "863575",
    "final_x": "3701206.48426",
    "final_y": "524003.0711",
    "longitude": "-90.00611968926626",
    "latitude": "29.93421372458962",
    "geocoded_column": {
      "latitude": "29.93421372458962",
      "longitude": "-90.00611968926626"
    }
  },
  {
    "service_request": "2022-863573",
    "request_type": "Trash/Recycling",
    "request_reason": "MIssed Recycling Pick-Up",
    "date_created": "2022-02-26T13:36:04.000",
    "date_modified": "2022-02-26T13:36:04.000",
    "request_status": "Pending",
    "responsible_agency": "Department of Sanitation",
    "final_address": "219 N Tonti St",
    "address_councildis": "B",
    "status": "Assigned to Contractor",
    "contractor": "Richards Disposal",
    "rowid": "863573",
    "final_x": "3676708.91105",
    "final_y": "534839.579974",
    "longitude": "-90.08308449486326",
    "latitude": "29.96476800860436",
    "geocoded_column": {
      "latitude": "29.96476800860436",
      "longitude": "-90.08308449486326"
    }
  },
  {
    "service_request": "2022-863572",
    "request_type": "Trash/Recycling",
    "request_reason": "Missed Trash Pick-Up",
    "date_created": "2022-02-26T13:32:29.000",
    "date_modified": "2022-02-26T13:32:30.000",
    "request_status": "Pending",
    "responsible_agency": "Department of Sanitation",
    "final_address": "3621 Live Oak St",
    "address_councildis": "A",
    "status": "Assigned to Contractor",
    "contractor": "Richards Disposal",
    "rowid": "863572",
    "final_x": "3664551.72941",
    "final_y": "537873.627401",
    "longitude": "-90.12137488923305",
    "latitude": "29.973469776860757",
    "geocoded_column": {
      "latitude": "29.973469776860757",
      "longitude": "-90.12137488923305"
    }
  },
  {
    "service_request": "2022-863571",
    "request_type": "Trash/Recycling",
    "request_reason": "Replace Trash Cart",
    "date_created": "2022-02-26T13:15:47.000",
    "date_modified": "2022-02-26T13:15:48.000",
    "request_status": "Pending",
    "responsible_agency": "Department of Sanitation",
    "final_address": "8530 Zimple St",
    "address_councildis": "A",
    "status": "Assigned to Contractor",
    "contractor": "Richards Disposal",
    "rowid": "863571",
    "final_x": "3660453.38669",
    "final_y": "529216.545792",
    "longitude": "-90.13460441201262",
    "latitude": "29.94978416682552",
    "geocoded_column": {
      "latitude": "29.94978416682552",
      "longitude": "-90.13460441201262"
    }
  },
  {
    "service_request": "2022-863570",
    "request_type": "Trash/Recycling",
    "request_reason": "Illegal Dumping",
    "date_created": "2022-02-26T13:04:44.000",
    "date_modified": "2022-02-26T13:04:44.000",
    "request_status": "Pending",
    "responsible_agency": "Department of Code Enforcement",
    "final_address": "N GALVEZ ST & FELICIANA ST",
    "address_councildis": "D",
    "status": "Pending",
    "rowid": "863570",
    "final_x": "3689681.58",
    "final_y": "539851.84",
    "longitude": "-90.04193941273704",
    "latitude": "29.97815437530657",
    "geocoded_column": {
      "latitude": "29.97815437530657",
      "longitude": "-90.04193941273704"
    }
  },
  {
    "service_request": "2022-863569",
    "request_type": "Trash/Recycling",
    "request_reason": "Illegal Dumping",
    "date_created": "2022-02-26T13:03:56.000",
    "date_modified": "2022-02-26T13:03:57.000",
    "request_status": "Pending",
    "responsible_agency": "Department of Code Enforcement",
    "final_address": "MONTEGUT ST & N ROCHEBLAVE ST",
    "address_councildis": "D",
    "status": "Pending",
    "rowid": "863569",
    "final_x": "3689661.9",
    "final_y": "541033.28",
    "longitude": "-90.0419595156868",
    "latitude": "29.98140352511401",
    "geocoded_column": {
      "latitude": "29.98140352511401",
      "longitude": "-90.0419595156868"
    }
  },
  {
    "service_request": "2022-863568",
    "request_type": "Roads/Drainage",
    "request_reason": "Alley Way",
    "date_created": "2022-02-26T12:56:59.000",
    "date_modified": "2022-02-26T12:57:29.000",
    "case_close_date": "2022-02-26T06:57:29.000",
    "request_status": "Closed",
    "responsible_agency": "Department of Public Works",
    "final_address": "6934 Memphis St",
    "address_councildis": "A",
    "status": "Resolved",
    "rowid": "863568",
    "final_x": "3669671.39521",
    "final_y": "553583.053783",
    "longitude": "-90.10467387397537",
    "latitude": "30.016515387731246",
    "geocoded_column": {
      "latitude": "30.016515387731246",
      "longitude": "-90.10467387397537"
    }
  },
  {
    "service_request": "2022-863567",
    "request_type": "Roads/Drainage",
    "request_reason": "Debris in Roadway",
    "date_created": "2022-02-26T12:41:11.000",
    "date_modified": "2022-02-26T12:41:11.000",
    "request_status": "Pending",
    "responsible_agency": "Department of Public Works",
    "final_address": "GENTILLY BLVD & ST ANTHONY AVE & ST ANTHONY ST",
    "address_councildis": "D",
    "status": "Pending",
    "rowid": "863567",
    "final_x": "3682694.12",
    "final_y": "545845.16",
    "longitude": "-90.06379855788018",
    "latitude": "29.99484857966879",
    "geocoded_column": {
      "latitude": "29.99484857966879",
      "longitude": "-90.06379855788018"
    }
  },
  {
    "service_request": "2022-863566",
    "request_type": "Trash/Recycling",
    "request_reason": "Missed Trash Pick-Up",
    "date_created": "2022-02-26T12:40:05.000",
    "date_modified": "2022-02-26T12:40:06.000",
    "request_status": "Pending",
    "responsible_agency": "Department of Sanitation",
    "final_address": "5401 Provincial Pl",
    "address_councildis": "E",
    "status": "Assigned to Contractor",
    "contractor": "Metro Disposal",
    "rowid": "863566",
    "final_x": "3726067.5648",
    "final_y": "564085.563105",
    "longitude": "-89.92608120227311",
    "latitude": "30.04360965278082",
    "geocoded_column": {
      "latitude": "30.04360965278082",
      "longitude": "-89.92608120227311"
    }
  },
  {
    "service_request": "2022-863565",
    "request_type": "Trash/Recycling",
    "request_reason": "Missed Trash Pick-Up",
    "date_created": "2022-02-26T12:38:23.000",
    "date_modified": "2022-02-26T12:38:24.000",
    "request_status": "Pending",
    "responsible_agency": "Department of Sanitation",
    "final_address": "2216 Second St",
    "address_councildis": "B",
    "status": "Assigned to Contractor",
    "contractor": "Richards Disposal",
    "rowid": "863565",
    "final_x": "3675404.89672",
    "final_y": "524942.249469",
    "longitude": "-90.08754230477064",
    "latitude": "29.937592698371937",
    "geocoded_column": {
      "latitude": "29.937592698371937",
      "longitude": "-90.08754230477064"
    }
  },
  {
    "service_request": "2022-863564",
    "request_type": "Taxi Issues",
    "request_reason": "Taxi Complaint",
    "date_created": "2022-02-26T12:31:56.000",
    "date_modified": "2022-02-26T12:31:56.000",
    "request_status": "Pending",
    "responsible_agency": "Ground Transportation Bureau",
    "status": "Pending",
    "rowid": "863564",
    "longitude": "0.0",
    "latitude": "0.0",
    "geocoded_column": {
      "latitude": "0.0",
      "longitude": "0.0"
    }
  },
  {
    "service_request": "2022-863563",
    "request_type": "Mayor's Request",
    "request_reason": "Requests to the Mayor",
    "date_created": "2022-02-26T12:21:18.000",
    "date_modified": "2022-02-26T12:21:18.000",
    "request_status": "Pending",
    "responsible_agency": "Executive Office of the Mayor",
    "status": "Pending",
    "rowid": "863563",
    "longitude": "0.0",
    "latitude": "0.0",
    "geocoded_column": {
      "latitude": "0.0",
      "longitude": "0.0"
    }
  },
  {
    "service_request": "2022-863562",
    "request_type": "Abandoned Vehicles",
    "request_reason": "Abandoned/Junk Vehicles",
    "date_created": "2022-02-26T12:06:21.000",
    "date_modified": "2022-02-26T12:06:21.000",
    "request_status": "Pending",
    "responsible_agency": "Department of Public Works",
    "final_address": "4765 Chantilly Dr",
    "address_councildis": "E",
    "status": "Pending",
    "rowid": "863562",
    "final_x": "3700954.32234",
    "final_y": "554311.531672",
    "longitude": "-90.00580720949488",
    "latitude": "30.017558987681834",
    "geocoded_column": {
      "latitude": "30.017558987681834",
      "longitude": "-90.00580720949488"
    }
  },
  {
    "service_request": "2022-863561",
    "request_type": "Trash/Recycling",
    "request_reason": "Order Trash Cart",
    "date_created": "2022-02-26T11:58:51.000",
    "date_modified": "2022-02-26T11:58:52.000",
    "request_status": "Pending",
    "responsible_agency": "Department of Sanitation",
    "final_address": "3920 S Pin Oak Ave",
    "address_councildis": "C",
    "status": "Assigned to Contractor",
    "contractor": "Richards Disposal",
    "rowid": "863561",
    "final_x": "3704935.83217",
    "final_y": "513637.39877",
    "longitude": "-89.99472864771663",
    "latitude": "29.905592410816674",
    "geocoded_column": {
      "latitude": "29.905592410816674",
      "longitude": "-89.99472864771663"
    }
  },
  {
    "service_request": "2022-863560",
    "request_type": "Trash/Recycling",
    "request_reason": "Repair Trash Cart",
    "date_created": "2022-02-26T11:46:46.000",
    "date_modified": "2022-02-26T11:46:47.000",
    "request_status": "Pending",
    "responsible_agency": "Department of Sanitation",
    "final_address": "4537 Allen St",
    "address_councildis": "D",
    "status": "Assigned to Contractor",
    "contractor": "Metro Disposal",
    "rowid": "863560",
    "final_x": "3681761.32712",
    "final_y": "549351.001363",
    "longitude": "-90.06662271392975",
    "latitude": "30.004516775904126",
    "geocoded_column": {
      "latitude": "30.004516775904126",
      "longitude": "-90.06662271392975"
    }
  },
  {
    "service_request": "2022-863559",
    "request_type": "Trash/Recycling",
    "request_reason": "Missed Trash Pick-Up",
    "date_created": "2022-02-26T11:24:26.000",
    "date_modified": "2022-02-26T11:24:27.000",
    "request_status": "Pending",
    "responsible_agency": "Department of Sanitation",
    "final_address": "2228 Tricou St",
    "address_councildis": "E",
    "status": "Assigned to Contractor",
    "contractor": "Metro Disposal",
    "rowid": "863559",
    "final_x": "3701787.41732",
    "final_y": "537221.405896",
    "longitude": "-90.00380152094841",
    "latitude": "29.970540933358343",
    "geocoded_column": {
      "latitude": "29.970540933358343",
      "longitude": "-90.00380152094841"
    }
  },
  {
    "service_request": "2022-863558",
    "request_type": "Trash/Recycling",
    "request_reason": "Repair Trash Cart",
    "date_created": "2022-02-26T11:04:13.000",
    "date_modified": "2022-02-26T11:04:14.000",
    "request_status": "Pending",
    "responsible_agency": "Department of Sanitation",
    "final_address": "2106 Magnolia St",
    "address_councildis": "B",
    "status": "Assigned to Contractor",
    "contractor": "Richards Disposal",
    "rowid": "863558",
    "final_x": "3675504.12264",
    "final_y": "526963.495806",
    "longitude": "-90.08715964104991",
    "latitude": "29.943147495261595",
    "geocoded_column": {
      "latitude": "29.943147495261595",
      "longitude": "-90.08715964104991"
    }
  },
  {
    "service_request": "2022-863557",
    "request_type": "Trash/Recycling",
    "request_reason": "Replace Trash Cart",
    "date_created": "2022-02-26T11:03:29.000",
    "date_modified": "2022-02-26T11:03:29.000",
    "request_status": "Pending",
    "responsible_agency": "Department of Sanitation",
    "final_address": "2104 Magnolia St",
    "address_councildis": "B",
    "status": "Assigned to Contractor",
    "contractor": "Richards Disposal",
    "rowid": "863557",
    "final_x": "3675479.97243",
    "final_y": "527003.834878",
    "longitude": "-90.08723450432456",
    "latitude": "29.94325913659535",
    "geocoded_column": {
      "latitude": "29.94325913659535",
      "longitude": "-90.08723450432456"
    }
  },
  {
    "service_request": "2022-863555",
    "request_type": "Trash/Recycling",
    "request_reason": "Request a Large Item Pick Up",
    "date_created": "2022-02-26T10:50:03.000",
    "date_modified": "2022-02-26T10:50:03.000",
    "request_status": "Pending",
    "responsible_agency": "Department of Sanitation",
    "final_address": "5942 Music St",
    "address_councildis": "D",
    "status": "Assigned to Contractor",
    "contractor": "Metro Disposal",
    "rowid": "863555",
    "final_x": "3685271.84546",
    "final_y": "555057.623513",
    "longitude": "-90.05533125714491",
    "latitude": "30.020100725737954",
    "geocoded_column": {
      "latitude": "30.020100725737954",
      "longitude": "-90.05533125714491"
    }
  },
  {
    "service_request": "2022-863554",
    "request_type": "Abandoned Vehicles",
    "request_reason": "Abandoned/Junk Vehicles",
    "date_created": "2022-02-26T10:49:53.000",
    "date_modified": "2022-02-26T10:49:53.000",
    "request_status": "Pending",
    "responsible_agency": "Department of Public Works",
    "final_address": "934 Melpomene St",
    "address_councildis": "B",
    "status": "Pending",
    "rowid": "863554",
    "final_x": "3680931.7629",
    "final_y": "524715.472892",
    "longitude": "-90.07010148387323",
    "latitude": "29.936802754094575",
    "geocoded_column": {
      "latitude": "29.936802754094575",
      "longitude": "-90.07010148387323"
    }
  },
  {
    "service_request": "2022-863553",
    "request_type": "Trash/Recycling",
    "request_reason": "Missed Trash Pick-Up",
    "date_created": "2022-02-26T10:32:47.000",
    "date_modified": "2022-02-26T10:32:48.000",
    "request_status": "Pending",
    "responsible_agency": "Department of Sanitation",
    "final_address": "617 Kerlerec St",
    "address_councildis": "C",
    "status": "Assigned to Contractor",
    "contractor": "Metro Disposal",
    "rowid": "863553",
    "final_x": "3684471.83023",
    "final_y": "534624.166982",
    "longitude": "-90.05857732081587",
    "latitude": "29.96394051021416",
    "geocoded_column": {
      "latitude": "29.96394051021416",
      "longitude": "-90.05857732081587"
    }
  },
  {
    "service_request": "2022-863552",
    "request_type": "Trash/Recycling",
    "request_reason": "Return Recycling Cart",
    "date_created": "2022-02-26T09:53:41.000",
    "date_modified": "2022-02-26T09:53:41.000",
    "request_status": "Pending",
    "responsible_agency": "Department of Sanitation",
    "final_address": "202 Maumus Ave",
    "address_councildis": "C",
    "status": "Pending",
    "rowid": "863552",
    "final_x": "3706092.49483",
    "final_y": "516839.690997",
    "longitude": "-89.99095977896191",
    "latitude": "29.914360408275105",
    "geocoded_column": {
      "latitude": "29.914360408275105",
      "longitude": "-89.99095977896191"
    }
  },
  {
    "service_request": "2022-863550",
    "request_type": "Roads/Drainage",
    "request_reason": "Catch Basin - Clogged",
    "date_created": "2022-02-26T09:43:33.000",
    "date_modified": "2022-02-26T09:43:33.000",
    "request_status": "Pending",
    "responsible_agency": "Department of Public Works",
    "final_address": "2501 LaSalle St",
    "address_councildis": "B",
    "status": "Pending",
    "rowid": "863550",
    "final_x": "3675046.95329",
    "final_y": "525462.767165",
    "longitude": "-90.08865450928326",
    "latitude": "29.939034647630287",
    "geocoded_column": {
      "latitude": "29.939034647630287",
      "longitude": "-90.08865450928326"
    }
  },
  {
    "service_request": "2022-863549",
    "request_type": "Traffic Signals/Signs/Striping/Streetlights",
    "request_reason": "Traffic Sign Missing/Damaged",
    "date_created": "2022-02-26T09:30:58.000",
    "date_modified": "2022-02-26T09:30:58.000",
    "request_status": "Pending",
    "responsible_agency": "Department of Public Works",
    "final_address": "ANNUNCIATION ST & LYONS ST",
    "address_councildis": "B",
    "status": "Pending",
    "rowid": "863549",
    "final_x": "3669347.5",
    "final_y": "517576.08",
    "longitude": "-90.10691491790253",
    "latitude": "29.917517777558064",
    "geocoded_column": {
      "latitude": "29.917517777558064",
      "longitude": "-90.10691491790253"
    }
  },
  {
    "service_request": "2022-863548",
    "request_type": "Roads/Drainage",
    "request_reason": "Street Flooding / Drainage",
    "date_created": "2022-02-26T09:11:35.000",
    "date_modified": "2022-02-26T09:11:35.000",
    "request_status": "Pending",
    "responsible_agency": "Department of Public Works",
    "final_address": "1100 Lyons St",
    "address_councildis": "B",
    "status": "Pending",
    "rowid": "863548",
    "final_x": "3669121.20071",
    "final_y": "519386.991543",
    "longitude": "-90.10756807246051",
    "latitude": "29.922503870519478",
    "geocoded_column": {
      "latitude": "29.922503870519478",
      "longitude": "-90.10756807246051"
    }
  },
  {
    "service_request": "2022-863547",
    "request_type": "Trash/Recycling",
    "request_reason": "Illegal Dumping",
    "date_created": "2022-02-26T09:07:28.000",
    "date_modified": "2022-02-26T09:07:28.000",
    "request_status": "Pending",
    "responsible_agency": "Department of Sanitation",
    "final_address": "735 Dauphine St",
    "address_councildis": "C",
    "status": "Pending",
    "rowid": "863547",
    "final_x": "3682140.34012",
    "final_y": "533156.137604",
    "longitude": "-90.06599121829545",
    "latitude": "29.959975046353094",
    "geocoded_column": {
      "latitude": "29.959975046353094",
      "longitude": "-90.06599121829545"
    }
  },
  {
    "service_request": "2022-863546",
    "request_type": "Trash/Recycling",
    "request_reason": "Missed Trash Pick-Up",
    "date_created": "2022-02-26T09:07:25.000",
    "date_modified": "2022-02-26T09:07:26.000",
    "request_status": "Pending",
    "responsible_agency": "Department of Sanitation",
    "final_address": "3120 Lancaster St",
    "address_councildis": "C",
    "status": "Assigned to Contractor",
    "contractor": "Richards Disposal",
    "rowid": "863546",
    "final_x": "3710049.73598",
    "final_y": "519074.213687",
    "longitude": "-89.97838610610995",
    "latitude": "29.920376496841197",
    "geocoded_column": {
      "latitude": "29.920376496841197",
      "longitude": "-89.97838610610995"
    }
  },
  {
    "service_request": "2022-863545",
    "request_type": "Trash/Recycling",
    "request_reason": "MIssed Recycling Pick-Up",
    "date_created": "2022-02-26T08:54:20.000",
    "date_modified": "2022-02-26T08:54:20.000",
    "request_status": "Pending",
    "responsible_agency": "Department of Sanitation",
    "final_address": "5523 Music St",
    "address_councildis": "D",
    "status": "Assigned to Contractor",
    "contractor": "Metro Disposal",
    "rowid": "863545",
    "final_x": "3685535.14972",
    "final_y": "553398.359831",
    "longitude": "-90.0545578099922",
    "latitude": "30.015530283628177",
    "geocoded_column": {
      "latitude": "30.015530283628177",
      "longitude": "-90.0545578099922"
    }
  },
  {
    "service_request": "2022-863544",
    "request_type": "Abandoned Vehicles",
    "request_reason": "Vehicle Blocking Your Driveway",
    "date_created": "2022-02-26T08:52:52.000",
    "date_modified": "2022-02-26T08:52:52.000",
    "request_status": "Pending",
    "responsible_agency": "Department of Public Works",
    "final_address": "137 N Norman C Francis Prkwy",
    "address_councildis": "B",
    "status": "Pending",
    "rowid": "863544",
    "final_x": "3673312.05236",
    "final_y": "537102.60244",
    "longitude": "-90.09373425461202",
    "latitude": "29.971092033030175",
    "geocoded_column": {
      "latitude": "29.971092033030175",
      "longitude": "-90.09373425461202"
    }
  },
  {
    "service_request": "2022-863543",
    "request_type": "Safety & Permits",
    "request_reason": "Short term Rental (Enforcement)",
    "date_created": "2022-02-26T08:52:26.000",
    "date_modified": "2022-02-26T09:01:41.000",
    "request_status": "Pending",
    "responsible_agency": "Safety and Permits",
    "final_address": "1715 Ursulines Ave",
    "address_councildis": "D",
    "rowid": "863543",
    "final_x": "3680539.15925",
    "final_y": "535964.546311",
    "longitude": "-90.07094969238703",
    "latitude": "29.967745809557584",
    "geocoded_column": {
      "latitude": "29.967745809557584",
      "longitude": "-90.07094969238703"
    }
  },
  {
    "service_request": "2022-863541",
    "request_type": "Roads/Drainage",
    "request_reason": "Damaged Sidewalk",
    "date_created": "2022-02-26T08:35:18.000",
    "date_modified": "2022-02-26T08:35:18.000",
    "request_status": "Pending",
    "responsible_agency": "Department of Public Works",
    "final_address": "5634 Vermillion Blvd",
    "address_councildis": "D",
    "status": "Pending",
    "rowid": "863541",
    "final_x": "3683093.0326",
    "final_y": "553573.714519",
    "longitude": "-90.06226762319379",
    "latitude": "30.016087158623804",
    "geocoded_column": {
      "latitude": "30.016087158623804",
      "longitude": "-90.06226762319379"
    }
  },
  {
    "service_request": "2022-863540",
    "request_type": "Trash/Recycling",
    "request_reason": "Replace Trash Cart",
    "date_created": "2022-02-26T08:02:22.000",
    "date_modified": "2022-02-26T08:02:22.000",
    "request_status": "Pending",
    "responsible_agency": "Department of Sanitation",
    "final_address": "1431 Constance St, New Orleans, Louisiana, 70130",
    "address_councildis": "B",
    "status": "Assigned to Contractor",
    "contractor": "Richards Disposal",
    "rowid": "863540",
    "final_x": "3680635.16514",
    "final_y": "524194.270716",
    "longitude": "-90.07105598366722",
    "latitude": "29.935378608323525",
    "geocoded_column": {
      "latitude": "29.935378608323525",
      "longitude": "-90.07105598366722"
    }
  },
  {
    "service_request": "2022-863539",
    "request_type": "Trash/Recycling",
    "request_reason": "Order Trash Cart",
    "date_created": "2022-02-26T07:40:57.000",
    "date_modified": "2022-02-26T11:19:35.000",
    "case_close_date": "2022-02-26T05:19:35.000",
    "request_status": "Closed",
    "responsible_agency": "Department of Sanitation",
    "final_address": "2928 Cherry St, New Orleans, Louisiana, 70118",
    "address_councildis": "A",
    "status": "Duplicate Case",
    "contractor": "Richards Disposal",
    "rowid": "863539",
    "final_x": "3663046.95635",
    "final_y": "535900.233159",
    "longitude": "-90.12619295764681",
    "latitude": "29.968087271678986",
    "geocoded_column": {
      "latitude": "29.968087271678986",
      "longitude": "-90.12619295764681"
    }
  },
  {
    "service_request": "2022-863537",
    "request_type": "Trash/Recycling",
    "request_reason": "Replace Trash Cart",
    "date_created": "2022-02-26T07:10:12.000",
    "date_modified": "2022-02-26T07:10:13.000",
    "request_status": "Pending",
    "responsible_agency": "Department of Sanitation",
    "final_address": "7340 Edward St",
    "address_councildis": "E",
    "status": "Assigned to Contractor",
    "contractor": "Metro Disposal",
    "rowid": "863537",
    "final_x": "3701236.25169",
    "final_y": "560166.357533",
    "longitude": "-90.00470193084388",
    "latitude": "30.033648520665185",
    "geocoded_column": {
      "latitude": "30.033648520665185",
      "longitude": "-90.00470193084388"
    }
  },
  {
    "service_request": "2022-863535",
    "request_type": "Abandoned Vehicles",
    "request_reason": "Abandoned/Junk Vehicles",
    "date_created": "2022-02-26T04:27:56.000",
    "date_modified": "2022-02-26T04:27:56.000",
    "request_status": "Pending",
    "responsible_agency": "Department of Public Works",
    "final_address": "CALLIOPE ST & BARONNE ST & PONTCH W ONRAMP",
    "address_councildis": "B",
    "status": "Pending",
    "rowid": "863535",
    "final_x": "3679191.1",
    "final_y": "527228.18",
    "longitude": "-90.07550976107818",
    "latitude": "29.94376451706161",
    "geocoded_column": {
      "latitude": "29.94376451706161",
      "longitude": "-90.07550976107818"
    }
  },
  {
    "service_request": "2022-863534",
    "request_type": "Traffic Signals/Signs/Striping/Streetlights",
    "request_reason": "Disabled Parking Sign ",
    "date_created": "2022-02-26T00:49:04.000",
    "date_modified": "2022-02-26T00:49:04.000",
    "request_status": "Pending",
    "responsible_agency": "Department of Public Works",
    "final_address": "2019 Camp St",
    "address_councildis": "B",
    "status": "Pending",
    "rowid": "863534",
    "final_x": "3679132.74235",
    "final_y": "522796.336315",
    "longitude": "-90.07584757073975",
    "latitude": "29.931580172611866",
    "geocoded_column": {
      "latitude": "29.931580172611866",
      "longitude": "-90.07584757073975"
    }
  },
  {
    "service_request": "2022-863533",
    "request_type": "Trash/Recycling",
    "request_reason": "Illegal Dumping",
    "date_created": "2022-02-25T23:45:27.000",
    "date_modified": "2022-02-26T05:35:08.000",
    "request_status": "Pending",
    "responsible_agency": "Department of Sanitation",
    "final_address": "2932 Leonidas St",
    "address_councildis": "A",
    "rowid": "863533",
    "final_x": "3664933.61268",
    "final_y": "534330.402437",
    "longitude": "-90.12028728291455",
    "latitude": "29.96371596765866",
    "geocoded_column": {
      "latitude": "29.96371596765866",
      "longitude": "-90.12028728291455"
    }
  },
  {
    "service_request": "2022-863532",
    "request_type": "Traffic Signals/Signs/Striping/Streetlights",
    "request_reason": "Traffic Signal Malfunctioning/Damaged",
    "date_created": "2022-02-25T23:44:17.000",
    "date_modified": "2022-02-25T23:44:17.000",
    "request_status": "Pending",
    "responsible_agency": "Department of Public Works",
    "final_address": "LAFAYETTE ST & BARONNE ST",
    "address_councildis": "B",
    "status": "Pending",
    "rowid": "863532",
    "final_x": "3679824.5",
    "final_y": "529099.88",
    "longitude": "-90.07344497103085",
    "latitude": "29.948891932840287",
    "geocoded_column": {
      "latitude": "29.948891932840287",
      "longitude": "-90.07344497103085"
    }
  },
  {
    "service_request": "2022-863531",
    "request_type": "Traffic Signals/Signs/Striping/Streetlights",
    "request_reason": "Traffic Signal Malfunctioning/Damaged",
    "date_created": "2022-02-25T23:36:59.000",
    "date_modified": "2022-02-25T23:36:59.000",
    "request_status": "Pending",
    "responsible_agency": "Department of Public Works",
    "final_address": "1 BLK Lelong Dr",
    "address_councildis": "A",
    "status": "Pending",
    "rowid": "863531",
    "final_x": "3674409.24629",
    "final_y": "541945.370293",
    "longitude": "-90.09010322456182",
    "latitude": "29.984375305456556",
    "geocoded_column": {
      "latitude": "29.984375305456556",
      "longitude": "-90.09010322456182"
    }
  },
  {
    "service_request": "2022-863530",
    "request_type": "Traffic Signals/Signs/Striping/Streetlights",
    "request_reason": "Street Light Outage/Malfunction",
    "date_created": "2022-02-25T23:19:01.000",
    "date_modified": "2022-02-25T23:19:02.000",
    "request_status": "Pending",
    "responsible_agency": "Department of Public Works",
    "final_address": "2831 Marais St",
    "address_councildis": "C",
    "status": "Pending",
    "contractor": "Royal Engineering",
    "rowid": "863530",
    "final_x": "3687996.0383",
    "final_y": "536720.956615",
    "longitude": "-90.04737391737255",
    "latitude": "29.969597673472023",
    "geocoded_column": {
      "latitude": "29.969597673472023",
      "longitude": "-90.04737391737255"
    }
  },
  {
    "service_request": "2022-863529",
    "request_type": "Traffic Signals/Signs/Striping/Streetlights",
    "request_reason": "Street Light Outage/Malfunction",
    "date_created": "2022-02-25T23:12:51.000",
    "date_modified": "2022-02-25T23:12:52.000",
    "request_status": "Pending",
    "responsible_agency": "Department of Public Works",
    "final_address": "4456 America St",
    "address_councildis": "E",
    "status": "Pending",
    "contractor": "Royal Engineering",
    "rowid": "863529",
    "final_x": "3699813.39575",
    "final_y": "553598.026775",
    "longitude": "-90.00943811067721",
    "latitude": "30.01563341637486",
    "geocoded_column": {
      "latitude": "30.01563341637486",
      "longitude": "-90.00943811067721"
    }
  },
  {
    "service_request": "2022-863528",
    "request_type": "Traffic Signals/Signs/Striping/Streetlights",
    "request_reason": "Street Light Outage/Malfunction",
    "date_created": "2022-02-25T23:07:19.000",
    "date_modified": "2022-02-25T23:07:20.000",
    "request_status": "Pending",
    "responsible_agency": "Department of Public Works",
    "final_address": "4556 Dale St",
    "address_councildis": "E",
    "status": "Pending",
    "contractor": "Royal Engineering",
    "rowid": "863528",
    "final_x": "3699469.19568",
    "final_y": "554065.811992",
    "longitude": "-90.01050855633899",
    "latitude": "30.01693057869358",
    "geocoded_column": {
      "latitude": "30.01693057869358",
      "longitude": "-90.01050855633899"
    }
  },
  {
    "service_request": "2022-863527",
    "request_type": "Traffic Signals/Signs/Striping/Streetlights",
    "request_reason": "Street Light Outage/Malfunction",
    "date_created": "2022-02-25T23:03:13.000",
    "date_modified": "2022-02-25T23:03:14.000",
    "request_status": "Pending",
    "responsible_agency": "Department of Public Works",
    "final_address": "5148 Bayouview Ct",
    "address_councildis": "E",
    "status": "Pending",
    "contractor": "Royal Engineering",
    "rowid": "863527",
    "final_x": "3699078.80893",
    "final_y": "556388.441882",
    "longitude": "-90.01165736213032",
    "latitude": "30.02332931315127",
    "geocoded_column": {
      "latitude": "30.02332931315127",
      "longitude": "-90.01165736213032"
    }
  },
  {
    "service_request": "2022-863526",
    "request_type": "Traffic Signals/Signs/Striping/Streetlights",
    "request_reason": "Street Light Outage/Malfunction",
    "date_created": "2022-02-25T23:01:13.000",
    "date_modified": "2022-02-25T23:01:14.000",
    "request_status": "Pending",
    "responsible_agency": "Department of Public Works",
    "final_address": "5184 Bayouview Ct",
    "address_councildis": "E",
    "status": "Pending",
    "contractor": "Royal Engineering",
    "rowid": "863526",
    "final_x": "3699211.86352",
    "final_y": "556556.278682",
    "longitude": "-90.01123082141896",
    "latitude": "30.02378657959267",
    "geocoded_column": {
      "latitude": "30.02378657959267",
      "longitude": "-90.01123082141896"
    }
  },
  {
    "service_request": "2022-863525",
    "request_type": "Traffic Signals/Signs/Striping/Streetlights",
    "request_reason": "Street Light Outage/Malfunction",
    "date_created": "2022-02-25T22:57:12.000",
    "date_modified": "2022-02-25T22:57:13.000",
    "request_status": "Pending",
    "responsible_agency": "Department of Public Works",
    "final_address": "6741 Tara Ln HM",
    "address_councildis": "E",
    "status": "Pending",
    "contractor": "Royal Engineering",
    "rowid": "863525",
    "final_x": "3707610.61803",
    "final_y": "558933.573788",
    "longitude": "-89.98460423672319",
    "latitude": "30.03005407837948",
    "geocoded_column": {
      "latitude": "30.03005407837948",
      "longitude": "-89.98460423672319"
    }
  },
  {
    "service_request": "2022-863524",
    "request_type": "Traffic Signals/Signs/Striping/Streetlights",
    "request_reason": "Street Light Outage/Malfunction",
    "date_created": "2022-02-25T22:54:38.000",
    "date_modified": "2022-02-25T22:54:39.000",
    "request_status": "Pending",
    "responsible_agency": "Department of Public Works",
    "final_address": "6816 Bundy Rd",
    "address_councildis": "E",
    "status": "Pending",
    "contractor": "Royal Engineering",
    "rowid": "863524",
    "final_x": "3707544.90718",
    "final_y": "559493.802973",
    "longitude": "-89.9847910462827",
    "latitude": "30.03159661509732",
    "geocoded_column": {
      "latitude": "30.03159661509732",
      "longitude": "-89.9847910462827"
    }
  },
  {
    "service_request": "2022-863523",
    "request_type": "Traffic Signals/Signs/Striping/Streetlights",
    "request_reason": "Street Light Outage/Malfunction",
    "date_created": "2022-02-25T22:52:59.000",
    "date_modified": "2022-02-25T22:53:00.000",
    "request_status": "Pending",
    "responsible_agency": "Department of Public Works",
    "final_address": "6780 Bundy Rd",
    "address_councildis": "E",
    "status": "Pending",
    "contractor": "Royal Engineering",
    "rowid": "863523",
    "final_x": "3707667.36056",
    "final_y": "559399.082141",
    "longitude": "-89.98440761470137",
    "latitude": "30.031332206853786",
    "geocoded_column": {
      "latitude": "30.031332206853786",
      "longitude": "-89.98440761470137"
    }
  },
  {
    "service_request": "2022-863522",
    "request_type": "Traffic Signals/Signs/Striping/Streetlights",
    "request_reason": "Street Light Outage/Malfunction",
    "date_created": "2022-02-25T22:47:53.000",
    "date_modified": "2022-02-25T22:47:53.000",
    "request_status": "Pending",
    "responsible_agency": "Department of Public Works",
    "final_address": "5730 Bundy Rd",
    "address_councildis": "E",
    "status": "Pending",
    "contractor": "Royal Engineering",
    "rowid": "863522",
    "final_x": "3707982.92158",
    "final_y": "558775.281052",
    "longitude": "-89.98343366067516",
    "latitude": "30.029606780724826",
    "geocoded_column": {
      "latitude": "30.029606780724826",
      "longitude": "-89.98343366067516"
    }
  },
  {
    "service_request": "2022-863521",
    "request_type": "Traffic Signals/Signs/Striping/Streetlights",
    "request_reason": "Street Light Outage/Malfunction",
    "date_created": "2022-02-25T22:45:05.000",
    "date_modified": "2022-02-25T22:45:06.000",
    "request_status": "Pending",
    "responsible_agency": "Department of Public Works",
    "final_address": "6000 Bullard Ave",
    "address_councildis": "E",
    "status": "Pending",
    "contractor": "Royal Engineering",
    "rowid": "863521",
    "final_x": "3714876.25311",
    "final_y": "563881.658913",
    "longitude": "-89.96145788051206",
    "latitude": "30.043422170200817",
    "geocoded_column": {
      "latitude": "30.043422170200817",
      "longitude": "-89.96145788051206"
    }
  },
  {
    "service_request": "2022-863519",
    "request_type": "Traffic Signals/Signs/Striping/Streetlights",
    "request_reason": "Street Light Outage/Malfunction",
    "date_created": "2022-02-25T22:39:29.000",
    "date_modified": "2022-02-25T22:39:30.000",
    "request_status": "Pending",
    "responsible_agency": "Department of Public Works",
    "final_address": "6020 Bullard Ave",
    "address_councildis": "E",
    "status": "Pending",
    "contractor": "Royal Engineering",
    "rowid": "863519",
    "final_x": "3715428.30744",
    "final_y": "564044.862753",
    "longitude": "-89.95970699125441",
    "latitude": "30.04385272923982",
    "geocoded_column": {
      "latitude": "30.04385272923982",
      "longitude": "-89.95970699125441"
    }
  },
  {
    "service_request": "2022-863518",
    "request_type": "Traffic Signals/Signs/Striping/Streetlights",
    "request_reason": "Street Light Outage/Malfunction",
    "date_created": "2022-02-25T22:37:00.000",
    "date_modified": "2022-02-25T22:37:00.000",
    "request_status": "Pending",
    "responsible_agency": "Department of Public Works",
    "final_address": "17490 Paris Rd",
    "address_councildis": "E",
    "status": "Pending",
    "contractor": "Royal Engineering",
    "rowid": "863518",
    "final_x": "3721330.69106",
    "final_y": "572727.382697",
    "longitude": "-89.94071962305513",
    "latitude": "30.0675301641487",
    "geocoded_column": {
      "latitude": "30.0675301641487",
      "longitude": "-89.94071962305513"
    }
  },
  {
    "service_request": "2022-863517",
    "request_type": "Traffic Signals/Signs/Striping/Streetlights",
    "request_reason": "Street Light Outage/Malfunction",
    "date_created": "2022-02-25T22:33:32.000",
    "date_modified": "2022-02-25T22:33:33.000",
    "request_status": "Pending",
    "responsible_agency": "Department of Public Works",
    "final_address": "17600 Paris Rd",
    "address_councildis": "E",
    "status": "Pending",
    "contractor": "Royal Engineering",
    "rowid": "863517",
    "final_x": "3721049.61516",
    "final_y": "574670.481579",
    "longitude": "-89.94153353534014",
    "latitude": "30.07288225329255",
    "geocoded_column": {
      "latitude": "30.07288225329255",
      "longitude": "-89.94153353534014"
    }
  },
  {
    "service_request": "2022-863516",
    "request_type": "Traffic Signals/Signs/Striping/Streetlights",
    "request_reason": "Street Light Outage/Malfunction",
    "date_created": "2022-02-25T22:30:41.000",
    "date_modified": "2022-02-25T22:30:41.000",
    "request_status": "Pending",
    "responsible_agency": "Department of Public Works",
    "final_address": "17600 Paris Rd",
    "address_councildis": "E",
    "status": "Pending",
    "contractor": "Royal Engineering",
    "rowid": "863516",
    "final_x": "3721049.61516",
    "final_y": "574670.481579",
    "longitude": "-89.94153353534014",
    "latitude": "30.07288225329255",
    "geocoded_column": {
      "latitude": "30.07288225329255",
      "longitude": "-89.94153353534014"
    }
  },
  {
    "service_request": "2022-863515",
    "request_type": "Trash/Recycling",
    "request_reason": "Order Trash Cart",
    "date_created": "2022-02-25T21:55:01.000",
    "date_modified": "2022-02-25T21:55:02.000",
    "request_status": "Pending",
    "responsible_agency": "Department of Sanitation",
    "final_address": "5006 Burgundy St",
    "address_councildis": "E",
    "status": "Assigned to Contractor",
    "contractor": "Metro Disposal",
    "rowid": "863515",
    "final_x": "3695811.62262",
    "final_y": "533435.05114",
    "longitude": "-90.02281044059399",
    "latitude": "29.960319104280053",
    "geocoded_column": {
      "latitude": "29.960319104280053",
      "longitude": "-90.02281044059399"
    }
  },
  {
    "service_request": "2022-863514",
    "request_type": "Trash/Recycling",
    "request_reason": "Request a Large Item Pick Up",
    "date_created": "2022-02-25T21:29:13.000",
    "date_modified": "2022-02-25T21:32:16.000",
    "request_status": "Pending",
    "responsible_agency": "Department of Sanitation",
    "final_address": "4250 Mithra St",
    "address_councildis": "D",
    "status": "Assigned to Contractor",
    "contractor": "Metro Disposal",
    "rowid": "863514",
    "final_x": "3689739.15529",
    "final_y": "553068.810647",
    "longitude": "-90.04128686735059",
    "latitude": "30.01449446979042",
    "geocoded_column": {
      "latitude": "30.01449446979042",
      "longitude": "-90.04128686735059"
    }
  },
  {
    "service_request": "2022-863513",
    "request_type": "Traffic Signals/Signs/Striping/Streetlights",
    "request_reason": "Street Light Outage/Malfunction",
    "date_created": "2022-02-25T18:39:17.000",
    "date_modified": "2022-02-25T18:39:18.000",
    "request_status": "Pending",
    "responsible_agency": "Department of Public Works",
    "final_address": "GENERAL MEYER AVE & PACE BLVD",
    "address_councildis": "C",
    "status": "Pending",
    "contractor": "Royal Engineering",
    "rowid": "863513",
    "final_x": "3694467.0",
    "final_y": "526959.98",
    "longitude": "-90.02728951637859",
    "latitude": "29.942557133469908",
    "geocoded_column": {
      "latitude": "29.942557133469908",
      "longitude": "-90.02728951637859"
    }
  },
  {
    "service_request": "2022-863512",
    "request_type": "Trash/Recycling",
    "request_reason": "Replace Trash Cart",
    "date_created": "2022-02-25T18:34:37.000",
    "date_modified": "2022-02-25T18:34:38.000",
    "request_status": "Pending",
    "responsible_agency": "Department of Sanitation",
    "final_address": "811 Jewel St",
    "address_councildis": "D",
    "status": "Assigned to Contractor",
    "contractor": "Metro Disposal",
    "rowid": "863512",
    "final_x": "3670495.59553",
    "final_y": "556050.141209",
    "longitude": "-90.10198598074199",
    "latitude": "30.02327467255748",
    "geocoded_column": {
      "latitude": "30.02327467255748",
      "longitude": "-90.10198598074199"
    }
  },
  {
    "service_request": "2022-863511",
    "request_type": "Roads/Drainage",
    "request_reason": "Pothole",
    "date_created": "2022-02-25T18:24:39.000",
    "date_modified": "2022-02-25T18:24:39.000",
    "request_status": "Pending",
    "responsible_agency": "Department of Public Works",
    "final_address": "11901 Curran Rd",
    "address_councildis": "E",
    "status": "Pending",
    "rowid": "863511",
    "final_x": "3712933.69099",
    "final_y": "567785.166948",
    "longitude": "-89.96745007793196",
    "latitude": "30.054219039254882",
    "geocoded_column": {
      "latitude": "30.054219039254882",
      "longitude": "-89.96745007793196"
    }
  },
  {
    "service_request": "2022-863510",
    "request_type": "COVID-19",
    "request_reason": "COVID-19 Business Non-Compliance",
    "date_created": "2022-02-25T18:08:57.000",
    "date_modified": "2022-02-25T18:08:59.000",
    "request_status": "Pending",
    "responsible_agency": "Safety and Permits",
    "final_address": "209 Decatur St",
    "address_councildis": "C",
    "status": "Pending",
    "rowid": "863510",
    "final_x": "3682049.38229",
    "final_y": "530659.09293",
    "longitude": "-90.06636562960138",
    "latitude": "29.953111788278857",
    "geocoded_column": {
      "latitude": "29.953111788278857",
      "longitude": "-90.06636562960138"
    }
  },
  {
    "service_request": "2022-863509",
    "request_type": "COVID-19",
    "request_reason": "COVID-19 Business Non-Compliance",
    "date_created": "2022-02-25T18:08:25.000",
    "date_modified": "2022-02-25T18:08:26.000",
    "request_status": "Pending",
    "responsible_agency": "Safety and Permits",
    "final_address": "4041 Magazine St",
    "address_councildis": "B",
    "status": "Pending",
    "rowid": "863509",
    "final_x": "3672207.55239",
    "final_y": "518963.459703",
    "longitude": "-90.09784010078256",
    "latitude": "29.92124814807494",
    "geocoded_column": {
      "latitude": "29.92124814807494",
      "longitude": "-90.09784010078256"
    }
  },
  {
    "service_request": "2022-863508",
    "request_type": "Roads/Drainage",
    "request_reason": "Street Subsidence (Sinking)",
    "date_created": "2022-02-25T18:07:22.000",
    "date_modified": "2022-02-25T18:07:22.000",
    "request_status": "Pending",
    "responsible_agency": "Department of Public Works",
    "final_address": "3911 Dumaine St",
    "address_councildis": "A",
    "status": "Pending",
    "rowid": "863508",
    "final_x": "3673494.36737",
    "final_y": "540361.256523",
    "longitude": "-90.09304708322206",
    "latitude": "29.9800467983101",
    "geocoded_column": {
      "latitude": "29.9800467983101",
      "longitude": "-90.09304708322206"
    }
  },
  {
    "service_request": "2022-863507",
    "request_type": "Traffic Signals/Signs/Striping/Streetlights",
    "request_reason": "Request for Stop Sign",
    "date_created": "2022-02-25T18:04:43.000",
    "date_modified": "2022-02-25T18:04:43.000",
    "request_status": "Pending",
    "responsible_agency": "Department of Public Works",
    "final_address": "DABADIE ST & N TONTI ST",
    "address_councildis": "D",
    "status": "Pending",
    "rowid": "863507",
    "final_x": "3680662.6",
    "final_y": "539879.18",
    "longitude": "-90.0704236074317",
    "latitude": "29.97850596059107",
    "geocoded_column": {
      "latitude": "29.97850596059107",
      "longitude": "-90.0704236074317"
    }
  },
  {
    "service_request": "2022-863506",
    "request_type": "Safety & Permits",
    "request_reason": "Construction permit",
    "date_created": "2022-02-25T17:43:51.000",
    "date_modified": "2022-02-25T17:43:51.000",
    "request_status": "Pending",
    "responsible_agency": "Department of Code Enforcement",
    "status": "Pending",
    "rowid": "863506",
    "longitude": "0.0",
    "latitude": "0.0",
    "geocoded_column": {
      "latitude": "0.0",
      "longitude": "0.0"
    }
  },
  {
    "service_request": "2022-863505",
    "request_type": "Abandoned Vehicles",
    "request_reason": "Abandoned/Junk Vehicles",
    "date_created": "2022-02-25T17:31:06.000",
    "date_modified": "2022-02-25T17:31:06.000",
    "request_status": "Pending",
    "responsible_agency": "Department of Public Works",
    "final_address": "PERDIDO ST & S GALVEZ ST",
    "address_councildis": "B",
    "status": "Pending",
    "rowid": "863505",
    "final_x": "3675521.4",
    "final_y": "532009.48",
    "longitude": "-90.08693179598392",
    "latitude": "29.95702175953724",
    "geocoded_column": {
      "latitude": "29.95702175953724",
      "longitude": "-90.08693179598392"
    }
  },
  {
    "service_request": "2022-863504",
    "request_type": "Roads/Drainage",
    "request_reason": "Street Flooding / Drainage",
    "date_created": "2022-02-25T17:26:21.000",
    "date_modified": "2022-02-25T17:26:21.000",
    "request_status": "Pending",
    "responsible_agency": "Department of Public Works",
    "final_address": "2418 Saint Phillip Street ",
    "status": "Pending",
    "rowid": "863504",
    "longitude": "0.0",
    "latitude": "0.0",
    "geocoded_column": {
      "latitude": "0.0",
      "longitude": "0.0"
    }
  },
  {
    "service_request": "2022-863503",
    "request_type": "Trash/Recycling",
    "request_reason": "Missed Trash Pick-Up",
    "date_created": "2022-02-25T17:16:14.000",
    "date_modified": "2022-02-25T17:16:15.000",
    "request_status": "Pending",
    "responsible_agency": "Department of Sanitation",
    "final_address": "54 N Wren St, New Orleans, Louisiana, 70124",
    "address_councildis": "D",
    "status": "Assigned to Contractor",
    "contractor": "Metro Disposal",
    "rowid": "863503",
    "final_x": "3672678.52052",
    "final_y": "556159.914586",
    "longitude": "-90.0950846431118",
    "latitude": "30.02351182757769",
    "geocoded_column": {
      "latitude": "30.02351182757769",
      "longitude": "-90.0950846431118"
    }
  },
  {
    "service_request": "2022-863502",
    "request_type": "Traffic Signals/Signs/Striping/Streetlights",
    "request_reason": "Request for Stop Sign",
    "date_created": "2022-02-25T16:50:39.000",
    "date_modified": "2022-02-25T16:50:39.000",
    "request_status": "Pending",
    "responsible_agency": "Department of Public Works",
    "final_address": "Caffin Ave & N Rampart St, New Orleans, Louisiana, 70117",
    "status": "Pending",
    "rowid": "863502",
    "longitude": "0.0",
    "latitude": "0.0",
    "geocoded_column": {
      "latitude": "0.0",
      "longitude": "0.0"
    }
  },
  {
    "service_request": "2022-863501",
    "request_type": "Abandoned Vehicles",
    "request_reason": "Abandoned/Junk Vehicles",
    "date_created": "2022-02-25T16:48:04.000",
    "date_modified": "2022-02-25T16:50:26.000",
    "request_status": "Pending",
    "responsible_agency": "Department of Public Works",
    "final_address": "8903 Middleboro Rd",
    "address_councildis": "E",
    "status": "Pending",
    "rowid": "863501",
    "final_x": "3706120.78135",
    "final_y": "560872.781406",
    "longitude": "-89.98924020084614",
    "latitude": "30.035434272453273",
    "geocoded_column": {
      "latitude": "30.035434272453273",
      "longitude": "-89.98924020084614"
    }
  },
  {
    "service_request": "2022-863500",
    "request_type": "Traffic Signals/Signs/Striping/Streetlights",
    "request_reason": "Traffic Signal Malfunctioning/Damaged",
    "date_created": "2022-02-25T16:37:37.000",
    "date_modified": "2022-02-25T16:37:37.000",
    "request_status": "Pending",
    "responsible_agency": "Department of Public Works",
    "final_address": "CHEF MENTEUR HWY & I 510 S ONRAMP",
    "address_councildis": "E",
    "status": "Pending",
    "rowid": "863500",
    "final_x": "3721692.51",
    "final_y": "557922.78",
    "longitude": "-89.94014488504793",
    "latitude": "30.026811527748116",
    "geocoded_column": {
      "latitude": "30.026811527748116",
      "longitude": "-89.94014488504793"
    }
  },
  {
    "service_request": "2022-863499",
    "request_type": "Abandoned Vehicles",
    "request_reason": "Abandoned/Junk Vehicles",
    "date_created": "2022-02-25T16:21:58.000",
    "date_modified": "2022-02-25T16:21:58.000",
    "request_status": "Pending",
    "responsible_agency": "Department of Public Works",
    "final_address": "2941 Pauger St",
    "address_councildis": "D",
    "status": "Pending",
    "rowid": "863499",
    "final_x": "3683546.58114",
    "final_y": "540601.462731",
    "longitude": "-90.06128962043034",
    "latitude": "29.980404268549943",
    "geocoded_column": {
      "latitude": "29.980404268549943",
      "longitude": "-90.06128962043034"
    }
  },
  {
    "service_request": "2022-863498",
    "request_type": "Trash/Recycling",
    "request_reason": "Return Trash Cart",
    "date_created": "2022-02-25T16:21:32.000",
    "date_modified": "2022-02-25T16:21:32.000",
    "request_status": "Pending",
    "responsible_agency": "Department of Sanitation",
    "final_address": "1418 Terpsichore St",
    "address_councildis": "B",
    "status": "Assigned to Contractor",
    "contractor": "Richards Disposal",
    "rowid": "863498",
    "final_x": "3679652.62811",
    "final_y": "524811.706748",
    "longitude": "-90.07413643524752",
    "latitude": "29.937106078755804",
    "geocoded_column": {
      "latitude": "29.937106078755804",
      "longitude": "-90.07413643524752"
    }
  },
  {
    "service_request": "2022-863497",
    "request_type": "Roads/Drainage",
    "request_reason": "Street Flooding / Drainage",
    "date_created": "2022-02-25T16:13:15.000",
    "date_modified": "2022-02-25T16:13:15.000",
    "request_status": "Pending",
    "responsible_agency": "Department of Public Works",
    "final_address": "4848 Coliseum St Unit 205",
    "address_councildis": "B",
    "status": "Pending",
    "rowid": "863497",
    "final_x": "3669085.62606",
    "final_y": "519515.642871",
    "longitude": "-90.10767602372177",
    "latitude": "29.922858667293678",
    "geocoded_column": {
      "latitude": "29.922858667293678",
      "longitude": "-90.10767602372177"
    }
  },
  {
    "service_request": "2022-863496",
    "request_type": "Trash/Recycling",
    "request_reason": "Replace Trash Cart",
    "date_created": "2022-02-25T16:02:29.000",
    "date_modified": "2022-02-25T16:02:30.000",
    "request_status": "Pending",
    "responsible_agency": "Department of Sanitation",
    "final_address": "4 Virginia Ct",
    "address_councildis": "A",
    "status": "Assigned to Contractor",
    "contractor": "Metro Disposal",
    "rowid": "863496",
    "final_x": "3668784.8361",
    "final_y": "542357.785869",
    "longitude": "-90.10785435120131",
    "latitude": "29.985675905357756",
    "geocoded_column": {
      "latitude": "29.985675905357756",
      "longitude": "-90.10785435120131"
    }
  },
  {
    "service_request": "2022-863495",
    "request_type": "Trash/Recycling",
    "request_reason": "Request a Large Item Pick Up",
    "date_created": "2022-02-25T15:54:45.000",
    "date_modified": "2022-02-25T15:54:46.000",
    "request_status": "Pending",
    "responsible_agency": "Department of Sanitation",
    "final_address": "1018 Louisiana Ave",
    "address_councildis": "B",
    "status": "Assigned to Contractor",
    "contractor": "Richards Disposal",
    "rowid": "863495",
    "final_x": "3675049.97211",
    "final_y": "519411.812471",
    "longitude": "-90.0888524598728",
    "latitude": "29.922396395597243",
    "geocoded_column": {
      "latitude": "29.922396395597243",
      "longitude": "-90.0888524598728"
    }
  },
  {
    "service_request": "2022-863494",
    "request_type": "Trash/Recycling",
    "request_reason": "Request a Large Item Pick Up",
    "date_created": "2022-02-25T15:44:54.000",
    "date_modified": "2022-02-25T15:44:55.000",
    "request_status": "Pending",
    "responsible_agency": "Department of Sanitation",
    "final_address": "3510 Kent Dr",
    "address_councildis": "C",
    "status": "Assigned to Contractor",
    "contractor": "Richards Disposal",
    "rowid": "863494",
    "final_x": "3708830.7948",
    "final_y": "517863.542326",
    "longitude": "-89.98227875286445",
    "latitude": "29.917087150469325",
    "geocoded_column": {
      "latitude": "29.917087150469325",
      "longitude": "-89.98227875286445"
    }
  },
  {
    "service_request": "2022-863493",
    "request_type": "Traffic Signals/Signs/Striping/Streetlights",
    "request_reason": "Additional signage",
    "date_created": "2022-02-25T15:43:07.000",
    "date_modified": "2022-02-25T15:43:07.000",
    "request_status": "Pending",
    "responsible_agency": "Department of Public Works",
    "final_address": "2601 Gentilly Blvd",
    "address_councildis": "D",
    "status": "Pending",
    "rowid": "863493",
    "final_x": "3682825.37519",
    "final_y": "546225.325328",
    "longitude": "-90.0633706283652",
    "latitude": "29.995889899621528",
    "geocoded_column": {
      "latitude": "29.995889899621528",
      "longitude": "-90.0633706283652"
    }
  },
  {
    "service_request": "2022-863492",
    "request_type": "Roads/Drainage",
    "request_reason": "Pothole",
    "date_created": "2022-02-25T15:39:47.000",
    "date_modified": "2022-02-25T15:39:47.000",
    "request_status": "Pending",
    "responsible_agency": "Department of Public Works",
    "final_address": "FRANKLIN AVE & ROBERT E LEE BLVD",
    "address_councildis": "D",
    "status": "Pending",
    "rowid": "863492",
    "final_x": "3686324.6",
    "final_y": "555939.08",
    "longitude": "-90.05197374601998",
    "latitude": "30.022492077114148",
    "geocoded_column": {
      "latitude": "30.022492077114148",
      "longitude": "-90.05197374601998"
    }
  },
  {
    "service_request": "2022-863491",
    "request_type": "Roads/Drainage",
    "request_reason": "Pothole",
    "date_created": "2022-02-25T15:38:10.000",
    "date_modified": "2022-02-25T15:38:10.000",
    "request_status": "Pending",
    "responsible_agency": "Department of Public Works",
    "final_address": "BELL ST & BAYOU RD & N ROCHEBLAVE ST",
    "address_councildis": "D",
    "status": "Pending",
    "rowid": "863491",
    "final_x": "3679143.9",
    "final_y": "538460.68",
    "longitude": "-90.07526941054185",
    "latitude": "29.974651513584686",
    "geocoded_column": {
      "latitude": "29.974651513584686",
      "longitude": "-90.07526941054185"
    }
  },
  {
    "service_request": "2022-863490",
    "request_type": "Trash/Recycling",
    "request_reason": "Illegal Dumping",
    "date_created": "2022-02-25T15:29:50.000",
    "date_modified": "2022-02-25T15:32:19.000",
    "request_status": "Pending",
    "responsible_agency": "Department of Sanitation",
    "final_address": "2332 Touro St",
    "address_councildis": "D",
    "status": "Pending",
    "rowid": "863490",
    "final_x": "3683822.35509",
    "final_y": "540930.267979",
    "longitude": "-90.06040707253842",
    "latitude": "29.981299946685308",
    "geocoded_column": {
      "latitude": "29.981299946685308",
      "longitude": "-90.06040707253842"
    }
  },
  {
    "service_request": "2022-863489",
    "request_type": "Trash/Recycling",
    "request_reason": "MIssed Recycling Pick-Up",
    "date_created": "2022-02-25T15:23:45.000",
    "date_modified": "2022-02-25T15:23:46.000",
    "request_status": "Pending",
    "responsible_agency": "Department of Sanitation",
    "final_address": "84 Versailles Blvd",
    "address_councildis": "B",
    "status": "Assigned to Contractor",
    "contractor": "Richards Disposal",
    "rowid": "863489",
    "final_x": "3667970.13671",
    "final_y": "530890.569666",
    "longitude": "-90.11081410716558",
    "latitude": "29.954168819515687",
    "geocoded_column": {
      "latitude": "29.954168819515687",
      "longitude": "-90.11081410716558"
    }
  },
  {
    "service_request": "2022-863488",
    "request_type": "Abandoned Vehicles",
    "request_reason": "Abandoned/Junk Vehicles",
    "date_created": "2022-02-25T15:21:58.000",
    "date_modified": "2022-02-25T15:23:34.000",
    "request_status": "Pending",
    "responsible_agency": "Department of Public Works",
    "final_address": "309 Opal St",
    "address_councildis": "D",
    "status": "Pending",
    "rowid": "863488",
    "final_x": "3667586.789",
    "final_y": "555470.071705",
    "longitude": "-90.11119676813749",
    "latitude": "30.02176531686609",
    "geocoded_column": {
      "latitude": "30.02176531686609",
      "longitude": "-90.11119676813749"
    }
  },
  {
    "service_request": "2022-863487",
    "request_type": "Roads/Drainage",
    "request_reason": "Road Shoulder Repair",
    "date_created": "2022-02-25T15:21:29.000",
    "date_modified": "2022-02-25T15:21:29.000",
    "request_status": "Pending",
    "responsible_agency": "Department of Public Works",
    "final_address": "1116 Lyons St",
    "address_councildis": "B",
    "status": "Pending",
    "rowid": "863487",
    "final_x": "3669119.05095",
    "final_y": "519418.535927",
    "longitude": "-90.10757379322638",
    "latitude": "29.922590670819268",
    "geocoded_column": {
      "latitude": "29.922590670819268",
      "longitude": "-90.10757379322638"
    }
  },
  {
    "service_request": "2022-863486",
    "request_type": "Traffic Signals/Signs/Striping/Streetlights",
    "request_reason": "Street Light Outage/Malfunction",
    "date_created": "2022-02-25T15:20:51.000",
    "date_modified": "2022-02-25T15:20:51.000",
    "request_status": "Pending",
    "responsible_agency": "Department of Public Works",
    "final_address": "1111 N Prieur St",
    "address_councildis": "D",
    "status": "Pending",
    "contractor": "Royal Engineering",
    "rowid": "863486",
    "final_x": "3679857.15688",
    "final_y": "536548.475463",
    "longitude": "-90.07308319233553",
    "latitude": "29.969372057002886",
    "geocoded_column": {
      "latitude": "29.969372057002886",
      "longitude": "-90.07308319233553"
    }
  },
  {
    "service_request": "2022-863485",
    "request_type": "Traffic Signals/Signs/Striping/Streetlights",
    "request_reason": "Street Light Outage/Malfunction",
    "date_created": "2022-02-25T15:20:22.000",
    "date_modified": "2022-02-25T15:20:22.000",
    "request_status": "Pending",
    "responsible_agency": "Department of Public Works",
    "final_address": "1111 N Prieur St",
    "address_councildis": "D",
    "status": "Pending",
    "contractor": "Royal Engineering",
    "rowid": "863485",
    "final_x": "3679857.15688",
    "final_y": "536548.475463",
    "longitude": "-90.07308319233553",
    "latitude": "29.969372057002886",
    "geocoded_column": {
      "latitude": "29.969372057002886",
      "longitude": "-90.07308319233553"
    }
  },
  {
    "service_request": "2022-863484",
    "request_type": "Traffic Signals/Signs/Striping/Streetlights",
    "request_reason": "Street Light Outage/Malfunction",
    "date_created": "2022-02-25T15:19:02.000",
    "date_modified": "2022-02-25T15:19:03.000",
    "request_status": "Pending",
    "responsible_agency": "Department of Public Works",
    "final_address": "1111 N Prieur St",
    "address_councildis": "D",
    "status": "Pending",
    "contractor": "Royal Engineering",
    "rowid": "863484",
    "final_x": "3679857.15688",
    "final_y": "536548.475463",
    "longitude": "-90.07308319233553",
    "latitude": "29.969372057002886",
    "geocoded_column": {
      "latitude": "29.969372057002886",
      "longitude": "-90.07308319233553"
    }
  },
  {
    "service_request": "2022-863483",
    "request_type": "Mayor's Request",
    "request_reason": "Requests to the Mayor",
    "date_created": "2022-02-25T15:17:27.000",
    "date_modified": "2022-02-25T15:17:27.000",
    "request_status": "Pending",
    "responsible_agency": "Executive Office of the Mayor",
    "final_address": "12301 Six Flags Prkwy",
    "address_councildis": "E",
    "status": "Pending",
    "rowid": "863483",
    "final_x": "3723545.58534",
    "final_y": "567766.645412",
    "longitude": "-89.93390954575591",
    "latitude": "30.05381602307878",
    "geocoded_column": {
      "latitude": "30.05381602307878",
      "longitude": "-89.93390954575591"
    }
  },
  {
    "service_request": "2022-863482",
    "request_type": "Safety & Permits",
    "request_reason": "Construction permit",
    "date_created": "2022-02-25T15:15:02.000",
    "date_modified": "2022-02-25T15:15:02.000",
    "request_status": "Pending",
    "responsible_agency": "Department of Code Enforcement",
    "final_address": "301 Homedale St",
    "address_councildis": "A",
    "status": "Pending",
    "rowid": "863482",
    "final_x": "3666845.09511",
    "final_y": "544815.855503",
    "longitude": "-90.11389860295952",
    "latitude": "29.992491660692",
    "geocoded_column": {
      "latitude": "29.992491660692",
      "longitude": "-90.11389860295952"
    }
  },
  {
    "service_request": "2022-863481",
    "request_type": "Abandoned Vehicles",
    "request_reason": "Abandoned/Junk Vehicles",
    "date_created": "2022-02-25T15:11:17.000",
    "date_modified": "2022-02-25T15:11:17.000",
    "request_status": "Pending",
    "responsible_agency": "Department of Public Works",
    "final_address": "2800 BLK Wabash St",
    "address_councildis": "C",
    "status": "Pending",
    "rowid": "863481",
    "final_x": "3694128.62713",
    "final_y": "520932.904444",
    "longitude": "-90.0285745124187",
    "latitude": "29.925995336838234",
    "geocoded_column": {
      "latitude": "29.925995336838234",
      "longitude": "-90.0285745124187"
    }
  },
  {
    "service_request": "2022-863480",
    "request_type": "Trash/Recycling",
    "request_reason": "Repair Trash Cart",
    "date_created": "2022-02-25T15:10:35.000",
    "date_modified": "2022-02-25T15:10:35.000",
    "request_status": "Pending",
    "responsible_agency": "Department of Sanitation",
    "final_address": "2211 Magnolia St",
    "address_councildis": "B",
    "status": "Assigned to Contractor",
    "contractor": "Richards Disposal",
    "rowid": "863480",
    "final_x": "3675110.41851",
    "final_y": "526794.929086",
    "longitude": "-90.08840844693744",
    "latitude": "29.942695759849947",
    "geocoded_column": {
      "latitude": "29.942695759849947",
      "longitude": "-90.08840844693744"
    }
  },
  {
    "service_request": "2022-863479",
    "request_type": "Trash/Recycling",
    "request_reason": "Request a Large Item Pick Up",
    "date_created": "2022-02-25T15:04:04.000",
    "date_modified": "2022-02-25T15:04:04.000",
    "request_status": "Pending",
    "responsible_agency": "Department of Sanitation",
    "final_address": "2635 Dante St",
    "address_councildis": "A",
    "status": "Assigned to Contractor",
    "contractor": "Richards Disposal",
    "rowid": "863479",
    "final_x": "3665035.15284",
    "final_y": "532771.066628",
    "longitude": "-90.1200187699141",
    "latitude": "29.959425349375685",
    "geocoded_column": {
      "latitude": "29.959425349375685",
      "longitude": "-90.1200187699141"
    }
  },
  {
    "service_request": "2022-863478",
    "request_type": "Trash/Recycling",
    "request_reason": "Missed Trash Pick-Up",
    "date_created": "2022-02-25T14:56:20.000",
    "date_modified": "2022-02-25T14:56:21.000",
    "request_status": "Pending",
    "responsible_agency": "Department of Code Enforcement",
    "final_address": "CHARTRES ST & ST ROCH AVE & FRANKLIN AVE",
    "address_councildis": "C",
    "status": "Assigned to Contractor",
    "contractor": "Metro Disposal",
    "rowid": "863478",
    "final_x": "3686640.9",
    "final_y": "534626.98",
    "longitude": "-90.05172751612348",
    "latitude": "29.963881714608853",
    "geocoded_column": {
      "latitude": "29.963881714608853",
      "longitude": "-90.05172751612348"
    }
  },
  {
    "service_request": "2022-863477",
    "request_type": "Trash/Recycling",
    "request_reason": "Illegal Dumping",
    "date_created": "2022-02-25T14:55:49.000",
    "date_modified": "2022-02-25T14:55:49.000",
    "request_status": "Pending",
    "responsible_agency": "Department of Code Enforcement",
    "final_address": "CHARTRES ST & ST ROCH AVE & FRANKLIN AVE",
    "address_councildis": "C",
    "status": "Pending",
    "rowid": "863477",
    "final_x": "3686640.9",
    "final_y": "534626.98",
    "longitude": "-90.05172751612348",
    "latitude": "29.963881714608853",
    "geocoded_column": {
      "latitude": "29.963881714608853",
      "longitude": "-90.05172751612348"
    }
  },
  {
    "service_request": "2022-863476",
    "request_type": "Trash/Recycling",
    "request_reason": "Missed Trash Pick-Up",
    "date_created": "2022-02-25T14:51:38.000",
    "date_modified": "2022-02-25T14:51:39.000",
    "request_status": "Pending",
    "responsible_agency": "Department of Sanitation",
    "final_address": "6112 Dorothea St",
    "address_councildis": "D",
    "status": "Assigned to Contractor",
    "contractor": "Metro Disposal",
    "rowid": "863476",
    "final_x": "3696139.14288",
    "final_y": "557315.620955",
    "longitude": "-90.02091247810704",
    "latitude": "30.02597160928278",
    "geocoded_column": {
      "latitude": "30.02597160928278",
      "longitude": "-90.02091247810704"
    }
  },
  {
    "service_request": "2022-863475",
    "request_type": "Trash/Recycling",
    "request_reason": "Missed Trash Pick-Up",
    "date_created": "2022-02-25T14:50:32.000",
    "date_modified": "2022-02-25T14:50:33.000",
    "request_status": "Pending",
    "responsible_agency": "Department of Sanitation",
    "final_address": "1501 Behrman Ave",
    "address_councildis": "C",
    "status": "Assigned to Contractor",
    "contractor": "Richards Disposal",
    "rowid": "863475",
    "final_x": "3691296.12438",
    "final_y": "525886.027517",
    "longitude": "-90.03733901506877",
    "latitude": "29.939703129018277",
    "geocoded_column": {
      "latitude": "29.939703129018277",
      "longitude": "-90.03733901506877"
    }
  },
  {
    "service_request": "2022-863474",
    "request_type": "Abandoned Vehicles",
    "request_reason": "Abandoned/Junk Vehicles",
    "date_created": "2022-02-25T14:48:49.000",
    "date_modified": "2022-02-25T14:48:50.000",
    "request_status": "Pending",
    "responsible_agency": "Department of Public Works",
    "final_address": "2624 Ursulines Ave",
    "address_councildis": "D",
    "status": "Pending",
    "rowid": "863474",
    "final_x": "3677844.68245",
    "final_y": "537881.083721",
    "longitude": "-90.07939269304342",
    "latitude": "29.973096981599806",
    "geocoded_column": {
      "latitude": "29.973096981599806",
      "longitude": "-90.07939269304342"
    }
  },
  {
    "service_request": "2022-863473",
    "request_type": "Safety & Permits",
    "request_reason": "Licenses & Permits",
    "date_created": "2022-02-25T14:47:07.000",
    "date_modified": "2022-02-25T14:47:07.000",
    "request_status": "Pending",
    "responsible_agency": "Safety and Permits",
    "final_address": "2717 Josephine St",
    "address_councildis": "B",
    "status": "Pending",
    "rowid": "863473",
    "final_x": "3675449.06126",
    "final_y": "527205.168959",
    "longitude": "-90.08732518649681",
    "latitude": "29.943813663259117",
    "geocoded_column": {
      "latitude": "29.943813663259117",
      "longitude": "-90.08732518649681"
    }
  },
  {
    "service_request": "2022-863472",
    "request_type": "Roads/Drainage",
    "request_reason": "Catch Basin - Clogged",
    "date_created": "2022-02-25T14:46:45.000",
    "date_modified": "2022-02-25T14:47:11.000",
    "case_close_date": "2022-02-25T08:47:11.000",
    "request_status": "Closed",
    "responsible_agency": "Department of Public Works",
    "final_address": "500 BLK Saint Charles Ave",
    "address_councildis": "B",
    "status": "Resolved",
    "rowid": "863472",
    "final_x": "3680694.03359",
    "final_y": "529226.878998",
    "longitude": "-90.07069506134559",
    "latitude": "29.949214819775644",
    "geocoded_column": {
      "latitude": "29.949214819775644",
      "longitude": "-90.07069506134559"
    }
  },
  {
    "service_request": "2022-863471",
    "request_type": "Roads/Drainage",
    "request_reason": "Catch Basin - Clogged",
    "date_created": "2022-02-25T14:45:03.000",
    "date_modified": "2022-02-25T14:45:23.000",
    "case_close_date": "2022-02-25T08:45:23.000",
    "request_status": "Closed",
    "responsible_agency": "Department of Public Works",
    "final_address": "100 Elk Pl",
    "address_councildis": "B",
    "status": "Resolved",
    "rowid": "863471",
    "final_x": "3679772.06971",
    "final_y": "531544.032067",
    "longitude": "-90.07352566791722",
    "latitude": "29.95561411385082",
    "geocoded_column": {
      "latitude": "29.95561411385082",
      "longitude": "-90.07352566791722"
    }
  },
  {
    "service_request": "2022-863470",
    "request_type": "Roads/Drainage",
    "request_reason": "Catch Basin - Clogged",
    "date_created": "2022-02-25T14:43:55.000",
    "date_modified": "2022-02-25T14:44:21.000",
    "case_close_date": "2022-02-25T08:44:21.000",
    "request_status": "Closed",
    "responsible_agency": "Department of Public Works",
    "final_address": "900 Poydras St",
    "address_councildis": "B",
    "status": "Resolved",
    "rowid": "863470",
    "final_x": "3679877.72443",
    "final_y": "529493.088449",
    "longitude": "-90.07326326562955",
    "latitude": "29.949971514920346",
    "geocoded_column": {
      "latitude": "29.949971514920346",
      "longitude": "-90.07326326562955"
    }
  },
  {
    "service_request": "2022-863469",
    "request_type": "Roads/Drainage",
    "request_reason": "Catch Basin - Clogged",
    "date_created": "2022-02-25T14:42:19.000",
    "date_modified": "2022-02-25T14:42:43.000",
    "case_close_date": "2022-02-25T08:42:43.000",
    "request_status": "Closed",
    "responsible_agency": "Department of Public Works",
    "final_address": "1700 Holiday Dr",
    "address_councildis": "C",
    "status": "Resolved",
    "rowid": "863469",
    "final_x": "3699114.13732",
    "final_y": "524535.2231",
    "longitude": "-90.01270575554017",
    "latitude": "29.93574343164321",
    "geocoded_column": {
      "latitude": "29.93574343164321",
      "longitude": "-90.01270575554017"
    }
  },
  {
    "service_request": "2022-863468",
    "request_type": "Roads/Drainage",
    "request_reason": "Catch Basin - Clogged",
    "date_created": "2022-02-25T14:40:15.000",
    "date_modified": "2022-02-25T14:40:48.000",
    "case_close_date": "2022-02-25T08:40:48.000",
    "request_status": "Closed",
    "responsible_agency": "Department of Public Works",
    "final_address": "400 BLK Newton St",
    "address_councildis": "C",
    "status": "Resolved",
    "rowid": "863468",
    "final_x": "3686759.88465",
    "final_y": "527931.813019",
    "longitude": "-90.05158827828558",
    "latitude": "29.945468643397408",
    "geocoded_column": {
      "latitude": "29.945468643397408",
      "longitude": "-90.05158827828558"
    }
  },
  {
    "service_request": "2022-863467",
    "request_type": "Roads/Drainage",
    "request_reason": "Catch Basin - Clogged",
    "date_created": "2022-02-25T14:38:17.000",
    "date_modified": "2022-02-25T14:38:39.000",
    "case_close_date": "2022-02-25T08:38:39.000",
    "request_status": "Closed",
    "responsible_agency": "Department of Public Works",
    "final_address": "1500 BLK Newton St",
    "address_councildis": "C",
    "status": "Resolved",
    "rowid": "863467",
    "final_x": "3689949.11547",
    "final_y": "527866.923056",
    "longitude": "-90.0415211904641",
    "latitude": "29.94519173875591",
    "geocoded_column": {
      "latitude": "29.94519173875591",
      "longitude": "-90.0415211904641"
    }
  },
  {
    "service_request": "2022-863465",
    "request_type": "Trash/Recycling",
    "request_reason": "Repair Trash Cart",
    "date_created": "2022-02-25T14:25:26.000",
    "date_modified": "2022-02-25T14:25:27.000",
    "request_status": "Pending",
    "responsible_agency": "Department of Sanitation",
    "final_address": "5362 Chatham Dr",
    "address_councildis": "D",
    "status": "Assigned to Contractor",
    "contractor": "Metro Disposal",
    "rowid": "863465",
    "final_x": "3679705.39541",
    "final_y": "552089.267798",
    "longitude": "-90.0730226461869",
    "latitude": "30.01210835929237",
    "geocoded_column": {
      "latitude": "30.01210835929237",
      "longitude": "-90.0730226461869"
    }
  },
  {
    "service_request": "2022-863464",
    "request_type": "EMS",
    "request_reason": "EMS Complaint",
    "date_created": "2022-02-25T14:23:51.000",
    "date_modified": "2022-02-25T15:18:04.000",
    "case_close_date": "2022-02-25T09:18:04.000",
    "request_status": "Closed",
    "responsible_agency": "Emergency Medical Services",
    "status": "Invalid Case",
    "rowid": "863464",
    "longitude": "0.0",
    "latitude": "0.0",
    "geocoded_column": {
      "latitude": "0.0",
      "longitude": "0.0"
    }
  },
  {
    "service_request": "2022-863463",
    "request_type": "Trash/Recycling",
    "request_reason": "Request a Large Item Pick Up",
    "date_created": "2022-02-25T14:21:52.000",
    "date_modified": "2022-02-25T14:21:52.000",
    "request_status": "Pending",
    "responsible_agency": "Department of Sanitation",
    "final_address": "5600 Macarthur Blvd",
    "address_councildis": "C",
    "status": "Assigned to Contractor",
    "contractor": "Richards Disposal",
    "rowid": "863463",
    "final_x": "3704201.42455",
    "final_y": "519610.672184",
    "longitude": "-89.99682657624919",
    "latitude": "29.922040432242518",
    "geocoded_column": {
      "latitude": "29.922040432242518",
      "longitude": "-89.99682657624919"
    }
  },
  {
    "service_request": "2022-863462",
    "request_type": "Property Maintenance",
    "request_reason": "Property Maintenance",
    "date_created": "2022-02-25T14:18:04.000",
    "date_modified": "2022-02-25T14:18:04.000",
    "request_status": "Pending",
    "responsible_agency": "Department of Code Enforcement",
    "final_address": "5514 Pauline Dr",
    "address_councildis": "D",
    "status": "Pending",
    "rowid": "863462",
    "final_x": "3691991.05571",
    "final_y": "554332.962904",
    "longitude": "-90.03412671156036",
    "latitude": "30.01790040525102",
    "geocoded_column": {
      "latitude": "30.01790040525102",
      "longitude": "-90.03412671156036"
    }
  },
  {
    "service_request": "2022-863460",
    "request_type": "Trash/Recycling",
    "request_reason": "Repair Trash Cart",
    "date_created": "2022-02-25T14:07:18.000",
    "date_modified": "2022-02-25T14:07:19.000",
    "request_status": "Pending",
    "responsible_agency": "Department of Sanitation",
    "final_address": "6540 Center St",
    "address_councildis": "A",
    "status": "Assigned to Contractor",
    "contractor": "Metro Disposal",
    "rowid": "863460",
    "final_x": "3664855.9648",
    "final_y": "551588.276373",
    "longitude": "-90.11995537868862",
    "latitude": "30.011171544639268",
    "geocoded_column": {
      "latitude": "30.011171544639268",
      "longitude": "-90.11995537868862"
    }
  },