[
  {
    "service_request": "2024-1064462",
    "request_type": "Roads/Drainage",
    "request_reason": "Pothole",
    "date_created": "2024-01-29T23:08:43.000",
    "date_modified": "2024-01-29T23:08:43.000",
    "request_status": "Pending",
    "responsible_agency": "Department of Public Works",
    "final_address": "1301 Constantinople St",
    "address_councildis": "B",
    "status": "Pending",
    "rowid": "1064462",
    "final_x": "3672430.66305",
    "final_y": "520250.7726",
    "longitude": "-90.09709199725775",
    "latitude": "29.924781230435865",
    "geocoded_column": {
      "latitude": "29.924781230435865",
      "longitude": "-90.09709199725775"
    }
  },
  {
    "service_request": "2024-1064461",
    "request_type": "Roads/Drainage",
    "request_reason": "Pothole",
    "date_created": "2024-01-29T22:18:44.000",
    "date_modified": "2024-01-29T22:18:44.000",
    "request_status": "Pending",
    "responsible_agency": "Department of Public Works",
    "final_address": "5823 Perrier St",
    "address_councildis": "A",
    "status": "Pending",
    "rowid": "1064461",
    "final_x": "3665601.07367",
    "final_y": "520421.208184",
    "longitude": "-90.11864512991228",
    "latitude": "29.92545071542357",
    "geocoded_column": {
      "latitude": "29.92545071542357",
      "longitude": "-90.11864512991228"
    }
  },
  {
    "service_request": "2024-1064460",
    "request_type": "Traffic Signals/Signs/Striping/Streetlights",
    "request_reason": "Street Light Outage/Malfunction",
    "date_created": "2024-01-29T21:05:42.000",
    "date_modified": "2024-01-29T21:05:43.000",
    "request_status": "Pending",
    "responsible_agency": "Department of Public Works",
    "final_address": "4337 Vixen St",
    "address_councildis": "C",
    "status": "Assigned to Contractor",
    "contractor": "Legacy Professional Services",
    "rowid": "1064460",
    "final_x": "3699623.03645",
    "final_y": "520649.401657",
    "longitude": "-90.0112407090589",
    "latitude": "29.92504262683599",
    "geocoded_column": {
      "latitude": "29.92504262683599",
      "longitude": "-90.0112407090589"
    }
  },
  {
    "service_request": "2024-1064459",
    "request_type": "Trash/Recycling",
    "request_reason": "Repair Trash Cart",
    "date_created": "2024-01-29T20:59:23.000",
    "date_modified": "2024-01-29T20:59:23.000",
    "request_status": "Pending",
    "responsible_agency": "Department of Sanitation",
    "final_address": "1415 Octavia St",
    "address_councildis": "A",
    "status": "Assigned to Contractor",
    "contractor": "Richards Disposal",
    "rowid": "1064459",
    "final_x": "3666965.26375",
    "final_y": "521029.304697",
    "longitude": "-90.11431836807787",
    "latitude": "29.92708295334601",
    "geocoded_column": {
      "latitude": "29.92708295334601",
      "longitude": "-90.11431836807787"
    }
  },
  {
    "service_request": "2024-1064458",
    "request_type": "Trash/Recycling",
    "request_reason": "Order Recycling Cart",
    "date_created": "2024-01-29T20:39:37.000",
    "date_modified": "2024-01-29T20:39:37.000",
    "request_status": "Pending",
    "responsible_agency": "Department of Sanitation",
    "final_address": "6732 Louis Xiv St",
    "address_councildis": "A",
    "status": "Pending",
    "rowid": "1064458",
    "final_x": "3668438.61473",
    "final_y": "552319.338326",
    "longitude": "-90.10861162173633",
    "latitude": "30.013076905153984",
    "geocoded_column": {
      "latitude": "30.013076905153984",
      "longitude": "-90.10861162173633"
    }
  },
  {
    "service_request": "2024-1064457",
    "request_type": "Roads/Drainage",
    "request_reason": "Pothole",
    "date_created": "2024-01-29T20:28:34.000",
    "date_modified": "2024-01-29T20:28:34.000",
    "request_status": "Pending",
    "responsible_agency": "Department of Public Works",
    "final_address": "6060 Chestnut St",
    "address_councildis": "A",
    "status": "Pending",
    "rowid": "1064457",
    "final_x": "3664493.20845",
    "final_y": "519950.4654",
    "longitude": "-90.12215803894134",
    "latitude": "29.924188567075998",
    "geocoded_column": {
      "latitude": "29.924188567075998",
      "longitude": "-90.12215803894134"
    }
  },
  {
    "service_request": "2024-1064456",
    "request_type": "Trash/Recycling",
    "request_reason": "Repair Recycling Cart",
    "date_created": "2024-01-29T20:25:31.000",
    "date_modified": "2024-01-29T20:25:31.000",
    "request_status": "Pending",
    "responsible_agency": "Department of Sanitation",
    "final_address": "1904 Palmer Ave",
    "address_councildis": "A",
    "status": "Pending",
    "rowid": "1064456",
    "final_x": "3665634.86848",
    "final_y": "524058.50246",
    "longitude": "-90.11841670978797",
    "latitude": "29.93545113746553",
    "geocoded_column": {
      "latitude": "29.93545113746553",
      "longitude": "-90.11841670978797"
    }
  },
  {
    "service_request": "2024-1064455",
    "request_type": "Traffic Signals/Signs/Striping/Streetlights",
    "request_reason": "Street Light Knocked Down/Leaning",
    "date_created": "2024-01-29T19:48:30.000",
    "date_modified": "2024-01-29T19:48:30.000",
    "request_status": "Pending",
    "responsible_agency": "Department of Public Works",
    "final_address": "332 Chartres St",
    "address_councildis": "C",
    "status": "Pending",
    "contractor": "Legacy Professional Services",
    "rowid": "1064455",
    "final_x": "3682138.90882",
    "final_y": "531285.54509",
    "longitude": "-90.06606106716323",
    "latitude": "29.954831597124628",
    "geocoded_column": {
      "latitude": "29.954831597124628",
      "longitude": "-90.06606106716323"
    }
  },
  {
    "service_request": "2024-1064454",
    "request_type": "Trash/Recycling",
    "request_reason": "MIssed Recycling Pick-Up",
    "date_created": "2024-01-29T19:23:53.000",
    "date_modified": "2024-01-29T19:23:54.000",
    "request_status": "Pending",
    "responsible_agency": "Department of Sanitation",
    "final_address": "615 Elmira Ave",
    "address_councildis": "C",
    "status": "Assigned to Contractor",
    "contractor": "Richards Disposal",
    "rowid": "1064454",
    "final_x": "3688135.12553",
    "final_y": "529324.086593",
    "longitude": "-90.04719687018054",
    "latitude": "29.949254548934345",
    "geocoded_column": {
      "latitude": "29.949254548934345",
      "longitude": "-90.04719687018054"
    }
  },
  {
    "service_request": "2024-1064453",
    "request_type": "Trash/Recycling",
    "request_reason": "Replace Trash Cart",
    "date_created": "2024-01-29T19:22:18.000",
    "date_modified": "2024-01-29T19:22:18.000",
    "request_status": "Pending",
    "responsible_agency": "Department of Sanitation",
    "final_address": "842 Toledano St",
    "address_councildis": "B",
    "status": "Assigned to Contractor",
    "contractor": "Richards Disposal",
    "rowid": "1064453",
    "final_x": "3675675.17121",
    "final_y": "519059.891767",
    "longitude": "-90.08689104272378",
    "latitude": "29.92141004127674",
    "geocoded_column": {
      "latitude": "29.92141004127674",
      "longitude": "-90.08689104272378"
    }
  },
  {
    "service_request": "2024-1064452",
    "request_type": "Traffic Signals/Signs/Striping/Streetlights",
    "request_reason": "Street Light Outage/Malfunction",
    "date_created": "2024-01-29T19:00:59.000",
    "date_modified": "2024-01-29T19:01:00.000",
    "request_status": "Pending",
    "responsible_agency": "Department of Public Works",
    "final_address": "5865 Argonne Blvd",
    "address_councildis": "A",
    "status": "Assigned to Contractor",
    "contractor": "Legacy Professional Services",
    "rowid": "1064452",
    "final_x": "3670147.41063",
    "final_y": "546316.028688",
    "longitude": "-90.10341631957091",
    "latitude": "29.996519571517414",
    "geocoded_column": {
      "latitude": "29.996519571517414",
      "longitude": "-90.10341631957091"
    }
  },
  {
    "service_request": "2024-1064451",
    "request_type": "Traffic Signals/Signs/Striping/Streetlights",
    "request_reason": "Street Light Outage/Malfunction",
    "date_created": "2024-01-29T18:56:01.000",
    "date_modified": "2024-01-29T18:56:01.000",
    "request_status": "Pending",
    "responsible_agency": "Department of Public Works",
    "final_address": "TREASURE ST & LONDON AVE",
    "address_councildis": "D",
    "status": "Assigned to Contractor",
    "contractor": "Legacy Professional Services",
    "rowid": "1064451",
    "final_x": "3681452.1",
    "final_y": "543809.38",
    "longitude": "-90.06779298013954",
    "latitude": "29.989288683912907",
    "geocoded_column": {
      "latitude": "29.989288683912907",
      "longitude": "-90.06779298013954"
    }
  },
  {
    "service_request": "2024-1064450",
    "request_type": "Roads/Drainage",
    "request_reason": "Pothole",
    "date_created": "2024-01-29T18:47:17.000",
    "date_modified": "2024-01-29T18:47:17.000",
    "request_status": "Pending",
    "responsible_agency": "Department of Public Works",
    "final_address": "4216 Chestnut St",
    "address_councildis": "B",
    "status": "Pending",
    "rowid": "1064450",
    "final_x": "3671574.31393",
    "final_y": "519539.203703",
    "longitude": "-90.09981939416457",
    "latitude": "29.922850019854593",
    "geocoded_column": {
      "latitude": "29.922850019854593",
      "longitude": "-90.09981939416457"
    }
  },
  {
    "service_request": "2024-1064448",
    "request_type": "Roads/Drainage",
    "request_reason": "Pothole",
    "date_created": "2024-01-29T18:35:29.000",
    "date_modified": "2024-01-29T18:35:29.000",
    "request_status": "Pending",
    "responsible_agency": "Department of Public Works",
    "final_address": "5831 Magazine St",
    "address_councildis": "A",
    "status": "Pending",
    "rowid": "1064448",
    "final_x": "3665335.1986",
    "final_y": "519083.321975",
    "longitude": "-90.11952915637768",
    "latitude": "29.921779695802282",
    "geocoded_column": {
      "latitude": "29.921779695802282",
      "longitude": "-90.11952915637768"
    }
  },
  {
    "service_request": "2024-1064447",
    "request_type": "Trash/Recycling",
    "request_reason": "Missed Trash Pick-Up",
    "date_created": "2024-01-29T18:35:13.000",
    "date_modified": "2024-01-29T18:35:14.000",
    "request_status": "Pending",
    "responsible_agency": "Department of Sanitation",
    "final_address": "8012 Cohn St",
    "address_councildis": "A",
    "status": "Assigned to Contractor",
    "contractor": "Richards Disposal",
    "rowid": "1064447",
    "final_x": "3663867.8192",
    "final_y": "529903.862721",
    "longitude": "-90.12380052354493",
    "latitude": "29.951575405756287",
    "geocoded_column": {
      "latitude": "29.951575405756287",
      "longitude": "-90.12380052354493"
    }
  },
  {
    "service_request": "2024-1064446",
    "request_type": "Traffic Signals/Signs/Striping/Streetlights",
    "request_reason": "Street Light Outage/Malfunction",
    "date_created": "2024-01-29T18:29:45.000",
    "date_modified": "2024-01-29T18:29:45.000",
    "request_status": "Pending",
    "responsible_agency": "Department of Public Works",
    "final_address": "800 BLK N Carrollton Ave",
    "address_councildis": "A",
    "status": "Assigned to Contractor",
    "contractor": "Legacy Professional Services",
    "rowid": "1064446",
    "final_x": "3672988.10871",
    "final_y": "540328.485732",
    "longitude": "-90.0946471810315",
    "latitude": "29.979971747869897",
    "geocoded_column": {
      "latitude": "29.979971747869897",
      "longitude": "-90.0946471810315"
    }
  },
  {
    "service_request": "2024-1064445",
    "request_type": "Traffic Signals/Signs/Striping/Streetlights",
    "request_reason": "Street Light Outage/Malfunction",
    "date_created": "2024-01-29T18:27:26.000",
    "date_modified": "2024-01-29T18:27:27.000",
    "request_status": "Pending",
    "responsible_agency": "Department of Public Works",
    "final_address": "8700 BLK Scottsdale Dr",
    "address_councildis": "E",
    "status": "Assigned to Contractor",
    "contractor": "Legacy Professional Services",
    "rowid": "1064445",
    "final_x": "3704920.80895",
    "final_y": "561815.729503",
    "longitude": "-89.99299743191268",
    "latitude": "30.03806565777603",
    "geocoded_column": {
      "latitude": "30.03806565777603",
      "longitude": "-89.99299743191268"
    }
  },
  {
    "service_request": "2024-1064444",
    "request_type": "Trash/Recycling",
    "request_reason": "Request a Large Item Pick Up",
    "date_created": "2024-01-29T18:23:14.000",
    "date_modified": "2024-01-29T18:23:15.000",
    "request_status": "Pending",
    "responsible_agency": "Department of Sanitation",
    "final_address": "1415 Socrates St",
    "address_councildis": "C",
    "status": "Assigned to Contractor",
    "contractor": "Richards Disposal",
    "rowid": "1064444",
    "final_x": "3689786.8918",
    "final_y": "526308.046398",
    "longitude": "-90.04208884413336",
    "latitude": "29.940910387977283",
    "geocoded_column": {
      "latitude": "29.940910387977283",
      "longitude": "-90.04208884413336"
    }
  },
  {
    "service_request": "2024-1064443",
    "request_type": "Trash/Recycling",
    "request_reason": "Request a Large Item Pick Up",
    "date_created": "2024-01-29T18:08:52.000",
    "date_modified": "2024-01-29T18:08:52.000",
    "request_status": "Pending",
    "responsible_agency": "Department of Sanitation",
    "final_address": "2828 Audubon St",
    "address_councildis": "B",
    "status": "Assigned to Contractor",
    "contractor": "Richards Disposal",
    "rowid": "1064443",
    "final_x": "3667632.12429",
    "final_y": "531322.592194",
    "longitude": "-90.11186687626252",
    "latitude": "29.955366651870104",
    "geocoded_column": {
      "latitude": "29.955366651870104",
      "longitude": "-90.11186687626252"
    }
  },
  {
    "service_request": "2024-1064442",
    "request_type": "Trash/Recycling",
    "request_reason": "Repair Trash Cart",
    "date_created": "2024-01-29T17:59:12.000",
    "date_modified": "2024-01-29T17:59:13.000",
    "request_status": "Pending",
    "responsible_agency": "Department of Sanitation",
    "final_address": "950 Picheloup Pl",
    "address_councildis": "A",
    "status": "Assigned to Contractor",
    "contractor": "Richards Disposal",
    "rowid": "1064442",
    "final_x": "3673667.55848",
    "final_y": "540612.144267",
    "longitude": "-90.09249149151029",
    "latitude": "29.980731497890464",
    "geocoded_column": {
      "latitude": "29.980731497890464",
      "longitude": "-90.09249149151029"
    }
  },
  {
    "service_request": "2024-1064441",
    "request_type": "Trash/Recycling",
    "request_reason": "Replace Trash Cart",
    "date_created": "2024-01-29T17:58:27.000",
    "date_modified": "2024-01-29T17:58:27.000",
    "request_status": "Pending",
    "responsible_agency": "Department of Sanitation",
    "final_address": "1523 Valmont St",
    "address_councildis": "B",
    "status": "Assigned to Contractor",
    "contractor": "Richards Disposal",
    "rowid": "1064441",
    "final_x": "3667842.01402",
    "final_y": "520627.333561",
    "longitude": "-90.11156421509206",
    "latitude": "29.925951983726623",
    "geocoded_column": {
      "latitude": "29.925951983726623",
      "longitude": "-90.11156421509206"
    }
  },
  {
    "service_request": "2024-1064440",
    "request_type": "Traffic Signals/Signs/Striping/Streetlights",
    "request_reason": "Street Light Knocked Down/Leaning",
    "date_created": "2024-01-29T17:39:05.000",
    "date_modified": "2024-01-29T17:39:06.000",
    "request_status": "Pending",
    "responsible_agency": "Department of Public Works",
    "final_address": "300 Chartres St",
    "address_councildis": "C",
    "status": "Pending",
    "contractor": "Legacy Professional Services",
    "rowid": "1064440",
    "final_x": "3681986.38076",
    "final_y": "531087.642754",
    "longitude": "-90.06654960082082",
    "latitude": "29.954292070405554",
    "geocoded_column": {
      "latitude": "29.954292070405554",
      "longitude": "-90.06654960082082"
    }
  },
  {
    "service_request": "2024-1064439",
    "request_type": "Trash/Recycling",
    "request_reason": "Request a Large Item Pick Up",
    "date_created": "2024-01-29T17:02:26.000",
    "date_modified": "2024-01-29T17:02:27.000",
    "request_status": "Pending",
    "responsible_agency": "Department of Sanitation",
    "final_address": "7521 Alabama St",
    "address_councildis": "D",
    "status": "Assigned to Contractor",
    "contractor": "Waste Pro",
    "rowid": "1064439",
    "final_x": "3695040.99216",
    "final_y": "558305.13462",
    "longitude": "-90.02434675700846",
    "latitude": "30.028726934574166",
    "geocoded_column": {
      "latitude": "30.028726934574166",
      "longitude": "-90.02434675700846"
    }
  },
  {
    "service_request": "2024-1064438",
    "request_type": "Trash/Recycling",
    "request_reason": "Request a Large Item Pick Up",
    "date_created": "2024-01-29T17:00:49.000",
    "date_modified": "2024-01-29T17:00:50.000",
    "request_status": "Pending",
    "responsible_agency": "Department of Sanitation",
    "final_address": "5860 Louisville St",
    "address_councildis": "A",
    "status": "Assigned to Contractor",
    "contractor": "IV Waste",
    "rowid": "1064438",
    "final_x": "3667621.34509",
    "final_y": "546563.000081",
    "longitude": "-90.11138771293326",
    "latitude": "29.99727297042056",
    "geocoded_column": {
      "latitude": "29.99727297042056",
      "longitude": "-90.11138771293326"
    }
  },
  {
    "service_request": "2024-1064437",
    "request_type": "Abandoned Vehicles",
    "request_reason": "Abandoned/Junk Vehicles",
    "date_created": "2024-01-29T16:59:01.000",
    "date_modified": "2024-01-29T16:59:01.000",
    "request_status": "Pending",
    "responsible_agency": "Department of Public Works",
    "final_address": "1756 N Rampart St",
    "address_councildis": "C",
    "status": "Pending",
    "rowid": "1064437",
    "final_x": "3683464.93621",
    "final_y": "535789.356423",
    "longitude": "-90.06171615992022",
    "latitude": "29.96717514223848",
    "geocoded_column": {
      "latitude": "29.96717514223848",
      "longitude": "-90.06171615992022"
    }
  },
  {
    "service_request": "2024-1064436",
    "request_type": "Trash/Recycling",
    "request_reason": "Request a Large Item Pick Up",
    "date_created": "2024-01-29T16:58:07.000",
    "date_modified": "2024-01-29T16:58:07.000",
    "request_status": "Pending",
    "responsible_agency": "Department of Sanitation",
    "final_address": "1215 Terry St",
    "address_councildis": "C",
    "status": "Assigned to Contractor",
    "contractor": "Richards Disposal",
    "rowid": "1064436",
    "final_x": "3696923.76938",
    "final_y": "526828.085566",
    "longitude": "-90.01953774607497",
    "latitude": "29.942117243285825",
    "geocoded_column": {
      "latitude": "29.942117243285825",
      "longitude": "-90.01953774607497"
    }
  },
  {
    "service_request": "2024-1064435",
    "request_type": "Abandoned Vehicles",
    "request_reason": "Abandoned/Junk Vehicles",
    "date_created": "2024-01-29T16:55:49.000",
    "date_modified": "2024-01-29T16:55:49.000",
    "request_status": "Pending",
    "responsible_agency": "Department of Public Works",
    "final_address": "1750 N Rampart St",
    "address_councildis": "C",
    "status": "Pending",
    "rowid": "1064435",
    "final_x": "3683444.05442",
    "final_y": "535783.712903",
    "longitude": "-90.061782302502",
    "latitude": "29.967160261694346",
    "geocoded_column": {
      "latitude": "29.967160261694346",
      "longitude": "-90.061782302502"
    }
  },
  {
    "service_request": "2024-1064434",
    "request_type": "Traffic Signals/Signs/Striping/Streetlights",
    "request_reason": "Street Light Outage/Malfunction",
    "date_created": "2024-01-29T16:54:00.000",
    "date_modified": "2024-01-29T16:54:01.000",
    "request_status": "Pending",
    "responsible_agency": "Department of Public Works",
    "final_address": "833 Washington Ave",
    "address_councildis": "B",
    "status": "Assigned to Contractor",
    "contractor": "Legacy Professional Services",
    "rowid": "1064434",
    "final_x": "3677546.21051",
    "final_y": "520156.09804",
    "longitude": "-90.0809471687402",
    "latitude": "29.924368156582094",
    "geocoded_column": {
      "latitude": "29.924368156582094",
      "longitude": "-90.0809471687402"
    }
  },
  {
    "service_request": "2024-1064433",
    "request_type": "Roads/Drainage",
    "request_reason": "Catch Basin - Clogged",
    "date_created": "2024-01-29T16:52:55.000",
    "date_modified": "2024-01-29T16:52:56.000",
    "request_status": "Pending",
    "responsible_agency": "Department of Public Works",
    "final_address": "838 Washington Ave",
    "address_councildis": "B",
    "status": "Pending",
    "rowid": "1064433",
    "final_x": "3677455.24053",
    "final_y": "520136.904568",
    "longitude": "-90.08123499181791",
    "latitude": "29.924318114411545",
    "geocoded_column": {
      "latitude": "29.924318114411545",
      "longitude": "-90.08123499181791"
    }
  },
  {
    "service_request": "2024-1064432",
    "request_type": "Abandoned Vehicles",
    "request_reason": "Abandoned/Junk Vehicles",
    "date_created": "2024-01-29T16:50:41.000",
    "date_modified": "2024-01-29T16:50:41.000",
    "request_status": "Pending",
    "responsible_agency": "Department of Public Works",
    "final_address": "HUDSON ST & KANSAS ST",
    "address_councildis": "C",
    "status": "Pending",
    "rowid": "1064432",
    "final_x": "3694342.1",
    "final_y": "520192.58",
    "longitude": "-90.02792726854274",
    "latitude": "29.923953009739687",
    "geocoded_column": {
      "latitude": "29.923953009739687",
      "longitude": "-90.02792726854274"
    }
  },
  {
    "service_request": "2024-1064431",
    "request_type": "Trash/Recycling",
    "request_reason": "Order Trash Cart",
    "date_created": "2024-01-29T16:50:03.000",
    "date_modified": "2024-01-29T16:50:04.000",
    "request_status": "Pending",
    "responsible_agency": "Department of Sanitation",
    "final_address": "3700 Martin Luther King, Jr. Blvd",
    "address_councildis": "B",
    "status": "Assigned to Contractor",
    "contractor": "Richards Disposal",
    "rowid": "1064431",
    "final_x": "3672892.69006",
    "final_y": "529423.131201",
    "longitude": "-90.09532069649977",
    "latitude": "29.949988519329466",
    "geocoded_column": {
      "latitude": "29.949988519329466",
      "longitude": "-90.09532069649977"
    }
  },
  {
    "service_request": "2024-1064430",
    "request_type": "Parks & Parkways",
    "request_reason": "Request Tree Service (Right of Way/Public Property)",
    "date_created": "2024-01-29T16:47:38.000",
    "date_modified": "2024-01-29T16:48:33.000",
    "request_status": "Pending",
    "responsible_agency": "Department of Parks & Parkway",
    "final_address": "2801 Memorial Park Dr",
    "address_councildis": "C",
    "status": "Pending",
    "rowid": "1064430",
    "final_x": "3693396.85206",
    "final_y": "520503.756728",
    "longitude": "-90.03089989990372",
    "latitude": "29.924838217467773",
    "geocoded_column": {
      "latitude": "29.924838217467773",
      "longitude": "-90.03089989990372"
    }
  },
  {
    "service_request": "2024-1064429",
    "request_type": "Traffic Signals/Signs/Striping/Streetlights",
    "request_reason": "Street Light Outage/Malfunction",
    "date_created": "2024-01-29T16:46:07.000",
    "date_modified": "2024-01-29T16:46:08.000",
    "request_status": "Pending",
    "responsible_agency": "Department of Public Works",
    "final_address": "3937 Gibson St",
    "address_councildis": "D",
    "status": "Assigned to Contractor",
    "contractor": "Legacy Professional Services",
    "rowid": "1064429",
    "final_x": "3678841.99778",
    "final_y": "546759.953489",
    "longitude": "-90.07593526179478",
    "latitude": "29.997480730138058",
    "geocoded_column": {
      "latitude": "29.997480730138058",
      "longitude": "-90.07593526179478"
    }
  },
  {
    "service_request": "2024-1064428",
    "request_type": "Trash/Recycling",
    "request_reason": "Request a Large Item Pick Up",
    "date_created": "2024-01-29T16:39:45.000",
    "date_modified": "2024-01-29T16:39:45.000",
    "request_status": "Pending",
    "responsible_agency": "Department of Sanitation",
    "final_address": "2901 Pauger St",
    "address_councildis": "D",
    "status": "Assigned to Contractor",
    "contractor": "IV Waste",
    "rowid": "1064428",
    "final_x": "3683577.9501",
    "final_y": "540294.352779",
    "longitude": "-90.06120131288793",
    "latitude": "29.979558866237568",
    "geocoded_column": {
      "latitude": "29.979558866237568",
      "longitude": "-90.06120131288793"
    }
  },
  {
    "service_request": "2024-1064427",
    "request_type": "Trash/Recycling",
    "request_reason": "Illegal Dumping",
    "date_created": "2024-01-29T16:39:35.000",
    "date_modified": "2024-01-29T16:39:59.000",
    "request_status": "Pending",
    "responsible_agency": "Department of Sanitation",
    "final_address": "1125 Royal St",
    "address_councildis": "C",
    "status": "Pending",
    "rowid": "1064427",
    "final_x": "3683537.95714",
    "final_y": "533806.859333",
    "longitude": "-90.06155504795082",
    "latitude": "29.961721729306472",
    "geocoded_column": {
      "latitude": "29.961721729306472",
      "longitude": "-90.06155504795082"
    }
  },
  {
    "service_request": "2024-1064426",
    "request_type": "Property Maintenance",
    "request_reason": "Property Maintenance",
    "date_created": "2024-01-29T16:38:40.000",
    "date_modified": "2024-01-29T16:38:40.000",
    "request_status": "Pending",
    "responsible_agency": "Department of Code Enforcement",
    "final_address": "3014 Holiday Dr",
    "address_councildis": "C",
    "status": "Pending",
    "rowid": "1064426",
    "final_x": "3698875.24714",
    "final_y": "519797.701432",
    "longitude": "-90.01363218845437",
    "latitude": "29.922724446032788",
    "geocoded_column": {
      "latitude": "29.922724446032788",
      "longitude": "-90.01363218845437"
    }
  },
  {
    "service_request": "2024-1064425",
    "request_type": "Traffic Signals/Signs/Striping/Streetlights",
    "request_reason": "Traffic Signal Malfunctioning/Damaged",
    "date_created": "2024-01-29T16:37:39.000",
    "date_modified": "2024-01-29T16:37:40.000",
    "request_status": "Pending",
    "responsible_agency": "Department of Public Works",
    "final_address": "WASHINGTON AVE & PINE ST",
    "address_councildis": "B",
    "status": "Pending",
    "rowid": "1064425",
    "final_x": "3669059.4",
    "final_y": "534199.78",
    "longitude": "-90.10726283326873",
    "latitude": "29.963236055326554",
    "geocoded_column": {
      "latitude": "29.963236055326554",
      "longitude": "-90.10726283326873"
    }
  },
  {
    "service_request": "2024-1064424",
    "request_type": "Abandoned Vehicles",
    "request_reason": "Abandoned/Junk Vehicles",
    "date_created": "2024-01-29T16:29:54.000",
    "date_modified": "2024-01-29T16:29:54.000",
    "request_status": "Pending",
    "responsible_agency": "Department of Public Works",
    "final_address": "2828 Freret St",
    "address_councildis": "B",
    "status": "Pending",
    "rowid": "1064424",
    "final_x": "3673766.40219",
    "final_y": "524980.836989",
    "longitude": "-90.09271384193359",
    "latitude": "29.937747682930386",
    "geocoded_column": {
      "latitude": "29.937747682930386",
      "longitude": "-90.09271384193359"
    }
  },
  {
    "service_request": "2024-1064423",
    "request_type": "Traffic Signals/Signs/Striping/Streetlights",
    "request_reason": "Street Light Outage/Malfunction",
    "date_created": "2024-01-29T16:28:57.000",
    "date_modified": "2024-01-29T16:28:57.000",
    "request_status": "Pending",
    "responsible_agency": "Department of Public Works",
    "final_address": "4942 Corinne St",
    "address_councildis": "E",
    "status": "Assigned to Contractor",
    "contractor": "Legacy Professional Services",
    "rowid": "1064423",
    "final_x": "3714867.39941",
    "final_y": "557719.169627",
    "longitude": "-89.96171899684659",
    "latitude": "30.02647808930941",
    "geocoded_column": {
      "latitude": "30.02647808930941",
      "longitude": "-89.96171899684659"
    }
  },
  {
    "service_request": "2024-1064422",
    "request_type": "Trash/Recycling",
    "request_reason": "Request a Large Item Pick Up",
    "date_created": "2024-01-29T16:27:33.000",
    "date_modified": "2024-01-29T16:27:33.000",
    "request_status": "Pending",
    "responsible_agency": "Department of Sanitation",
    "final_address": "4783 Citrus Dr",
    "address_councildis": "E",
    "status": "Assigned to Contractor",
    "contractor": "Waste Pro",
    "rowid": "1064422",
    "final_x": "3710824.87998",
    "final_y": "556092.008346",
    "longitude": "-89.97455374754624",
    "latitude": "30.02213647123841",
    "geocoded_column": {
      "latitude": "30.02213647123841",
      "longitude": "-89.97455374754624"
    }
  },
  {
    "service_request": "2024-1064421",
    "request_type": "Trash/Recycling",
    "request_reason": "Request a Large Item Pick Up",
    "date_created": "2024-01-29T16:21:41.000",
    "date_modified": "2024-01-29T16:21:41.000",
    "request_status": "Pending",
    "responsible_agency": "Department of Sanitation",
    "final_address": "2622 Fern St",
    "address_councildis": "A",
    "status": "Assigned to Contractor",
    "contractor": "Richards Disposal",
    "rowid": "1064421",
    "final_x": "3665983.94772",
    "final_y": "531776.887171",
    "longitude": "-90.11705601129128",
    "latitude": "29.95666402223682",
    "geocoded_column": {
      "latitude": "29.95666402223682",
      "longitude": "-90.11705601129128"
    }
  },
  {
    "service_request": "2024-1064420",
    "request_type": "Trash/Recycling",
    "request_reason": "Request a Large Item Pick Up",
    "date_created": "2024-01-29T16:18:48.000",
    "date_modified": "2024-01-29T16:18:49.000",
    "request_status": "Pending",
    "responsible_agency": "Department of Sanitation",
    "final_address": "212 34Th St",
    "address_councildis": "A",
    "status": "Assigned to Contractor",
    "contractor": "IV Waste",
    "rowid": "1064420",
    "final_x": "3665562.65722",
    "final_y": "551293.341269",
    "longitude": "-90.11773252929713",
    "latitude": "30.01033998009432",
    "geocoded_column": {
      "latitude": "30.01033998009432",
      "longitude": "-90.11773252929713"
    }
  },
  {
    "service_request": "2024-1064419",
    "request_type": "Trash/Recycling",
    "request_reason": "Request a Large Item Pick Up",
    "date_created": "2024-01-29T16:13:01.000",
    "date_modified": "2024-01-29T16:13:02.000",
    "request_status": "Pending",
    "responsible_agency": "Department of Sanitation",
    "final_address": "5415 Burgundy St",
    "address_councildis": "E",
    "status": "Assigned to Contractor",
    "contractor": "Waste Pro",
    "rowid": "1064419",
    "final_x": "3697082.16797",
    "final_y": "533198.77082",
    "longitude": "-90.01880690380933",
    "latitude": "29.959629399258237",
    "geocoded_column": {
      "latitude": "29.959629399258237",
      "longitude": "-90.01880690380933"
    }
  },
  {
    "service_request": "2024-1064418",
    "request_type": "Trash/Recycling",
    "request_reason": "Repair Recycling Cart",
    "date_created": "2024-01-29T16:10:43.000",
    "date_modified": "2024-01-29T16:10:44.000",
    "request_status": "Pending",
    "responsible_agency": "Department of Sanitation",
    "final_address": "721 Felicity St",
    "address_councildis": "B",
    "status": "Pending",
    "rowid": "1064418",
    "final_x": "3681156.25493",
    "final_y": "521918.436154",
    "longitude": "-90.06949014967499",
    "latitude": "29.929105020021254",
    "geocoded_column": {
      "latitude": "29.929105020021254",
      "longitude": "-90.06949014967499"
    }
  },
  {
    "service_request": "2024-1064417",
    "request_type": "Trash/Recycling",
    "request_reason": "Replace Trash Cart",
    "date_created": "2024-01-29T16:09:56.000",
    "date_modified": "2024-01-29T16:09:56.000",
    "request_status": "Pending",
    "responsible_agency": "Department of Sanitation",
    "final_address": "721 Felicity St",
    "address_councildis": "B",
    "status": "Assigned to Contractor",
    "contractor": "Richards Disposal",
    "rowid": "1064417",
    "final_x": "3681156.25493",
    "final_y": "521918.436154",
    "longitude": "-90.06949014967499",
    "latitude": "29.929105020021254",
    "geocoded_column": {
      "latitude": "29.929105020021254",
      "longitude": "-90.06949014967499"
    }
  },
  {
    "service_request": "2024-1064416",
    "request_type": "Trash/Recycling",
    "request_reason": "Request a Large Item Pick Up",
    "date_created": "2024-01-29T16:08:06.000",
    "date_modified": "2024-01-29T16:08:06.000",
    "request_status": "Pending",
    "responsible_agency": "Department of Sanitation",
    "final_address": "44 Marywood Ct",
    "address_councildis": "E",
    "status": "Assigned to Contractor",
    "contractor": "Waste Pro",
    "rowid": "1064416",
    "final_x": "3712233.94373",
    "final_y": "567025.747748",
    "longitude": "-89.96969035871096",
    "latitude": "30.052153862366005",
    "geocoded_column": {
      "latitude": "30.052153862366005",
      "longitude": "-89.96969035871096"
    }
  },
  {
    "service_request": "2024-1064415",
    "request_type": "Trash/Recycling",
    "request_reason": "Request a Large Item Pick Up",
    "date_created": "2024-01-29T16:06:13.000",
    "date_modified": "2024-01-29T16:06:13.000",
    "request_status": "Pending",
    "responsible_agency": "Department of Sanitation",
    "final_address": "614 Verret St",
    "address_councildis": "C",
    "status": "Assigned to Contractor",
    "contractor": "Richards Disposal",
    "rowid": "1064415",
    "final_x": "3687091.40508",
    "final_y": "529358.703873",
    "longitude": "-90.05049112577544",
    "latitude": "29.94938190602061",
    "geocoded_column": {
      "latitude": "29.94938190602061",
      "longitude": "-90.05049112577544"
    }
  },
  {
    "service_request": "2024-1064414",
    "request_type": "Trash/Recycling",
    "request_reason": "Request a Large Item Pick Up",
    "date_created": "2024-01-29T16:03:40.000",
    "date_modified": "2024-01-29T16:03:41.000",
    "request_status": "Pending",
    "responsible_agency": "Department of Sanitation",
    "final_address": "4801 Coliseum St",
    "address_councildis": "B",
    "status": "Assigned to Contractor",
    "contractor": "Richards Disposal",
    "rowid": "1064414",
    "final_x": "3669454.4635",
    "final_y": "519710.223928",
    "longitude": "-90.10650516898384",
    "latitude": "29.92338285002891",
    "geocoded_column": {
      "latitude": "29.92338285002891",
      "longitude": "-90.10650516898384"
    }
  },
  {
    "service_request": "2024-1064413",
    "request_type": "Trash/Recycling",
    "request_reason": "MIssed Recycling Pick-Up",
    "date_created": "2024-01-29T16:03:24.000",
    "date_modified": "2024-01-29T17:13:31.000",
    "case_close_date": "2024-01-29T11:13:31.000",
    "request_status": "Closed",
    "responsible_agency": "Department of Sanitation",
    "final_address": "2409 Laharpe St",
    "address_councildis": "D",
    "status": "Assigned to Contractor",
    "contractor": "IV Waste",
    "contractor_action": "Completed",
    "rowid": "1064413",
    "final_x": "3679660.6404",
    "final_y": "539297.336138",
    "longitude": "-90.07360836750955",
    "latitude": "29.97693641861924",
    "geocoded_column": {
      "latitude": "29.97693641861924",
      "longitude": "-90.07360836750955"
    }
  },
  {
    "service_request": "2024-1064412",
    "request_type": "Abandoned Vehicles",
    "request_reason": "Abandoned/Junk Vehicles",
    "date_created": "2024-01-29T16:00:47.000",
    "date_modified": "2024-01-29T16:03:39.000",
    "request_status": "Pending",
    "responsible_agency": "Department of Public Works",
    "final_address": "2501 Joliet St",
    "address_councildis": "A",
    "status": "Pending",
    "rowid": "1064412",
    "final_x": "3664119.94759",
    "final_y": "532806.462724",
    "longitude": "-90.12290760454447",
    "latitude": "29.95954929230629",
    "geocoded_column": {
      "latitude": "29.95954929230629",
      "longitude": "-90.12290760454447"
    }
  },
  {
    "service_request": "2024-1064411",
    "request_type": "Safety & Permits",
    "request_reason": "Licenses & Permits",
    "date_created": "2024-01-29T15:55:18.000",
    "date_modified": "2024-01-29T15:55:18.000",
    "request_status": "Pending",
    "responsible_agency": "Safety and Permits",
    "final_address": "3521 S Liberty St",
    "address_councildis": "B",
    "status": "Pending",
    "rowid": "1064411",
    "final_x": "3672647.33096",
    "final_y": "523664.740667",
    "longitude": "-90.09629170188363",
    "latitude": "29.934162113601985",
    "geocoded_column": {
      "latitude": "29.934162113601985",
      "longitude": "-90.09629170188363"
    }
  },
  {
    "service_request": "2024-1064410",
    "request_type": "Trash/Recycling",
    "request_reason": "Request a Large Item Pick Up",
    "date_created": "2024-01-29T15:54:21.000",
    "date_modified": "2024-01-29T15:54:21.000",
    "request_status": "Pending",
    "responsible_agency": "Department of Sanitation",
    "final_address": "3727 Iberville St",
    "address_councildis": "B",
    "status": "Assigned to Contractor",
    "contractor": "Richards Disposal",
    "rowid": "1064410",
    "final_x": "3672468.49921",
    "final_y": "537946.704265",
    "longitude": "-90.09636953556661",
    "latitude": "29.97343809339872",
    "geocoded_column": {
      "latitude": "29.97343809339872",
      "longitude": "-90.09636953556661"
    }
  },
  {
    "service_request": "2024-1064409",
    "request_type": "Trash/Recycling",
    "request_reason": "Request a Large Item Pick Up",
    "date_created": "2024-01-29T15:52:03.000",
    "date_modified": "2024-01-29T15:52:04.000",
    "request_status": "Pending",
    "responsible_agency": "Department of Sanitation",
    "final_address": "7451 Bullard Ave",
    "address_councildis": "E",
    "status": "Assigned to Contractor",
    "contractor": "Waste Pro",
    "rowid": "1064409",
    "final_x": "3713565.55685",
    "final_y": "566964.363812",
    "longitude": "-89.96548388924016",
    "latitude": "30.051941440478178",
    "geocoded_column": {
      "latitude": "30.051941440478178",
      "longitude": "-89.96548388924016"
    }
  },
  {
    "service_request": "2024-1064408",
    "request_type": "Trash/Recycling",
    "request_reason": "Repair Trash Cart",
    "date_created": "2024-01-29T15:47:52.000",
    "date_modified": "2024-01-29T15:47:52.000",
    "request_status": "Pending",
    "responsible_agency": "Department of Sanitation",
    "final_address": "2023 Cadiz St",
    "address_councildis": "B",
    "status": "Assigned to Contractor",
    "contractor": "Richards Disposal",
    "rowid": "1064408",
    "final_x": "3669979.08078",
    "final_y": "522427.82329",
    "longitude": "-90.1047571662956",
    "latitude": "29.930839925956978",
    "geocoded_column": {
      "latitude": "29.930839925956978",
      "longitude": "-90.1047571662956"
    }
  },
  {
    "service_request": "2024-1064407",
    "request_type": "Trash/Recycling",
    "request_reason": "Illegal Dumping",
    "date_created": "2024-01-29T15:46:15.000",
    "date_modified": "2024-01-29T15:46:15.000",
    "request_status": "Pending",
    "responsible_agency": "Department of Sanitation",
    "final_address": "3100 BLK Baudin St",
    "address_councildis": "B",
    "status": "Pending",
    "rowid": "1064407",
    "final_x": "3673000.97023",
    "final_y": "534870.854259",
    "longitude": "-90.09479287902121",
    "latitude": "29.96496472737982",
    "geocoded_column": {
      "latitude": "29.96496472737982",
      "longitude": "-90.09479287902121"
    }
  },
  {
    "service_request": "2024-1064406",
    "request_type": "Trash/Recycling",
    "request_reason": "Order Trash Cart",
    "date_created": "2024-01-29T15:44:48.000",
    "date_modified": "2024-01-29T15:44:48.000",
    "request_status": "Pending",
    "responsible_agency": "Department of Sanitation",
    "final_address": "913 N Gayoso St Apt 2A",
    "address_councildis": "A",
    "status": "Assigned to Contractor",
    "contractor": "Richards Disposal",
    "rowid": "1064406",
    "final_x": "3676199.32245",
    "final_y": "538382.582153",
    "longitude": "-90.08457180770547",
    "latitude": "29.974525338186915",
    "geocoded_column": {
      "latitude": "29.974525338186915",
      "longitude": "-90.08457180770547"
    }
  },
  {
    "service_request": "2024-1064405",
    "request_type": "Trash/Recycling",
    "request_reason": "Order Trash Cart",
    "date_created": "2024-01-29T15:44:05.000",
    "date_modified": "2024-01-29T15:44:05.000",
    "request_status": "Pending",
    "responsible_agency": "Department of Sanitation",
    "final_address": "913 N Gayoso St Apt 1A",
    "address_councildis": "A",
    "status": "Assigned to Contractor",
    "contractor": "Richards Disposal",
    "rowid": "1064405",
    "final_x": "3676208.96091",
    "final_y": "538375.009097",
    "longitude": "-90.08454162775239",
    "latitude": "29.974504226040906",
    "geocoded_column": {
      "latitude": "29.974504226040906",
      "longitude": "-90.08454162775239"
    }
  },
  {
    "service_request": "2024-1064404",
    "request_type": "Trash/Recycling",
    "request_reason": "Repair Trash Cart",
    "date_created": "2024-01-29T15:43:50.000",
    "date_modified": "2024-01-29T15:43:50.000",
    "request_status": "Pending",
    "responsible_agency": "Department of Sanitation",
    "final_address": "2643 Prancer St",
    "address_councildis": "C",
    "status": "Assigned to Contractor",
    "contractor": "Richards Disposal",
    "rowid": "1064404",
    "final_x": "3699530.05188",
    "final_y": "521107.781625",
    "longitude": "-90.01151753768845",
    "latitude": "29.926305964039166",
    "geocoded_column": {
      "latitude": "29.926305964039166",
      "longitude": "-90.01151753768845"
    }
  },
  {
    "service_request": "2024-1064403",
    "request_type": "Trash/Recycling",
    "request_reason": "Order Trash Cart",
    "date_created": "2024-01-29T15:43:34.000",
    "date_modified": "2024-01-29T15:43:35.000",
    "request_status": "Pending",
    "responsible_agency": "Department of Sanitation",
    "final_address": "3001 Dumaine St Apt 1B",
    "address_councildis": "A",
    "status": "Assigned to Contractor",
    "contractor": "Richards Disposal",
    "rowid": "1064403",
    "final_x": "3676156.98197",
    "final_y": "538329.914761",
    "longitude": "-90.08470734188978",
    "latitude": "29.974381789595522",
    "geocoded_column": {
      "latitude": "29.974381789595522",
      "longitude": "-90.08470734188978"
    }
  },
  {
    "service_request": "2024-1064402",
    "request_type": "Trash/Recycling",
    "request_reason": "Order Trash Cart",
    "date_created": "2024-01-29T15:43:16.000",
    "date_modified": "2024-01-29T15:43:16.000",
    "request_status": "Pending",
    "responsible_agency": "Department of Sanitation",
    "final_address": "3001 Dumaine St Apt 1A",
    "address_councildis": "A",
    "status": "Assigned to Contractor",
    "contractor": "Richards Disposal",
    "rowid": "1064402",
    "final_x": "3676167.99739",
    "final_y": "538320.964745",
    "longitude": "-90.08467286057149",
    "latitude": "29.97435685005207",
    "geocoded_column": {
      "latitude": "29.97435685005207",
      "longitude": "-90.08467286057149"
    }
  },
  {
    "service_request": "2024-1064401",
    "request_type": "Trash/Recycling",
    "request_reason": "Request a Large Item Pick Up",
    "date_created": "2024-01-29T15:41:33.000",
    "date_modified": "2024-01-29T15:41:34.000",
    "request_status": "Pending",
    "responsible_agency": "Department of Sanitation",
    "final_address": "3828 Laurel St, New Orleans, Louisiana, 70115",
    "address_councildis": "B",
    "status": "Assigned to Contractor",
    "contractor": "Richards Disposal",
    "rowid": "1064401",
    "final_x": "3673342.09819",
    "final_y": "518244.30079",
    "longitude": "-90.09428338366574",
    "latitude": "29.919237004757253",
    "geocoded_column": {
      "latitude": "29.919237004757253",
      "longitude": "-90.09428338366574"
    }
  },
  {
    "service_request": "2024-1064400",
    "request_type": "Trash/Recycling",
    "request_reason": "Order Recycling Cart",
    "date_created": "2024-01-29T15:41:32.000",
    "date_modified": "2024-01-29T15:41:33.000",
    "request_status": "Pending",
    "responsible_agency": "Department of Sanitation",
    "final_address": "221 Whitney Ave",
    "address_councildis": "C",
    "status": "Pending",
    "rowid": "1064400",
    "final_x": "3690213.06876",
    "final_y": "530864.66381",
    "longitude": "-90.04058102679797",
    "latitude": "29.953426309256123",
    "geocoded_column": {
      "latitude": "29.953426309256123",
      "longitude": "-90.04058102679797"
    }
  },
  {
    "service_request": "2024-1064399",
    "request_type": "Trash/Recycling",
    "request_reason": "Request a Large Item Pick Up",
    "date_created": "2024-01-29T15:40:11.000",
    "date_modified": "2024-01-29T17:01:28.000",
    "case_close_date": "2024-01-29T11:01:28.000",
    "request_status": "Closed",
    "responsible_agency": "Department of Sanitation",
    "final_address": "7811 Allison Rd",
    "address_councildis": "E",
    "status": "Duplicate Request",
    "contractor": "Waste Pro",
    "contractor_action": "duplicate",
    "rowid": "1064399",
    "final_x": "3699905.67204",
    "final_y": "561066.477534",
    "longitude": "-90.00887380920388",
    "latitude": "30.036165856668973",
    "geocoded_column": {
      "latitude": "30.036165856668973",
      "longitude": "-90.00887380920388"
    }
  },
  {
    "service_request": "2024-1064398",
    "request_type": "Roads/Drainage",
    "request_reason": "Pothole",
    "date_created": "2024-01-29T15:37:49.000",
    "date_modified": "2024-01-29T15:37:49.000",
    "request_status": "Pending",
    "responsible_agency": "Department of Public Works",
    "final_address": "1301 Constantinople St",
    "address_councildis": "B",
    "status": "Pending",
    "rowid": "1064398",
    "final_x": "3672430.66305",
    "final_y": "520250.7726",
    "longitude": "-90.09709199725775",
    "latitude": "29.924781230435865",
    "geocoded_column": {
      "latitude": "29.924781230435865",
      "longitude": "-90.09709199725775"
    }
  },
  {
    "service_request": "2024-1064397",
    "request_type": "Traffic Signals/Signs/Striping/Streetlights",
    "request_reason": "Traffic Signal Malfunctioning/Damaged",
    "date_created": "2024-01-29T15:35:13.000",
    "date_modified": "2024-01-29T15:35:13.000",
    "request_status": "Pending",
    "responsible_agency": "Department of Public Works",
    "final_address": "ELYSIAN FIELDS AVE & GENTILLY BLVD",
    "address_councildis": "D",
    "status": "Pending",
    "rowid": "1064397",
    "final_x": "3684059.79",
    "final_y": "547584.11",
    "longitude": "-90.05942349799389",
    "latitude": "29.99958839427118",
    "geocoded_column": {
      "latitude": "29.99958839427118",
      "longitude": "-90.05942349799389"
    }
  },
  {
    "service_request": "2024-1064396",
    "request_type": "Abandoned Vehicles",
    "request_reason": "Abandoned/Junk Vehicles",
    "date_created": "2024-01-29T15:33:54.000",
    "date_modified": "2024-01-29T15:33:54.000",
    "request_status": "Pending",
    "responsible_agency": "Department of Public Works",
    "final_address": "I 510 S & LAKE FOREST BLVD",
    "address_councildis": "E",
    "status": "Inspected",
    "rowid": "1064396",
    "final_x": "3721849.53",
    "final_y": "563782.6",
    "longitude": "-89.93942347403858",
    "latitude": "30.042918393447007",
    "geocoded_column": {
      "latitude": "30.042918393447007",
      "longitude": "-89.93942347403858"
    }
  },
  {
    "service_request": "2024-1064395",
    "request_type": "Trash/Recycling",
    "request_reason": "Request a Large Item Pick Up",
    "date_created": "2024-01-29T15:33:43.000",
    "date_modified": "2024-01-29T15:33:44.000",
    "request_status": "Pending",
    "responsible_agency": "Department of Sanitation",
    "final_address": "7811 Allison Rd",
    "address_councildis": "E",
    "status": "Assigned to Contractor",
    "contractor": "Waste Pro",
    "rowid": "1064395",
    "final_x": "3699905.67204",
    "final_y": "561066.477534",
    "longitude": "-90.00887380920388",
    "latitude": "30.036165856668973",
    "geocoded_column": {
      "latitude": "30.036165856668973",
      "longitude": "-90.00887380920388"
    }
  },
  {
    "service_request": "2024-1064394",
    "request_type": "Roads/Drainage",
    "request_reason": "Pothole",
    "date_created": "2024-01-29T15:30:42.000",
    "date_modified": "2024-01-29T15:30:42.000",
    "request_status": "Pending",
    "responsible_agency": "Department of Public Works",
    "final_address": "1312 Milan St",
    "address_councildis": "B",
    "status": "Pending",
    "rowid": "1064394",
    "final_x": "3671625.82823",
    "final_y": "520286.919608",
    "longitude": "-90.09963137110304",
    "latitude": "29.92490447494246",
    "geocoded_column": {
      "latitude": "29.92490447494246",
      "longitude": "-90.09963137110304"
    }
  },
  {
    "service_request": "2024-1064393",
    "request_type": "Abandoned Vehicles",
    "request_reason": "Abandoned/Junk Vehicles",
    "date_created": "2024-01-29T15:28:05.000",
    "date_modified": "2024-01-29T15:28:05.000",
    "request_status": "Pending",
    "responsible_agency": "Department of Public Works",
    "final_address": "5400 BLK Garfield St",
    "address_councildis": "A",
    "status": "Pending",
    "rowid": "1064393",
    "final_x": "3667090.8295",
    "final_y": "521077.314917",
    "longitude": "-90.11392037520632",
    "latitude": "29.927211292506133",
    "geocoded_column": {
      "latitude": "29.927211292506133",
      "longitude": "-90.11392037520632"
    }
  },
  {
    "service_request": "2024-1064391",
    "request_type": "Roads/Drainage",
    "request_reason": "WaterMain Break",
    "date_created": "2024-01-29T15:23:32.000",
    "date_modified": "2024-01-29T15:23:32.000",
    "request_status": "Pending",
    "responsible_agency": "Department of Public Works",
    "final_address": "908 N Robertson St",
    "address_councildis": "C",
    "status": "Pending",
    "rowid": "1064391",
    "final_x": "3680590.25979",
    "final_y": "534996.071366",
    "longitude": "-90.0708220144134",
    "latitude": "29.965081287114533",
    "geocoded_column": {
      "latitude": "29.965081287114533",
      "longitude": "-90.0708220144134"
    }
  },
  {
    "service_request": "2024-1064390",
    "request_type": "Trash/Recycling",
    "request_reason": "Repair Trash Cart",
    "date_created": "2024-01-29T15:20:13.000",
    "date_modified": "2024-01-29T15:20:13.000",
    "request_status": "Pending",
    "responsible_agency": "Department of Sanitation",
    "final_address": "13710 Lourdes St",
    "address_councildis": "E",
    "status": "Assigned to Contractor",
    "contractor": "Waste Pro",
    "rowid": "1064390",
    "final_x": "3727351.75763",
    "final_y": "561363.964254",
    "longitude": "-89.92212859663363",
    "latitude": "30.036082956935807",
    "geocoded_column": {
      "latitude": "30.036082956935807",
      "longitude": "-89.92212859663363"
    }
  },
  {
    "service_request": "2024-1064389",
    "request_type": "Roads/Drainage",
    "request_reason": "Pothole",
    "date_created": "2024-01-29T15:17:47.000",
    "date_modified": "2024-01-29T15:17:48.000",
    "request_status": "Pending",
    "responsible_agency": "Department of Public Works",
    "final_address": "HAYNE BLVD & PRESS DR",
    "address_councildis": "D",
    "status": "Pending",
    "rowid": "1064389",
    "final_x": "3688842.8",
    "final_y": "557721.28",
    "longitude": "-90.04395349141949",
    "latitude": "30.02731478987773",
    "geocoded_column": {
      "latitude": "30.02731478987773",
      "longitude": "-90.04395349141949"
    }
  },
  {
    "service_request": "2024-1064388",
    "request_type": "Trash/Recycling",
    "request_reason": "Order Recycling Cart",
    "date_created": "2024-01-29T15:17:42.000",
    "date_modified": "2024-01-29T15:17:42.000",
    "request_status": "Pending",
    "responsible_agency": "Department of Sanitation",
    "final_address": "3343 Esplanade Ave",
    "address_councildis": "A",
    "status": "Pending",
    "rowid": "1064388",
    "final_x": "3675778.57781",
    "final_y": "540915.894027",
    "longitude": "-90.08581351461964",
    "latitude": "29.981503677945287",
    "geocoded_column": {
      "latitude": "29.981503677945287",
      "longitude": "-90.08581351461964"
    }
  },
  {
    "service_request": "2024-1064387",
    "request_type": "Trash/Recycling",
    "request_reason": "Request a Large Item Pick Up",
    "date_created": "2024-01-29T15:11:37.000",
    "date_modified": "2024-01-29T15:11:38.000",
    "request_status": "Pending",
    "responsible_agency": "Department of Sanitation",
    "final_address": "4534 S Tonti St",
    "address_councildis": "B",
    "status": "Assigned to Contractor",
    "contractor": "Richards Disposal",
    "rowid": "1064387",
    "final_x": "3669413.49729",
    "final_y": "528031.272383",
    "longitude": "-90.10635321992936",
    "latitude": "29.94626426488464",
    "geocoded_column": {
      "latitude": "29.94626426488464",
      "longitude": "-90.10635321992936"
    }
  },
  {
    "service_request": "2024-1064386",
    "request_type": "Property Maintenance",
    "request_reason": "Property Maintenance",
    "date_created": "2024-01-29T15:08:58.000",
    "date_modified": "2024-01-29T15:08:58.000",
    "request_status": "Pending",
    "responsible_agency": "Department of Code Enforcement",
    "final_address": "7101 Warfield St",
    "address_councildis": "E",
    "status": "Pending",
    "rowid": "1064386",
    "final_x": "3701416.96778",
    "final_y": "553135.001879",
    "longitude": "-90.00438855672648",
    "latitude": "30.01430923264679",
    "geocoded_column": {
      "latitude": "30.01430923264679",
      "longitude": "-90.00438855672648"
    }
  },
  {
    "service_request": "2024-1064385",
    "request_type": "Abandoned Vehicles",
    "request_reason": "Abandoned/Junk Vehicles",
    "date_created": "2024-01-29T15:06:34.000",
    "date_modified": "2024-01-29T15:06:35.000",
    "request_status": "Pending",
    "responsible_agency": "Department of Public Works",
    "final_address": "4400 BLK Flite St",
    "address_councildis": "D",
    "status": "Pending",
    "rowid": "1064385",
    "final_x": "3696378.71482",
    "final_y": "552524.030238",
    "longitude": "-90.02032896196293",
    "latitude": "30.012788998783694",
    "geocoded_column": {
      "latitude": "30.012788998783694",
      "longitude": "-90.02032896196293"
    }
  },
  {
    "service_request": "2024-1064384",
    "request_type": "Trash/Recycling",
    "request_reason": "Request a Large Item Pick Up",
    "date_created": "2024-01-29T15:04:35.000",
    "date_modified": "2024-01-29T15:04:36.000",
    "request_status": "Pending",
    "responsible_agency": "Department of Sanitation",
    "final_address": "4811 Bundy Rd",
    "address_councildis": "E",
    "status": "Assigned to Contractor",
    "contractor": "Waste Pro",
    "rowid": "1064384",
    "final_x": "3709422.20894",
    "final_y": "556201.901914",
    "longitude": "-89.97898169089837",
    "latitude": "30.02248429661904",
    "geocoded_column": {
      "latitude": "30.02248429661904",
      "longitude": "-89.97898169089837"
    }
  },
  {
    "service_request": "2024-1064383",
    "request_type": "Trash/Recycling",
    "request_reason": "Replace Trash Cart",
    "date_created": "2024-01-29T15:01:15.000",
    "date_modified": "2024-01-29T15:01:16.000",
    "request_status": "Pending",
    "responsible_agency": "Department of Sanitation",
    "final_address": "822 Camp St",
    "address_councildis": "B",
    "status": "Assigned to Contractor",
    "contractor": "Empire Services",
    "rowid": "1064383",
    "final_x": "3680783.10402",
    "final_y": "527713.594815",
    "longitude": "-90.07046648783425",
    "latitude": "29.94505109660232",
    "geocoded_column": {
      "latitude": "29.94505109660232",
      "longitude": "-90.07046648783425"
    }
  },
  {
    "service_request": "2024-1064382",
    "request_type": "Trash/Recycling",
    "request_reason": "Request a Large Item Pick Up",
    "date_created": "2024-01-29T14:57:17.000",
    "date_modified": "2024-01-29T14:57:17.000",
    "request_status": "Pending",
    "responsible_agency": "Department of Sanitation",
    "final_address": "1239 Marais St Unit B",
    "address_councildis": "C",
    "status": "Assigned to Contractor",
    "contractor": "Richards Disposal",
    "rowid": "1064382",
    "final_x": "3681936.64642",
    "final_y": "535807.255623",
    "longitude": "-90.06654188466209",
    "latitude": "29.967270905866755",
    "geocoded_column": {
      "latitude": "29.967270905866755",
      "longitude": "-90.06654188466209"
    }
  },
  {
    "service_request": "2024-1064381",
    "request_type": "Property Maintenance",
    "request_reason": "Property Maintenance",
    "date_created": "2024-01-29T14:57:10.000",
    "date_modified": "2024-01-29T14:57:10.000",
    "request_status": "Pending",
    "responsible_agency": "Department of Code Enforcement",
    "final_address": "6304 St Claude Ave",
    "address_councildis": "E",
    "status": "Pending",
    "rowid": "1064381",
    "final_x": "3700181.99216",
    "final_y": "532966.223492",
    "longitude": "-90.00902692057063",
    "latitude": "29.958891830580338",
    "geocoded_column": {
      "latitude": "29.958891830580338",
      "longitude": "-90.00902692057063"
    }
  },
  {
    "service_request": "2024-1064380",
    "request_type": "Roads/Drainage",
    "request_reason": "Street Subsidence (Sinking)",
    "date_created": "2024-01-29T14:56:49.000",
    "date_modified": "2024-01-29T14:56:49.000",
    "request_status": "Pending",
    "responsible_agency": "Department of Public Works",
    "final_address": "4612 S Johnson St",
    "address_councildis": "B",
    "status": "Pending",
    "rowid": "1064380",
    "final_x": "3669370.82542",
    "final_y": "527080.575038",
    "longitude": "-90.10652008830537",
    "latitude": "29.9436514126069",
    "geocoded_column": {
      "latitude": "29.9436514126069",
      "longitude": "-90.10652008830537"
    }
  },
  {
    "service_request": "2024-1064379",
    "request_type": "Trash/Recycling",
    "request_reason": "Request a Large Item Pick Up",
    "date_created": "2024-01-29T14:51:07.000",
    "date_modified": "2024-01-29T14:51:07.000",
    "request_status": "Pending",
    "responsible_agency": "Department of Sanitation",
    "final_address": "4859 Laurel St",
    "address_councildis": "B",
    "status": "Assigned to Contractor",
    "contractor": "Richards Disposal",
    "rowid": "1064379",
    "final_x": "3669157.24308",
    "final_y": "517896.62943",
    "longitude": "-90.10750462974315",
    "latitude": "29.918404785447745",
    "geocoded_column": {
      "latitude": "29.918404785447745",
      "longitude": "-90.10750462974315"
    }
  },
  {
    "service_request": "2024-1064378",
    "request_type": "Trash/Recycling",
    "request_reason": "Missed Trash Pick-Up",
    "date_created": "2024-01-29T14:48:46.000",
    "date_modified": "2024-01-29T14:48:47.000",
    "request_status": "Pending",
    "responsible_agency": "Department of Sanitation",
    "final_address": "7410 ,Devine Ave ",
    "status": "Assigned to Contractor",
    "rowid": "1064378",
    "longitude": "0.0",
    "latitude": "0.0",
    "geocoded_column": {
      "latitude": "0.0",
      "longitude": "0.0"
    }
  },
  {
    "service_request": "2024-1064377",
    "request_type": "Trash/Recycling",
    "request_reason": "Repair Trash Cart",
    "date_created": "2024-01-29T14:46:34.000",
    "date_modified": "2024-01-29T14:47:05.000",
    "request_status": "Pending",
    "responsible_agency": "Department of Sanitation",
    "final_address": "1575 Calhoun St",
    "address_councildis": "A",
    "status": "Assigned to Contractor",
    "contractor": "Richards Disposal",
    "rowid": "1064377",
    "final_x": "3664841.13824",
    "final_y": "522849.299067",
    "longitude": "-90.12096292263506",
    "latitude": "29.93214932867994",
    "geocoded_column": {
      "latitude": "29.93214932867994",
      "longitude": "-90.12096292263506"
    }
  },
  {
    "service_request": "2024-1064376",
    "request_type": "Trash/Recycling",
    "request_reason": "Request a Large Item Pick Up",
    "date_created": "2024-01-29T14:45:43.000",
    "date_modified": "2024-01-29T14:45:44.000",
    "request_status": "Pending",
    "responsible_agency": "Department of Sanitation",
    "final_address": "23 Rail St",
    "address_councildis": "D",
    "status": "Assigned to Contractor",
    "contractor": "IV Waste",
    "rowid": "1064376",
    "final_x": "3674043.84712",
    "final_y": "557245.442715",
    "longitude": "-90.0907332893834",
    "latitude": "30.026455997672745",
    "geocoded_column": {
      "latitude": "30.026455997672745",
      "longitude": "-90.0907332893834"
    }
  },
  {
    "service_request": "2024-1064375",
    "request_type": "Trash/Recycling",
    "request_reason": "Request a Large Item Pick Up",
    "date_created": "2024-01-29T14:45:08.000",
    "date_modified": "2024-01-29T14:45:09.000",
    "request_status": "Pending",
    "responsible_agency": "Department of Sanitation",
    "final_address": "4141 Vendome Pl",
    "address_councildis": "B",
    "status": "Assigned to Contractor",
    "contractor": "Richards Disposal",
    "rowid": "1064375",
    "final_x": "3668974.60116",
    "final_y": "530705.950978",
    "longitude": "-90.10764863834834",
    "latitude": "29.953631672790085",
    "geocoded_column": {
      "latitude": "29.953631672790085",
      "longitude": "-90.10764863834834"
    }
  },
  {
    "service_request": "2024-1064374",
    "request_type": "Trash/Recycling",
    "request_reason": "Order Recycling Cart",
    "date_created": "2024-01-29T14:44:55.000",
    "date_modified": "2024-01-29T14:44:55.000",
    "request_status": "Pending",
    "responsible_agency": "Department of Sanitation",
    "final_address": "4672 Painters St",
    "address_councildis": "D",
    "status": "Pending",
    "rowid": "1064374",
    "final_x": "3686154.58607",
    "final_y": "550197.10786",
    "longitude": "-90.05271372173601",
    "latitude": "30.00670898835742",
    "geocoded_column": {
      "latitude": "30.00670898835742",
      "longitude": "-90.05271372173601"
    }
  },
  {
    "service_request": "2024-1064373",
    "request_type": "Trash/Recycling",
    "request_reason": "Missed Trash Pick-Up",
    "date_created": "2024-01-29T14:42:53.000",
    "date_modified": "2024-01-29T15:04:21.000",
    "case_close_date": "2024-01-29T09:04:21.000",
    "request_status": "Closed",
    "responsible_agency": "Department of Sanitation",
    "final_address": "335 City Park Ave",
    "address_councildis": "A",
    "status": "Invalid Request",
    "contractor": "IV Waste",
    "contractor_action": "Invalid Pick-Up",
    "rowid": "1064373",
    "final_x": "3668820.09972",
    "final_y": "541478.739916",
    "longitude": "-90.10777266463592",
    "latitude": "29.983257790875044",
    "geocoded_column": {
      "latitude": "29.983257790875044",
      "longitude": "-90.10777266463592"
    }
  },
  {
    "service_request": "2024-1064372",
    "request_type": "Trash/Recycling",
    "request_reason": "Request a Large Item Pick Up",
    "date_created": "2024-01-29T14:41:31.000",
    "date_modified": "2024-01-29T14:41:32.000",
    "request_status": "Pending",
    "responsible_agency": "Department of Sanitation",
    "final_address": "6951 Boston Dr",
    "address_councildis": "E",
    "status": "Assigned to Contractor",
    "contractor": "Waste Pro",
    "rowid": "1064372",
    "final_x": "3706572.42782",
    "final_y": "560446.603294",
    "longitude": "-89.98782874760303",
    "latitude": "30.034247875518695",
    "geocoded_column": {
      "latitude": "30.034247875518695",
      "longitude": "-89.98782874760303"
    }
  },
  {
    "service_request": "2024-1064371",
    "request_type": "Roads/Drainage",
    "request_reason": "Pothole",
    "date_created": "2024-01-29T14:37:01.000",
    "date_modified": "2024-01-29T14:37:02.000",
    "request_status": "Pending",
    "responsible_agency": "Department of Public Works",
    "final_address": "4525 Magazine St",
    "address_councildis": "B",
    "status": "Pending",
    "rowid": "1064371",
    "final_x": "3670439.77947",
    "final_y": "518768.853303",
    "longitude": "-90.1034267843184",
    "latitude": "29.920765335099635",
    "geocoded_column": {
      "latitude": "29.920765335099635",
      "longitude": "-90.1034267843184"
    }
  },
  {
    "service_request": "2024-1064370",
    "request_type": "Trash/Recycling",
    "request_reason": "Request a Large Item Pick Up",
    "date_created": "2024-01-29T14:33:03.000",
    "date_modified": "2024-01-29T14:33:04.000",
    "request_status": "Pending",
    "responsible_agency": "Department of Sanitation",
    "final_address": "3811 Red Cypress Dr",
    "address_councildis": "C",
    "status": "Assigned to Contractor",
    "contractor": "Richards Disposal",
    "rowid": "1064370",
    "final_x": "3703630.7347",
    "final_y": "512166.636465",
    "longitude": "-89.99890164242139",
    "latitude": "29.901590172061162",
    "geocoded_column": {
      "latitude": "29.901590172061162",
      "longitude": "-89.99890164242139"
    }
  },
  {
    "service_request": "2024-1064369",
    "request_type": "Traffic Signals/Signs/Striping/Streetlights",
    "request_reason": "Traffic Signal Malfunctioning/Damaged",
    "date_created": "2024-01-29T14:31:52.000",
    "date_modified": "2024-01-29T14:31:53.000",
    "request_status": "Pending",
    "responsible_agency": "Department of Public Works",
    "final_address": "TENNESSEE ST & N CLAIBORNE AVE",
    "address_councildis": "E",
    "status": "Pending",
    "rowid": "1064369",
    "final_x": "3696177.3",
    "final_y": "536095.98",
    "longitude": "-90.02155951871875",
    "latitude": "29.967624209323066",
    "geocoded_column": {
      "latitude": "29.967624209323066",
      "longitude": "-90.02155951871875"
    }
  },
  {
    "service_request": "2024-1064368",
    "request_type": "Trash/Recycling",
    "request_reason": "Order Recycling Cart",
    "date_created": "2024-01-29T14:31:16.000",
    "date_modified": "2024-01-29T14:31:16.000",
    "request_status": "Pending",
    "responsible_agency": "Department of Sanitation",
    "final_address": "7725 Reindeer St",
    "address_councildis": "E",
    "status": "Pending",
    "rowid": "1064368",
    "final_x": "3716778.63493",
    "final_y": "571135.036392",
    "longitude": "-89.95516990323584",
    "latitude": "30.063303209487138",
    "geocoded_column": {
      "latitude": "30.063303209487138",
      "longitude": "-89.95516990323584"
    }
  },
  {
    "service_request": "2024-1064367",
    "request_type": "Trash/Recycling",
    "request_reason": "Request a Large Item Pick Up",
    "date_created": "2024-01-29T14:30:54.000",
    "date_modified": "2024-01-29T14:30:54.000",
    "request_status": "Pending",
    "responsible_agency": "Department of Sanitation",
    "final_address": "4117 Royal St",
    "address_councildis": "C",
    "status": "Assigned to Contractor",
    "contractor": "IV Waste",
    "rowid": "1064367",
    "final_x": "3691885.21865",
    "final_y": "533723.187717",
    "longitude": "-90.03519885332648",
    "latitude": "29.961234274157846",
    "geocoded_column": {
      "latitude": "29.961234274157846",
      "longitude": "-90.03519885332648"
    }
  },
  {
    "service_request": "2024-1064366",
    "request_type": "Trash/Recycling",
    "request_reason": "Replace Trash Cart",
    "date_created": "2024-01-29T14:30:41.000",
    "date_modified": "2024-01-29T14:30:42.000",
    "request_status": "Pending",
    "responsible_agency": "Department of Sanitation",
    "final_address": "1630 Behrman Ave",
    "address_councildis": "C",
    "status": "Assigned to Contractor",
    "contractor": "Richards Disposal",
    "rowid": "1064366",
    "final_x": "3691369.10896",
    "final_y": "525284.859901",
    "longitude": "-90.03713006365905",
    "latitude": "29.93804785316977",
    "geocoded_column": {
      "latitude": "29.93804785316977",
      "longitude": "-90.03713006365905"
    }
  },
  {
    "service_request": "2024-1064365",
    "request_type": "Trash/Recycling",
    "request_reason": "Replace Recycling Cart",
    "date_created": "2024-01-29T14:30:31.000",
    "date_modified": "2024-01-29T14:30:31.000",
    "request_status": "Pending",
    "responsible_agency": "Department of Sanitation",
    "final_address": "3532 Silver Maple Ct",
    "address_councildis": "C",
    "status": "Pending",
    "rowid": "1064365",
    "final_x": "3703302.57182",
    "final_y": "512548.420913",
    "longitude": "-89.99992327424533",
    "latitude": "29.902650454519577",
    "geocoded_column": {
      "latitude": "29.902650454519577",
      "longitude": "-89.99992327424533"
    }
  },
  {
    "service_request": "2024-1064364",
    "request_type": "Trash/Recycling",
    "request_reason": "Repair Trash Cart",
    "date_created": "2024-01-29T14:28:32.000",
    "date_modified": "2024-01-29T14:28:33.000",
    "request_status": "Pending",
    "responsible_agency": "Department of Sanitation",
    "final_address": "1200 Michael St",
    "address_councildis": "C",
    "status": "Assigned to Contractor",
    "contractor": "Richards Disposal",
    "rowid": "1064364",
    "final_x": "3697271.47248",
    "final_y": "526913.899454",
    "longitude": "-90.01843686913814",
    "latitude": "29.94234223502926",
    "geocoded_column": {
      "latitude": "29.94234223502926",
      "longitude": "-90.01843686913814"
    }
  },
  {
    "service_request": "2024-1064363",
    "request_type": "Trash/Recycling",
    "request_reason": "Replace Trash Cart",
    "date_created": "2024-01-29T14:26:44.000",
    "date_modified": "2024-01-29T14:26:45.000",
    "request_status": "Pending",
    "responsible_agency": "Department of Sanitation",
    "final_address": "528 Dumaine St Unit 1",
    "address_councildis": "C",
    "status": "Assigned to Contractor",
    "contractor": "Empire Services",
    "rowid": "1064363",
    "final_x": "3683396.06921",
    "final_y": "532698.316548",
    "longitude": "-90.06204194486651",
    "latitude": "29.958677945780458",
    "geocoded_column": {
      "latitude": "29.958677945780458",
      "longitude": "-90.06204194486651"
    }
  },
  {
    "service_request": "2024-1064362",
    "request_type": "Traffic Signals/Signs/Striping/Streetlights",
    "request_reason": "Street Light Outage/Malfunction",
    "date_created": "2024-01-29T14:24:19.000",
    "date_modified": "2024-01-29T14:24:38.000",
    "request_status": "Pending",
    "responsible_agency": "Department of Public Works",
    "final_address": "6900 Mayo Rd",
    "address_councildis": "E",
    "status": "Assigned to Contractor",
    "contractor": "Legacy Professional Services",
    "rowid": "1064362",
    "final_x": "3701723.91517",
    "final_y": "558115.380699",
    "longitude": "-90.00323610444852",
    "latitude": "30.027993572562416",
    "geocoded_column": {
      "latitude": "30.027993572562416",
      "longitude": "-90.00323610444852"
    }
  },
  {
    "service_request": "2024-1064361",
    "request_type": "Trash/Recycling",
    "request_reason": "Repair Trash Cart",
    "date_created": "2024-01-29T14:24:00.000",
    "date_modified": "2024-01-29T14:24:00.000",
    "request_status": "Pending",
    "responsible_agency": "Department of Sanitation",
    "final_address": "1111 Arabella St",
    "address_councildis": "A",
    "status": "Assigned to Contractor",
    "contractor": "Richards Disposal",
    "rowid": "1064361",
    "final_x": "3666111.44935",
    "final_y": "520023.693048",
    "longitude": "-90.11704734586701",
    "latitude": "29.92434278730185",
    "geocoded_column": {
      "latitude": "29.92434278730185",
      "longitude": "-90.11704734586701"
    }
  },
  {
    "service_request": "2024-1064360",
    "request_type": "Traffic Signals/Signs/Striping/Streetlights",
    "request_reason": "Street Light Outage/Malfunction",
    "date_created": "2024-01-29T14:23:35.000",
    "date_modified": "2024-01-29T14:23:36.000",
    "request_status": "Pending",
    "responsible_agency": "Department of Public Works",
    "final_address": "2740 Annette St",
    "address_councildis": "D",
    "status": "Assigned to Contractor",
    "contractor": "Legacy Professional Services",
    "rowid": "1064360",
    "final_x": "3682613.60808",
    "final_y": "542344.412365",
    "longitude": "-90.0641753714577",
    "latitude": "29.985225214619675",
    "geocoded_column": {
      "latitude": "29.985225214619675",
      "longitude": "-90.0641753714577"
    }
  },
  {
    "service_request": "2024-1064359",
    "request_type": "Roads/Drainage",
    "request_reason": "Debris in Roadway",
    "date_created": "2024-01-29T14:21:26.000",
    "date_modified": "2024-01-29T14:21:26.000",
    "request_status": "Pending",
    "responsible_agency": "Department of Public Works",
    "final_address": "2160 Florida Ave",
    "address_councildis": "D",
    "status": "Pending",
    "rowid": "1064359",
    "final_x": "3684317.93909",
    "final_y": "542389.894861",
    "longitude": "-90.05879051457502",
    "latitude": "29.985298258699665",
    "geocoded_column": {
      "latitude": "29.985298258699665",
      "longitude": "-90.05879051457502"
    }
  },
  {
    "service_request": "2024-1064358",
    "request_type": "Trash/Recycling",
    "request_reason": "Illegal Dumping",
    "date_created": "2024-01-29T14:18:33.000",
    "date_modified": "2024-01-29T14:18:33.000",
    "request_status": "Pending",
    "responsible_agency": "Department of Sanitation",
    "final_address": "5531 Baccich St",
    "address_councildis": "D",
    "status": "Pending",
    "rowid": "1064358",
    "final_x": "3687711.23158",
    "final_y": "553621.417367",
    "longitude": "-90.04767450132894",
    "latitude": "30.016076654003257",
    "geocoded_column": {
      "latitude": "30.016076654003257",
      "longitude": "-90.04767450132894"
    }
  },
  {
    "service_request": "2024-1064357",
    "request_type": "Utility Poles",
    "request_reason": "Utility Pole Leaning",
    "date_created": "2024-01-29T14:10:58.000",
    "date_modified": "2024-01-29T14:11:07.000",
    "request_status": "Pending",
    "responsible_agency": "Utility Company Collective",
    "final_address": "2500 Peniston St",
    "address_councildis": "B",
    "status": "Pending",
    "rowid": "1064357",
    "final_x": "3672038.04155",
    "final_y": "524257.110972",
    "longitude": "-90.09819505303118",
    "latitude": "29.935809013126164",
    "geocoded_column": {
      "latitude": "29.935809013126164",
      "longitude": "-90.09819505303118"
    }
  },
  {
    "service_request": "2024-1064356",
    "request_type": "Trash/Recycling",
    "request_reason": "Repair Trash Cart",
    "date_created": "2024-01-29T14:09:35.000",
    "date_modified": "2024-01-29T14:09:35.000",
    "request_status": "Pending",
    "responsible_agency": "Department of Sanitation",
    "final_address": "1501 Dufossat St",
    "address_councildis": "B",
    "status": "Assigned to Contractor",
    "contractor": "Richards Disposal",
    "rowid": "1064356",
    "final_x": "3668186.71681",
    "final_y": "520463.654776",
    "longitude": "-90.11048160048723",
    "latitude": "29.92549180818648",
    "geocoded_column": {
      "latitude": "29.92549180818648",
      "longitude": "-90.11048160048723"
    }
  },
  {
    "service_request": "2024-1064355",
    "request_type": "Trash/Recycling",
    "request_reason": "Replace Recycling Cart",
    "date_created": "2024-01-29T14:04:49.000",
    "date_modified": "2024-01-29T14:04:49.000",
    "request_status": "Pending",
    "responsible_agency": "Department of Sanitation",
    "final_address": "914 Cherokee St",
    "address_councildis": "A",
    "status": "Pending",
    "rowid": "1064355",
    "final_x": "3662892.24992",
    "final_y": "526289.703294",
    "longitude": "-90.12700105635918",
    "latitude": "29.941665905674157",
    "geocoded_column": {
      "latitude": "29.941665905674157",
      "longitude": "-90.12700105635918"
    }
  },
  {
    "service_request": "2024-1064354",
    "request_type": "Trash/Recycling",
    "request_reason": "Replace Trash Cart",
    "date_created": "2024-01-29T14:02:23.000",
    "date_modified": "2024-01-29T14:02:24.000",
    "request_status": "Pending",
    "responsible_agency": "Department of Sanitation",
    "final_address": "7607 Forum Blvd",
    "address_councildis": "E",
    "status": "Assigned to Contractor",
    "contractor": "Waste Pro",
    "rowid": "1064354",
    "final_x": "3720323.94892",
    "final_y": "573136.266409",
    "longitude": "-89.94388640979861",
    "latitude": "30.068688026478643",
    "geocoded_column": {
      "latitude": "30.068688026478643",
      "longitude": "-89.94388640979861"
    }
  },
  {
    "service_request": "2024-1064353",
    "request_type": "Trash/Recycling",
    "request_reason": "Replace Trash Cart",
    "date_created": "2024-01-29T14:01:54.000",
    "date_modified": "2024-01-29T14:01:55.000",
    "request_status": "Pending",
    "responsible_agency": "Department of Sanitation",
    "final_address": "914 Cherokee St",
    "address_councildis": "A",
    "status": "Assigned to Contractor",
    "contractor": "Richards Disposal",
    "rowid": "1064353",
    "final_x": "3662892.24992",
    "final_y": "526289.703294",
    "longitude": "-90.12700105635918",
    "latitude": "29.941665905674157",
    "geocoded_column": {
      "latitude": "29.941665905674157",
      "longitude": "-90.12700105635918"
    }
  },
  {
    "service_request": "2024-1064351",
    "request_type": "Trash/Recycling",
    "request_reason": "Replace Trash Cart",
    "date_created": "2024-01-29T14:00:46.000",
    "date_modified": "2024-01-29T14:00:47.000",
    "request_status": "Pending",
    "responsible_agency": "Department of Sanitation",
    "final_address": "721 St Maurice Ave",
    "address_councildis": "E",
    "status": "Assigned to Contractor",
    "contractor": "Waste Pro",
    "rowid": "1064351",
    "final_x": "3699383.90269",
    "final_y": "531931.593539",
    "longitude": "-90.01158475625738",
    "latitude": "29.95607230415082",
    "geocoded_column": {
      "latitude": "29.95607230415082",
      "longitude": "-90.01158475625738"
    }
  },
  {
    "service_request": "2024-1064350",
    "request_type": "Trash/Recycling",
    "request_reason": "MIssed Recycling Pick-Up",
    "date_created": "2024-01-29T13:57:08.000",
    "date_modified": "2024-01-29T13:57:08.000",
    "request_status": "Pending",
    "responsible_agency": "Department of Sanitation",
    "final_address": "2021 Brainard St",
    "address_councildis": "B",
    "status": "Assigned to Contractor",
    "contractor": "Richards Disposal",
    "rowid": "1064350",
    "final_x": "3677553.89333",
    "final_y": "524569.934524",
    "longitude": "-90.08077061009227",
    "latitude": "29.936504535061776",
    "geocoded_column": {
      "latitude": "29.936504535061776",
      "longitude": "-90.08077061009227"
    }
  },
  {
    "service_request": "2024-1064349",
    "request_type": "Trash/Recycling",
    "request_reason": "Request a Large Item Pick Up",
    "date_created": "2024-01-29T13:57:05.000",
    "date_modified": "2024-01-29T13:57:06.000",
    "request_status": "Pending",
    "responsible_agency": "Department of Sanitation",
    "final_address": "5104 Marigny St",
    "address_councildis": "D",
    "status": "Assigned to Contractor",
    "contractor": "IV Waste",
    "rowid": "1064349",
    "final_x": "3684288.67369",
    "final_y": "551485.038421",
    "longitude": "-90.05856334974636",
    "latitude": "30.010307538709817",
    "geocoded_column": {
      "latitude": "30.010307538709817",
      "longitude": "-90.05856334974636"
    }
  },
  {
    "service_request": "2024-1064348",
    "request_type": "Trash/Recycling",
    "request_reason": "Request a Large Item Pick Up",
    "date_created": "2024-01-29T13:54:52.000",
    "date_modified": "2024-01-29T13:54:53.000",
    "request_status": "Pending",
    "responsible_agency": "Department of Sanitation",
    "final_address": "7531 Trapier Ave",
    "address_councildis": "E",
    "status": "Assigned to Contractor",
    "contractor": "Waste Pro",
    "rowid": "1064348",
    "final_x": "3706768.04958",
    "final_y": "563376.443808",
    "longitude": "-89.98710178334952",
    "latitude": "30.04229746049129",
    "geocoded_column": {
      "latitude": "30.04229746049129",
      "longitude": "-89.98710178334952"
    }
  },
  {
    "service_request": "2024-1064347",
    "request_type": "Trash/Recycling",
    "request_reason": "Order Trash Cart",
    "date_created": "2024-01-29T13:53:06.000",
    "date_modified": "2024-01-29T13:53:06.000",
    "request_status": "Pending",
    "responsible_agency": "Department of Sanitation",
    "final_address": "14041 Linden St",
    "address_councildis": "E",
    "status": "Assigned to Contractor",
    "contractor": "Waste Pro",
    "rowid": "1064347",
    "final_x": "3718461.26988",
    "final_y": "572582.407785",
    "longitude": "-89.94979582549787",
    "latitude": "30.067227121142597",
    "geocoded_column": {
      "latitude": "30.067227121142597",
      "longitude": "-89.94979582549787"
    }
  },
  {
    "service_request": "2024-1064346",
    "request_type": "Trash/Recycling",
    "request_reason": "Repair Recycling Cart",
    "date_created": "2024-01-29T13:53:05.000",
    "date_modified": "2024-01-29T13:53:06.000",
    "request_status": "Pending",
    "responsible_agency": "Department of Sanitation",
    "final_address": "1830 Octavia St",
    "address_councildis": "A",
    "status": "Pending",
    "rowid": "1064346",
    "final_x": "3667176.2505",
    "final_y": "522605.011642",
    "longitude": "-90.11359938636869",
    "latitude": "29.93140947346014",
    "geocoded_column": {
      "latitude": "29.93140947346014",
      "longitude": "-90.11359938636869"
    }
  },
  {
    "service_request": "2024-1064345",
    "request_type": "Traffic Signals/Signs/Striping/Streetlights",
    "request_reason": "Street Light Outage/Malfunction",
    "date_created": "2024-01-29T13:51:45.000",
    "date_modified": "2024-01-29T13:51:46.000",
    "request_status": "Pending",
    "responsible_agency": "Department of Public Works",
    "final_address": "2700 Prentiss Ave",
    "address_councildis": "D",
    "status": "Assigned to Contractor",
    "contractor": "Legacy Professional Services",
    "rowid": "1064345",
    "final_x": "3687336.96271",
    "final_y": "554017.398424",
    "longitude": "-90.04884299742237",
    "latitude": "30.01717699724747",
    "geocoded_column": {
      "latitude": "30.01717699724747",
      "longitude": "-90.04884299742237"
    }
  },
  {
    "service_request": "2024-1064344",
    "request_type": "Trash/Recycling",
    "request_reason": "Request a Large Item Pick Up",
    "date_created": "2024-01-29T13:51:10.000",
    "date_modified": "2024-01-29T13:51:11.000",
    "request_status": "Pending",
    "responsible_agency": "Department of Sanitation",
    "final_address": "4403 St Roch Ave",
    "address_councildis": "D",
    "status": "Assigned to Contractor",
    "contractor": "IV Waste",
    "rowid": "1064344",
    "final_x": "3685539.47087",
    "final_y": "548994.308883",
    "longitude": "-90.05469943093246",
    "latitude": "30.003420615759563",
    "geocoded_column": {
      "latitude": "30.003420615759563",
      "longitude": "-90.05469943093246"
    }
  },
  {
    "service_request": "2024-1064343",
    "request_type": "Traffic Signals/Signs/Striping/Streetlights",
    "request_reason": "Street Light Outage/Malfunction",
    "date_created": "2024-01-29T13:49:57.000",
    "date_modified": "2024-01-29T13:49:58.000",
    "request_status": "Pending",
    "responsible_agency": "Department of Public Works",
    "final_address": "1520 Constance St",
    "address_councildis": "B",
    "status": "Assigned to Contractor",
    "contractor": "Legacy Professional Services",
    "rowid": "1064343",
    "final_x": "3680537.2708",
    "final_y": "523512.305595",
    "longitude": "-90.07138874750426",
    "latitude": "29.933506394497115",
    "geocoded_column": {
      "latitude": "29.933506394497115",
      "longitude": "-90.07138874750426"
    }
  },
  {
    "service_request": "2024-1064342",
    "request_type": "Trash/Recycling",
    "request_reason": "Replace Recycling Cart",
    "date_created": "2024-01-29T13:46:13.000",
    "date_modified": "2024-01-29T13:46:13.000",
    "request_status": "Pending",
    "responsible_agency": "Department of Sanitation",
    "final_address": "848 Navarre St",
    "address_councildis": "A",
    "status": "Pending",
    "rowid": "1064342",
    "final_x": "3669042.3881",
    "final_y": "543723.913038",
    "longitude": "-90.10699466434036",
    "latitude": "29.989424711998506",
    "geocoded_column": {
      "latitude": "29.989424711998506",
      "longitude": "-90.10699466434036"
    }
  },
  {
    "service_request": "2024-1064341",
    "request_type": "Trash/Recycling",
    "request_reason": "Missed Trash Pick-Up",
    "date_created": "2024-01-29T13:44:49.000",
    "date_modified": "2024-01-29T13:44:50.000",
    "request_status": "Pending",
    "responsible_agency": "Department of Sanitation",
    "final_address": "7001 Whitmore Pl",
    "address_councildis": "E",
    "status": "Assigned to Contractor",
    "contractor": "Waste Pro",
    "rowid": "1064341",
    "final_x": "3719183.44351",
    "final_y": "569153.827302",
    "longitude": "-89.94764400429742",
    "latitude": "30.057775962061093",
    "geocoded_column": {
      "latitude": "30.057775962061093",
      "longitude": "-89.94764400429742"
    }
  },
  {
    "service_request": "2024-1064340",
    "request_type": "Trash/Recycling",
    "request_reason": "Illegal Dumping",
    "date_created": "2024-01-29T13:44:00.000",
    "date_modified": "2024-01-29T13:45:19.000",
    "request_status": "Pending",
    "responsible_agency": "Department of Sanitation",
    "final_address": "10626 Old Gentilly Rd",
    "address_councildis": "E",
    "status": "Pending",
    "rowid": "1064340",
    "final_x": "3716018.64997",
    "final_y": "554708.546968",
    "longitude": "-89.95819538608315",
    "latitude": "30.018162128869907",
    "geocoded_column": {
      "latitude": "30.018162128869907",
      "longitude": "-89.95819538608315"
    }
  },
  {
    "service_request": "2024-1064339",
    "request_type": "Trash/Recycling",
    "request_reason": "Order Recycling Cart",
    "date_created": "2024-01-29T13:39:18.000",
    "date_modified": "2024-01-29T13:39:18.000",
    "request_status": "Pending",
    "responsible_agency": "Department of Sanitation",
    "final_address": "6951 E Hermes St",
    "address_councildis": "D",
    "status": "Pending",
    "rowid": "1064339",
    "final_x": "3697513.59018",
    "final_y": "557027.212314",
    "longitude": "-90.0165798986634",
    "latitude": "30.02513523760891",
    "geocoded_column": {
      "latitude": "30.02513523760891",
      "longitude": "-90.0165798986634"
    }
  },
  {
    "service_request": "2024-1064338",
    "request_type": "Roads/Drainage",
    "request_reason": "Catch Basin - Clogged",
    "date_created": "2024-01-29T13:38:36.000",
    "date_modified": "2024-01-29T13:38:36.000",
    "request_status": "Pending",
    "responsible_agency": "Department of Public Works",
    "final_address": "3411 Calhoun St",
    "address_councildis": "A",
    "status": "Pending",
    "rowid": "1064338",
    "final_x": "3667667.59713",
    "final_y": "529168.248192",
    "longitude": "-90.11182738410088",
    "latitude": "29.94944186950903",
    "geocoded_column": {
      "latitude": "29.94944186950903",
      "longitude": "-90.11182738410088"
    }
  },
  {
    "service_request": "2024-1064337",
    "request_type": "Traffic Signals/Signs/Striping/Streetlights",
    "request_reason": "Street Light Outage/Malfunction",
    "date_created": "2024-01-29T13:35:04.000",
    "date_modified": "2024-01-29T13:36:25.000",
    "request_status": "Pending",
    "responsible_agency": "Department of Public Works",
    "final_address": "2310 Barracks St",
    "address_councildis": "D",
    "status": "Assigned to Contractor",
    "contractor": "Legacy Professional Services",
    "rowid": "1064337",
    "final_x": "3679295.70299",
    "final_y": "537700.270856",
    "longitude": "-90.07481635651979",
    "latitude": "29.97255606652233",
    "geocoded_column": {
      "latitude": "29.97255606652233",
      "longitude": "-90.07481635651979"
    }
  },
  {
    "service_request": "2024-1064336",
    "request_type": "Traffic Signals/Signs/Striping/Streetlights",
    "request_reason": "Street Light Outage/Malfunction",
    "date_created": "2024-01-29T13:34:20.000",
    "date_modified": "2024-01-29T13:34:20.000",
    "request_status": "Pending",
    "responsible_agency": "Department of Public Works",
    "final_address": "2310 Barracks St Apt A",
    "address_councildis": "D",
    "status": "Assigned to Contractor",
    "contractor": "Legacy Professional Services",
    "rowid": "1064336",
    "final_x": "3679289.03938",
    "final_y": "537690.37876",
    "longitude": "-90.07483774452305",
    "latitude": "29.972529067902418",
    "geocoded_column": {
      "latitude": "29.972529067902418",
      "longitude": "-90.07483774452305"
    }
  },
  {
    "service_request": "2024-1064335",
    "request_type": "Trash/Recycling",
    "request_reason": "Repair Trash Cart",
    "date_created": "2024-01-29T13:33:14.000",
    "date_modified": "2024-01-29T18:12:41.000",
    "case_close_date": "2024-01-29T12:12:41.000",
    "request_status": "Closed",
    "responsible_agency": "Department of Sanitation",
    "final_address": "20213 San Rocco St",
    "address_councildis": "E",
    "status": "Duplicate Request",
    "contractor": "Waste Pro",
    "contractor_action": "duplicate",
    "rowid": "1064335",
    "final_x": "3759861.21014",
    "final_y": "573086.331433",
    "longitude": "-89.81890563813255",
    "latitude": "30.06717320281194",
    "geocoded_column": {
      "latitude": "30.06717320281194",
      "longitude": "-89.81890563813255"
    }
  },
  {
    "service_request": "2024-1064334",
    "request_type": "Abandoned Vehicles",
    "request_reason": "Abandoned/Junk Vehicles",
    "date_created": "2024-01-29T13:32:38.000",
    "date_modified": "2024-01-29T13:32:38.000",
    "request_status": "Pending",
    "responsible_agency": "Department of Public Works",
    "final_address": "1700 BLK Flanders St",
    "address_councildis": "C",
    "status": "Inspected",
    "rowid": "1064334",
    "final_x": "3696662.05349",
    "final_y": "524888.127833",
    "longitude": "-90.0204342137233",
    "latitude": "29.93679127921319",
    "geocoded_column": {
      "latitude": "29.93679127921319",
      "longitude": "-90.0204342137233"
    }
  },
  {
    "service_request": "2024-1064333",
    "request_type": "Traffic Signals/Signs/Striping/Streetlights",
    "request_reason": "Traffic Signal Malfunctioning/Damaged",
    "date_created": "2024-01-29T13:32:00.000",
    "date_modified": "2024-01-29T13:32:01.000",
    "request_status": "Pending",
    "responsible_agency": "Department of Public Works",
    "final_address": "ELYSIAN FIELDS AVE & GENTILLY BLVD",
    "address_councildis": "D",
    "status": "Pending",
    "rowid": "1064333",
    "final_x": "3684059.79",
    "final_y": "547584.11",
    "longitude": "-90.05942349799389",
    "latitude": "29.99958839427118",
    "geocoded_column": {
      "latitude": "29.99958839427118",
      "longitude": "-90.05942349799389"
    }
  },
  {
    "service_request": "2024-1064332",
    "request_type": "Abandoned Vehicles",
    "request_reason": "Abandoned/Junk Vehicles",
    "date_created": "2024-01-29T13:28:13.000",
    "date_modified": "2024-01-29T13:28:13.000",
    "request_status": "Pending",
    "responsible_agency": "Department of Public Works",
    "final_address": "3363 Esplanade Ave",
    "address_councildis": "A",
    "status": "Pending",
    "rowid": "1064332",
    "final_x": "3675697.24315",
    "final_y": "540992.858763",
    "longitude": "-90.08606776133134",
    "latitude": "29.981717739076547",
    "geocoded_column": {
      "latitude": "29.981717739076547",
      "longitude": "-90.08606776133134"
    }
  },
  {
    "service_request": "2024-1064331",
    "request_type": "Abandoned Vehicles",
    "request_reason": "Abandoned/Junk Vehicles",
    "date_created": "2024-01-29T13:27:06.000",
    "date_modified": "2024-01-29T13:28:57.000",
    "request_status": "Pending",
    "responsible_agency": "Department of Public Works",
    "final_address": "4700 BLK E Adams Ct",
    "address_councildis": "E",
    "status": "Pending",
    "rowid": "1064331",
    "final_x": "3718765.60738",
    "final_y": "557124.621431",
    "longitude": "-89.94942394355162",
    "latitude": "30.02471443815417",
    "geocoded_column": {
      "latitude": "30.02471443815417",
      "longitude": "-89.94942394355162"
    }
  },
  {
    "service_request": "2024-1064330",
    "request_type": "Traffic Signals/Signs/Striping/Streetlights",
    "request_reason": "Street Light Outage/Malfunction",
    "date_created": "2024-01-29T13:25:52.000",
    "date_modified": "2024-01-29T13:36:16.000",
    "request_status": "Pending",
    "responsible_agency": "Department of Public Works",
    "final_address": "Street light in front 1520 Constance Street",
    "address_councildis": "B",
    "status": "Assigned to Contractor",
    "contractor": "Legacy Professional Services",
    "rowid": "1064330",
    "final_x": "3680537.2708",
    "final_y": "523512.305595",
    "longitude": "-90.07138874750426",
    "latitude": "29.933506394497115",
    "geocoded_column": {
      "latitude": "29.933506394497115",
      "longitude": "-90.07138874750426"
    }
  },
  {
    "service_request": "2024-1064329",
    "request_type": "Roads/Drainage",
    "request_reason": "Pothole",
    "date_created": "2024-01-29T13:25:37.000",
    "date_modified": "2024-01-29T13:25:38.000",
    "request_status": "Pending",
    "responsible_agency": "Department of Public Works",
    "final_address": "3166 Law St",
    "address_councildis": "D",
    "status": "Pending",
    "rowid": "1064329",
    "final_x": "3690930.23702",
    "final_y": "541487.824012",
    "longitude": "-90.0379373081444",
    "latitude": "29.982613993397052",
    "geocoded_column": {
      "latitude": "29.982613993397052",
      "longitude": "-90.0379373081444"
    }
  },
  {
    "service_request": "2024-1064328",
    "request_type": "Roads/Drainage",
    "request_reason": "Street Flooding / Drainage",
    "date_created": "2024-01-29T13:21:59.000",
    "date_modified": "2024-01-29T13:21:59.000",
    "request_status": "Pending",
    "responsible_agency": "Department of Public Works",
    "final_address": "6331 Catina St",
    "address_councildis": "A",
    "status": "Pending",
    "rowid": "1064328",
    "final_x": "3666979.45498",
    "final_y": "549739.108052",
    "longitude": "-90.11330859908006",
    "latitude": "30.006024975643577",
    "geocoded_column": {
      "latitude": "30.006024975643577",
      "longitude": "-90.11330859908006"
    }
  },
  {
    "service_request": "2024-1064327",
    "request_type": "Parks & Parkways",
    "request_reason": "Request Tree Service (Right of Way/Public Property)",
    "date_created": "2024-01-29T13:21:49.000",
    "date_modified": "2024-01-29T13:21:49.000",
    "request_status": "Pending",
    "responsible_agency": "Department of Parks & Parkway",
    "final_address": "1813 Tennessee St",
    "address_councildis": "E",
    "status": "Pending",
    "rowid": "1064327",
    "final_x": "3696499.43747",
    "final_y": "537056.373192",
    "longitude": "-90.02050745704705",
    "latitude": "29.970254803340918",
    "geocoded_column": {
      "latitude": "29.970254803340918",
      "longitude": "-90.02050745704705"
    }
  },
  {
    "service_request": "2024-1064326",
    "request_type": "Trash/Recycling",
    "request_reason": "Request a Large Item Pick Up",
    "date_created": "2024-01-29T13:16:48.000",
    "date_modified": "2024-01-29T13:16:49.000",
    "request_status": "Pending",
    "responsible_agency": "Department of Sanitation",
    "final_address": "7400 BLK Camberley Dr",
    "address_councildis": "E",
    "status": "Assigned to Contractor",
    "contractor": "Waste Pro",
    "rowid": "1064326",
    "final_x": "3712717.15589",
    "final_y": "565610.232412",
    "longitude": "-89.9682163874321",
    "latitude": "30.048245949549862",
    "geocoded_column": {
      "latitude": "30.048245949549862",
      "longitude": "-89.9682163874321"
    }
  },
  {
    "service_request": "2024-1064325",
    "request_type": "Trash/Recycling",
    "request_reason": "Replace Recycling Cart",
    "date_created": "2024-01-29T13:07:41.000",
    "date_modified": "2024-01-29T13:07:41.000",
    "request_status": "Pending",
    "responsible_agency": "Department of Sanitation",
    "final_address": "1228 Independence St",
    "address_councildis": "D",
    "status": "Pending",
    "rowid": "1064325",
    "final_x": "3691071.4271",
    "final_y": "536114.689351",
    "longitude": "-90.03768325957392",
    "latitude": "29.96783539041953",
    "geocoded_column": {
      "latitude": "29.96783539041953",
      "longitude": "-90.03768325957392"
    }
  },
  {
    "service_request": "2024-1064324",
    "request_type": "Trash/Recycling",
    "request_reason": "Request a Large Item Pick Up",
    "date_created": "2024-01-29T13:07:20.000",
    "date_modified": "2024-01-29T13:07:21.000",
    "request_status": "Pending",
    "responsible_agency": "Department of Sanitation",
    "final_address": "2935 Ursulines Ave",
    "address_councildis": "A",
    "status": "Assigned to Contractor",
    "contractor": "Richards Disposal",
    "rowid": "1064324",
    "final_x": "3676589.35227",
    "final_y": "539047.709258",
    "longitude": "-90.08331708197207",
    "latitude": "29.97634251618677",
    "geocoded_column": {
      "latitude": "29.97634251618677",
      "longitude": "-90.08331708197207"
    }
  },
  {
    "service_request": "2024-1064323",
    "request_type": "Roads/Drainage",
    "request_reason": "Street Flooding / Drainage",
    "date_created": "2024-01-29T13:07:17.000",
    "date_modified": "2024-01-29T13:07:17.000",
    "request_status": "Pending",
    "responsible_agency": "Department of Public Works",
    "final_address": "5700 Wingate Dr",
    "address_councildis": "D",
    "status": "Pending",
    "rowid": "1064323",
    "final_x": "3681241.43605",
    "final_y": "553706.164631",
    "longitude": "-90.06811322590622",
    "latitude": "30.01650769450706",
    "geocoded_column": {
      "latitude": "30.01650769450706",
      "longitude": "-90.06811322590622"
    }
  },