[
  {
    "service_request": "2026-1273011",
    "request_type": "Health Related Request",
    "request_reason": "Noise Ordinance Complaint",
    "date_created": "2026-04-12T23:40:11.000",
    "date_modified": "2026-04-12T23:40:13.000",
    "request_status": "Pending",
    "responsible_agency": "Health Department",
    "final_address": "801 Bourbon St, New Orleans, Louisiana, 70116",
    "address_councildis": "C",
    "status": "Pending",
    "rowid": "1273011",
    "final_x": "3682490.98735",
    "final_y": "533018.672772",
    "longitude": "-90.06488875731978",
    "latitude": "29.959586396383013",
    "geocoded_column": {
      "latitude": "29.959586396383013",
      "longitude": "-90.06488875731978"
    }
  },
  {
    "service_request": "2026-1273010",
    "request_type": "Health Related Request",
    "request_reason": "Noise Ordinance Complaint",
    "date_created": "2026-04-12T23:39:51.000",
    "date_modified": "2026-04-12T23:39:53.000",
    "request_status": "Pending",
    "responsible_agency": "Health Department",
    "final_address": "800 Bourbon St, New Orleans, Louisiana, 70116",
    "address_councildis": "C",
    "status": "Pending",
    "rowid": "1273010",
    "final_x": "3682553.51528",
    "final_y": "533013.631428",
    "longitude": "-90.06469148499534",
    "latitude": "29.95957063099051",
    "geocoded_column": {
      "latitude": "29.95957063099051",
      "longitude": "-90.06469148499534"
    }
  },
  {
    "service_request": "2026-1273009",
    "request_type": "Streetlights",
    "request_reason": "Streetlight Outage/Malfunction",
    "date_created": "2026-04-12T23:15:40.000",
    "date_modified": "2026-04-12T23:15:43.000",
    "request_status": "Pending",
    "responsible_agency": "Department of Public Works",
    "final_address": "81 Yosemite Dr",
    "address_councildis": "C",
    "status": "Pending",
    "rowid": "1273009",
    "final_x": "3699372.69815",
    "final_y": "516019.04594",
    "longitude": "-90.01219946691747",
    "latitude": "29.912318666675368",
    "geocoded_column": {
      "latitude": "29.912318666675368",
      "longitude": "-90.01219946691747"
    }
  },
  {
    "service_request": "2026-1273008",
    "request_type": "General Services",
    "request_reason": "General Service Request",
    "date_created": "2026-04-12T23:11:07.000",
    "date_modified": "2026-04-12T23:11:09.000",
    "request_status": "Pending",
    "responsible_agency": "Orleans Parish Communication District",
    "final_address": "6030 Marshal Foch St",
    "address_councildis": "A",
    "status": "Pending",
    "rowid": "1273008",
    "final_x": "3669759.33428",
    "final_y": "547444.382481",
    "longitude": "-90.10460400985929",
    "latitude": "29.999633601498655",
    "geocoded_column": {
      "latitude": "29.999633601498655",
      "longitude": "-90.10460400985929"
    }
  },
  {
    "service_request": "2026-1273007",
    "request_type": "Streetlights",
    "request_reason": "Streetlight Outage/Malfunction",
    "date_created": "2026-04-12T22:14:50.000",
    "date_modified": "2026-04-12T22:14:54.000",
    "request_status": "Pending",
    "responsible_agency": "Department of Public Works",
    "final_address": "3840 Metropolitan St",
    "address_councildis": "D",
    "status": "Pending",
    "rowid": "1273007",
    "final_x": "3691527.77257",
    "final_y": "547188.241297",
    "longitude": "-90.03584612458437",
    "latitude": "29.99826949213302",
    "geocoded_column": {
      "latitude": "29.99826949213302",
      "longitude": "-90.03584612458437"
    }
  },
  {
    "service_request": "2026-1273006",
    "request_type": "Abandoned Vehicles",
    "request_reason": "Abandoned/Junk Vehicles",
    "date_created": "2026-04-12T22:08:03.000",
    "date_modified": "2026-04-12T22:08:04.000",
    "request_status": "Pending",
    "responsible_agency": "Department of Public Works",
    "final_address": "3031 St Peter St",
    "address_councildis": "A",
    "status": "Pending",
    "rowid": "1273006",
    "final_x": "3675477.8571",
    "final_y": "537805.816265",
    "longitude": "-90.08687018782751",
    "latitude": "29.97296102875179",
    "geocoded_column": {
      "latitude": "29.97296102875179",
      "longitude": "-90.08687018782751"
    }
  },
  {
    "service_request": "2026-1273005",
    "request_type": "Roads and Streets",
    "request_reason": "Street Subsidence (Sinking)",
    "date_created": "2026-04-12T22:07:21.000",
    "date_modified": "2026-04-12T22:07:23.000",
    "request_status": "Pending",
    "responsible_agency": "Sewerage & Water Board",
    "final_address": "13552 St Marie Dr",
    "address_councildis": "E",
    "status": "Pending",
    "rowid": "1273005",
    "final_x": "3724253.0208",
    "final_y": "569414.533798",
    "longitude": "-89.93160983170812",
    "latitude": "30.058323249131014",
    "geocoded_column": {
      "latitude": "30.058323249131014",
      "longitude": "-89.93160983170812"
    }
  },
  {
    "service_request": "2026-1273004",
    "request_type": "Safety & Permits",
    "request_reason": "Licenses & Permits",
    "date_created": "2026-04-12T22:01:50.000",
    "date_modified": "2026-04-12T22:01:52.000",
    "request_status": "Pending",
    "responsible_agency": "Safety and Permits",
    "final_address": "7851 W Cavelier Dr",
    "address_councildis": "E",
    "status": "Pending",
    "rowid": "1273004",
    "final_x": "3724119.63398",
    "final_y": "569596.902182",
    "longitude": "-89.93202439797291",
    "latitude": "30.0588291714342",
    "geocoded_column": {
      "latitude": "30.0588291714342",
      "longitude": "-89.93202439797291"
    }
  },
  {
    "service_request": "2026-1273003",
    "request_type": "Abandoned Vehicles",
    "request_reason": "Abandoned/Junk Vehicles",
    "date_created": "2026-04-12T21:56:28.000",
    "date_modified": "2026-04-12T21:56:29.000",
    "request_status": "Pending",
    "responsible_agency": "Department of Public Works",
    "final_address": "W CAVELIER DR & TRAPPERS CT",
    "address_councildis": "E",
    "status": "Pending",
    "rowid": "1273003",
    "final_x": "3724438.8",
    "final_y": "569423.78",
    "longitude": "-89.93102225365142",
    "latitude": "30.058342422054857",
    "geocoded_column": {
      "latitude": "30.058342422054857",
      "longitude": "-89.93102225365142"
    }
  },
  {
    "service_request": "2026-1273002",
    "request_type": "Safety & Permits",
    "request_reason": "Zoning Enforcement",
    "date_created": "2026-04-12T21:56:03.000",
    "date_modified": "2026-04-12T21:56:06.000",
    "request_status": "Pending",
    "responsible_agency": "Safety and Permits",
    "final_address": "1335 Joliet St",
    "address_councildis": "A",
    "status": "Pending",
    "rowid": "1273002",
    "final_x": "3661357.76723",
    "final_y": "529778.437249",
    "longitude": "-90.1317302473734",
    "latitude": "29.95130314182795",
    "geocoded_column": {
      "latitude": "29.95130314182795",
      "longitude": "-90.1317302473734"
    }
  },
  {
    "service_request": "2026-1273001",
    "request_type": "Streetlights",
    "request_reason": "Streetlight Outage/Malfunction",
    "date_created": "2026-04-12T21:41:45.000",
    "date_modified": "2026-04-12T21:41:47.000",
    "request_status": "Pending",
    "responsible_agency": "Department of Public Works",
    "final_address": "3904 Camp St",
    "address_councildis": "B",
    "status": "Pending",
    "rowid": "1273001",
    "final_x": "3672986.51982",
    "final_y": "519296.239607",
    "longitude": "-90.09536989245822",
    "latitude": "29.92214006852543",
    "geocoded_column": {
      "latitude": "29.92214006852543",
      "longitude": "-90.09536989245822"
    }
  },
  {
    "service_request": "2026-1273000",
    "request_type": "Roads and Streets",
    "request_reason": "Road Shoulder Damage",
    "date_created": "2026-04-12T21:41:16.000",
    "date_modified": "2026-04-12T21:41:17.000",
    "request_status": "Pending",
    "responsible_agency": "Department of Public Works",
    "final_address": "2610 S Claiborne Ave",
    "address_councildis": "B",
    "status": "Pending",
    "rowid": "1273000",
    "final_x": "3673664.45396",
    "final_y": "526921.32563",
    "longitude": "-90.09296938451182",
    "latitude": "29.943086427048723",
    "geocoded_column": {
      "latitude": "29.943086427048723",
      "longitude": "-90.09296938451182"
    }
  },
  {
    "service_request": "2026-1272999",
    "request_type": "General Services",
    "request_reason": "General Service Request",
    "date_created": "2026-04-12T21:33:31.000",
    "date_modified": "2026-04-12T21:33:32.000",
    "request_status": "Pending",
    "responsible_agency": "Orleans Parish Communication District",
    "final_address": "4338 St Charles Ave",
    "address_councildis": "B",
    "status": "Pending",
    "rowid": "1272999",
    "final_x": "3670963.56865",
    "final_y": "520781.133241",
    "longitude": "-90.10170514397672",
    "latitude": "29.9262829943283",
    "geocoded_column": {
      "latitude": "29.9262829943283",
      "longitude": "-90.10170514397672"
    }
  },
  {
    "service_request": "2026-1272998",
    "request_type": "Streetlights",
    "request_reason": "Streetlight Outage/Malfunction",
    "date_created": "2026-04-12T21:33:24.000",
    "date_modified": "2026-04-12T21:33:25.000",
    "request_status": "Pending",
    "responsible_agency": "Department of Public Works",
    "final_address": "4115 S Carrollton Ave",
    "address_councildis": "A",
    "status": "Pending",
    "rowid": "1272998",
    "final_x": "3669231.28954",
    "final_y": "536574.153991",
    "longitude": "-90.1066397534481",
    "latitude": "29.96975973413392",
    "geocoded_column": {
      "latitude": "29.96975973413392",
      "longitude": "-90.1066397534481"
    }
  },
  {
    "service_request": "2026-1272997",
    "request_type": "Property Maintenance",
    "request_reason": "Property Maintenance",
    "date_created": "2026-04-12T21:32:56.000",
    "date_modified": "2026-04-12T21:32:59.000",
    "request_status": "Pending",
    "responsible_agency": "Department of Code Enforcement",
    "final_address": "1718 St Andrew St",
    "address_councildis": "B",
    "status": "Pending",
    "rowid": "1272997",
    "final_x": "3677697.37691",
    "final_y": "524679.403452",
    "longitude": "-90.08031384737104",
    "latitude": "29.93680122504734",
    "geocoded_column": {
      "latitude": "29.93680122504734",
      "longitude": "-90.08031384737104"
    }
  },
  {
    "service_request": "2026-1272996",
    "request_type": "Trash/Recycling",
    "request_reason": "Request a Large Item Pick Up",
    "date_created": "2026-04-12T21:17:24.000",
    "date_modified": "2026-04-12T21:17:26.000",
    "request_status": "Pending",
    "responsible_agency": "Department of Sanitation",
    "final_address": "3613 Franklin Ave",
    "address_councildis": "D",
    "status": "Assigned to Contractor",
    "contractor": "IV Waste",
    "rowid": "1272996",
    "final_x": "3687217.82902",
    "final_y": "546159.455888",
    "longitude": "-90.0494975898386",
    "latitude": "29.99557419115604",
    "geocoded_column": {
      "latitude": "29.99557419115604",
      "longitude": "-90.0494975898386"
    }
  },
  {
    "service_request": "2026-1272995",
    "request_type": "Trash/Recycling",
    "request_reason": "Request a Large Item Pick Up",
    "date_created": "2026-04-12T20:52:35.000",
    "date_modified": "2026-04-12T20:52:37.000",
    "request_status": "Pending",
    "responsible_agency": "Department of Sanitation",
    "final_address": "3555 River Oaks Dr",
    "address_councildis": "C",
    "status": "Assigned to Contractor",
    "contractor": "Richards Disposal",
    "rowid": "1272995",
    "final_x": "3701292.21905",
    "final_y": "517822.050422",
    "longitude": "-90.0060750563269",
    "latitude": "29.917215319398668",
    "geocoded_column": {
      "latitude": "29.917215319398668",
      "longitude": "-90.0060750563269"
    }
  },
  {
    "service_request": "2026-1272994",
    "request_type": "Abandoned Vehicles",
    "request_reason": "Abandoned/Junk Vehicles",
    "date_created": "2026-04-12T20:38:57.000",
    "date_modified": "2026-04-12T20:38:59.000",
    "request_status": "Pending",
    "responsible_agency": "Department of Public Works",
    "final_address": "1241 Louisa St",
    "address_councildis": "C",
    "status": "Pending",
    "rowid": "1272994",
    "final_x": "3689769.20848",
    "final_y": "536543.812295",
    "longitude": "-90.04178041706983",
    "latitude": "29.96905575152679",
    "geocoded_column": {
      "latitude": "29.96905575152679",
      "longitude": "-90.04178041706983"
    }
  },
  {
    "service_request": "2026-1272993",
    "request_type": "Traffic Signals",
    "request_reason": "Traffic Signal Malfunctioning or Damaged",
    "date_created": "2026-04-12T20:38:20.000",
    "date_modified": "2026-04-12T20:38:21.000",
    "request_status": "Pending",
    "responsible_agency": "Department of Public Works",
    "final_address": "1661 Octavia St",
    "address_councildis": "A",
    "status": "Pending",
    "rowid": "1272993",
    "final_x": "3667234.7225",
    "final_y": "522219.920954",
    "longitude": "-90.1134277393968",
    "latitude": "29.930348884994224",
    "geocoded_column": {
      "latitude": "29.930348884994224",
      "longitude": "-90.1134277393968"
    }
  },
  {
    "service_request": "2026-1272992",
    "request_type": "Trash/Recycling",
    "request_reason": "Replace Trash Cart",
    "date_created": "2026-04-12T20:29:29.000",
    "date_modified": "2026-04-12T20:29:32.000",
    "request_status": "Pending",
    "responsible_agency": "Department of Sanitation",
    "final_address": "5433 Provincial Pl",
    "address_councildis": "E",
    "status": "Assigned to Contractor",
    "contractor": "Waste Pro",
    "rowid": "1272992",
    "final_x": "3726226.11603",
    "final_y": "563803.766625",
    "longitude": "-89.92559106125209",
    "latitude": "30.0428294744715",
    "geocoded_column": {
      "latitude": "30.0428294744715",
      "longitude": "-89.92559106125209"
    }
  },
  {
    "service_request": "2026-1272991",
    "request_type": "Trash/Recycling",
    "request_reason": "Order Trash Cart",
    "date_created": "2026-04-12T20:18:33.000",
    "date_modified": "2026-04-12T20:18:34.000",
    "request_status": "Pending",
    "responsible_agency": "Department of Sanitation",
    "final_address": "1212 Park Island Dr",
    "address_councildis": "D",
    "status": "Assigned to Contractor",
    "contractor": "IV Waste",
    "rowid": "1272991",
    "final_x": "3676675.90837",
    "final_y": "547780.398482",
    "longitude": "-90.08274269366879",
    "latitude": "30.000351774781066",
    "geocoded_column": {
      "latitude": "30.000351774781066",
      "longitude": "-90.08274269366879"
    }
  },
  {
    "service_request": "2026-1272990",
    "request_type": "Traffic Safety",
    "request_reason": "Request for Traffic Calming due to Speeding",
    "date_created": "2026-04-12T20:17:06.000",
    "date_modified": "2026-04-12T20:17:08.000",
    "request_status": "Pending",
    "responsible_agency": "Department of Public Works",
    "final_address": "3220 Conti St",
    "address_councildis": "B",
    "status": "Pending",
    "rowid": "1272990",
    "final_x": "3674396.53057",
    "final_y": "537247.09364",
    "longitude": "-90.09030437245794",
    "latitude": "29.97145703080776",
    "geocoded_column": {
      "latitude": "29.97145703080776",
      "longitude": "-90.09030437245794"
    }
  },
  {
    "service_request": "2026-1272989",
    "request_type": "Trash/Recycling",
    "request_reason": "Replace Recycling Cart",
    "date_created": "2026-04-12T20:04:00.000",
    "date_modified": "2026-04-12T20:04:02.000",
    "request_status": "Pending",
    "responsible_agency": "Department of Sanitation",
    "final_address": "5231 Laurel St",
    "address_councildis": "B",
    "status": "Pending",
    "rowid": "1272989",
    "final_x": "3667749.28417",
    "final_y": "517915.903158",
    "longitude": "-90.11194817191148",
    "latitude": "29.91849912397334",
    "geocoded_column": {
      "latitude": "29.91849912397334",
      "longitude": "-90.11194817191148"
    }
  },
  {
    "service_request": "2026-1272988",
    "request_type": "Trash/Recycling",
    "request_reason": "Illegal Dumping",
    "date_created": "2026-04-12T20:00:34.000",
    "date_modified": "2026-04-12T20:00:36.000",
    "request_status": "Pending",
    "responsible_agency": "Department of Sanitation",
    "final_address": "5030 Westlake Dr",
    "address_councildis": "E",
    "status": "Pending",
    "rowid": "1272988",
    "final_x": "3699597.79716",
    "final_y": "555817.775705",
    "longitude": "-90.01003830425142",
    "latitude": "30.021743728942674",
    "geocoded_column": {
      "latitude": "30.021743728942674",
      "longitude": "-90.01003830425142"
    }
  },
  {
    "service_request": "2026-1272987",
    "request_type": "Trash/Recycling",
    "request_reason": "Request a Large Item Pick Up",
    "date_created": "2026-04-12T19:46:59.000",
    "date_modified": "2026-04-12T19:47:00.000",
    "request_status": "Pending",
    "responsible_agency": "Department of Sanitation",
    "final_address": "7701 Edward St",
    "address_councildis": "E",
    "status": "Assigned to Contractor",
    "contractor": "Waste Pro",
    "rowid": "1272987",
    "final_x": "3701017.54129",
    "final_y": "561149.76483",
    "longitude": "-90.0053570595996",
    "latitude": "30.036359479457367",
    "geocoded_column": {
      "latitude": "30.036359479457367",
      "longitude": "-90.0053570595996"
    }
  },
  {
    "service_request": "2026-1272986",
    "request_type": "Tree Service",
    "request_reason": "Tree Trim",
    "date_created": "2026-04-12T19:44:24.000",
    "date_modified": "2026-04-12T19:44:27.000",
    "request_status": "Pending",
    "responsible_agency": "Department of Parks & Parkways",
    "final_address": "1484 Wakefield Pl",
    "address_councildis": "D",
    "status": "Pending",
    "rowid": "1272986",
    "final_x": "3678607.98824",
    "final_y": "549690.013652",
    "longitude": "-90.0765729711029",
    "latitude": "30.005544413641317",
    "geocoded_column": {
      "latitude": "30.005544413641317",
      "longitude": "-90.0765729711029"
    }
  },
  {
    "service_request": "2026-1272985",
    "request_type": "Property Maintenance",
    "request_reason": "Property Maintenance",
    "date_created": "2026-04-12T19:24:18.000",
    "date_modified": "2026-04-12T19:24:21.000",
    "request_status": "Pending",
    "responsible_agency": "Department of Code Enforcement",
    "final_address": "6143 Carlisle Ct",
    "address_councildis": "C",
    "status": "Pending",
    "rowid": "1272985",
    "final_x": "3706713.38231",
    "final_y": "516405.041269",
    "longitude": "-89.98901615983992",
    "latitude": "29.913145256534676",
    "geocoded_column": {
      "latitude": "29.913145256534676",
      "longitude": "-89.98901615983992"
    }
  },
  {
    "service_request": "2026-1272984",
    "request_type": "Trash/Recycling",
    "request_reason": "Order Trash Cart",
    "date_created": "2026-04-12T19:08:33.000",
    "date_modified": "2026-04-12T19:08:34.000",
    "request_status": "Pending",
    "responsible_agency": "Department of Sanitation",
    "final_address": "3327 Second St",
    "address_councildis": "B",
    "status": "Assigned to Contractor",
    "contractor": "IV Waste",
    "rowid": "1272984",
    "final_x": "3673265.12942",
    "final_y": "528316.30272",
    "longitude": "-90.09418252359285",
    "latitude": "29.946934035925594",
    "geocoded_column": {
      "latitude": "29.946934035925594",
      "longitude": "-90.09418252359285"
    }
  },
  {
    "service_request": "2026-1272983",
    "request_type": "Abandoned Vehicles",
    "request_reason": "Abandoned/Junk Vehicles",
    "date_created": "2026-04-12T19:05:18.000",
    "date_modified": "2026-04-12T19:05:20.000",
    "request_status": "Pending",
    "responsible_agency": "Department of Public Works",
    "final_address": "2724 Clover St",
    "address_councildis": "D",
    "status": "Pending",
    "rowid": "1272983",
    "final_x": "3688087.20323",
    "final_y": "546636.165201",
    "longitude": "-90.04673441502695",
    "latitude": "29.996858157477288",
    "geocoded_column": {
      "latitude": "29.996858157477288",
      "longitude": "-90.04673441502695"
    }
  },
  {
    "service_request": "2026-1272982",
    "request_type": "Trash/Recycling",
    "request_reason": "Request a Large Item Pick Up",
    "date_created": "2026-04-12T19:02:05.000",
    "date_modified": "2026-04-12T19:02:06.000",
    "request_status": "Pending",
    "responsible_agency": "Department of Sanitation",
    "final_address": "3325 Clermont Dr",
    "address_councildis": "D",
    "status": "Assigned to Contractor",
    "contractor": "IV Waste",
    "rowid": "1272982",
    "final_x": "3686317.59062",
    "final_y": "545141.267855",
    "longitude": "-90.05237731072599",
    "latitude": "29.992802242917286",
    "geocoded_column": {
      "latitude": "29.992802242917286",
      "longitude": "-90.05237731072599"
    }
  },
  {
    "service_request": "2026-1272981",
    "request_type": "Parks & Grass Service",
    "request_reason": "Park Maintenance/Clean Up",
    "date_created": "2026-04-12T18:38:48.000",
    "date_modified": "2026-04-12T18:38:49.000",
    "request_status": "Pending",
    "responsible_agency": "Department of Parks & Parkways",
    "final_address": "3601 Laurel St",
    "address_councildis": "B",
    "status": "Pending",
    "rowid": "1272981",
    "final_x": "3674350.48884",
    "final_y": "518618.596855",
    "longitude": "-90.09108759228242",
    "latitude": "29.920236177644792",
    "geocoded_column": {
      "latitude": "29.920236177644792",
      "longitude": "-90.09108759228242"
    }
  },
  {
    "service_request": "2026-1272980",
    "request_type": "Trash/Recycling",
    "request_reason": "Request a Large Item Pick Up",
    "date_created": "2026-04-12T18:25:10.000",
    "date_modified": "2026-04-12T18:25:12.000",
    "request_status": "Pending",
    "responsible_agency": "Department of Sanitation",
    "final_address": "8423 Nelson St",
    "address_councildis": "A",
    "status": "Assigned to Contractor",
    "contractor": "IV Waste",
    "rowid": "1272980",
    "final_x": "3664224.06196",
    "final_y": "532710.968324",
    "longitude": "-90.12258202036006",
    "latitude": "29.959283689310965",
    "geocoded_column": {
      "latitude": "29.959283689310965",
      "longitude": "-90.12258202036006"
    }
  },
  {
    "service_request": "2026-1272979",
    "request_type": "Traffic Signals",
    "request_reason": "Traffic Signal Malfunctioning or Damaged",
    "date_created": "2026-04-12T18:18:23.000",
    "date_modified": "2026-04-12T18:18:25.000",
    "request_status": "Pending",
    "responsible_agency": "Department of Public Works",
    "final_address": "4077 Tulane Ave",
    "address_councildis": "A",
    "status": "Pending",
    "rowid": "1272979",
    "final_x": "3669420.73556",
    "final_y": "536314.603975",
    "longitude": "-90.10605024330957",
    "latitude": "29.969040480368907",
    "geocoded_column": {
      "latitude": "29.969040480368907",
      "longitude": "-90.10605024330957"
    }
  },
  {
    "service_request": "2026-1272978",
    "request_type": "Roads and Streets",
    "request_reason": "Pothole",
    "date_created": "2026-04-12T18:08:05.000",
    "date_modified": "2026-04-12T18:08:06.000",
    "request_status": "Pending",
    "responsible_agency": "Department of Public Works",
    "final_address": "313 Pacific Ave",
    "address_councildis": "C",
    "status": "Pending",
    "rowid": "1272978",
    "final_x": "3688495.79983",
    "final_y": "530621.786178",
    "longitude": "-90.04601203179556",
    "latitude": "29.952811640789854",
    "geocoded_column": {
      "latitude": "29.952811640789854",
      "longitude": "-90.04601203179556"
    }
  },
  {
    "service_request": "2026-1272977",
    "request_type": "Trash/Recycling",
    "request_reason": "Request a Large Item Pick Up",
    "date_created": "2026-04-12T18:01:19.000",
    "date_modified": "2026-04-12T18:01:20.000",
    "request_status": "Pending",
    "responsible_agency": "Department of Sanitation",
    "final_address": "320 Alix St",
    "address_councildis": "C",
    "status": "Assigned to Contractor",
    "contractor": "Richards Disposal",
    "rowid": "1272977",
    "final_x": "3686532.61436",
    "final_y": "530078.590081",
    "longitude": "-90.05223006039935",
    "latitude": "29.95137853746635",
    "geocoded_column": {
      "latitude": "29.95137853746635",
      "longitude": "-90.05223006039935"
    }
  },
  {
    "service_request": "2026-1272976",
    "request_type": "Tree Service",
    "request_reason": "Tree Trim",
    "date_created": "2026-04-12T17:58:11.000",
    "date_modified": "2026-04-12T17:58:13.000",
    "request_status": "Pending",
    "responsible_agency": "Department of Parks & Parkways",
    "final_address": "7005 Memphis St",
    "address_councildis": "A",
    "status": "Pending",
    "rowid": "1272976",
    "final_x": "3669872.7371",
    "final_y": "553979.170968",
    "longitude": "-90.10402429071874",
    "latitude": "30.017598631641224",
    "geocoded_column": {
      "latitude": "30.017598631641224",
      "longitude": "-90.10402429071874"
    }
  },
  {
    "service_request": "2026-1272975",
    "request_type": "Trash/Recycling",
    "request_reason": "Start Trash Service",
    "date_created": "2026-04-12T17:45:31.000",
    "date_modified": "2026-04-12T17:45:33.000",
    "request_status": "Pending",
    "responsible_agency": "Department of Sanitation",
    "final_address": "4626 Viola St",
    "address_councildis": "E",
    "status": "Assigned to Contractor",
    "contractor": "Waste Pro",
    "rowid": "1272975",
    "final_x": "3704024.07345",
    "final_y": "554487.45244",
    "longitude": "-89.99610159727551",
    "latitude": "30.017944554552063",
    "geocoded_column": {
      "latitude": "30.017944554552063",
      "longitude": "-89.99610159727551"
    }
  },
  {
    "service_request": "2026-1272974",
    "request_type": "Property Maintenance",
    "request_reason": "Property Maintenance",
    "date_created": "2026-04-12T17:16:10.000",
    "date_modified": "2026-04-12T17:16:12.000",
    "request_status": "Pending",
    "responsible_agency": "Department of Code Enforcement",
    "final_address": "8820 Heaton St",
    "address_councildis": "A",
    "status": "Pending",
    "rowid": "1272974",
    "final_x": "3667337.48833",
    "final_y": "538216.948105",
    "longitude": "-90.11256529815529",
    "latitude": "29.97433248100481",
    "geocoded_column": {
      "latitude": "29.97433248100481",
      "longitude": "-90.11256529815529"
    }
  },
  {
    "service_request": "2026-1272973",
    "request_type": "Property Maintenance",
    "request_reason": "Property Maintenance",
    "date_created": "2026-04-12T17:14:07.000",
    "date_modified": "2026-04-12T17:14:10.000",
    "request_status": "Pending",
    "responsible_agency": "Department of Code Enforcement",
    "final_address": "8820 Heaton St",
    "address_councildis": "A",
    "status": "Pending",
    "rowid": "1272973",
    "final_x": "3667337.48833",
    "final_y": "538216.948105",
    "longitude": "-90.11256529815529",
    "latitude": "29.97433248100481",
    "geocoded_column": {
      "latitude": "29.97433248100481",
      "longitude": "-90.11256529815529"
    }
  },
  {
    "service_request": "2026-1272972",
    "request_type": "Property Maintenance",
    "request_reason": "Property Maintenance",
    "date_created": "2026-04-12T17:05:51.000",
    "date_modified": "2026-04-12T17:05:53.000",
    "request_status": "Pending",
    "responsible_agency": "Department of Code Enforcement",
    "final_address": "1715 Columbus St",
    "address_councildis": "C",
    "status": "Pending",
    "rowid": "1272972",
    "final_x": "3681343.90364",
    "final_y": "537527.972488",
    "longitude": "-90.06835378205542",
    "latitude": "29.972020290010576",
    "geocoded_column": {
      "latitude": "29.972020290010576",
      "longitude": "-90.06835378205542"
    }
  },
  {
    "service_request": "2026-1272971",
    "request_type": "Trash/Recycling",
    "request_reason": "Start Trash Service",
    "date_created": "2026-04-12T16:58:49.000",
    "date_modified": "2026-04-12T16:58:50.000",
    "request_status": "Pending",
    "responsible_agency": "Department of Sanitation",
    "final_address": "1818 Upperline St",
    "address_councildis": "B",
    "status": "Assigned to Contractor",
    "contractor": "IV Waste",
    "rowid": "1272971",
    "final_x": "3669006.24686",
    "final_y": "521593.011129",
    "longitude": "-90.10785646158749",
    "latitude": "29.928573104377016",
    "geocoded_column": {
      "latitude": "29.928573104377016",
      "longitude": "-90.10785646158749"
    }
  },
  {
    "service_request": "2026-1272970",
    "request_type": "Trash/Recycling",
    "request_reason": "Order Recycling Cart",
    "date_created": "2026-04-12T16:58:11.000",
    "date_modified": "2026-04-12T16:58:12.000",
    "request_status": "Pending",
    "responsible_agency": "Department of Sanitation",
    "final_address": "1818 Upperline St",
    "address_councildis": "B",
    "status": "Pending",
    "rowid": "1272970",
    "final_x": "3669006.24686",
    "final_y": "521593.011129",
    "longitude": "-90.10785646158749",
    "latitude": "29.928573104377016",
    "geocoded_column": {
      "latitude": "29.928573104377016",
      "longitude": "-90.10785646158749"
    }
  },
  {
    "service_request": "2026-1272969",
    "request_type": "Trash/Recycling",
    "request_reason": "Order Trash Cart",
    "date_created": "2026-04-12T16:57:23.000",
    "date_modified": "2026-04-12T16:57:25.000",
    "request_status": "Pending",
    "responsible_agency": "Department of Sanitation",
    "final_address": "1818 Upperline St",
    "address_councildis": "B",
    "status": "Assigned to Contractor",
    "contractor": "IV Waste",
    "rowid": "1272969",
    "final_x": "3669006.24686",
    "final_y": "521593.011129",
    "longitude": "-90.10785646158749",
    "latitude": "29.928573104377016",
    "geocoded_column": {
      "latitude": "29.928573104377016",
      "longitude": "-90.10785646158749"
    }
  },
  {
    "service_request": "2026-1272968",
    "request_type": "Trash/Recycling",
    "request_reason": "Return Trash Cart",
    "date_created": "2026-04-12T16:45:30.000",
    "date_modified": "2026-04-12T16:45:32.000",
    "request_status": "Pending",
    "responsible_agency": "Department of Sanitation",
    "final_address": "919 N Prieur St",
    "address_councildis": "C",
    "status": "Assigned to Contractor",
    "contractor": "IV Waste",
    "rowid": "1272968",
    "final_x": "3679421.99253",
    "final_y": "535971.465415",
    "longitude": "-90.07447749538444",
    "latitude": "29.967798630045834",
    "geocoded_column": {
      "latitude": "29.967798630045834",
      "longitude": "-90.07447749538444"
    }
  },
  {
    "service_request": "2026-1272967",
    "request_type": "Trash/Recycling",
    "request_reason": "Order Recycling Cart",
    "date_created": "2026-04-12T16:42:42.000",
    "date_modified": "2026-04-12T16:42:45.000",
    "request_status": "Pending",
    "responsible_agency": "Department of Sanitation",
    "final_address": "917 N Prieur St",
    "address_councildis": "C",
    "status": "Pending",
    "rowid": "1272967",
    "final_x": "3679414.24315",
    "final_y": "535959.543303",
    "longitude": "-90.07450238178198",
    "latitude": "29.96776608241213",
    "geocoded_column": {
      "latitude": "29.96776608241213",
      "longitude": "-90.07450238178198"
    }
  },
  {
    "service_request": "2026-1272966",
    "request_type": "Trash/Recycling",
    "request_reason": "Order Recycling Cart",
    "date_created": "2026-04-12T16:36:27.000",
    "date_modified": "2026-04-12T16:36:28.000",
    "request_status": "Pending",
    "responsible_agency": "Department of Sanitation",
    "final_address": "3640 Frenchmen St",
    "address_councildis": "D",
    "status": "Pending",
    "rowid": "1272966",
    "final_x": "3683736.21167",
    "final_y": "546175.908176",
    "longitude": "-90.060495108154",
    "latitude": "29.99572623092519",
    "geocoded_column": {
      "latitude": "29.99572623092519",
      "longitude": "-90.060495108154"
    }
  },
  {
    "service_request": "2026-1272965",
    "request_type": "Trash/Recycling",
    "request_reason": "Return Trash Cart",
    "date_created": "2026-04-12T16:23:55.000",
    "date_modified": "2026-04-12T16:23:57.000",
    "request_status": "Pending",
    "responsible_agency": "Department of Sanitation",
    "final_address": "1456 Aviators St",
    "address_councildis": "D",
    "status": "Assigned to Contractor",
    "contractor": "IV Waste",
    "rowid": "1272965",
    "final_x": "3678014.31157",
    "final_y": "554820.724056",
    "longitude": "-90.07827098829934",
    "latitude": "30.019669913871553",
    "geocoded_column": {
      "latitude": "30.019669913871553",
      "longitude": "-90.07827098829934"
    }
  },
  {
    "service_request": "2026-1272964",
    "request_type": "Trash/Recycling",
    "request_reason": "Repair Trash Cart",
    "date_created": "2026-04-12T16:22:48.000",
    "date_modified": "2026-04-12T16:22:49.000",
    "request_status": "Pending",
    "responsible_agency": "Department of Sanitation",
    "final_address": "4130 General Pershing St",
    "address_councildis": "B",
    "status": "Assigned to Contractor",
    "contractor": "IV Waste",
    "rowid": "1272964",
    "final_x": "3669942.42484",
    "final_y": "529351.867841",
    "longitude": "-90.10463849624922",
    "latitude": "29.949879886687896",
    "geocoded_column": {
      "latitude": "29.949879886687896",
      "longitude": "-90.10463849624922"
    }
  },
  {
    "service_request": "2026-1272963",
    "request_type": "Traffic Signals",
    "request_reason": "Traffic Signal Malfunctioning or Damaged",
    "date_created": "2026-04-12T16:15:32.000",
    "date_modified": "2026-04-12T16:15:33.000",
    "request_status": "Pending",
    "responsible_agency": "Department of Public Works",
    "final_address": "5555 Woodlawn Pl",
    "address_councildis": "A",
    "status": "Pending",
    "rowid": "1272963",
    "final_x": "3667539.51636",
    "final_y": "544460.234639",
    "longitude": "-90.11171702616852",
    "latitude": "29.991493486180026",
    "geocoded_column": {
      "latitude": "29.991493486180026",
      "longitude": "-90.11171702616852"
    }
  },
  {
    "service_request": "2026-1272962",
    "request_type": "Streetlights",
    "request_reason": "Streetlight Outage/Malfunction",
    "date_created": "2026-04-12T16:13:00.000",
    "date_modified": "2026-04-12T16:13:03.000",
    "request_status": "Pending",
    "responsible_agency": "Department of Public Works",
    "final_address": "5557 Woodlawn Pl",
    "address_councildis": "A",
    "status": "Pending",
    "rowid": "1272962",
    "final_x": "3667542.86362",
    "final_y": "544498.077839",
    "longitude": "-90.11170517842685",
    "latitude": "29.991597443914134",
    "geocoded_column": {
      "latitude": "29.991597443914134",
      "longitude": "-90.11170517842685"
    }
  },
  {
    "service_request": "2026-1272961",
    "request_type": "Safety & Permits",
    "request_reason": "Zoning Enforcement",
    "date_created": "2026-04-12T16:03:13.000",
    "date_modified": "2026-04-12T16:03:15.000",
    "request_status": "Pending",
    "responsible_agency": "Safety and Permits",
    "final_address": "3067 St Claude Ave",
    "address_councildis": "C",
    "status": "Pending",
    "rowid": "1272961",
    "final_x": "3688984.75798",
    "final_y": "536109.345223",
    "longitude": "-90.04427319419608",
    "latitude": "29.96788540864137",
    "geocoded_column": {
      "latitude": "29.96788540864137",
      "longitude": "-90.04427319419608"
    }
  },
  {
    "service_request": "2026-1272960",
    "request_type": "Trash/Recycling",
    "request_reason": "Request a Large Item Pick Up",
    "date_created": "2026-04-12T15:59:52.000",
    "date_modified": "2026-04-12T15:59:56.000",
    "request_status": "Pending",
    "responsible_agency": "Department of Sanitation",
    "final_address": "117 Mary Jane Ln",
    "address_councildis": "E",
    "status": "Assigned to Contractor",
    "contractor": "Waste Pro",
    "rowid": "1272960",
    "final_x": "3718050.72511",
    "final_y": "571574.47204",
    "longitude": "-89.95113205009822",
    "latitude": "30.064469343373524",
    "geocoded_column": {
      "latitude": "30.064469343373524",
      "longitude": "-89.95113205009822"
    }
  },
  {
    "service_request": "2026-1272959",
    "request_type": "Trash/Recycling",
    "request_reason": "Request a Large Item Pick Up",
    "date_created": "2026-04-12T14:48:03.000",
    "date_modified": "2026-04-12T14:48:05.000",
    "request_status": "Pending",
    "responsible_agency": "Department of Sanitation",
    "final_address": "103 Brunswick Ct",
    "address_councildis": "C",
    "status": "Assigned to Contractor",
    "contractor": "Richards Disposal",
    "rowid": "1272959",
    "final_x": "3705644.50187",
    "final_y": "516978.327925",
    "longitude": "-89.99236866388182",
    "latitude": "29.91475603556388",
    "geocoded_column": {
      "latitude": "29.91475603556388",
      "longitude": "-89.99236866388182"
    }
  },
  {
    "service_request": "2026-1272958",
    "request_type": "General Services",
    "request_reason": "General Service Request",
    "date_created": "2026-04-12T14:38:06.000",
    "date_modified": "2026-04-12T14:38:08.000",
    "request_status": "Pending",
    "responsible_agency": "Orleans Parish Communication District",
    "final_address": "1607 St Ann St Apt B",
    "address_councildis": "C",
    "status": "Pending",
    "rowid": "1272958",
    "final_x": "3680266.09755",
    "final_y": "534742.99175",
    "longitude": "-90.07185449871088",
    "latitude": "29.964395221572698",
    "geocoded_column": {
      "latitude": "29.964395221572698",
      "longitude": "-90.07185449871088"
    }
  },
  {
    "service_request": "2026-1272957",
    "request_type": "Abandoned Vehicles",
    "request_reason": "Abandoned/Junk Vehicles",
    "date_created": "2026-04-12T14:16:52.000",
    "date_modified": "2026-04-12T14:16:54.000",
    "request_status": "Pending",
    "responsible_agency": "Department of Public Works",
    "final_address": "2132 St Ann St",
    "address_councildis": "C",
    "status": "Pending",
    "rowid": "1272957",
    "final_x": "3678613.2116",
    "final_y": "535887.660167",
    "longitude": "-90.07703455138355",
    "latitude": "29.96759260157692",
    "geocoded_column": {
      "latitude": "29.96759260157692",
      "longitude": "-90.07703455138355"
    }
  },
  {
    "service_request": "2026-1272956",
    "request_type": "Trash/Recycling",
    "request_reason": "Request a Large Item Pick Up",
    "date_created": "2026-04-12T14:07:46.000",
    "date_modified": "2026-04-12T14:07:47.000",
    "request_status": "Pending",
    "responsible_agency": "Department of Sanitation",
    "final_address": "6933 Bellaire Dr",
    "address_councildis": "A",
    "status": "Assigned to Contractor",
    "contractor": "IV Waste",
    "rowid": "1272956",
    "final_x": "3664758.28781",
    "final_y": "554027.534552",
    "longitude": "-90.12018238772538",
    "latitude": "30.017881495967004",
    "geocoded_column": {
      "latitude": "30.017881495967004",
      "longitude": "-90.12018238772538"
    }
  },
  {
    "service_request": "2026-1272955",
    "request_type": "General Services",
    "request_reason": "General Service Request",
    "date_created": "2026-04-12T13:40:59.000",
    "date_modified": "2026-04-12T13:41:01.000",
    "request_status": "Pending",
    "responsible_agency": "Orleans Parish Communication District",
    "final_address": "4531 S Tonti St",
    "address_councildis": "B",
    "status": "Pending",
    "rowid": "1272955",
    "final_x": "3669455.55265",
    "final_y": "528132.732927",
    "longitude": "-90.1062170054516",
    "latitude": "29.946542009997945",
    "geocoded_column": {
      "latitude": "29.946542009997945",
      "longitude": "-90.1062170054516"
    }
  },
  {
    "service_request": "2026-1272954",
    "request_type": "Trash/Recycling",
    "request_reason": "Request a Large Item Pick Up",
    "date_created": "2026-04-12T13:36:51.000",
    "date_modified": "2026-04-12T13:36:54.000",
    "request_status": "Pending",
    "responsible_agency": "Department of Sanitation",
    "final_address": "13249 Willowbrook Dr",
    "address_councildis": "E",
    "status": "Assigned to Contractor",
    "contractor": "Waste Pro",
    "rowid": "1272954",
    "final_x": "3727072.87987",
    "final_y": "563968.195937",
    "longitude": "-89.92290858861897",
    "latitude": "30.04325295505631",
    "geocoded_column": {
      "latitude": "30.04325295505631",
      "longitude": "-89.92290858861897"
    }
  },
  {
    "service_request": "2026-1272953",
    "request_type": "Abandoned Vehicles",
    "request_reason": "Abandoned/Junk Vehicles",
    "date_created": "2026-04-12T13:31:44.000",
    "date_modified": "2026-04-12T13:31:46.000",
    "request_status": "Pending",
    "responsible_agency": "Department of Public Works",
    "final_address": "1105 N White St",
    "address_councildis": "A",
    "status": "Pending",
    "rowid": "1272953",
    "final_x": "3677172.76552",
    "final_y": "538857.788361",
    "longitude": "-90.08148104019814",
    "latitude": "29.975802785744516",
    "geocoded_column": {
      "latitude": "29.975802785744516",
      "longitude": "-90.08148104019814"
    }
  },
  {
    "service_request": "2026-1272952",
    "request_type": "Trash/Recycling",
    "request_reason": "Request a Large Item Pick Up",
    "date_created": "2026-04-12T13:26:01.000",
    "date_modified": "2026-04-12T13:26:05.000",
    "request_status": "Pending",
    "responsible_agency": "Department of Sanitation",
    "final_address": "2147 Carnot St",
    "address_councildis": "D",
    "status": "Assigned to Contractor",
    "contractor": "IV Waste",
    "rowid": "1272952",
    "final_x": "3683541.35951",
    "final_y": "549940.04866",
    "longitude": "-90.06097859392806",
    "latitude": "30.00608221578773",
    "geocoded_column": {
      "latitude": "30.00608221578773",
      "longitude": "-90.06097859392806"
    }
  },
  {
    "service_request": "2026-1272951",
    "request_type": "Health Related Request",
    "request_reason": "Noise Ordinance Complaint",
    "date_created": "2026-04-12T12:59:03.000",
    "date_modified": "2026-04-12T12:59:09.000",
    "request_status": "Pending",
    "responsible_agency": "Health Department",
    "final_address": "3005 Dauphine St, New Orleans, Louisiana, 70117",
    "address_councildis": "C",
    "status": "Pending",
    "rowid": "1272951",
    "final_x": "3688208.94243",
    "final_y": "535011.52871",
    "longitude": "-90.0467621651806",
    "latitude": "29.964890772124892",
    "geocoded_column": {
      "latitude": "29.964890772124892",
      "longitude": "-90.0467621651806"
    }
  },
  {
    "service_request": "2026-1272950",
    "request_type": "Trash/Recycling",
    "request_reason": "Request a Large Item Pick Up",
    "date_created": "2026-04-12T12:40:58.000",
    "date_modified": "2026-04-12T12:40:59.000",
    "request_status": "Pending",
    "responsible_agency": "Department of Sanitation",
    "final_address": "8526 Pritchard Pl",
    "address_councildis": "A",
    "status": "Assigned to Contractor",
    "contractor": "IV Waste",
    "rowid": "1272950",
    "final_x": "3664772.02183",
    "final_y": "534006.593605",
    "longitude": "-90.12080839352379",
    "latitude": "29.962830302520548",
    "geocoded_column": {
      "latitude": "29.962830302520548",
      "longitude": "-90.12080839352379"
    }
  },
  {
    "service_request": "2026-1272949",
    "request_type": "Trash/Recycling",
    "request_reason": "Repair Trash Cart",
    "date_created": "2026-04-12T12:40:38.000",
    "date_modified": "2026-04-12T12:40:41.000",
    "request_status": "Pending",
    "responsible_agency": "Department of Sanitation",
    "final_address": "323 Hay Pl",
    "address_councildis": "A",
    "status": "Assigned to Contractor",
    "contractor": "IV Waste",
    "rowid": "1272949",
    "final_x": "3665281.25101",
    "final_y": "554341.47996",
    "longitude": "-90.11851950187467",
    "latitude": "30.01872950080195",
    "geocoded_column": {
      "latitude": "30.01872950080195",
      "longitude": "-90.11851950187467"
    }
  },
  {
    "service_request": "2026-1272948",
    "request_type": "Trash/Recycling",
    "request_reason": "Request a Large Item Pick Up",
    "date_created": "2026-04-12T12:16:01.000",
    "date_modified": "2026-04-12T12:16:04.000",
    "request_status": "Pending",
    "responsible_agency": "Department of Sanitation",
    "final_address": "923 Opelousas Ave",
    "address_councildis": "C",
    "status": "Assigned to Contractor",
    "contractor": "Richards Disposal",
    "rowid": "1272948",
    "final_x": "3688375.92143",
    "final_y": "529018.892352",
    "longitude": "-90.04644739561188",
    "latitude": "29.94840793530198",
    "geocoded_column": {
      "latitude": "29.94840793530198",
      "longitude": "-90.04644739561188"
    }
  },
  {
    "service_request": "2026-1272947",
    "request_type": "Trash/Recycling",
    "request_reason": "Request a Large Item Pick Up",
    "date_created": "2026-04-12T12:08:07.000",
    "date_modified": "2026-04-12T12:08:09.000",
    "request_status": "Pending",
    "responsible_agency": "Department of Sanitation",
    "final_address": "1615 Rousselin Dr",
    "address_councildis": "D",
    "status": "Assigned to Contractor",
    "contractor": "IV Waste",
    "rowid": "1272947",
    "final_x": "3679394.03816",
    "final_y": "540085.447115",
    "longitude": "-90.07442303496798",
    "latitude": "29.97911150751928",
    "geocoded_column": {
      "latitude": "29.97911150751928",
      "longitude": "-90.07442303496798"
    }
  },
  {
    "service_request": "2026-1272946",
    "request_type": "Trash/Recycling",
    "request_reason": "Replace Recycling Cart",
    "date_created": "2026-04-12T12:05:45.000",
    "date_modified": "2026-04-12T12:05:48.000",
    "request_status": "Pending",
    "responsible_agency": "Department of Sanitation",
    "final_address": "3213 Bienville Ave",
    "address_councildis": "B",
    "status": "Pending",
    "rowid": "1272946",
    "final_x": "3674281.50126",
    "final_y": "536991.072904",
    "longitude": "-90.09067642092441",
    "latitude": "29.97075649130557",
    "geocoded_column": {
      "latitude": "29.97075649130557",
      "longitude": "-90.09067642092441"
    }
  },
  {
    "service_request": "2026-1272945",
    "request_type": "Trash/Recycling",
    "request_reason": "Request a Large Item Pick Up",
    "date_created": "2026-04-12T11:55:13.000",
    "date_modified": "2026-04-12T11:55:17.000",
    "request_status": "Pending",
    "responsible_agency": "Department of Sanitation",
    "final_address": "503 Patterson St Apt 2A",
    "address_councildis": "C",
    "status": "Assigned to Contractor",
    "contractor": "Richards Disposal",
    "rowid": "1272945",
    "final_x": "3686856.99638",
    "final_y": "531356.858754",
    "longitude": "-90.05116065981316",
    "latitude": "29.954883361965013",
    "geocoded_column": {
      "latitude": "29.954883361965013",
      "longitude": "-90.05116065981316"
    }
  },
  {
    "service_request": "2026-1272944",
    "request_type": "Health Related Request",
    "request_reason": "Noise Ordinance Complaint",
    "date_created": "2026-04-12T11:41:01.000",
    "date_modified": "2026-04-12T11:41:02.000",
    "request_status": "Pending",
    "responsible_agency": "Health Department",
    "final_address": "229 Decatur St",
    "address_councildis": "C",
    "status": "Pending",
    "rowid": "1272944",
    "final_x": "3682163.07746",
    "final_y": "530764.913346",
    "longitude": "-90.06600293447478",
    "latitude": "29.95339930137399",
    "geocoded_column": {
      "latitude": "29.95339930137399",
      "longitude": "-90.06600293447478"
    }
  },
  {
    "service_request": "2026-1272943",
    "request_type": "Streetlights",
    "request_reason": "Streetlight Outage/Malfunction",
    "date_created": "2026-04-12T11:38:19.000",
    "date_modified": "2026-04-12T11:38:20.000",
    "request_status": "Pending",
    "responsible_agency": "Department of Public Works",
    "final_address": "200 Decatur St",
    "address_councildis": "C",
    "status": "Pending",
    "rowid": "1272943",
    "final_x": "3682117.50172",
    "final_y": "530549.22893",
    "longitude": "-90.06615437467656",
    "latitude": "29.952807628250106",
    "geocoded_column": {
      "latitude": "29.952807628250106",
      "longitude": "-90.06615437467656"
    }
  },
  {
    "service_request": "2026-1272942",
    "request_type": "General Services",
    "request_reason": "General Service Request",
    "date_created": "2026-04-12T11:37:11.000",
    "date_modified": "2026-04-12T11:37:12.000",
    "request_status": "Pending",
    "responsible_agency": "Orleans Parish Communication District",
    "final_address": "5145 Gallier Dr",
    "address_councildis": "D",
    "status": "Pending",
    "rowid": "1272942",
    "final_x": "3691749.75081",
    "final_y": "552967.919703",
    "longitude": "-90.03493801168617",
    "latitude": "30.014154565817144",
    "geocoded_column": {
      "latitude": "30.014154565817144",
      "longitude": "-90.03493801168617"
    }
  },
  {
    "service_request": "2026-1272941",
    "request_type": "Streetlights",
    "request_reason": "Streetlight Knocked Down/Leaning",
    "date_created": "2026-04-12T11:37:10.000",
    "date_modified": "2026-04-12T11:37:12.000",
    "request_status": "Pending",
    "responsible_agency": "Department of Public Works",
    "final_address": "200 BLK Decatur St",
    "address_councildis": "C",
    "status": "Pending",
    "rowid": "1272941",
    "final_x": "3682161.26851",
    "final_y": "530695.637215",
    "longitude": "-90.06601106571894",
    "latitude": "29.953208870498003",
    "geocoded_column": {
      "latitude": "29.953208870498003",
      "longitude": "-90.06601106571894"
    }
  },
  {
    "service_request": "2026-1272940",
    "request_type": "Trash/Recycling",
    "request_reason": "Request a Large Item Pick Up",
    "date_created": "2026-04-12T11:32:30.000",
    "date_modified": "2026-04-12T11:32:32.000",
    "request_status": "Pending",
    "responsible_agency": "Department of Sanitation",
    "final_address": "4600 Murano Rd",
    "address_councildis": "E",
    "status": "Assigned to Contractor",
    "contractor": "Waste Pro",
    "rowid": "1272940",
    "final_x": "3761346.67574",
    "final_y": "574018.146538",
    "longitude": "-89.81417089373622",
    "latitude": "30.069681198021065",
    "geocoded_column": {
      "latitude": "30.069681198021065",
      "longitude": "-89.81417089373622"
    }
  },
  {
    "service_request": "2026-1272939",
    "request_type": "Abandoned Vehicles",
    "request_reason": "Abandoned/Junk Vehicles",
    "date_created": "2026-04-12T11:25:07.000",
    "date_modified": "2026-04-12T11:25:09.000",
    "request_status": "Pending",
    "responsible_agency": "Department of Public Works",
    "final_address": "9237 Dwyer Rd",
    "address_councildis": "E",
    "status": "Pending",
    "rowid": "1272939",
    "final_x": "3708873.44484",
    "final_y": "557158.238555",
    "longitude": "-89.98067996620327",
    "latitude": "30.025131671823132",
    "geocoded_column": {
      "latitude": "30.025131671823132",
      "longitude": "-89.98067996620327"
    }
  },
  {
    "service_request": "2026-1272938",
    "request_type": "Abandoned Vehicles",
    "request_reason": "Abandoned/Junk Vehicles",
    "date_created": "2026-04-12T11:16:27.000",
    "date_modified": "2026-04-12T11:16:28.000",
    "request_status": "Pending",
    "responsible_agency": "Department of Public Works",
    "final_address": "8921 Dwyer Rd",
    "address_councildis": "E",
    "status": "Pending",
    "rowid": "1272938",
    "final_x": "3707986.08318",
    "final_y": "557092.930714",
    "longitude": "-89.98348629703534",
    "latitude": "30.02498087385105",
    "geocoded_column": {
      "latitude": "30.02498087385105",
      "longitude": "-89.98348629703534"
    }
  },
  {
    "service_request": "2026-1272937",
    "request_type": "Trash/Recycling",
    "request_reason": "Damaged Caused By Contractor",
    "date_created": "2026-04-12T11:13:10.000",
    "date_modified": "2026-04-12T11:13:12.000",
    "request_status": "Pending",
    "responsible_agency": "Department of Sanitation",
    "final_address": "5751 Abbey Dr",
    "address_councildis": "C",
    "status": "Assigned to Contractor",
    "contractor": "Richards Disposal",
    "rowid": "1272937",
    "final_x": "3704972.82398",
    "final_y": "520972.378745",
    "longitude": "-89.9943413816798",
    "latitude": "29.925759889038055",
    "geocoded_column": {
      "latitude": "29.925759889038055",
      "longitude": "-89.9943413816798"
    }
  },
  {
    "service_request": "2026-1272936",
    "request_type": "Trash/Recycling",
    "request_reason": "Request a Large Item Pick Up",
    "date_created": "2026-04-12T11:08:27.000",
    "date_modified": "2026-04-12T11:08:29.000",
    "request_status": "Pending",
    "responsible_agency": "Department of Sanitation",
    "final_address": "833 Opelousas Ave",
    "address_councildis": "C",
    "status": "Assigned to Contractor",
    "contractor": "Richards Disposal",
    "rowid": "1272936",
    "final_x": "3688092.38607",
    "final_y": "529034.362752",
    "longitude": "-90.04734208395209",
    "latitude": "29.948459226502433",
    "geocoded_column": {
      "latitude": "29.948459226502433",
      "longitude": "-90.04734208395209"
    }
  },
  {
    "service_request": "2026-1272935",
    "request_type": "General Services",
    "request_reason": "General Service Request",
    "date_created": "2026-04-12T10:58:05.000",
    "date_modified": "2026-04-12T10:58:07.000",
    "request_status": "Pending",
    "responsible_agency": "Orleans Parish Communication District",
    "final_address": "5968 Patton St",
    "address_councildis": "A",
    "status": "Pending",
    "rowid": "1272935",
    "final_x": "3664535.37108",
    "final_y": "518512.921079",
    "longitude": "-90.12207291481566",
    "latitude": "29.92023454450117",
    "geocoded_column": {
      "latitude": "29.92023454450117",
      "longitude": "-90.12207291481566"
    }
  },
  {
    "service_request": "2026-1272934",
    "request_type": "Trash/Recycling",
    "request_reason": "Replace Trash Cart",
    "date_created": "2026-04-12T10:57:56.000",
    "date_modified": "2026-04-12T10:58:01.000",
    "request_status": "Pending",
    "responsible_agency": "Department of Sanitation",
    "final_address": "2523 Peniston St",
    "address_councildis": "B",
    "status": "Assigned to Contractor",
    "contractor": "IV Waste",
    "rowid": "1272934",
    "final_x": "3672127.34446",
    "final_y": "524437.438844",
    "longitude": "-90.09790698353414",
    "latitude": "29.93630220913585",
    "geocoded_column": {
      "latitude": "29.93630220913585",
      "longitude": "-90.09790698353414"
    }
  },
  {
    "service_request": "2026-1272933",
    "request_type": "Road Striping",
    "request_reason": "Lane Striping or other Pavement Markings",
    "date_created": "2026-04-12T10:51:26.000",
    "date_modified": "2026-04-12T10:51:28.000",
    "request_status": "Pending",
    "responsible_agency": "Department of Public Works",
    "final_address": "2918 S Claiborne Ave",
    "address_councildis": "B",
    "status": "Pending",
    "rowid": "1272933",
    "final_x": "3672778.91156",
    "final_y": "526250.936126",
    "longitude": "-90.09578812609764",
    "latitude": "29.94126940345766",
    "geocoded_column": {
      "latitude": "29.94126940345766",
      "longitude": "-90.09578812609764"
    }
  },
  {
    "service_request": "2026-1272932",
    "request_type": "Trash/Recycling",
    "request_reason": "Replace Trash Cart",
    "date_created": "2026-04-12T10:51:11.000",
    "date_modified": "2026-04-12T10:51:14.000",
    "request_status": "Pending",
    "responsible_agency": "Department of Sanitation",
    "final_address": "4932 Perrier St",
    "address_councildis": "B",
    "status": "Assigned to Contractor",
    "contractor": "IV Waste",
    "rowid": "1272932",
    "final_x": "3668760.47623",
    "final_y": "519850.175224",
    "longitude": "-90.10869111122564",
    "latitude": "29.923788084665805",
    "geocoded_column": {
      "latitude": "29.923788084665805",
      "longitude": "-90.10869111122564"
    }
  },
  {
    "service_request": "2026-1272931",
    "request_type": "General Services",
    "request_reason": "General Service Request",
    "date_created": "2026-04-12T10:38:38.000",
    "date_modified": "2026-04-12T10:38:40.000",
    "request_status": "Pending",
    "responsible_agency": "Orleans Parish Communication District",
    "final_address": "444 Common St",
    "address_councildis": "B",
    "status": "Pending",
    "rowid": "1272931",
    "final_x": "3681787.72476",
    "final_y": "529872.271553",
    "longitude": "-90.06721928166316",
    "latitude": "29.950956248100372",
    "geocoded_column": {
      "latitude": "29.950956248100372",
      "longitude": "-90.06721928166316"
    }
  },
  {
    "service_request": "2026-1272930",
    "request_type": "Trash/Recycling",
    "request_reason": "Illegal Dumping",
    "date_created": "2026-04-12T10:35:27.000",
    "date_modified": "2026-04-12T10:35:29.000",
    "request_status": "Pending",
    "responsible_agency": "Department of Sanitation",
    "final_address": "2117 Lapeyrouse St",
    "address_councildis": "D",
    "status": "Pending",
    "rowid": "1272930",
    "final_x": "3680694.49858",
    "final_y": "539025.227338",
    "longitude": "-90.07035258824878",
    "latitude": "29.976156920320896",
    "geocoded_column": {
      "latitude": "29.976156920320896",
      "longitude": "-90.07035258824878"
    }
  },
  {
    "service_request": "2026-1272929",
    "request_type": "Abandoned Vehicles",
    "request_reason": "Abandoned/Junk Vehicles",
    "date_created": "2026-04-12T10:24:45.000",
    "date_modified": "2026-04-12T10:24:48.000",
    "request_status": "Pending",
    "responsible_agency": "Department of Public Works",
    "final_address": "5231 Norgate Dr",
    "address_councildis": "E",
    "status": "Pending",
    "rowid": "1272929",
    "final_x": "3707491.90846",
    "final_y": "557455.820379",
    "longitude": "-89.98503430348735",
    "latitude": "30.025994676648963",
    "geocoded_column": {
      "latitude": "30.025994676648963",
      "longitude": "-89.98503430348735"
    }
  },
  {
    "service_request": "2026-1272928",
    "request_type": "Abandoned Vehicles",
    "request_reason": "Abandoned/Junk Vehicles",
    "date_created": "2026-04-12T10:13:00.000",
    "date_modified": "2026-04-12T10:13:02.000",
    "request_status": "Pending",
    "responsible_agency": "Department of Public Works",
    "final_address": "5221 Edenboro Rd",
    "address_councildis": "E",
    "status": "Pending",
    "rowid": "1272928",
    "final_x": "3708529.08939",
    "final_y": "557514.377115",
    "longitude": "-89.98175479199777",
    "latitude": "30.02612208641367",
    "geocoded_column": {
      "latitude": "30.02612208641367",
      "longitude": "-89.98175479199777"
    }
  },
  {
    "service_request": "2026-1272927",
    "request_type": "Trash/Recycling",
    "request_reason": "Replace Trash Cart",
    "date_created": "2026-04-12T09:24:10.000",
    "date_modified": "2026-04-12T09:24:13.000",
    "request_status": "Pending",
    "responsible_agency": "Department of Sanitation",
    "final_address": "4519 Bancroft Dr",
    "address_councildis": "D",
    "status": "Assigned to Contractor",
    "contractor": "IV Waste",
    "rowid": "1272927",
    "final_x": "3676275.65563",
    "final_y": "548875.553299",
    "longitude": "-90.08396939482537",
    "latitude": "30.003375069048026",
    "geocoded_column": {
      "latitude": "30.003375069048026",
      "longitude": "-90.08396939482537"
    }
  },
  {
    "service_request": "2026-1272926",
    "request_type": "Trash/Recycling",
    "request_reason": "Request a Large Item Pick Up",
    "date_created": "2026-04-12T09:19:36.000",
    "date_modified": "2026-04-12T09:19:37.000",
    "request_status": "Pending",
    "responsible_agency": "Department of Sanitation",
    "final_address": "1013 N Carrollton Ave",
    "address_councildis": "A",
    "status": "Assigned to Contractor",
    "contractor": "IV Waste",
    "rowid": "1272926",
    "final_x": "3673703.46401",
    "final_y": "541297.368908",
    "longitude": "-90.09235464654729",
    "latitude": "29.982614561481814",
    "geocoded_column": {
      "latitude": "29.982614561481814",
      "longitude": "-90.09235464654729"
    }
  },
  {
    "service_request": "2026-1272925",
    "request_type": "Abandoned Vehicles",
    "request_reason": "Abandoned/Junk Vehicles",
    "date_created": "2026-04-12T09:16:04.000",
    "date_modified": "2026-04-12T09:16:06.000",
    "request_status": "Pending",
    "responsible_agency": "Department of Public Works",
    "final_address": "5700 General Diaz St",
    "address_councildis": "A",
    "status": "Pending",
    "rowid": "1272925",
    "final_x": "3669296.48711",
    "final_y": "545392.13192",
    "longitude": "-90.1061356001825",
    "latitude": "29.994004260845568",
    "geocoded_column": {
      "latitude": "29.994004260845568",
      "longitude": "-90.1061356001825"
    }
  },
  {
    "service_request": "2026-1272924",
    "request_type": "Trash/Recycling",
    "request_reason": "Request a Large Item Pick Up",
    "date_created": "2026-04-12T09:12:36.000",
    "date_modified": "2026-04-12T09:12:38.000",
    "request_status": "Pending",
    "responsible_agency": "Department of Sanitation",
    "final_address": "7711 Panola St",
    "address_councildis": "A",
    "status": "Assigned to Contractor",
    "contractor": "IV Waste",
    "rowid": "1272924",
    "final_x": "3665169.57639",
    "final_y": "529838.891969",
    "longitude": "-90.11969236026898",
    "latitude": "29.951358909409098",
    "geocoded_column": {
      "latitude": "29.951358909409098",
      "longitude": "-90.11969236026898"
    }
  },
  {
    "service_request": "2026-1272923",
    "request_type": "Trash/Recycling",
    "request_reason": "Order Second Trash Cart",
    "date_created": "2026-04-12T09:04:34.000",
    "date_modified": "2026-04-12T09:04:43.000",
    "request_status": "Pending",
    "responsible_agency": "Department of Sanitation",
    "final_address": "3127 Milan St",
    "address_councildis": "B",
    "status": "Assigned to Contractor",
    "contractor": "IV Waste",
    "rowid": "1272923",
    "final_x": "3671071.99867",
    "final_y": "526551.290686",
    "longitude": "-90.10116699004622",
    "latitude": "29.942145861197677",
    "geocoded_column": {
      "latitude": "29.942145861197677",
      "longitude": "-90.10116699004622"
    }
  },
  {
    "service_request": "2026-1272922",
    "request_type": "Trash/Recycling",
    "request_reason": "Order Recycling Cart",
    "date_created": "2026-04-12T08:45:05.000",
    "date_modified": "2026-04-12T08:45:07.000",
    "request_status": "Pending",
    "responsible_agency": "Department of Sanitation",
    "final_address": "1200 BLK Ursulines Ave",
    "address_councildis": "C",
    "status": "Pending",
    "rowid": "1272922",
    "final_x": "3681829.62941",
    "final_y": "534877.044535",
    "longitude": "-90.0669123129784",
    "latitude": "29.964716397613305",
    "geocoded_column": {
      "latitude": "29.964716397613305",
      "longitude": "-90.0669123129784"
    }
  },
  {
    "service_request": "2026-1272921",
    "request_type": "Trash/Recycling",
    "request_reason": "Repair Trash Cart",
    "date_created": "2026-04-12T08:30:17.000",
    "date_modified": "2026-04-12T08:30:20.000",
    "request_status": "Pending",
    "responsible_agency": "Department of Sanitation",
    "final_address": "2340 Dauphine St",
    "address_councildis": "C",
    "status": "Assigned to Contractor",
    "contractor": "IV Waste",
    "rowid": "1272921",
    "final_x": "3685841.38044",
    "final_y": "535265.53543",
    "longitude": "-90.05422980785603",
    "latitude": "29.965662085508974",
    "geocoded_column": {
      "latitude": "29.965662085508974",
      "longitude": "-90.05422980785603"
    }
  },
  {
    "service_request": "2026-1272920",
    "request_type": "Trash/Recycling",
    "request_reason": "Replace Trash Cart",
    "date_created": "2026-04-12T08:22:14.000",
    "date_modified": "2026-04-12T08:22:17.000",
    "request_status": "Pending",
    "responsible_agency": "Department of Sanitation",
    "final_address": "6237 Warrington Dr",
    "address_councildis": "D",
    "status": "Assigned to Contractor",
    "contractor": "IV Waste",
    "rowid": "1272920",
    "final_x": "3680858.75144",
    "final_y": "556037.562073",
    "longitude": "-90.06924108054284",
    "latitude": "30.0229297999226",
    "geocoded_column": {
      "latitude": "30.0229297999226",
      "longitude": "-90.06924108054284"
    }
  },
  {
    "service_request": "2026-1272919",
    "request_type": "Trash/Recycling",
    "request_reason": "Repair Trash Cart",
    "date_created": "2026-04-12T08:12:52.000",
    "date_modified": "2026-04-12T08:12:54.000",
    "request_status": "Pending",
    "responsible_agency": "Department of Sanitation",
    "final_address": "1536 St Roch Ave",
    "address_councildis": "C",
    "status": "Assigned to Contractor",
    "contractor": "IV Waste",
    "rowid": "1272919",
    "final_x": "3686273.86774",
    "final_y": "538182.611337",
    "longitude": "-90.05276108066712",
    "latitude": "29.973669745261617",
    "geocoded_column": {
      "latitude": "29.973669745261617",
      "longitude": "-90.05276108066712"
    }
  },
  {
    "service_request": "2026-1272918",
    "request_type": "Trash/Recycling",
    "request_reason": "Repair Trash Cart",
    "date_created": "2026-04-12T08:11:15.000",
    "date_modified": "2026-04-12T08:11:17.000",
    "request_status": "Pending",
    "responsible_agency": "Department of Sanitation",
    "final_address": "1534 St Roch Ave",
    "address_councildis": "C",
    "status": "Assigned to Contractor",
    "contractor": "IV Waste",
    "rowid": "1272918",
    "final_x": "3686270.35113",
    "final_y": "538161.321993",
    "longitude": "-90.05277293826832",
    "latitude": "29.97361131508474",
    "geocoded_column": {
      "latitude": "29.97361131508474",
      "longitude": "-90.05277293826832"
    }
  },
  {
    "service_request": "2026-1272917",
    "request_type": "Trash/Recycling",
    "request_reason": "Request a Large Item Pick Up",
    "date_created": "2026-04-12T08:09:22.000",
    "date_modified": "2026-04-12T08:09:23.000",
    "request_status": "Pending",
    "responsible_agency": "Department of Sanitation",
    "final_address": "2419 N Claiborne Ave",
    "address_councildis": "D",
    "status": "Assigned to Contractor",
    "contractor": "IV Waste",
    "rowid": "1272917",
    "final_x": "3686572.0893",
    "final_y": "538319.395337",
    "longitude": "-90.05181440351615",
    "latitude": "29.97403668569367",
    "geocoded_column": {
      "latitude": "29.97403668569367",
      "longitude": "-90.05181440351615"
    }
  },
  {
    "service_request": "2026-1272916",
    "request_type": "Trash/Recycling",
    "request_reason": "Request a Large Item Pick Up",
    "date_created": "2026-04-12T06:54:24.000",
    "date_modified": "2026-04-12T06:54:27.000",
    "request_status": "Pending",
    "responsible_agency": "Department of Sanitation",
    "final_address": "5013 Coliseum St",
    "address_councildis": "B",
    "status": "Assigned to Contractor",
    "contractor": "IV Waste",
    "rowid": "1272916",
    "final_x": "3668544.35476",
    "final_y": "519681.185528",
    "longitude": "-90.10937902846682",
    "latitude": "29.923329766067745",
    "geocoded_column": {
      "latitude": "29.923329766067745",
      "longitude": "-90.10937902846682"
    }
  },
  {
    "service_request": "2026-1272915",
    "request_type": "Roads and Streets",
    "request_reason": "Pothole",
    "date_created": "2026-04-12T04:57:25.000",
    "date_modified": "2026-04-12T04:57:27.000",
    "request_status": "Pending",
    "responsible_agency": "Department of Public Works",
    "final_address": "RHODES AVE & CHELSEA DR",
    "address_councildis": "C",
    "status": "Pending",
    "rowid": "1272915",
    "final_x": "3704135.3",
    "final_y": "519893.88",
    "longitude": "-89.99702487650734",
    "latitude": "29.922821276239247",
    "geocoded_column": {
      "latitude": "29.922821276239247",
      "longitude": "-89.99702487650734"
    }
  },
  {
    "service_request": "2026-1272914",
    "request_type": "Streetlights",
    "request_reason": "Streetlight Outage/Malfunction",
    "date_created": "2026-04-12T03:58:21.000",
    "date_modified": "2026-04-12T03:58:24.000",
    "request_status": "Pending",
    "responsible_agency": "Department of Public Works",
    "final_address": "7433 Dogwood Dr",
    "address_councildis": "E",
    "status": "Pending",
    "rowid": "1272914",
    "final_x": "3701531.79652",
    "final_y": "560601.984158",
    "longitude": "-90.00375200802554",
    "latitude": "30.034836898343386",
    "geocoded_column": {
      "latitude": "30.034836898343386",
      "longitude": "-90.00375200802554"
    }
  },
  {
    "service_request": "2026-1272913",
    "request_type": "Property Maintenance",
    "request_reason": "Property Maintenance",
    "date_created": "2026-04-12T02:28:44.000",
    "date_modified": "2026-04-12T02:28:46.000",
    "request_status": "Pending",
    "responsible_agency": "Department of Code Enforcement",
    "final_address": "3200 BLK N Claiborne Ave",
    "address_councildis": "D",
    "status": "Pending",
    "rowid": "1272913",
    "final_x": "3690165.20001",
    "final_y": "537692.799402",
    "longitude": "-90.04048891170338",
    "latitude": "29.972202782295142",
    "geocoded_column": {
      "latitude": "29.972202782295142",
      "longitude": "-90.04048891170338"
    }
  },
  {
    "service_request": "2026-1272912",
    "request_type": "Trash/Recycling",
    "request_reason": "Request a Large Item Pick Up",
    "date_created": "2026-04-11T23:17:21.000",
    "date_modified": "2026-04-11T23:17:23.000",
    "request_status": "Pending",
    "responsible_agency": "Department of Sanitation",
    "final_address": "2024 Danneel St",
    "address_councildis": "B",
    "status": "Assigned to Contractor",
    "contractor": "IV Waste",
    "rowid": "1272912",
    "final_x": "3677095.6836",
    "final_y": "525284.590077",
    "longitude": "-90.08219256169419",
    "latitude": "29.938483367740236",
    "geocoded_column": {
      "latitude": "29.938483367740236",
      "longitude": "-90.08219256169419"
    }
  },
  {
    "service_request": "2026-1272911",
    "request_type": "Tree Service",
    "request_reason": "Dead or Dying Tree",
    "date_created": "2026-04-11T22:59:25.000",
    "date_modified": "2026-04-11T22:59:28.000",
    "request_status": "Pending",
    "responsible_agency": "Department of Parks & Parkways",
    "final_address": "4601 S Johnson St",
    "address_councildis": "B",
    "status": "Pending",
    "rowid": "1272911",
    "final_x": "3669415.92359",
    "final_y": "527177.905471",
    "longitude": "-90.10637441047602",
    "latitude": "29.943917711936873",
    "geocoded_column": {
      "latitude": "29.943917711936873",
      "longitude": "-90.10637441047602"
    }
  },
  {
    "service_request": "2026-1272910",
    "request_type": "Graffiti Removal",
    "request_reason": "Graffiti Removal",
    "date_created": "2026-04-11T22:13:35.000",
    "date_modified": "2026-04-11T22:13:37.000",
    "request_status": "Pending",
    "responsible_agency": "Department of Code Enforcement",
    "final_address": "315 Decatur St",
    "address_councildis": "C",
    "status": "Pending",
    "rowid": "1272910",
    "final_x": "3682332.13967",
    "final_y": "530970.484162",
    "longitude": "-90.06546192627788",
    "latitude": "29.953959408807965",
    "geocoded_column": {
      "latitude": "29.953959408807965",
      "longitude": "-90.06546192627788"
    }
  },
  {
    "service_request": "2026-1272909",
    "request_type": "Health Related Request",
    "request_reason": "Noise Ordinance Complaint",
    "date_created": "2026-04-11T21:22:45.000",
    "date_modified": "2026-04-11T21:22:48.000",
    "request_status": "Pending",
    "responsible_agency": "Health Department",
    "final_address": "2520 Upperline St",
    "address_councildis": "B",
    "status": "Pending",
    "rowid": "1272909",
    "final_x": "3669130.7545",
    "final_y": "524093.779196",
    "longitude": "-90.10737895257795",
    "latitude": "29.935445753914102",
    "geocoded_column": {
      "latitude": "29.935445753914102",
      "longitude": "-90.10737895257795"
    }
  },
  {
    "service_request": "2026-1272908",
    "request_type": "Road Striping",
    "request_reason": "Lane Striping or other Pavement Markings",
    "date_created": "2026-04-11T21:17:37.000",
    "date_modified": "2026-04-11T21:17:38.000",
    "request_status": "Pending",
    "responsible_agency": "Department of Public Works",
    "final_address": "2221 Filmore Ave",
    "address_councildis": "D",
    "status": "Pending",
    "rowid": "1272908",
    "final_x": "3683956.72879",
    "final_y": "552362.274134",
    "longitude": "-90.05958127766745",
    "latitude": "30.01272976776943",
    "geocoded_column": {
      "latitude": "30.01272976776943",
      "longitude": "-90.05958127766745"
    }
  },
  {
    "service_request": "2026-1272907",
    "request_type": "Safety & Permits",
    "request_reason": "Licenses & Permits",
    "date_created": "2026-04-11T21:16:17.000",
    "date_modified": "2026-04-11T21:16:19.000",
    "request_status": "Pending",
    "responsible_agency": "Safety and Permits",
    "final_address": "1004 Louisiana Ave",
    "address_councildis": "B",
    "status": "Pending",
    "rowid": "1272907",
    "final_x": "3675088.65057",
    "final_y": "519329.014711",
    "longitude": "-90.08873320642108",
    "latitude": "29.92216757323262",
    "geocoded_column": {
      "latitude": "29.92216757323262",
      "longitude": "-90.08873320642108"
    }
  },
  {
    "service_request": "2026-1272906",
    "request_type": "Roads and Streets",
    "request_reason": "Pothole",
    "date_created": "2026-04-11T21:06:39.000",
    "date_modified": "2026-04-11T21:06:41.000",
    "request_status": "Pending",
    "responsible_agency": "Department of Public Works",
    "final_address": "4135 S Carrollton Ave",
    "address_councildis": "A",
    "status": "Pending",
    "rowid": "1272906",
    "final_x": "3669309.94919",
    "final_y": "536655.772039",
    "longitude": "-90.10638857833774",
    "latitude": "29.969981840729513",
    "geocoded_column": {
      "latitude": "29.969981840729513",
      "longitude": "-90.10638857833774"
    }
  },
  {
    "service_request": "2026-1272905",
    "request_type": "Trash/Recycling",
    "request_reason": "Repair Trash Cart",
    "date_created": "2026-04-11T21:03:09.000",
    "date_modified": "2026-04-11T21:03:11.000",
    "request_status": "Pending",
    "responsible_agency": "Department of Sanitation",
    "final_address": "1720 St Charles Ave",
    "address_councildis": "B",
    "status": "Assigned to Contractor",
    "contractor": "IV Waste",
    "rowid": "1272905",
    "final_x": "3678851.32475",
    "final_y": "524807.80582",
    "longitude": "-90.07666633188111",
    "latitude": "29.937119541078165",
    "geocoded_column": {
      "latitude": "29.937119541078165",
      "longitude": "-90.07666633188111"
    }
  },
  {
    "service_request": "2026-1272904",
    "request_type": "Health Related Request",
    "request_reason": "Noise Ordinance Complaint",
    "date_created": "2026-04-11T20:41:27.000",
    "date_modified": "2026-04-11T20:41:28.000",
    "request_status": "Pending",
    "responsible_agency": "Health Department",
    "final_address": "801 Bourbon St, New Orleans, Louisiana, 70116",
    "address_councildis": "C",
    "status": "Pending",
    "rowid": "1272904",
    "final_x": "3682490.98735",
    "final_y": "533018.672772",
    "longitude": "-90.06488875731978",
    "latitude": "29.959586396383013",
    "geocoded_column": {
      "latitude": "29.959586396383013",
      "longitude": "-90.06488875731978"
    }
  },
  {
    "service_request": "2026-1272903",
    "request_type": "Trash/Recycling",
    "request_reason": "Request a Large Item Pick Up",
    "date_created": "2026-04-11T20:40:51.000",
    "date_modified": "2026-04-11T20:40:53.000",
    "request_status": "Pending",
    "responsible_agency": "Department of Sanitation",
    "final_address": "7128 Memphis St",
    "address_councildis": "A",
    "status": "Assigned to Contractor",
    "contractor": "IV Waste",
    "rowid": "1272903",
    "final_x": "3669781.29287",
    "final_y": "554478.734232",
    "longitude": "-90.10429628898264",
    "latitude": "30.018974950437322",
    "geocoded_column": {
      "latitude": "30.018974950437322",
      "longitude": "-90.10429628898264"
    }
  },
  {
    "service_request": "2026-1272902",
    "request_type": "Health Related Request",
    "request_reason": "Noise Ordinance Complaint",
    "date_created": "2026-04-11T20:22:46.000",
    "date_modified": "2026-04-11T20:22:47.000",
    "request_status": "Pending",
    "responsible_agency": "Health Department",
    "final_address": "800 Bourbon St, New Orleans, Louisiana, 70116",
    "address_councildis": "C",
    "status": "Pending",
    "rowid": "1272902",
    "final_x": "3682553.51528",
    "final_y": "533013.631428",
    "longitude": "-90.06469148499534",
    "latitude": "29.95957063099051",
    "geocoded_column": {
      "latitude": "29.95957063099051",
      "longitude": "-90.06469148499534"
    }
  },
  {
    "service_request": "2026-1272901",
    "request_type": "Health Related Request",
    "request_reason": "Noise Ordinance Complaint",
    "date_created": "2026-04-11T20:22:25.000",
    "date_modified": "2026-04-11T20:22:27.000",
    "request_status": "Pending",
    "responsible_agency": "Health Department",
    "final_address": "801 Bourbon St, New Orleans, Louisiana, 70116",
    "address_councildis": "C",
    "status": "Pending",
    "rowid": "1272901",
    "final_x": "3682490.98735",
    "final_y": "533018.672772",
    "longitude": "-90.06488875731978",
    "latitude": "29.959586396383013",
    "geocoded_column": {
      "latitude": "29.959586396383013",
      "longitude": "-90.06488875731978"
    }
  },
  {
    "service_request": "2026-1272900",
    "request_type": "Trash/Recycling",
    "request_reason": "Replace Trash Cart",
    "date_created": "2026-04-11T19:50:33.000",
    "date_modified": "2026-04-11T19:50:36.000",
    "request_status": "Pending",
    "responsible_agency": "Department of Sanitation",
    "final_address": "1523 Columbus St",
    "address_councildis": "C",
    "status": "Assigned to Contractor",
    "contractor": "IV Waste",
    "rowid": "1272900",
    "final_x": "3681890.22044",
    "final_y": "537101.27412",
    "longitude": "-90.0666433231348",
    "latitude": "29.97083042193257",
    "geocoded_column": {
      "latitude": "29.97083042193257",
      "longitude": "-90.0666433231348"
    }
  },
  {
    "service_request": "2026-1272899",
    "request_type": "Trash/Recycling",
    "request_reason": "Missed Trash Pick-Up",
    "date_created": "2026-04-11T19:37:58.000",
    "date_modified": "2026-04-11T19:38:00.000",
    "request_status": "Pending",
    "responsible_agency": "Department of Sanitation",
    "final_address": "7526 Mackenzie St",
    "address_councildis": "E",
    "status": "Assigned to Contractor",
    "contractor": "Waste Pro",
    "rowid": "1272899",
    "final_x": "3711386.98776",
    "final_y": "565489.137186",
    "longitude": "-89.97242498971666",
    "latitude": "30.047956493185914",
    "geocoded_column": {
      "latitude": "30.047956493185914",
      "longitude": "-89.97242498971666"
    }
  },
  {
    "service_request": "2026-1272898",
    "request_type": "General Services",
    "request_reason": "General Service Request",
    "date_created": "2026-04-11T19:19:21.000",
    "date_modified": "2026-04-11T19:19:24.000",
    "request_status": "Pending",
    "responsible_agency": "Orleans Parish Communication District",
    "final_address": "3877 Wall Blvd",
    "address_councildis": "C",
    "status": "Pending",
    "rowid": "1272898",
    "final_x": "3698582.31018",
    "final_y": "523616.583227",
    "longitude": "-90.01441811385787",
    "latitude": "29.933234333089068",
    "geocoded_column": {
      "latitude": "29.933234333089068",
      "longitude": "-90.01441811385787"
    }
  },
  {
    "service_request": "2026-1272897",
    "request_type": "Trash/Recycling",
    "request_reason": "Request a Large Item Pick Up",
    "date_created": "2026-04-11T18:59:34.000",
    "date_modified": "2026-04-11T18:59:36.000",
    "request_status": "Pending",
    "responsible_agency": "Department of Sanitation",
    "final_address": "2117 Dante St",
    "address_councildis": "A",
    "status": "Assigned to Contractor",
    "contractor": "IV Waste",
    "rowid": "1272897",
    "final_x": "3663714.07239",
    "final_y": "531320.087746",
    "longitude": "-90.12423879761272",
    "latitude": "29.955474027656003",
    "geocoded_column": {
      "latitude": "29.955474027656003",
      "longitude": "-90.12423879761272"
    }
  },
  {
    "service_request": "2026-1272896",
    "request_type": "Trash/Recycling",
    "request_reason": "Request a Large Item Pick Up",
    "date_created": "2026-04-11T18:34:48.000",
    "date_modified": "2026-04-11T18:34:59.000",
    "request_status": "Pending",
    "responsible_agency": "Department of Sanitation",
    "final_address": "5810 Pratt Dr",
    "address_councildis": "D",
    "status": "Assigned to Contractor",
    "contractor": "IV Waste",
    "rowid": "1272896",
    "final_x": "3680159.51439",
    "final_y": "554006.18204",
    "longitude": "-90.07152119517099",
    "latitude": "30.01736543739235",
    "geocoded_column": {
      "latitude": "30.01736543739235",
      "longitude": "-90.07152119517099"
    }
  },
  {
    "service_request": "2026-1272895",
    "request_type": "Trash/Recycling",
    "request_reason": "Request a Large Item Pick Up",
    "date_created": "2026-04-11T17:58:31.000",
    "date_modified": "2026-04-11T17:58:33.000",
    "request_status": "Pending",
    "responsible_agency": "Department of Sanitation",
    "final_address": "508 Fern St",
    "address_councildis": "A",
    "status": "Assigned to Contractor",
    "contractor": "IV Waste",
    "rowid": "1272895",
    "final_x": "3660894.98189",
    "final_y": "526109.124542",
    "longitude": "-90.13331284067704",
    "latitude": "29.941227037846375",
    "geocoded_column": {
      "latitude": "29.941227037846375",
      "longitude": "-90.13331284067704"
    }
  },
  {
    "service_request": "2026-1272894",
    "request_type": "Abandoned Vehicles",
    "request_reason": "Abandoned/Junk Vehicles",
    "date_created": "2026-04-11T17:23:49.000",
    "date_modified": "2026-04-11T17:23:50.000",
    "request_status": "Pending",
    "responsible_agency": "Department of Public Works",
    "final_address": "4923 Perrault Walk",
    "address_councildis": "E",
    "status": "Pending",
    "rowid": "1272894",
    "final_x": "3709754.65861",
    "final_y": "556780.875482",
    "longitude": "-89.97790959925578",
    "latitude": "30.024065438518235",
    "geocoded_column": {
      "latitude": "30.024065438518235",
      "longitude": "-89.97790959925578"
    }
  },
  {
    "service_request": "2026-1272893",
    "request_type": "Trash/Recycling",
    "request_reason": "Request a Large Item Pick Up",
    "date_created": "2026-04-11T17:08:37.000",
    "date_modified": "2026-04-11T17:08:44.000",
    "request_status": "Pending",
    "responsible_agency": "Department of Sanitation",
    "final_address": "4800 Savoie Ct",
    "address_councildis": "E",
    "status": "Assigned to Contractor",
    "contractor": "Waste Pro",
    "rowid": "1272893",
    "final_x": "3725330.61504",
    "final_y": "560775.393822",
    "longitude": "-89.92853850387546",
    "latitude": "30.03453291923316",
    "geocoded_column": {
      "latitude": "30.03453291923316",
      "longitude": "-89.92853850387546"
    }
  },
  {
    "service_request": "2026-1272892",
    "request_type": "General Services",
    "request_reason": "General Service Request",
    "date_created": "2026-04-11T16:32:34.000",
    "date_modified": "2026-04-11T16:32:42.000",
    "request_status": "Pending",
    "responsible_agency": "Orleans Parish Communication District",
    "final_address": "7625 Mayo Rd",
    "address_councildis": "E",
    "status": "Pending",
    "rowid": "1272892",
    "final_x": "3700860.8497",
    "final_y": "560913.719902",
    "longitude": "-90.00586087503042",
    "latitude": "30.03571544013586",
    "geocoded_column": {
      "latitude": "30.03571544013586",
      "longitude": "-90.00586087503042"
    }
  },
  {
    "service_request": "2026-1272891",
    "request_type": "Trash/Recycling",
    "request_reason": "Replace Trash Cart",
    "date_created": "2026-04-11T16:15:38.000",
    "date_modified": "2026-04-11T16:15:39.000",
    "request_status": "Pending",
    "responsible_agency": "Department of Sanitation",
    "final_address": "4850 Marseille St",
    "address_councildis": "E",
    "status": "Assigned to Contractor",
    "contractor": "Waste Pro",
    "rowid": "1272891",
    "final_x": "3729725.67341",
    "final_y": "562371.083935",
    "longitude": "-89.914587282571",
    "latitude": "30.038771513091675",
    "geocoded_column": {
      "latitude": "30.038771513091675",
      "longitude": "-89.914587282571"
    }
  },
  {
    "service_request": "2026-1272890",
    "request_type": "Trash/Recycling",
    "request_reason": "Request a Large Item Pick Up",
    "date_created": "2026-04-11T16:08:33.000",
    "date_modified": "2026-04-11T16:08:35.000",
    "request_status": "Pending",
    "responsible_agency": "Department of Sanitation",
    "final_address": "4639 S Carrollton Ave",
    "address_councildis": "A",
    "status": "Assigned to Contractor",
    "contractor": "IV Waste",
    "rowid": "1272890",
    "final_x": "3670724.82651",
    "final_y": "538022.833929",
    "longitude": "-90.1018738461472",
    "latitude": "29.973699066966873",
    "geocoded_column": {
      "latitude": "29.973699066966873",
      "longitude": "-90.1018738461472"
    }
  },
  {
    "service_request": "2026-1272889",
    "request_type": "Trash/Recycling",
    "request_reason": "Illegal Dumping",
    "date_created": "2026-04-11T16:06:07.000",
    "date_modified": "2026-04-11T16:06:09.000",
    "request_status": "Pending",
    "responsible_agency": "Department of Sanitation",
    "final_address": "518 S Dorgenois St",
    "address_councildis": "B",
    "status": "Pending",
    "rowid": "1272889",
    "final_x": "3674764.99432",
    "final_y": "533295.908868",
    "longitude": "-90.08927618911653",
    "latitude": "29.96058161052457",
    "geocoded_column": {
      "latitude": "29.96058161052457",
      "longitude": "-90.08927618911653"
    }
  },
  {
    "service_request": "2026-1272888",
    "request_type": "General Services",
    "request_reason": "General Service Request",
    "date_created": "2026-04-11T16:00:56.000",
    "date_modified": "2026-04-11T16:01:03.000",
    "request_status": "Pending",
    "responsible_agency": "Orleans Parish Communication District",
    "final_address": "4319 Dryades St",
    "address_councildis": "B",
    "status": "Pending",
    "rowid": "1272888",
    "final_x": "3670969.47867",
    "final_y": "522038.039802",
    "longitude": "-90.1016438379839",
    "latitude": "29.929738910266458",
    "geocoded_column": {
      "latitude": "29.929738910266458",
      "longitude": "-90.1016438379839"
    }
  },
  {
    "service_request": "2026-1272887",
    "request_type": "Health Related Request",
    "request_reason": "Noise Ordinance Complaint",
    "date_created": "2026-04-11T15:32:07.000",
    "date_modified": "2026-04-11T15:32:09.000",
    "request_status": "Pending",
    "responsible_agency": "Health Department",
    "final_address": "800 Bourbon St, New Orleans, Louisiana, 70116",
    "address_councildis": "C",
    "status": "Pending",
    "rowid": "1272887",
    "final_x": "3682553.51528",
    "final_y": "533013.631428",
    "longitude": "-90.06469148499534",
    "latitude": "29.95957063099051",
    "geocoded_column": {
      "latitude": "29.95957063099051",
      "longitude": "-90.06469148499534"
    }
  },
  {
    "service_request": "2026-1272886",
    "request_type": "Health Related Request",
    "request_reason": "Noise Ordinance Complaint",
    "date_created": "2026-04-11T15:31:45.000",
    "date_modified": "2026-04-11T15:31:47.000",
    "request_status": "Pending",
    "responsible_agency": "Health Department",
    "final_address": "801 Bourbon St, New Orleans, Louisiana, 70116",
    "address_councildis": "C",
    "status": "Pending",
    "rowid": "1272886",
    "final_x": "3682490.98735",
    "final_y": "533018.672772",
    "longitude": "-90.06488875731978",
    "latitude": "29.959586396383013",
    "geocoded_column": {
      "latitude": "29.959586396383013",
      "longitude": "-90.06488875731978"
    }
  },
  {
    "service_request": "2026-1272885",
    "request_type": "Trash/Recycling",
    "request_reason": "Replace Trash Cart",
    "date_created": "2026-04-11T15:27:36.000",
    "date_modified": "2026-04-11T15:27:37.000",
    "request_status": "Pending",
    "responsible_agency": "Department of Sanitation",
    "final_address": "1937 Napoleon Ave",
    "address_councildis": "B",
    "status": "Assigned to Contractor",
    "contractor": "IV Waste",
    "rowid": "1272885",
    "final_x": "3670836.15623",
    "final_y": "522275.840762",
    "longitude": "-90.1020566479665",
    "latitude": "29.93039672653806",
    "geocoded_column": {
      "latitude": "29.93039672653806",
      "longitude": "-90.1020566479665"
    }
  },
  {
    "service_request": "2026-1272884",
    "request_type": "General Services",
    "request_reason": "General Service Request",
    "date_created": "2026-04-11T15:24:14.000",
    "date_modified": "2026-04-11T15:24:17.000",
    "request_status": "Pending",
    "responsible_agency": "Orleans Parish Communication District",
    "final_address": "6601 Lake Willow Dr",
    "address_councildis": "E",
    "status": "Pending",
    "rowid": "1272884",
    "final_x": "3704216.5443",
    "final_y": "559759.564189",
    "longitude": "-89.99529894928213",
    "latitude": "30.03243464175175",
    "geocoded_column": {
      "latitude": "30.03243464175175",
      "longitude": "-89.99529894928213"
    }
  },
  {
    "service_request": "2026-1272883",
    "request_type": "Drainage",
    "request_reason": "Catch Basin Frame and Cover Missing or Damaged",
    "date_created": "2026-04-11T14:56:47.000",
    "date_modified": "2026-04-11T14:56:58.000",
    "request_status": "Pending",
    "responsible_agency": "Sewerage & Water Board",
    "final_address": "2512 Constance St",
    "address_councildis": "B",
    "status": "Pending",
    "rowid": "1272883",
    "final_x": "3677941.31707",
    "final_y": "520934.990649",
    "longitude": "-90.07967305254152",
    "latitude": "29.926497977878213",
    "geocoded_column": {
      "latitude": "29.926497977878213",
      "longitude": "-90.07967305254152"
    }
  },
  {
    "service_request": "2026-1272882",
    "request_type": "Property Maintenance",
    "request_reason": "Property Maintenance",
    "date_created": "2026-04-11T14:52:39.000",
    "date_modified": "2026-04-11T14:52:41.000",
    "request_status": "Pending",
    "responsible_agency": "Department of Code Enforcement",
    "final_address": "5244 Camp St",
    "address_councildis": "B",
    "status": "Pending",
    "rowid": "1272882",
    "final_x": "3667649.8681",
    "final_y": "518937.449271",
    "longitude": "-90.11222761395452",
    "latitude": "29.921310967887035",
    "geocoded_column": {
      "latitude": "29.921310967887035",
      "longitude": "-90.11222761395452"
    }
  },
  {
    "service_request": "2026-1272881",
    "request_type": "Abandoned Vehicles",
    "request_reason": "Abandoned/Junk Vehicles",
    "date_created": "2026-04-11T14:40:45.000",
    "date_modified": "2026-04-11T14:40:47.000",
    "request_status": "Pending",
    "responsible_agency": "Department of Public Works",
    "final_address": "4319 Dryades St",
    "address_councildis": "B",
    "status": "Pending",
    "rowid": "1272881",
    "final_x": "3670969.47867",
    "final_y": "522038.039802",
    "longitude": "-90.1016438379839",
    "latitude": "29.929738910266458",
    "geocoded_column": {
      "latitude": "29.929738910266458",
      "longitude": "-90.1016438379839"
    }
  },
  {
    "service_request": "2026-1272880",
    "request_type": "Trash/Recycling",
    "request_reason": "Request a Large Item Pick Up",
    "date_created": "2026-04-11T14:38:58.000",
    "date_modified": "2026-04-11T14:39:00.000",
    "request_status": "Pending",
    "responsible_agency": "Department of Sanitation",
    "final_address": "1529 Congress St",
    "address_councildis": "D",
    "status": "Assigned to Contractor",
    "contractor": "IV Waste",
    "rowid": "1272880",
    "final_x": "3691185.90403",
    "final_y": "537273.765128",
    "longitude": "-90.03728033681585",
    "latitude": "29.97101888023577",
    "geocoded_column": {
      "latitude": "29.97101888023577",
      "longitude": "-90.03728033681585"
    }
  },
  {
    "service_request": "2026-1272879",
    "request_type": "Trash/Recycling",
    "request_reason": "Request a Large Item Pick Up",
    "date_created": "2026-04-11T14:38:20.000",
    "date_modified": "2026-04-11T14:38:22.000",
    "request_status": "Pending",
    "responsible_agency": "Department of Sanitation",
    "final_address": "9643 River Rd",
    "address_councildis": "C",
    "status": "Assigned to Contractor",
    "contractor": "Richards Disposal",
    "rowid": "1272879",
    "final_x": "3720772.76121",
    "final_y": "518377.19615",
    "longitude": "-89.94456567805084",
    "latitude": "29.91810694028004",
    "geocoded_column": {
      "latitude": "29.91810694028004",
      "longitude": "-89.94456567805084"
    }
  },
  {
    "service_request": "2026-1272878",
    "request_type": "Trash/Recycling",
    "request_reason": "Request a Large Item Pick Up",
    "date_created": "2026-04-11T14:38:19.000",
    "date_modified": "2026-04-11T14:38:22.000",
    "request_status": "Pending",
    "responsible_agency": "Department of Sanitation",
    "final_address": "5 Brownlee Ct",
    "address_councildis": "E",
    "status": "Assigned to Contractor",
    "contractor": "Waste Pro",
    "rowid": "1272878",
    "final_x": "3712672.82469",
    "final_y": "567255.755364",
    "longitude": "-89.96829454123358",
    "latitude": "30.052771920979204",
    "geocoded_column": {
      "latitude": "30.052771920979204",
      "longitude": "-89.96829454123358"
    }
  },
  {
    "service_request": "2026-1272877",
    "request_type": "Safety & Permits",
    "request_reason": "Licenses & Permits",
    "date_created": "2026-04-11T14:26:48.000",
    "date_modified": "2026-04-11T14:26:51.000",
    "request_status": "Pending",
    "responsible_agency": "Safety and Permits",
    "final_address": "3209 Laurel St",
    "address_councildis": "B",
    "status": "Pending",
    "rowid": "1272877",
    "final_x": "3676030.32648",
    "final_y": "519331.358839",
    "longitude": "-90.08576064228686",
    "latitude": "29.92214586049355",
    "geocoded_column": {
      "latitude": "29.92214586049355",
      "longitude": "-90.08576064228686"
    }
  },
  {
    "service_request": "2026-1272876",
    "request_type": "Trash/Recycling",
    "request_reason": "Request a Large Item Pick Up",
    "date_created": "2026-04-11T14:08:34.000",
    "date_modified": "2026-04-11T14:08:36.000",
    "request_status": "Pending",
    "responsible_agency": "Department of Sanitation",
    "final_address": "3802 State Street Dr",
    "address_councildis": "A",
    "status": "Assigned to Contractor",
    "contractor": "IV Waste",
    "rowid": "1272876",
    "final_x": "3667983.10484",
    "final_y": "529462.759873",
    "longitude": "-90.11082126017182",
    "latitude": "29.950242428610746",
    "geocoded_column": {
      "latitude": "29.950242428610746",
      "longitude": "-90.11082126017182"
    }
  },
  {
    "service_request": "2026-1272875",
    "request_type": "Streetlights",
    "request_reason": "Streetlight Outage/Malfunction",
    "date_created": "2026-04-11T13:59:20.000",
    "date_modified": "2026-04-11T13:59:22.000",
    "request_status": "Pending",
    "responsible_agency": "Department of Public Works",
    "final_address": "824 Jena St",
    "address_councildis": "B",
    "status": "Pending",
    "rowid": "1272875",
    "final_x": "3670636.92507",
    "final_y": "518584.965559",
    "longitude": "-90.10281071795188",
    "latitude": "29.920253882087533",
    "geocoded_column": {
      "latitude": "29.920253882087533",
      "longitude": "-90.10281071795188"
    }
  },
  {
    "service_request": "2026-1272874",
    "request_type": "Trash/Recycling",
    "request_reason": "Request a Large Item Pick Up",
    "date_created": "2026-04-11T13:56:56.000",
    "date_modified": "2026-04-11T13:56:57.000",
    "request_status": "Pending",
    "responsible_agency": "Department of Sanitation",
    "final_address": "2600 Somerset Dr",
    "address_councildis": "C",
    "status": "Assigned to Contractor",
    "contractor": "Richards Disposal",
    "rowid": "1272874",
    "final_x": "3702925.9059",
    "final_y": "521481.651897",
    "longitude": "-90.0007841431198",
    "latitude": "29.927225825915475",
    "geocoded_column": {
      "latitude": "29.927225825915475",
      "longitude": "-90.0007841431198"
    }
  },
  {
    "service_request": "2026-1272873",
    "request_type": "General Services",
    "request_reason": "General Service Request",
    "date_created": "2026-04-11T13:54:43.000",
    "date_modified": "2026-04-11T13:54:46.000",
    "request_status": "Pending",
    "responsible_agency": "Orleans Parish Communication District",
    "final_address": "3219 Annunciation St",
    "address_councildis": "B",
    "status": "Pending",
    "rowid": "1272873",
    "final_x": "3676121.95233",
    "final_y": "518974.585015",
    "longitude": "-90.08548368169909",
    "latitude": "29.921162103988337",
    "geocoded_column": {
      "latitude": "29.921162103988337",
      "longitude": "-90.08548368169909"
    }
  },
  {
    "service_request": "2026-1272872",
    "request_type": "Street and Traffic Signs",
    "request_reason": "Traffic or Parking Sign Damaged or Missing",
    "date_created": "2026-04-11T13:48:27.000",
    "date_modified": "2026-04-11T13:48:34.000",
    "request_status": "Pending",
    "responsible_agency": "Department of Public Works",
    "final_address": "1 Hansbrough Ave",
    "address_councildis": "E",
    "status": "Pending",
    "rowid": "1272872",
    "final_x": "3707409.76792",
    "final_y": "565053.99133",
    "longitude": "-89.98501133636461",
    "latitude": "30.046889300613486",
    "geocoded_column": {
      "latitude": "30.046889300613486",
      "longitude": "-89.98501133636461"
    }
  },