[
  {
    "service_request": "2025-1238314",
    "request_type": "Roads and Streets",
    "request_reason": "Abandoned Service Cut",
    "date_created": "2025-11-05T22:17:40.000",
    "date_modified": "2025-11-05T22:17:43.000",
    "request_status": "Pending",
    "responsible_agency": "Department of Public Works",
    "final_address": "1710 Pine St",
    "address_councildis": "A",
    "status": "Pending",
    "rowid": "1238314",
    "final_x": "3664925.62701",
    "final_y": "528223.489664",
    "longitude": "-90.12051662386843",
    "latitude": "29.946924177433242",
    "geocoded_column": {
      "latitude": "29.946924177433242",
      "longitude": "-90.12051662386843"
    }
  },
  {
    "service_request": "2025-1238313",
    "request_type": "Trash/Recycling",
    "request_reason": "Request a Large Item Pick Up",
    "date_created": "2025-11-05T22:16:43.000",
    "date_modified": "2025-11-05T22:16:45.000",
    "request_status": "Pending",
    "responsible_agency": "Department of Sanitation",
    "final_address": "3200 BLK Saint Ann St",
    "address_councildis": "A",
    "status": "Assigned to Contractor",
    "contractor": "IV Waste",
    "rowid": "1238313",
    "final_x": "3675035.01964",
    "final_y": "538652.504832",
    "longitude": "-90.08823969927577",
    "latitude": "29.9753023719551",
    "geocoded_column": {
      "latitude": "29.9753023719551",
      "longitude": "-90.08823969927577"
    }
  },
  {
    "service_request": "2025-1238312",
    "request_type": "Streetlights",
    "request_reason": "Streetlight Outage/Malfunction",
    "date_created": "2025-11-05T22:08:43.000",
    "date_modified": "2025-11-05T22:08:46.000",
    "request_status": "Pending",
    "responsible_agency": "Department of Public Works",
    "final_address": "6115 Vicksburg St",
    "address_councildis": "A",
    "status": "Pending",
    "rowid": "1238312",
    "final_x": "3669009.7787",
    "final_y": "548040.199506",
    "longitude": "-90.1069517458498",
    "latitude": "30.001293971403424",
    "geocoded_column": {
      "latitude": "30.001293971403424",
      "longitude": "-90.1069517458498"
    }
  },
  {
    "service_request": "2025-1238311",
    "request_type": "Drainage",
    "request_reason": "Catch Basin Not Draining",
    "date_created": "2025-11-05T22:02:45.000",
    "date_modified": "2025-11-05T22:02:47.000",
    "request_status": "Pending",
    "responsible_agency": "Sewerage & Water Board",
    "final_address": "207 Warrington Dr",
    "address_councildis": "D",
    "status": "Pending",
    "rowid": "1238311",
    "final_x": "3682643.73762",
    "final_y": "547079.082193",
    "longitude": "-90.06391452793099",
    "latitude": "29.998242960617077",
    "geocoded_column": {
      "latitude": "29.998242960617077",
      "longitude": "-90.06391452793099"
    }
  },
  {
    "service_request": "2025-1238310",
    "request_type": "Streetlights",
    "request_reason": "Streetlight Outage/Malfunction",
    "date_created": "2025-11-05T21:53:47.000",
    "date_modified": "2025-11-05T21:53:49.000",
    "request_status": "Pending",
    "responsible_agency": "Department of Public Works",
    "final_address": "6854 General Haig St",
    "address_councildis": "A",
    "status": "Pending",
    "rowid": "1238310",
    "final_x": "3670957.52987",
    "final_y": "552940.598935",
    "longitude": "-90.1006320666859",
    "latitude": "30.01471088208776",
    "geocoded_column": {
      "latitude": "30.01471088208776",
      "longitude": "-90.1006320666859"
    }
  },
  {
    "service_request": "2025-1238309",
    "request_type": "Streetlights",
    "request_reason": "Streetlight Outage/Malfunction",
    "date_created": "2025-11-05T20:30:13.000",
    "date_modified": "2025-11-05T20:30:15.000",
    "request_status": "Pending",
    "responsible_agency": "Department of Public Works",
    "final_address": "3723 S Galvez St",
    "address_councildis": "B",
    "status": "Pending",
    "rowid": "1238309",
    "final_x": "3671192.1771",
    "final_y": "527718.794879",
    "longitude": "-90.10074790850331",
    "latitude": "29.945352562962007",
    "geocoded_column": {
      "latitude": "29.945352562962007",
      "longitude": "-90.10074790850331"
    }
  },
  {
    "service_request": "2025-1238308",
    "request_type": "Trash/Recycling",
    "request_reason": "Request a Large Item Pick Up",
    "date_created": "2025-11-05T19:43:55.000",
    "date_modified": "2025-11-05T19:43:57.000",
    "request_status": "Pending",
    "responsible_agency": "Department of Sanitation",
    "final_address": "1615 Lisbon St",
    "address_councildis": "D",
    "status": "Assigned to Contractor",
    "contractor": "IV Waste",
    "rowid": "1238308",
    "final_x": "3679069.3661",
    "final_y": "556270.297434",
    "longitude": "-90.07488705930703",
    "latitude": "30.02362389504491",
    "geocoded_column": {
      "latitude": "30.02362389504491",
      "longitude": "-90.07488705930703"
    }
  },
  {
    "service_request": "2025-1238307",
    "request_type": "Trash/Recycling",
    "request_reason": "Request a Large Item Pick Up",
    "date_created": "2025-11-05T19:09:14.000",
    "date_modified": "2025-11-05T19:09:15.000",
    "request_status": "Pending",
    "responsible_agency": "Department of Sanitation",
    "final_address": "345 Olivier St",
    "address_councildis": "C",
    "status": "Assigned to Contractor",
    "contractor": "Richards Disposal",
    "rowid": "1238307",
    "final_x": "3687201.5734",
    "final_y": "530418.476994",
    "longitude": "-90.05010580222665",
    "latitude": "29.95229252763659",
    "geocoded_column": {
      "latitude": "29.95229252763659",
      "longitude": "-90.05010580222665"
    }
  },
  {
    "service_request": "2025-1238306",
    "request_type": "Trash/Recycling",
    "request_reason": "Request a Large Item Pick Up",
    "date_created": "2025-11-05T19:05:01.000",
    "date_modified": "2025-11-05T19:05:03.000",
    "request_status": "Pending",
    "responsible_agency": "Department of Sanitation",
    "final_address": "4814 Montegut Dr",
    "address_councildis": "D",
    "status": "Assigned to Contractor",
    "contractor": "IV Waste",
    "rowid": "1238306",
    "final_x": "3689845.04457",
    "final_y": "550729.983701",
    "longitude": "-90.04103565081468",
    "latitude": "30.008060274822434",
    "geocoded_column": {
      "latitude": "30.008060274822434",
      "longitude": "-90.04103565081468"
    }
  },
  {
    "service_request": "2025-1238305",
    "request_type": "Abandoned Vehicles",
    "request_reason": "Abandoned/Junk Vehicles",
    "date_created": "2025-11-05T18:57:42.000",
    "date_modified": "2025-11-05T18:57:44.000",
    "request_status": "Pending",
    "responsible_agency": "Department of Public Works",
    "final_address": "820 Milan St",
    "address_councildis": "B",
    "status": "Pending",
    "rowid": "1238305",
    "final_x": "3671786.14574",
    "final_y": "518671.795639",
    "longitude": "-90.09918021381998",
    "latitude": "29.920458651944006",
    "geocoded_column": {
      "latitude": "29.920458651944006",
      "longitude": "-90.09918021381998"
    }
  },
  {
    "service_request": "2025-1238304",
    "request_type": "Trash/Recycling",
    "request_reason": "Request a Large Item Pick Up",
    "date_created": "2025-11-05T18:21:53.000",
    "date_modified": "2025-11-05T18:21:55.000",
    "request_status": "Pending",
    "responsible_agency": "Department of Sanitation",
    "final_address": "1757 N Tonti St",
    "address_councildis": "D",
    "status": "Assigned to Contractor",
    "contractor": "IV Waste",
    "rowid": "1238304",
    "final_x": "3681053.52008",
    "final_y": "540476.621515",
    "longitude": "-90.06916812066014",
    "latitude": "29.98013686385628",
    "geocoded_column": {
      "latitude": "29.98013686385628",
      "longitude": "-90.06916812066014"
    }
  },
  {
    "service_request": "2025-1238303",
    "request_type": "Streetlights",
    "request_reason": "Streetlight Outage/Malfunction",
    "date_created": "2025-11-05T18:21:07.000",
    "date_modified": "2025-11-05T18:21:09.000",
    "request_status": "Pending",
    "responsible_agency": "Department of Public Works",
    "final_address": "608 French St",
    "address_councildis": "A",
    "status": "Pending",
    "rowid": "1238303",
    "final_x": "3668314.18708",
    "final_y": "548557.964627",
    "longitude": "-90.10913171402845",
    "latitude": "30.002738098206525",
    "geocoded_column": {
      "latitude": "30.002738098206525",
      "longitude": "-90.10913171402845"
    }
  },
  {
    "service_request": "2025-1238302",
    "request_type": "Trash/Recycling",
    "request_reason": "Illegal Dumping",
    "date_created": "2025-11-05T18:20:52.000",
    "date_modified": "2025-11-05T18:20:55.000",
    "request_status": "Pending",
    "responsible_agency": "Department of Sanitation",
    "final_address": "2042 N Dorgenois St",
    "address_councildis": "D",
    "status": "Pending",
    "rowid": "1238302",
    "final_x": "3682867.43669",
    "final_y": "541281.628812",
    "longitude": "-90.06341083816707",
    "latitude": "29.982295200329535",
    "geocoded_column": {
      "latitude": "29.982295200329535",
      "longitude": "-90.06341083816707"
    }
  },
  {
    "service_request": "2025-1238301",
    "request_type": "General Services",
    "request_reason": "General Service Request",
    "date_created": "2025-11-05T18:16:35.000",
    "date_modified": "2025-11-05T18:16:38.000",
    "request_status": "Pending",
    "responsible_agency": "Orleans Parish Communication District",
    "final_address": "4705 Venus St, New Orleans, Louisiana, 70122",
    "address_councildis": "D",
    "status": "Pending",
    "rowid": "1238301",
    "final_x": "3686596.79401",
    "final_y": "550376.865172",
    "longitude": "-90.05131032056786",
    "latitude": "30.00718965874292",
    "geocoded_column": {
      "latitude": "30.00718965874292",
      "longitude": "-90.05131032056786"
    }
  },
  {
    "service_request": "2025-1238300",
    "request_type": "Property Maintenance",
    "request_reason": "Property Maintenance",
    "date_created": "2025-11-05T18:02:04.000",
    "date_modified": "2025-11-05T18:02:05.000",
    "request_status": "Pending",
    "responsible_agency": "Department of Code Enforcement",
    "final_address": "13751 Explorers Ave",
    "address_councildis": "E",
    "status": "Pending",
    "rowid": "1238300",
    "final_x": "3725963.69734",
    "final_y": "569611.32311",
    "longitude": "-89.92619500201383",
    "latitude": "30.058806684751236",
    "geocoded_column": {
      "latitude": "30.058806684751236",
      "longitude": "-89.92619500201383"
    }
  },
  {
    "service_request": "2025-1238299",
    "request_type": "Streetlights",
    "request_reason": "Streetlight Outage/Malfunction",
    "date_created": "2025-11-05T17:57:20.000",
    "date_modified": "2025-11-05T17:57:21.000",
    "request_status": "Pending",
    "responsible_agency": "Department of Public Works",
    "final_address": "5330 Annunciation St",
    "address_councildis": "B",
    "status": "Pending",
    "rowid": "1238299",
    "final_x": "3667071.79284",
    "final_y": "517486.199862",
    "longitude": "-90.11410109273139",
    "latitude": "29.91733741423889",
    "geocoded_column": {
      "latitude": "29.91733741423889",
      "longitude": "-90.11410109273139"
    }
  },
  {
    "service_request": "2025-1238298",
    "request_type": "Roads and Streets",
    "request_reason": "Pothole",
    "date_created": "2025-11-05T17:54:16.000",
    "date_modified": "2025-11-05T17:54:17.000",
    "request_status": "Pending",
    "responsible_agency": "Department of Public Works",
    "final_address": "2138 Broadway St",
    "address_councildis": "A",
    "status": "Pending",
    "rowid": "1238298",
    "final_x": "3666074.94823",
    "final_y": "529440.890753",
    "longitude": "-90.11684697109479",
    "latitude": "29.950238136447012",
    "geocoded_column": {
      "latitude": "29.950238136447012",
      "longitude": "-90.11684697109479"
    }
  },
  {
    "service_request": "2025-1238297",
    "request_type": "Streetlights",
    "request_reason": "Streetlight Outage/Malfunction",
    "date_created": "2025-11-05T17:54:14.000",
    "date_modified": "2025-11-05T17:54:16.000",
    "request_status": "Pending",
    "responsible_agency": "Department of Public Works",
    "final_address": "5632 Elysian Fields Ave",
    "address_councildis": "D",
    "status": "Pending",
    "rowid": "1238297",
    "final_x": "3683446.04124",
    "final_y": "553635.688599",
    "longitude": "-90.06115009926017",
    "latitude": "30.01624679272331",
    "geocoded_column": {
      "latitude": "30.01624679272331",
      "longitude": "-90.06115009926017"
    }
  },
  {
    "service_request": "2025-1238296",
    "request_type": "Abandoned Vehicles",
    "request_reason": "Abandoned/Junk Vehicles",
    "date_created": "2025-11-05T17:42:43.000",
    "date_modified": "2025-11-05T17:42:45.000",
    "request_status": "Pending",
    "responsible_agency": "Department of Public Works",
    "final_address": "3018 Hudson Pl",
    "address_councildis": "C",
    "status": "Pending",
    "rowid": "1238296",
    "final_x": "3703172.7123",
    "final_y": "519700.619896",
    "longitude": "-90.00007046258928",
    "latitude": "29.922320710255708",
    "geocoded_column": {
      "latitude": "29.922320710255708",
      "longitude": "-90.00007046258928"
    }
  },
  {
    "service_request": "2025-1238295",
    "request_type": "Abandoned Vehicles",
    "request_reason": "Abandoned/Junk Vehicles",
    "date_created": "2025-11-05T17:40:01.000",
    "date_modified": "2025-11-05T17:40:03.000",
    "request_status": "Pending",
    "responsible_agency": "Department of Public Works",
    "final_address": "4910 Banks St",
    "address_councildis": "A",
    "status": "Pending",
    "rowid": "1238295",
    "final_x": "3667626.85697",
    "final_y": "539365.54529",
    "longitude": "-90.11161272284218",
    "latitude": "29.97748225760335",
    "geocoded_column": {
      "latitude": "29.97748225760335",
      "longitude": "-90.11161272284218"
    }
  },
  {
    "service_request": "2025-1238294",
    "request_type": "Trash/Recycling",
    "request_reason": "Missed Trash Pick-Up",
    "date_created": "2025-11-05T17:38:54.000",
    "date_modified": "2025-11-05T17:38:56.000",
    "request_status": "Pending",
    "responsible_agency": "Department of Sanitation",
    "final_address": "7859 S Coronet Ct",
    "address_councildis": "E",
    "status": "Assigned to Contractor",
    "contractor": "Waste Pro",
    "rowid": "1238294",
    "final_x": "3703481.20682",
    "final_y": "557475.363931",
    "longitude": "-89.99770679205314",
    "latitude": "30.02617756855458",
    "geocoded_column": {
      "latitude": "30.02617756855458",
      "longitude": "-89.99770679205314"
    }
  },
  {
    "service_request": "2025-1238293",
    "request_type": "Trash/Recycling",
    "request_reason": "Order Recycling Cart",
    "date_created": "2025-11-05T17:38:15.000",
    "date_modified": "2025-11-05T17:38:17.000",
    "request_status": "Pending",
    "responsible_agency": "Department of Sanitation",
    "final_address": "751 Louisiana Ave Apt 1B",
    "address_councildis": "B",
    "status": "Pending",
    "rowid": "1238293",
    "final_x": "3675591.01672",
    "final_y": "518597.047799",
    "longitude": "-90.08717257094622",
    "latitude": "29.92013988598153",
    "geocoded_column": {
      "latitude": "29.92013988598153",
      "longitude": "-90.08717257094622"
    }
  },
  {
    "service_request": "2025-1238292",
    "request_type": "Street and Traffic Signs",
    "request_reason": "Stop Sign Missing or Damaged",
    "date_created": "2025-11-05T17:36:08.000",
    "date_modified": "2025-11-05T17:36:12.000",
    "request_status": "Pending",
    "responsible_agency": "Department of Public Works",
    "final_address": "LOUISIANA AVE & TOLEDANO ST & CLARA ST",
    "address_councildis": "B",
    "status": "Pending",
    "rowid": "1238292",
    "final_x": "3672597.0",
    "final_y": "525570.68",
    "longitude": "-90.09638564121856",
    "latitude": "29.939404321912978",
    "geocoded_column": {
      "latitude": "29.939404321912978",
      "longitude": "-90.09638564121856"
    }
  },
  {
    "service_request": "2025-1238291",
    "request_type": "Trash/Recycling",
    "request_reason": "Illegal Dumping",
    "date_created": "2025-11-05T17:19:19.000",
    "date_modified": "2025-11-05T17:19:21.000",
    "request_status": "Pending",
    "responsible_agency": "Department of Sanitation",
    "final_address": "731 Jackson Ave",
    "address_councildis": "B",
    "status": "Pending",
    "rowid": "1238291",
    "final_x": "3679628.25563",
    "final_y": "521150.858169",
    "longitude": "-90.07434036880463",
    "latitude": "29.92704068520693",
    "geocoded_column": {
      "latitude": "29.92704068520693",
      "longitude": "-90.07434036880463"
    }
  },
  {
    "service_request": "2025-1238290",
    "request_type": "Trash/Recycling",
    "request_reason": "Order Trash Cart",
    "date_created": "2025-11-05T17:14:55.000",
    "date_modified": "2025-11-05T17:14:57.000",
    "request_status": "Pending",
    "responsible_agency": "Department of Sanitation",
    "final_address": "4834 Gawain Dr",
    "address_councildis": "E",
    "status": "Assigned to Contractor",
    "contractor": "Waste Pro",
    "rowid": "1238290",
    "final_x": "3706829.33393",
    "final_y": "556164.415898",
    "longitude": "-89.9871758766434",
    "latitude": "30.022465237756656",
    "geocoded_column": {
      "latitude": "30.022465237756656",
      "longitude": "-89.9871758766434"
    }
  },
  {
    "service_request": "2025-1238289",
    "request_type": "Roads and Streets",
    "request_reason": "Debris in Driving Lanes",
    "date_created": "2025-11-05T17:09:01.000",
    "date_modified": "2025-11-05T17:09:03.000",
    "request_status": "Pending",
    "responsible_agency": "Department of Public Works",
    "final_address": "2100 BLK S Gayoso St",
    "address_councildis": "A",
    "status": "Pending",
    "rowid": "1238289",
    "final_x": "3669663.42934",
    "final_y": "529013.049373",
    "longitude": "-90.10553087982261",
    "latitude": "29.948956469911817",
    "geocoded_column": {
      "latitude": "29.948956469911817",
      "longitude": "-90.10553087982261"
    }
  },
  {
    "service_request": "2025-1238288",
    "request_type": "Trash/Recycling",
    "request_reason": "Order Recycling Cart",
    "date_created": "2025-11-05T17:07:11.000",
    "date_modified": "2025-11-05T17:07:12.000",
    "request_status": "Pending",
    "responsible_agency": "Department of Sanitation",
    "final_address": "2536 Lavender St",
    "address_councildis": "D",
    "status": "Pending",
    "rowid": "1238288",
    "final_x": "3686552.53519",
    "final_y": "546860.701265",
    "longitude": "-90.0515744081829",
    "latitude": "29.997522843164653",
    "geocoded_column": {
      "latitude": "29.997522843164653",
      "longitude": "-90.0515744081829"
    }
  },
  {
    "service_request": "2025-1238287",
    "request_type": "Roads and Streets",
    "request_reason": "Street Subsidence (Sinking)",
    "date_created": "2025-11-05T17:00:30.000",
    "date_modified": "2025-11-05T17:00:32.000",
    "request_status": "Pending",
    "responsible_agency": "Sewerage & Water Board",
    "final_address": "1661 Canal St",
    "address_councildis": "B",
    "status": "Pending",
    "rowid": "1238287",
    "final_x": "3678577.27061",
    "final_y": "532797.578244",
    "longitude": "-90.0772550277696",
    "latitude": "29.959097009403244",
    "geocoded_column": {
      "latitude": "29.959097009403244",
      "longitude": "-90.0772550277696"
    }
  },
  {
    "service_request": "2025-1238286",
    "request_type": "Property Maintenance",
    "request_reason": "Property Maintenance",
    "date_created": "2025-11-05T16:59:14.000",
    "date_modified": "2025-11-05T16:59:16.000",
    "request_status": "Pending",
    "responsible_agency": "Department of Code Enforcement",
    "final_address": "1401 St Roch Ave",
    "address_councildis": "C",
    "status": "Pending",
    "rowid": "1238286",
    "final_x": "3686471.89986",
    "final_y": "537563.756872",
    "longitude": "-90.05215750720372",
    "latitude": "29.971962025153253",
    "geocoded_column": {
      "latitude": "29.971962025153253",
      "longitude": "-90.05215750720372"
    }
  },
  {
    "service_request": "2025-1238285",
    "request_type": "Property Maintenance",
    "request_reason": "Property Maintenance",
    "date_created": "2025-11-05T16:53:37.000",
    "date_modified": "2025-11-05T16:53:39.000",
    "request_status": "Pending",
    "responsible_agency": "Department of Code Enforcement",
    "final_address": "1209 St Roch Ave",
    "address_councildis": "C",
    "status": "Pending",
    "rowid": "1238285",
    "final_x": "3686543.74582",
    "final_y": "536895.69172",
    "longitude": "-90.05195420085717",
    "latitude": "29.97012287036046",
    "geocoded_column": {
      "latitude": "29.97012287036046",
      "longitude": "-90.05195420085717"
    }
  },
  {
    "service_request": "2025-1238284",
    "request_type": "Trash/Recycling",
    "request_reason": "Missed Trash Pick-Up",
    "date_created": "2025-11-05T16:51:52.000",
    "date_modified": "2025-11-05T16:51:54.000",
    "request_status": "Pending",
    "responsible_agency": "Department of Sanitation",
    "final_address": "5410 Edenboro Rd",
    "address_councildis": "E",
    "status": "Assigned to Contractor",
    "contractor": "Waste Pro",
    "rowid": "1238284",
    "final_x": "3708221.4108",
    "final_y": "557711.157403",
    "longitude": "-89.98271968017664",
    "latitude": "30.0266731305963",
    "geocoded_column": {
      "latitude": "30.0266731305963",
      "longitude": "-89.98271968017664"
    }
  },
  {
    "service_request": "2025-1238283",
    "request_type": "Trash/Recycling",
    "request_reason": "Request a Large Item Pick Up",
    "date_created": "2025-11-05T16:42:47.000",
    "date_modified": "2025-11-05T16:42:49.000",
    "request_status": "Pending",
    "responsible_agency": "Department of Sanitation",
    "final_address": "4837 Virgilian St",
    "address_councildis": "D",
    "status": "Assigned to Contractor",
    "contractor": "Waste Pro",
    "rowid": "1238283",
    "final_x": "3697505.53367",
    "final_y": "554332.309208",
    "longitude": "-90.01670320289696",
    "latitude": "30.01772553231827",
    "geocoded_column": {
      "latitude": "30.01772553231827",
      "longitude": "-90.01670320289696"
    }
  },
  {
    "service_request": "2025-1238282",
    "request_type": "Trash/Recycling",
    "request_reason": "Request a Large Item Pick Up",
    "date_created": "2025-11-05T16:37:43.000",
    "date_modified": "2025-11-05T16:37:45.000",
    "request_status": "Pending",
    "responsible_agency": "Department of Sanitation",
    "final_address": "721 Robert St",
    "address_councildis": "B",
    "status": "Assigned to Contractor",
    "contractor": "IV Waste",
    "rowid": "1238282",
    "final_x": "3668672.36884",
    "final_y": "518036.655094",
    "longitude": "-90.10903040144262",
    "latitude": "29.918804066209976",
    "geocoded_column": {
      "latitude": "29.918804066209976",
      "longitude": "-90.10903040144262"
    }
  },
  {
    "service_request": "2025-1238281",
    "request_type": "Trash/Recycling",
    "request_reason": "Repair Recycling Cart",
    "date_created": "2025-11-05T16:32:58.000",
    "date_modified": "2025-11-05T16:33:00.000",
    "request_status": "Pending",
    "responsible_agency": "Department of Sanitation",
    "final_address": "4145 Piedmont Dr",
    "address_councildis": "D",
    "status": "Pending",
    "rowid": "1238281",
    "final_x": "3684957.01961",
    "final_y": "548068.522898",
    "longitude": "-90.05657207141063",
    "latitude": "30.00089289682535",
    "geocoded_column": {
      "latitude": "30.00089289682535",
      "longitude": "-90.05657207141063"
    }
  },
  {
    "service_request": "2025-1238280",
    "request_type": "Parks & Parkways",
    "request_reason": "Request Tree Service (Right of Way/Public Property)",
    "date_created": "2025-11-05T16:29:00.000",
    "date_modified": "2025-11-05T16:29:59.000",
    "request_status": "Pending",
    "responsible_agency": "Department of Parks & Parkway",
    "final_address": "626 S Carrollton Ave",
    "address_councildis": "A",
    "status": "Pending",
    "rowid": "1238280",
    "final_x": "3660721.38304",
    "final_y": "527027.89555",
    "longitude": "-90.13383056209362",
    "latitude": "29.9437583646141",
    "geocoded_column": {
      "latitude": "29.9437583646141",
      "longitude": "-90.13383056209362"
    }
  },
  {
    "service_request": "2025-1238279",
    "request_type": "Trash/Recycling",
    "request_reason": "Request a Large Item Pick Up",
    "date_created": "2025-11-05T16:27:16.000",
    "date_modified": "2025-11-05T16:27:51.000",
    "request_status": "Pending",
    "responsible_agency": "Department of Sanitation",
    "final_address": "5936 Brighton Pl",
    "address_councildis": "C",
    "status": "Assigned to Contractor",
    "contractor": "Richards Disposal",
    "rowid": "1238279",
    "final_x": "3705908.05803",
    "final_y": "520125.96012",
    "longitude": "-89.99142044447896",
    "latitude": "29.92340244914035",
    "geocoded_column": {
      "latitude": "29.92340244914035",
      "longitude": "-89.99142044447896"
    }
  },
  {
    "service_request": "2025-1238278",
    "request_type": "Trash/Recycling",
    "request_reason": "Change Size of Trash Cart",
    "date_created": "2025-11-05T16:22:35.000",
    "date_modified": "2025-11-05T16:22:37.000",
    "request_status": "Pending",
    "responsible_agency": "Department of Sanitation",
    "final_address": "3218 Chippewa St",
    "address_councildis": "B",
    "status": "Assigned to Contractor",
    "contractor": "IV Waste",
    "rowid": "1238278",
    "final_x": "3676376.08405",
    "final_y": "518526.716407",
    "longitude": "-90.0846969060357",
    "latitude": "29.919922997164928",
    "geocoded_column": {
      "latitude": "29.919922997164928",
      "longitude": "-90.0846969060357"
    }
  },
  {
    "service_request": "2025-1238277",
    "request_type": "Trash/Recycling",
    "request_reason": "Illegal Dumping",
    "date_created": "2025-11-05T16:22:26.000",
    "date_modified": "2025-11-05T16:22:27.000",
    "request_status": "Pending",
    "responsible_agency": "Department of Sanitation",
    "final_address": "3036 Fern St",
    "address_councildis": "B",
    "status": "Pending",
    "rowid": "1238277",
    "final_x": "3667057.37933",
    "final_y": "532861.239108",
    "longitude": "-90.11363000130208",
    "latitude": "29.959614260327633",
    "geocoded_column": {
      "latitude": "29.959614260327633",
      "longitude": "-90.11363000130208"
    }
  },
  {
    "service_request": "2025-1238276",
    "request_type": "Roads and Streets",
    "request_reason": "Debris in Driving Lanes",
    "date_created": "2025-11-05T16:22:05.000",
    "date_modified": "2025-11-05T16:22:06.000",
    "request_status": "Pending",
    "responsible_agency": "Department of Public Works",
    "final_address": "318 Calhoun St",
    "address_councildis": "A",
    "status": "Pending",
    "rowid": "1238276",
    "final_x": "3662779.06003",
    "final_y": "518252.184438",
    "longitude": "-90.12762544105557",
    "latitude": "29.91956853306251",
    "geocoded_column": {
      "latitude": "29.91956853306251",
      "longitude": "-90.12762544105557"
    }
  },
  {
    "service_request": "2025-1238275",
    "request_type": "Property Maintenance",
    "request_reason": "Property Maintenance",
    "date_created": "2025-11-05T16:20:05.000",
    "date_modified": "2025-11-05T16:20:07.000",
    "request_status": "Pending",
    "responsible_agency": "Department of Code Enforcement",
    "final_address": "1411 Elysian Fields Ave",
    "address_councildis": "C",
    "status": "Pending",
    "rowid": "1238275",
    "final_x": "3685013.15689",
    "final_y": "537529.605128",
    "longitude": "-90.05676564582481",
    "latitude": "29.971912886960986",
    "geocoded_column": {
      "latitude": "29.971912886960986",
      "longitude": "-90.05676564582481"
    }
  },
  {
    "service_request": "2025-1238274",
    "request_type": "Abandoned Vehicles",
    "request_reason": "Abandoned/Junk Vehicles",
    "date_created": "2025-11-05T16:19:15.000",
    "date_modified": "2025-11-05T16:19:17.000",
    "request_status": "Pending",
    "responsible_agency": "Department of Public Works",
    "final_address": "2100 Jefferson Ave",
    "address_councildis": "A",
    "status": "Pending",
    "rowid": "1238274",
    "final_x": "3667719.66061",
    "final_y": "523375.601723",
    "longitude": "-90.11185796872135",
    "latitude": "29.933512433467673",
    "geocoded_column": {
      "latitude": "29.933512433467673",
      "longitude": "-90.11185796872135"
    }
  },
  {
    "service_request": "2025-1238273",
    "request_type": "Safety & Permits",
    "request_reason": "Licenses & Permits",
    "date_created": "2025-11-05T16:15:15.000",
    "date_modified": "2025-11-05T16:15:17.000",
    "request_status": "Pending",
    "responsible_agency": "Safety and Permits",
    "final_address": "6300 BLK Chartres St",
    "address_councildis": "E",
    "status": "Pending",
    "rowid": "1238273",
    "final_x": "3699574.05784",
    "final_y": "531230.082013",
    "longitude": "-90.0110098781357",
    "latitude": "29.954137363392014",
    "geocoded_column": {
      "latitude": "29.954137363392014",
      "longitude": "-90.0110098781357"
    }
  },
  {
    "service_request": "2025-1238272",
    "request_type": "Street and Traffic Signs",
    "request_reason": "One Way Sign Missing or Damaged",
    "date_created": "2025-11-05T16:14:35.000",
    "date_modified": "2025-11-05T16:14:36.000",
    "request_status": "Pending",
    "responsible_agency": "Department of Public Works",
    "final_address": "DUBLIN ST & MAPLE ST",
    "address_councildis": "A",
    "status": "Pending",
    "rowid": "1238272",
    "final_x": "3660764.8",
    "final_y": "527581.28",
    "longitude": "-90.13367518986306",
    "latitude": "29.945278746055436",
    "geocoded_column": {
      "latitude": "29.945278746055436",
      "longitude": "-90.13367518986306"
    }
  },
  {
    "service_request": "2025-1238271",
    "request_type": "Trash/Recycling",
    "request_reason": "Order Trash Cart",
    "date_created": "2025-11-05T16:13:15.000",
    "date_modified": "2025-11-05T16:13:16.000",
    "request_status": "Pending",
    "responsible_agency": "Department of Sanitation",
    "final_address": "6370 Orleans Ave",
    "address_councildis": "A",
    "status": "Assigned to Contractor",
    "contractor": "IV Waste",
    "rowid": "1238271",
    "final_x": "3671072.16385",
    "final_y": "549655.172692",
    "longitude": "-90.10038157323031",
    "latitude": "30.005673727171864",
    "geocoded_column": {
      "latitude": "30.005673727171864",
      "longitude": "-90.10038157323031"
    }
  },
  {
    "service_request": "2025-1238270",
    "request_type": "Street and Traffic Signs",
    "request_reason": "Stop Sign Missing or Damaged",
    "date_created": "2025-11-05T16:13:14.000",
    "date_modified": "2025-11-05T16:13:16.000",
    "request_status": "Pending",
    "responsible_agency": "Department of Public Works",
    "final_address": "DUBLIN ST & MAPLE ST",
    "address_councildis": "A",
    "status": "Pending",
    "rowid": "1238270",
    "final_x": "3660764.8",
    "final_y": "527581.28",
    "longitude": "-90.13367518986306",
    "latitude": "29.945278746055436",
    "geocoded_column": {
      "latitude": "29.945278746055436",
      "longitude": "-90.13367518986306"
    }
  },
  {
    "service_request": "2025-1238269",
    "request_type": "Trash/Recycling",
    "request_reason": "Repair Trash Cart",
    "date_created": "2025-11-05T16:06:42.000",
    "date_modified": "2025-11-05T16:06:44.000",
    "request_status": "Pending",
    "responsible_agency": "Department of Sanitation",
    "final_address": "4001 S Pin Oak Ave",
    "address_councildis": "C",
    "status": "Assigned to Contractor",
    "contractor": "Richards Disposal",
    "rowid": "1238269",
    "final_x": "3704943.69751",
    "final_y": "513364.41701",
    "longitude": "-89.99471388935105",
    "latitude": "29.904841551419526",
    "geocoded_column": {
      "latitude": "29.904841551419526",
      "longitude": "-89.99471388935105"
    }
  },
  {
    "service_request": "2025-1238268",
    "request_type": "Trash/Recycling",
    "request_reason": "Request a Large Item Pick Up",
    "date_created": "2025-11-05T16:06:05.000",
    "date_modified": "2025-11-05T16:06:07.000",
    "request_status": "Pending",
    "responsible_agency": "Department of Sanitation",
    "final_address": "2101 St Maurice Ave",
    "address_councildis": "E",
    "status": "Assigned to Contractor",
    "contractor": "Waste Pro",
    "rowid": "1238268",
    "final_x": "3701332.69674",
    "final_y": "536754.115656",
    "longitude": "-90.00525467603575",
    "latitude": "29.969270554022444",
    "geocoded_column": {
      "latitude": "29.969270554022444",
      "longitude": "-90.00525467603575"
    }
  },
  {
    "service_request": "2025-1238267",
    "request_type": "Parks & Parkways",
    "request_reason": "Request Tree Service (Right of Way/Public Property)",
    "date_created": "2025-11-05T16:06:03.000",
    "date_modified": "2025-11-05T16:06:07.000",
    "request_status": "Pending",
    "responsible_agency": "Department of Parks & Parkway",
    "final_address": "4007 Vendome Pl",
    "address_councildis": "B",
    "status": "Pending",
    "rowid": "1238267",
    "final_x": "3668754.87822",
    "final_y": "529870.132225",
    "longitude": "-90.10837064754975",
    "latitude": "29.951339905710167",
    "geocoded_column": {
      "latitude": "29.951339905710167",
      "longitude": "-90.10837064754975"
    }
  },
  {
    "service_request": "2025-1238266",
    "request_type": "Trash/Recycling",
    "request_reason": "Illegal Dumping",
    "date_created": "2025-11-05T16:02:32.000",
    "date_modified": "2025-11-05T16:03:17.000",
    "request_status": "Pending",
    "responsible_agency": "Department of Sanitation",
    "final_address": "MONTICELLO AVE & PRITCHARD PL",
    "address_councildis": "A",
    "status": "Pending",
    "rowid": "1238266",
    "final_x": "3662609.3",
    "final_y": "536032.98",
    "longitude": "-90.12757068855134",
    "latitude": "29.968464952479756",
    "geocoded_column": {
      "latitude": "29.968464952479756",
      "longitude": "-90.12757068855134"
    }
  },
  {
    "service_request": "2025-1238264",
    "request_type": "Trash/Recycling",
    "request_reason": "Order Trash Cart",
    "date_created": "2025-11-05T16:00:37.000",
    "date_modified": "2025-11-05T16:00:39.000",
    "request_status": "Pending",
    "responsible_agency": "Department of Sanitation",
    "final_address": "2815 Josephine St",
    "address_councildis": "B",
    "status": "Assigned to Contractor",
    "contractor": "IV Waste",
    "rowid": "1238264",
    "final_x": "3675285.7028",
    "final_y": "527416.190143",
    "longitude": "-90.08783371193924",
    "latitude": "29.944398785432426",
    "geocoded_column": {
      "latitude": "29.944398785432426",
      "longitude": "-90.08783371193924"
    }
  },
  {
    "service_request": "2025-1238263",
    "request_type": "Trash/Recycling",
    "request_reason": "Start Trash Service",
    "date_created": "2025-11-05T15:57:41.000",
    "date_modified": "2025-11-05T15:57:42.000",
    "request_status": "Pending",
    "responsible_agency": "Department of Sanitation",
    "final_address": "10923 Chaucer St",
    "address_councildis": "E",
    "status": "Assigned to Contractor",
    "contractor": "Waste Pro",
    "rowid": "1238263",
    "final_x": "3712713.05906",
    "final_y": "561901.340127",
    "longitude": "-89.96836897450633",
    "latitude": "30.03804812499919",
    "geocoded_column": {
      "latitude": "30.03804812499919",
      "longitude": "-89.96836897450633"
    }
  },
  {
    "service_request": "2025-1238262",
    "request_type": "Trash/Recycling",
    "request_reason": "Request a Large Item Pick Up",
    "date_created": "2025-11-05T15:56:42.000",
    "date_modified": "2025-11-05T15:56:44.000",
    "request_status": "Pending",
    "responsible_agency": "Department of Sanitation",
    "final_address": "4502 Wilson Ave",
    "address_councildis": "E",
    "status": "Assigned to Contractor",
    "contractor": "Waste Pro",
    "rowid": "1238262",
    "final_x": "3703087.76503",
    "final_y": "553591.631959",
    "longitude": "-89.99909290959688",
    "latitude": "30.01551140307732",
    "geocoded_column": {
      "latitude": "30.01551140307732",
      "longitude": "-89.99909290959688"
    }
  },
  {
    "service_request": "2025-1238261",
    "request_type": "Trash/Recycling",
    "request_reason": "Request a Large Item Pick Up",
    "date_created": "2025-11-05T15:56:41.000",
    "date_modified": "2025-11-05T15:56:42.000",
    "request_status": "Pending",
    "responsible_agency": "Department of Sanitation",
    "final_address": "2615 Chippewa St",
    "address_councildis": "B",
    "status": "Assigned to Contractor",
    "contractor": "IV Waste",
    "rowid": "1238261",
    "final_x": "3678261.00443",
    "final_y": "519882.222648",
    "longitude": "-90.07870027621466",
    "latitude": "29.923593586758606",
    "geocoded_column": {
      "latitude": "29.923593586758606",
      "longitude": "-90.07870027621466"
    }
  },
  {
    "service_request": "2025-1238260",
    "request_type": "Trash/Recycling",
    "request_reason": "Replace Trash Cart",
    "date_created": "2025-11-05T15:55:49.000",
    "date_modified": "2025-11-05T15:55:55.000",
    "request_status": "Pending",
    "responsible_agency": "Department of Sanitation",
    "final_address": "2615 Chippewa St",
    "address_councildis": "B",
    "status": "Assigned to Contractor",
    "contractor": "IV Waste",
    "rowid": "1238260",
    "final_x": "3678261.00443",
    "final_y": "519882.222648",
    "longitude": "-90.07870027621466",
    "latitude": "29.923593586758606",
    "geocoded_column": {
      "latitude": "29.923593586758606",
      "longitude": "-90.07870027621466"
    }
  },
  {
    "service_request": "2025-1238259",
    "request_type": "Trash/Recycling",
    "request_reason": "Request a Large Item Pick Up",
    "date_created": "2025-11-05T15:55:45.000",
    "date_modified": "2025-11-05T15:55:47.000",
    "request_status": "Pending",
    "responsible_agency": "Department of Sanitation",
    "final_address": "1321 Music St",
    "address_councildis": "C",
    "status": "Assigned to Contractor",
    "contractor": "IV Waste",
    "rowid": "1238259",
    "final_x": "3686820.20745",
    "final_y": "537365.22324",
    "longitude": "-90.05106451485442",
    "latitude": "29.971405414104797",
    "geocoded_column": {
      "latitude": "29.971405414104797",
      "longitude": "-90.05106451485442"
    }
  },
  {
    "service_request": "2025-1238258",
    "request_type": "Trash/Recycling",
    "request_reason": "Request a Large Item Pick Up",
    "date_created": "2025-11-05T15:54:07.000",
    "date_modified": "2025-11-05T15:54:23.000",
    "request_status": "Pending",
    "responsible_agency": "Department of Sanitation",
    "final_address": "2565 Wisteria St",
    "address_councildis": "D",
    "status": "Assigned to Contractor",
    "contractor": "IV Waste",
    "rowid": "1238258",
    "final_x": "3686805.42345",
    "final_y": "548423.267538",
    "longitude": "-90.05072029064323",
    "latitude": "30.001811555085062",
    "geocoded_column": {
      "latitude": "30.001811555085062",
      "longitude": "-90.05072029064323"
    }
  },
  {
    "service_request": "2025-1238257",
    "request_type": "Safety & Permits",
    "request_reason": "Zoning Enforcement",
    "date_created": "2025-11-05T15:51:22.000",
    "date_modified": "2025-11-05T15:51:24.000",
    "request_status": "Pending",
    "responsible_agency": "Safety and Permits",
    "final_address": "MANDEVILLE ST & GENTILLY BLVD",
    "address_councildis": "D",
    "status": "Pending",
    "rowid": "1238257",
    "final_x": "3684873.32",
    "final_y": "548325.19",
    "longitude": "-90.05682745153017",
    "latitude": "30.0016012030017",
    "geocoded_column": {
      "latitude": "30.0016012030017",
      "longitude": "-90.05682745153017"
    }
  },
  {
    "service_request": "2025-1238256",
    "request_type": "Parks & Parkways",
    "request_reason": "Park Maintenance/Clean Up",
    "date_created": "2025-11-05T15:50:51.000",
    "date_modified": "2025-11-05T15:50:53.000",
    "request_status": "Pending",
    "responsible_agency": "Department of Parks & Parkway",
    "final_address": "2249 St Claude Ave",
    "address_councildis": "C",
    "status": "Pending",
    "rowid": "1238256",
    "final_x": "3685523.39106",
    "final_y": "536452.770503",
    "longitude": "-90.05519218283078",
    "latitude": "29.96893632661225",
    "geocoded_column": {
      "latitude": "29.96893632661225",
      "longitude": "-90.05519218283078"
    }
  },
  {
    "service_request": "2025-1238255",
    "request_type": "Property Maintenance",
    "request_reason": "Property Maintenance",
    "date_created": "2025-11-05T15:50:17.000",
    "date_modified": "2025-11-05T15:50:19.000",
    "request_status": "Pending",
    "responsible_agency": "Department of Code Enforcement",
    "final_address": "1938 St Philip St",
    "address_councildis": "D",
    "status": "Pending",
    "rowid": "1238255",
    "final_x": "3679599.32757",
    "final_y": "536102.788743",
    "longitude": "-90.07391290789428",
    "latitude": "29.968154366006424",
    "geocoded_column": {
      "latitude": "29.968154366006424",
      "longitude": "-90.07391290789428"
    }
  },
  {
    "service_request": "2025-1238254",
    "request_type": "Traffic Signals",
    "request_reason": "Traffic Signal Malfunctioning or Damaged",
    "date_created": "2025-11-05T15:50:14.000",
    "date_modified": "2025-11-05T15:50:15.000",
    "request_status": "Pending",
    "responsible_agency": "Department of Public Works",
    "final_address": "6901 Chef Menteur Hwy",
    "address_councildis": "E",
    "status": "Pending",
    "rowid": "1238254",
    "final_x": "3700463.2874",
    "final_y": "552798.703318",
    "longitude": "-90.00741398701398",
    "latitude": "30.013414917708513",
    "geocoded_column": {
      "latitude": "30.013414917708513",
      "longitude": "-90.00741398701398"
    }
  },
  {
    "service_request": "2025-1238253",
    "request_type": "Streetlights",
    "request_reason": "Streetlight Outage/Malfunction",
    "date_created": "2025-11-05T15:48:44.000",
    "date_modified": "2025-11-05T15:48:46.000",
    "request_status": "Pending",
    "responsible_agency": "Department of Public Works",
    "final_address": "969 Wilson Dr",
    "address_councildis": "A",
    "status": "Pending",
    "rowid": "1238253",
    "final_x": "3674120.05825",
    "final_y": "540417.446923",
    "longitude": "-90.09106896346478",
    "latitude": "29.980182665416173",
    "geocoded_column": {
      "latitude": "29.980182665416173",
      "longitude": "-90.09106896346478"
    }
  },
  {
    "service_request": "2025-1238252",
    "request_type": "Parks & Parkways",
    "request_reason": "Request Grass Cutting Service (City Owned Property)",
    "date_created": "2025-11-05T15:48:11.000",
    "date_modified": "2025-11-05T15:48:14.000",
    "request_status": "Pending",
    "responsible_agency": "Department of Parks & Parkway",
    "final_address": "800 BLK N Derbigny St",
    "address_councildis": "D",
    "status": "Pending",
    "rowid": "1238252",
    "final_x": "3679774.11679",
    "final_y": "535288.759591",
    "longitude": "-90.07338918388304",
    "latitude": "29.96591078066911",
    "geocoded_column": {
      "latitude": "29.96591078066911",
      "longitude": "-90.07338918388304"
    }
  },
  {
    "service_request": "2025-1238251",
    "request_type": "Trash/Recycling",
    "request_reason": "Request a Large Item Pick Up",
    "date_created": "2025-11-05T15:46:54.000",
    "date_modified": "2025-11-05T15:46:59.000",
    "request_status": "Pending",
    "responsible_agency": "Department of Sanitation",
    "final_address": "4219 Burgundy St",
    "address_councildis": "C",
    "status": "Assigned to Contractor",
    "contractor": "IV Waste",
    "rowid": "1238251",
    "final_x": "3692358.07395",
    "final_y": "534417.754629",
    "longitude": "-90.03368078939074",
    "latitude": "29.96312935100636",
    "geocoded_column": {
      "latitude": "29.96312935100636",
      "longitude": "-90.03368078939074"
    }
  },
  {
    "service_request": "2025-1238250",
    "request_type": "Trash/Recycling",
    "request_reason": "Return Trash Cart",
    "date_created": "2025-11-05T15:45:33.000",
    "date_modified": "2025-11-05T15:45:35.000",
    "request_status": "Pending",
    "responsible_agency": "Department of Sanitation",
    "final_address": "1032 Montegut St",
    "address_councildis": "C",
    "status": "Assigned to Contractor",
    "contractor": "IV Waste",
    "rowid": "1238250",
    "final_x": "3688363.31747",
    "final_y": "535986.637959",
    "longitude": "-90.04624007053154",
    "latitude": "29.96756721518576",
    "geocoded_column": {
      "latitude": "29.96756721518576",
      "longitude": "-90.04624007053154"
    }
  },
  {
    "service_request": "2025-1238249",
    "request_type": "Abandoned Vehicles",
    "request_reason": "Abandoned/Junk Vehicles",
    "date_created": "2025-11-05T15:44:08.000",
    "date_modified": "2025-11-05T15:44:11.000",
    "request_status": "Pending",
    "responsible_agency": "Department of Public Works",
    "final_address": "1117 Marengo St",
    "address_councildis": "B",
    "status": "Pending",
    "rowid": "1238249",
    "final_x": "3672135.42734",
    "final_y": "519799.478392",
    "longitude": "-90.09803931847784",
    "latitude": "29.923549070859064",
    "geocoded_column": {
      "latitude": "29.923549070859064",
      "longitude": "-90.09803931847784"
    }
  },
  {
    "service_request": "2025-1238248",
    "request_type": "Property Maintenance",
    "request_reason": "Property Maintenance",
    "date_created": "2025-11-05T15:42:11.000",
    "date_modified": "2025-11-05T15:42:19.000",
    "request_status": "Pending",
    "responsible_agency": "Department of Code Enforcement",
    "final_address": "1423 Marigny St",
    "address_councildis": "C",
    "status": "Pending",
    "rowid": "1238248",
    "final_x": "3685350.24457",
    "final_y": "537639.264712",
    "longitude": "-90.05569720961428",
    "latitude": "29.97220408205912",
    "geocoded_column": {
      "latitude": "29.97220408205912",
      "longitude": "-90.05569720961428"
    }
  },
  {
    "service_request": "2025-1238247",
    "request_type": "Safety & Permits",
    "request_reason": "Zoning Enforcement",
    "date_created": "2025-11-05T15:40:42.000",
    "date_modified": "2025-11-05T15:40:43.000",
    "request_status": "Pending",
    "responsible_agency": "Safety and Permits",
    "final_address": "2100 BLK Saint Ferdinand St",
    "address_councildis": "D",
    "status": "Pending",
    "rowid": "1238247",
    "final_x": "3688728.73602",
    "final_y": "540275.481901",
    "longitude": "-90.04493378062871",
    "latitude": "29.97934873401445",
    "geocoded_column": {
      "latitude": "29.97934873401445",
      "longitude": "-90.04493378062871"
    }
  },
  {
    "service_request": "2025-1238246",
    "request_type": "Abandoned Vehicles",
    "request_reason": "Abandoned/Junk Vehicles",
    "date_created": "2025-11-05T15:38:43.000",
    "date_modified": "2025-11-05T15:39:34.000",
    "request_status": "Pending",
    "responsible_agency": "Department of Public Works",
    "final_address": "3057 Orleans Ave",
    "address_councildis": "A",
    "status": "Pending",
    "rowid": "1238246",
    "final_x": "3675401.59278",
    "final_y": "538119.525385",
    "longitude": "-90.08710026992637",
    "latitude": "29.973825902790754",
    "geocoded_column": {
      "latitude": "29.973825902790754",
      "longitude": "-90.08710026992637"
    }
  },
  {
    "service_request": "2025-1238245",
    "request_type": "Trash/Recycling",
    "request_reason": "Request a Large Item Pick Up",
    "date_created": "2025-11-05T15:30:00.000",
    "date_modified": "2025-11-05T15:30:02.000",
    "request_status": "Pending",
    "responsible_agency": "Department of Sanitation",
    "final_address": "5014 Chartres St",
    "address_councildis": "E",
    "status": "Assigned to Contractor",
    "contractor": "Waste Pro",
    "rowid": "1238245",
    "final_x": "3695523.00445",
    "final_y": "532379.846147",
    "longitude": "-90.02375991480062",
    "latitude": "29.957426735752186",
    "geocoded_column": {
      "latitude": "29.957426735752186",
      "longitude": "-90.02375991480062"
    }
  },
  {
    "service_request": "2025-1238244",
    "request_type": "Trash/Recycling",
    "request_reason": "Order Recycling Cart",
    "date_created": "2025-11-05T15:28:34.000",
    "date_modified": "2025-11-05T15:28:35.000",
    "request_status": "Pending",
    "responsible_agency": "Department of Sanitation",
    "final_address": "2435 Lapeyrouse St",
    "address_councildis": "D",
    "status": "Pending",
    "rowid": "1238244",
    "final_x": "3679720.85128",
    "final_y": "539725.424714",
    "longitude": "-90.07340333580099",
    "latitude": "29.978111693704513",
    "geocoded_column": {
      "latitude": "29.978111693704513",
      "longitude": "-90.07340333580099"
    }
  },
  {
    "service_request": "2025-1238243",
    "request_type": "New Orleans Recreation Development Commission (NORDC)",
    "request_reason": "Facilities and Parks Maintenance/Clean Up",
    "date_created": "2025-11-05T15:27:53.000",
    "date_modified": "2025-11-05T15:27:54.000",
    "request_status": "Pending",
    "responsible_agency": "New Orleans Recreation Development Commission",
    "final_address": "4935 Knight Dr",
    "address_councildis": "E",
    "status": "Pending",
    "rowid": "1238243",
    "final_x": "3708091.28657",
    "final_y": "556667.62473",
    "longitude": "-89.98316970951214",
    "latitude": "30.023808040340306",
    "geocoded_column": {
      "latitude": "30.023808040340306",
      "longitude": "-89.98316970951214"
    }
  },
  {
    "service_request": "2025-1238242",
    "request_type": "Parks & Parkways",
    "request_reason": "Request Tree Service (Right of Way/Public Property)",
    "date_created": "2025-11-05T15:27:48.000",
    "date_modified": "2025-11-05T15:30:52.000",
    "request_status": "Pending",
    "responsible_agency": "Department of Parks & Parkway",
    "final_address": "LAKE FOREST BLVD & KENSINGTON BLVD",
    "address_councildis": "E",
    "status": "Pending",
    "rowid": "1238242",
    "final_x": "3713707.7",
    "final_y": "560248.28",
    "longitude": "-89.96528806202869",
    "latitude": "30.03347025553025",
    "geocoded_column": {
      "latitude": "30.03347025553025",
      "longitude": "-89.96528806202869"
    }
  },
  {
    "service_request": "2025-1238241",
    "request_type": "Roads and Streets",
    "request_reason": "Push-up/Pavement Expansion",
    "date_created": "2025-11-05T15:27:41.000",
    "date_modified": "2025-11-05T15:27:43.000",
    "request_status": "Pending",
    "responsible_agency": "Department of Public Works",
    "final_address": "5610 Pembrook Dr",
    "address_councildis": "C",
    "status": "Pending",
    "rowid": "1238241",
    "final_x": "3704355.1665",
    "final_y": "521043.518329",
    "longitude": "-89.99628850493797",
    "latitude": "29.925975330096",
    "geocoded_column": {
      "latitude": "29.925975330096",
      "longitude": "-89.99628850493797"
    }
  },
  {
    "service_request": "2025-1238240",
    "request_type": "Trash/Recycling",
    "request_reason": "Request a Large Item Pick Up",
    "date_created": "2025-11-05T15:26:42.000",
    "date_modified": "2025-11-05T15:26:44.000",
    "request_status": "Pending",
    "responsible_agency": "Department of Sanitation",
    "final_address": "1816 Lizardi St",
    "address_councildis": "E",
    "status": "Assigned to Contractor",
    "contractor": "Waste Pro",
    "rowid": "1238240",
    "final_x": "3697262.28752",
    "final_y": "536904.08372",
    "longitude": "-90.01810382888874",
    "latitude": "29.96981200723804",
    "geocoded_column": {
      "latitude": "29.96981200723804",
      "longitude": "-90.01810382888874"
    }
  },
  {
    "service_request": "2025-1238239",
    "request_type": "Property Maintenance",
    "request_reason": "Property Maintenance",
    "date_created": "2025-11-05T15:21:26.000",
    "date_modified": "2025-11-05T15:22:40.000",
    "request_status": "Pending",
    "responsible_agency": "Department of Code Enforcement",
    "final_address": "7909 Oleander St",
    "address_councildis": "B",
    "status": "Pending",
    "rowid": "1238239",
    "final_x": "3667303.93236",
    "final_y": "533219.849348",
    "longitude": "-90.11283937883891",
    "latitude": "29.96059310174331",
    "geocoded_column": {
      "latitude": "29.96059310174331",
      "longitude": "-90.11283937883891"
    }
  },
  {
    "service_request": "2025-1238238",
    "request_type": "Property Maintenance",
    "request_reason": "Property Maintenance",
    "date_created": "2025-11-05T15:20:44.000",
    "date_modified": "2025-11-05T15:20:46.000",
    "request_status": "Pending",
    "responsible_agency": "Department of Code Enforcement",
    "final_address": "7905 Oleander St",
    "address_councildis": "B",
    "status": "Pending",
    "rowid": "1238238",
    "final_x": "3667322.46785",
    "final_y": "533201.033348",
    "longitude": "-90.11278148015303",
    "latitude": "29.960540821058732",
    "geocoded_column": {
      "latitude": "29.960540821058732",
      "longitude": "-90.11278148015303"
    }
  },
  {
    "service_request": "2025-1238237",
    "request_type": "Roads and Streets",
    "request_reason": "Push-up/Pavement Expansion",
    "date_created": "2025-11-05T15:20:12.000",
    "date_modified": "2025-11-05T15:20:13.000",
    "request_status": "Pending",
    "responsible_agency": "Department of Public Works",
    "final_address": "2731 Chelsea Dr",
    "address_councildis": "C",
    "status": "Pending",
    "rowid": "1238237",
    "final_x": "3704155.25425",
    "final_y": "520994.061817",
    "longitude": "-89.99692138509502",
    "latitude": "29.92584575454668",
    "geocoded_column": {
      "latitude": "29.92584575454668",
      "longitude": "-89.99692138509502"
    }
  },
  {
    "service_request": "2025-1238236",
    "request_type": "Trash/Recycling",
    "request_reason": "Replace Trash Cart",
    "date_created": "2025-11-05T15:19:57.000",
    "date_modified": "2025-11-05T15:19:59.000",
    "request_status": "Pending",
    "responsible_agency": "Department of Sanitation",
    "final_address": "2701 Holiday Dr",
    "address_councildis": "C",
    "status": "Assigned to Contractor",
    "contractor": "Richards Disposal",
    "rowid": "1238236",
    "final_x": "3698726.71191",
    "final_y": "521395.146169",
    "longitude": "-90.01404299453495",
    "latitude": "29.927121575074324",
    "geocoded_column": {
      "latitude": "29.927121575074324",
      "longitude": "-90.01404299453495"
    }
  },
  {
    "service_request": "2025-1238235",
    "request_type": "Property Maintenance",
    "request_reason": "Property Maintenance",
    "date_created": "2025-11-05T15:19:47.000",
    "date_modified": "2025-11-05T15:19:50.000",
    "request_status": "Pending",
    "responsible_agency": "Department of Code Enforcement",
    "final_address": "1 Mars Pl",
    "address_councildis": "B",
    "status": "Pending",
    "rowid": "1238235",
    "final_x": "3667427.13377",
    "final_y": "533271.447428",
    "longitude": "-90.11244859583438",
    "latitude": "29.960731370551994",
    "geocoded_column": {
      "latitude": "29.960731370551994",
      "longitude": "-90.11244859583438"
    }
  },
  {
    "service_request": "2025-1238234",
    "request_type": "Property Maintenance",
    "request_reason": "Property Maintenance",
    "date_created": "2025-11-05T15:16:00.000",
    "date_modified": "2025-11-05T15:16:02.000",
    "request_status": "Pending",
    "responsible_agency": "Department of Code Enforcement",
    "final_address": "826 Rosedale Dr",
    "address_councildis": "A",
    "status": "Pending",
    "rowid": "1238234",
    "final_x": "3668596.19066",
    "final_y": "541900.123596",
    "longitude": "-90.1084656603649",
    "latitude": "29.984423036041996",
    "geocoded_column": {
      "latitude": "29.984423036041996",
      "longitude": "-90.1084656603649"
    }
  },
  {
    "service_request": "2025-1238233",
    "request_type": "Trash/Recycling",
    "request_reason": "Order Recycling Cart",
    "date_created": "2025-11-05T15:13:11.000",
    "date_modified": "2025-11-05T15:13:14.000",
    "request_status": "Pending",
    "responsible_agency": "Department of Sanitation",
    "final_address": "4118 N Johnson St",
    "address_councildis": "D",
    "status": "Pending",
    "rowid": "1238233",
    "final_x": "3693093.21309",
    "final_y": "538519.194057",
    "longitude": "-90.03121213371664",
    "latitude": "29.974383909513385",
    "geocoded_column": {
      "latitude": "29.974383909513385",
      "longitude": "-90.03121213371664"
    }
  },
  {
    "service_request": "2025-1238232",
    "request_type": "Trash/Recycling",
    "request_reason": "Request a Large Item Pick Up",
    "date_created": "2025-11-05T15:10:51.000",
    "date_modified": "2025-11-05T15:15:08.000",
    "case_close_date": "2025-11-05T09:15:08.000",
    "request_status": "Closed",
    "responsible_agency": "Department of Sanitation",
    "final_address": "4809 Werner Dr",
    "address_councildis": "E",
    "status": "Canceled By Citizen",
    "contractor": "Waste Pro",
    "rowid": "1238232",
    "final_x": "3704775.62276",
    "final_y": "555714.904985",
    "longitude": "-89.9936816656898",
    "latitude": "30.021295438016598",
    "geocoded_column": {
      "latitude": "30.021295438016598",
      "longitude": "-89.9936816656898"
    }
  },
  {
    "service_request": "2025-1238231",
    "request_type": "Trash/Recycling",
    "request_reason": "Request a Large Item Pick Up",
    "date_created": "2025-11-05T15:09:06.000",
    "date_modified": "2025-11-05T15:09:09.000",
    "request_status": "Pending",
    "responsible_agency": "Department of Sanitation",
    "final_address": "6555 Elysian Fields Ave",
    "address_councildis": "D",
    "status": "Assigned to Contractor",
    "contractor": "IV Waste",
    "rowid": "1238231",
    "final_x": "3683470.64501",
    "final_y": "557363.691355",
    "longitude": "-90.06094156458195",
    "latitude": "30.026496677963973",
    "geocoded_column": {
      "latitude": "30.026496677963973",
      "longitude": "-90.06094156458195"
    }
  },
  {
    "service_request": "2025-1238230",
    "request_type": "Trash/Recycling",
    "request_reason": "Request a Large Item Pick Up",
    "date_created": "2025-11-05T15:07:21.000",
    "date_modified": "2025-11-05T15:07:23.000",
    "request_status": "Pending",
    "responsible_agency": "Department of Sanitation",
    "final_address": "7530 Dalewood Rd",
    "address_councildis": "E",
    "status": "Assigned to Contractor",
    "contractor": "Waste Pro",
    "rowid": "1238230",
    "final_x": "3699942.3665",
    "final_y": "560175.521757",
    "longitude": "-90.00879039531947",
    "latitude": "30.033714907677883",
    "geocoded_column": {
      "latitude": "30.033714907677883",
      "longitude": "-90.00879039531947"
    }
  },
  {
    "service_request": "2025-1238229",
    "request_type": "Trash/Recycling",
    "request_reason": "Request a Large Item Pick Up",
    "date_created": "2025-11-05T15:06:43.000",
    "date_modified": "2025-11-05T15:06:45.000",
    "request_status": "Pending",
    "responsible_agency": "Department of Sanitation",
    "final_address": "5416 Dauphine St",
    "address_councildis": "E",
    "status": "Assigned to Contractor",
    "contractor": "Waste Pro",
    "rowid": "1238229",
    "final_x": "3696944.64778",
    "final_y": "532769.24986",
    "longitude": "-90.01925671331999",
    "latitude": "29.95845270579365",
    "geocoded_column": {
      "latitude": "29.95845270579365",
      "longitude": "-90.01925671331999"
    }
  },
  {
    "service_request": "2025-1238228",
    "request_type": "Drainage",
    "request_reason": "Drainage Manhole Cover Missing or Damaged",
    "date_created": "2025-11-05T15:04:56.000",
    "date_modified": "2025-11-05T15:04:58.000",
    "request_status": "Pending",
    "responsible_agency": "Sewerage & Water Board",
    "final_address": "ZIMPLE ST & DUBLIN ST",
    "address_councildis": "A",
    "status": "Pending",
    "rowid": "1238228",
    "final_x": "3661473.0",
    "final_y": "528347.58",
    "longitude": "-90.1314137878063",
    "latitude": "29.947365419617977",
    "geocoded_column": {
      "latitude": "29.947365419617977",
      "longitude": "-90.1314137878063"
    }
  },
  {
    "service_request": "2025-1238227",
    "request_type": "Abandoned Vehicles",
    "request_reason": "Abandoned/Junk Vehicles",
    "date_created": "2025-11-05T14:57:52.000",
    "date_modified": "2025-11-05T14:57:55.000",
    "request_status": "Pending",
    "responsible_agency": "Department of Public Works",
    "final_address": "2018 Magic Walk",
    "address_councildis": "D",
    "status": "Pending",
    "rowid": "1238227",
    "final_x": "3678572.47682",
    "final_y": "535278.075014",
    "longitude": "-90.07718429686078",
    "latitude": "29.965917678258265",
    "geocoded_column": {
      "latitude": "29.965917678258265",
      "longitude": "-90.07718429686078"
    }
  },
  {
    "service_request": "2025-1238226",
    "request_type": "Abandoned Vehicles",
    "request_reason": "Abandoned/Junk Vehicles",
    "date_created": "2025-11-05T14:52:43.000",
    "date_modified": "2025-11-05T15:49:31.000",
    "request_status": "Pending",
    "responsible_agency": "Department of Public Works",
    "final_address": "7600 Alabama St",
    "address_councildis": "D",
    "status": "Inspected",
    "rowid": "1238226",
    "final_x": "3694901.11005",
    "final_y": "558335.068252",
    "longitude": "-90.0247876963581",
    "latitude": "30.028813633790126",
    "geocoded_column": {
      "latitude": "30.028813633790126",
      "longitude": "-90.0247876963581"
    }
  },
  {
    "service_request": "2025-1238225",
    "request_type": "Trash/Recycling",
    "request_reason": "Repair Recycling Cart",
    "date_created": "2025-11-05T14:50:35.000",
    "date_modified": "2025-11-05T14:50:38.000",
    "request_status": "Pending",
    "responsible_agency": "Department of Sanitation",
    "final_address": "2760 N Dorgenois St",
    "address_councildis": "D",
    "status": "Pending",
    "rowid": "1238225",
    "final_x": "3687771.31471",
    "final_y": "541672.317452",
    "longitude": "-90.04790819531397",
    "latitude": "29.983219102851834",
    "geocoded_column": {
      "latitude": "29.983219102851834",
      "longitude": "-90.04790819531397"
    }
  },
  {
    "service_request": "2025-1238224",
    "request_type": "Abandoned Vehicles",
    "request_reason": "Abandoned/Junk Vehicles",
    "date_created": "2025-11-05T14:47:21.000",
    "date_modified": "2025-11-05T14:47:23.000",
    "request_status": "Pending",
    "responsible_agency": "Department of Public Works",
    "final_address": "700 Nashville Ave",
    "address_councildis": "A",
    "status": "Pending",
    "rowid": "1238224",
    "final_x": "3665409.43188",
    "final_y": "518715.740087",
    "longitude": "-90.11930712608606",
    "latitude": "29.92076679830916",
    "geocoded_column": {
      "latitude": "29.92076679830916",
      "longitude": "-90.11930712608606"
    }
  },
  {
    "service_request": "2025-1238223",
    "request_type": "Roads and Streets",
    "request_reason": "Debris in Driving Lanes",
    "date_created": "2025-11-05T14:45:11.000",
    "date_modified": "2025-11-05T14:45:13.000",
    "request_status": "Pending",
    "responsible_agency": "Department of Public Works",
    "final_address": "7725 Maple St",
    "address_councildis": "A",
    "status": "Pending",
    "rowid": "1238223",
    "final_x": "3661994.62413",
    "final_y": "526500.621502",
    "longitude": "-90.1298280628182",
    "latitude": "29.94227181792198",
    "geocoded_column": {
      "latitude": "29.94227181792198",
      "longitude": "-90.1298280628182"
    }
  },
  {
    "service_request": "2025-1238222",
    "request_type": "Trash/Recycling",
    "request_reason": "Request a Large Item Pick Up",
    "date_created": "2025-11-05T14:44:18.000",
    "date_modified": "2025-11-05T14:44:20.000",
    "request_status": "Pending",
    "responsible_agency": "Department of Sanitation",
    "final_address": "2806 St Andrew St",
    "address_councildis": "B",
    "status": "Assigned to Contractor",
    "contractor": "IV Waste",
    "rowid": "1238222",
    "final_x": "3675392.50747",
    "final_y": "527421.334911",
    "longitude": "-90.08749632175058",
    "latitude": "29.94440973921649",
    "geocoded_column": {
      "latitude": "29.94440973921649",
      "longitude": "-90.08749632175058"
    }
  },
  {
    "service_request": "2025-1238221",
    "request_type": "Abandoned Vehicles",
    "request_reason": "Abandoned/Junk Vehicles",
    "date_created": "2025-11-05T14:43:35.000",
    "date_modified": "2025-11-05T14:43:36.000",
    "request_status": "Pending",
    "responsible_agency": "Department of Public Works",
    "final_address": "4716 Annunciation St Unit 1A",
    "address_councildis": "B",
    "status": "Pending",
    "rowid": "1238221",
    "final_x": "3669806.99489",
    "final_y": "517583.927798",
    "longitude": "-90.10546428093315",
    "latitude": "29.91752582539976",
    "geocoded_column": {
      "latitude": "29.91752582539976",
      "longitude": "-90.10546428093315"
    }
  },
  {
    "service_request": "2025-1238220",
    "request_type": "Street and Traffic Signs",
    "request_reason": "Additional Signage Request",
    "date_created": "2025-11-05T14:41:30.000",
    "date_modified": "2025-11-05T14:41:43.000",
    "request_status": "Pending",
    "responsible_agency": "Department of Public Works",
    "final_address": "1129 Spain St",
    "address_councildis": "C",
    "status": "Pending",
    "rowid": "1238220",
    "final_x": "3686151.95324",
    "final_y": "536713.939335",
    "longitude": "-90.05319793212811",
    "latitude": "29.969635156094157",
    "geocoded_column": {
      "latitude": "29.969635156094157",
      "longitude": "-90.05319793212811"
    }
  },
  {
    "service_request": "2025-1238219",
    "request_type": "Streetlights",
    "request_reason": "Streetlight Outage/Malfunction",
    "date_created": "2025-11-05T14:40:05.000",
    "date_modified": "2025-11-05T14:40:07.000",
    "request_status": "Pending",
    "responsible_agency": "Department of Public Works",
    "final_address": "2348 Philip St",
    "address_councildis": "B",
    "status": "Pending",
    "rowid": "1238219",
    "final_x": "3675508.11745",
    "final_y": "525758.724157",
    "longitude": "-90.0871883958191",
    "latitude": "29.939834649919455",
    "geocoded_column": {
      "latitude": "29.939834649919455",
      "longitude": "-90.0871883958191"
    }
  },
  {
    "service_request": "2025-1238218",
    "request_type": "Trash/Recycling",
    "request_reason": "Request a Large Item Pick Up",
    "date_created": "2025-11-05T14:39:17.000",
    "date_modified": "2025-11-05T14:39:19.000",
    "request_status": "Pending",
    "responsible_agency": "Department of Sanitation",
    "final_address": "1488 Burbank Dr",
    "address_councildis": "D",
    "status": "Assigned to Contractor",
    "contractor": "IV Waste",
    "rowid": "1238218",
    "final_x": "3678172.35413",
    "final_y": "554265.79324",
    "longitude": "-90.07779083821676",
    "latitude": "30.01813929441009",
    "geocoded_column": {
      "latitude": "30.01813929441009",
      "longitude": "-90.07779083821676"
    }
  },
  {
    "service_request": "2025-1238217",
    "request_type": "Trash/Recycling",
    "request_reason": "Request a Large Item Pick Up",
    "date_created": "2025-11-05T14:36:34.000",
    "date_modified": "2025-11-05T14:36:37.000",
    "request_status": "Pending",
    "responsible_agency": "Department of Sanitation",
    "final_address": "936 Sixth St",
    "address_councildis": "B",
    "status": "Assigned to Contractor",
    "contractor": "IV Waste",
    "rowid": "1238217",
    "final_x": "3676833.86037",
    "final_y": "520150.412728",
    "longitude": "-90.0831960099945",
    "latitude": "29.924373913228873",
    "geocoded_column": {
      "latitude": "29.924373913228873",
      "longitude": "-90.0831960099945"
    }
  },
  {
    "service_request": "2025-1238216",
    "request_type": "Street and Traffic Signs",
    "request_reason": "Stop Sign Missing or Damaged",
    "date_created": "2025-11-05T14:35:57.000",
    "date_modified": "2025-11-05T14:37:12.000",
    "request_status": "Pending",
    "responsible_agency": "Department of Public Works",
    "final_address": "LAURADALE DR & LAWRENCE ST",
    "address_councildis": "C",
    "status": "Pending",
    "rowid": "1238216",
    "final_x": "3692775.8",
    "final_y": "525458.98",
    "longitude": "-90.03268279508596",
    "latitude": "29.93848279391993",
    "geocoded_column": {
      "latitude": "29.93848279391993",
      "longitude": "-90.03268279508596"
    }
  },
  {
    "service_request": "2025-1238215",
    "request_type": "Abandoned Vehicles",
    "request_reason": "Abandoned/Junk Vehicles",
    "date_created": "2025-11-05T14:33:04.000",
    "date_modified": "2025-11-05T14:39:31.000",
    "request_status": "Pending",
    "responsible_agency": "Department of Public Works",
    "final_address": "6100 BLK Curran Rd",
    "address_councildis": "E",
    "status": "Inspected",
    "rowid": "1238215",
    "final_x": "3695823.60635",
    "final_y": "559048.258003",
    "longitude": "-90.02184686415326",
    "latitude": "30.03074563385676",
    "geocoded_column": {
      "latitude": "30.03074563385676",
      "longitude": "-90.02184686415326"
    }
  },
  {
    "service_request": "2025-1238214",
    "request_type": "Safety & Permits",
    "request_reason": "Licenses & Permits",
    "date_created": "2025-11-05T14:32:30.000",
    "date_modified": "2025-11-05T14:32:31.000",
    "request_status": "Pending",
    "responsible_agency": "Safety and Permits",
    "final_address": "3501 Dauphine St",
    "address_councildis": "C",
    "status": "Pending",
    "rowid": "1238214",
    "final_x": "3690273.44246",
    "final_y": "534554.806277",
    "longitude": "-90.04025890212567",
    "latitude": "29.963571045067066",
    "geocoded_column": {
      "latitude": "29.963571045067066",
      "longitude": "-90.04025890212567"
    }
  },
  {
    "service_request": "2025-1238213",
    "request_type": "Trash/Recycling",
    "request_reason": "Request a Large Item Pick Up",
    "date_created": "2025-11-05T14:31:51.000",
    "date_modified": "2025-11-05T14:31:52.000",
    "request_status": "Pending",
    "responsible_agency": "Department of Sanitation",
    "final_address": "4559 Knight Dr",
    "address_councildis": "E",
    "status": "Assigned to Contractor",
    "contractor": "Waste Pro",
    "rowid": "1238213",
    "final_x": "3708313.61003",
    "final_y": "554533.44028",
    "longitude": "-89.98254671507779",
    "latitude": "30.01793265862104",
    "geocoded_column": {
      "latitude": "30.01793265862104",
      "longitude": "-89.98254671507779"
    }
  },
  {
    "service_request": "2025-1238212",
    "request_type": "Trash/Recycling",
    "request_reason": "Request a Large Item Pick Up",
    "date_created": "2025-11-05T14:26:21.000",
    "date_modified": "2025-11-05T14:26:23.000",
    "request_status": "Pending",
    "responsible_agency": "Department of Sanitation",
    "final_address": "7923 Berg Rd",
    "address_councildis": "E",
    "status": "Assigned to Contractor",
    "contractor": "Waste Pro",
    "rowid": "1238212",
    "final_x": "3711340.878",
    "final_y": "567734.888996",
    "longitude": "-89.97248642457397",
    "latitude": "30.05413290575287",
    "geocoded_column": {
      "latitude": "30.05413290575287",
      "longitude": "-89.97248642457397"
    }
  },
  {
    "service_request": "2025-1238211",
    "request_type": "Safety & Permits",
    "request_reason": "Zoning Enforcement",
    "date_created": "2025-11-05T14:24:34.000",
    "date_modified": "2025-11-05T14:24:35.000",
    "request_status": "Pending",
    "responsible_agency": "Safety and Permits",
    "final_address": "2828 Boyd St",
    "address_councildis": "C",
    "status": "Pending",
    "rowid": "1238211",
    "final_x": "3708194.89963",
    "final_y": "519838.014264",
    "longitude": "-89.984212511078",
    "latitude": "29.922536860354302",
    "geocoded_column": {
      "latitude": "29.922536860354302",
      "longitude": "-89.984212511078"
    }
  },
  {
    "service_request": "2025-1238210",
    "request_type": "Streetlights",
    "request_reason": "Streetlight Outage/Malfunction",
    "date_created": "2025-11-05T14:24:01.000",
    "date_modified": "2025-11-05T14:24:02.000",
    "request_status": "Pending",
    "responsible_agency": "Department of Public Works",
    "final_address": "921 S Carrollton Ave",
    "address_councildis": "A",
    "status": "Pending",
    "rowid": "1238210",
    "final_x": "3661625.12218",
    "final_y": "527628.269503",
    "longitude": "-90.13095730937361",
    "latitude": "29.9453831570515",
    "geocoded_column": {
      "latitude": "29.9453831570515",
      "longitude": "-90.13095730937361"
    }
  },
  {
    "service_request": "2025-1238209",
    "request_type": "Trash/Recycling",
    "request_reason": "Repair Trash Cart",
    "date_created": "2025-11-05T14:23:05.000",
    "date_modified": "2025-11-05T14:24:07.000",
    "request_status": "Pending",
    "responsible_agency": "Department of Sanitation",
    "final_address": "8001 Pompano St",
    "address_councildis": "E",
    "status": "Assigned to Contractor",
    "contractor": "Waste Pro",
    "rowid": "1238209",
    "final_x": "3700186.7976",
    "final_y": "561784.195935",
    "longitude": "-90.00795916854756",
    "latitude": "30.03813036506839",
    "geocoded_column": {
      "latitude": "30.03813036506839",
      "longitude": "-90.00795916854756"
    }
  },
  {
    "service_request": "2025-1238208",
    "request_type": "Abandoned Vehicles",
    "request_reason": "Abandoned/Junk Vehicles",
    "date_created": "2025-11-05T14:19:01.000",
    "date_modified": "2025-11-05T14:19:03.000",
    "request_status": "Pending",
    "responsible_agency": "Department of Public Works",
    "final_address": "3400 BLK Hollygrove St",
    "address_councildis": "A",
    "status": "Pending",
    "rowid": "1238208",
    "final_x": "3665014.54264",
    "final_y": "536443.005642",
    "longitude": "-90.11996106723731",
    "latitude": "29.969522573492238",
    "geocoded_column": {
      "latitude": "29.969522573492238",
      "longitude": "-90.11996106723731"
    }
  },
  {
    "service_request": "2025-1238207",
    "request_type": "Safety & Permits",
    "request_reason": "Zoning Enforcement",
    "date_created": "2025-11-05T14:18:00.000",
    "date_modified": "2025-11-05T14:18:02.000",
    "request_status": "Pending",
    "responsible_agency": "Safety and Permits",
    "final_address": "2828 Boyd St",
    "address_councildis": "C",
    "status": "Pending",
    "rowid": "1238207",
    "final_x": "3708194.89963",
    "final_y": "519838.014264",
    "longitude": "-89.984212511078",
    "latitude": "29.922536860354302",
    "geocoded_column": {
      "latitude": "29.922536860354302",
      "longitude": "-89.984212511078"
    }
  },
  {
    "service_request": "2025-1238206",
    "request_type": "Trash/Recycling",
    "request_reason": "Request a Large Item Pick Up",
    "date_created": "2025-11-05T14:16:40.000",
    "date_modified": "2025-11-05T14:16:42.000",
    "request_status": "Pending",
    "responsible_agency": "Department of Sanitation",
    "final_address": "4710 Lancelot Dr",
    "address_councildis": "E",
    "status": "Assigned to Contractor",
    "contractor": "Waste Pro",
    "rowid": "1238206",
    "final_x": "3707401.77336",
    "final_y": "555248.221081",
    "longitude": "-89.98540117652723",
    "latitude": "30.01992755388204",
    "geocoded_column": {
      "latitude": "30.01992755388204",
      "longitude": "-89.98540117652723"
    }
  },
  {
    "service_request": "2025-1238205",
    "request_type": "Trash/Recycling",
    "request_reason": "Request a Large Item Pick Up",
    "date_created": "2025-11-05T14:14:51.000",
    "date_modified": "2025-11-05T14:14:53.000",
    "request_status": "Pending",
    "responsible_agency": "Department of Sanitation",
    "final_address": "539 Fats Domino Ave",
    "address_councildis": "E",
    "status": "Assigned to Contractor",
    "contractor": "Waste Pro",
    "rowid": "1238205",
    "final_x": "3697557.11658",
    "final_y": "531877.498883",
    "longitude": "-90.01735505128123",
    "latitude": "29.95598137816933",
    "geocoded_column": {
      "latitude": "29.95598137816933",
      "longitude": "-90.01735505128123"
    }
  },
  {
    "service_request": "2025-1238204",
    "request_type": "Trash/Recycling",
    "request_reason": "Repair Trash Cart",
    "date_created": "2025-11-05T14:14:14.000",
    "date_modified": "2025-11-05T14:14:16.000",
    "request_status": "Pending",
    "responsible_agency": "Department of Sanitation",
    "final_address": "8141 Oak St",
    "address_councildis": "A",
    "status": "Assigned to Contractor",
    "contractor": "IV Waste",
    "rowid": "1238204",
    "final_x": "3661758.73958",
    "final_y": "528611.790592",
    "longitude": "-90.13050283688817",
    "latitude": "29.948083669675608",
    "geocoded_column": {
      "latitude": "29.948083669675608",
      "longitude": "-90.13050283688817"
    }
  },
  {
    "service_request": "2025-1238203",
    "request_type": "Drainage",
    "request_reason": "Illegal Dumping (Sewer Odor)",
    "date_created": "2025-11-05T14:13:13.000",
    "date_modified": "2025-11-05T14:13:15.000",
    "request_status": "Pending",
    "responsible_agency": "Sewerage & Water Board",
    "final_address": "4325 Banks St",
    "address_councildis": "A",
    "status": "Pending",
    "rowid": "1238203",
    "final_x": "3669438.68814",
    "final_y": "538166.913801",
    "longitude": "-90.10593088650577",
    "latitude": "29.974133182366643",
    "geocoded_column": {
      "latitude": "29.974133182366643",
      "longitude": "-90.10593088650577"
    }
  },
  {
    "service_request": "2025-1238202",
    "request_type": "Trash/Recycling",
    "request_reason": "Request a Large Item Pick Up",
    "date_created": "2025-11-05T14:12:16.000",
    "date_modified": "2025-11-05T14:12:49.000",
    "request_status": "Pending",
    "responsible_agency": "Department of Sanitation",
    "final_address": "636 Lizardi St",
    "address_councildis": "E",
    "status": "Assigned to Contractor",
    "contractor": "Waste Pro",
    "rowid": "1238202",
    "final_x": "3696058.06813",
    "final_y": "532585.459652",
    "longitude": "-90.02206292246072",
    "latitude": "29.95797527487611",
    "geocoded_column": {
      "latitude": "29.95797527487611",
      "longitude": "-90.02206292246072"
    }
  },
  {
    "service_request": "2025-1238201",
    "request_type": "Trash/Recycling",
    "request_reason": "Request a Large Item Pick Up",
    "date_created": "2025-11-05T14:10:20.000",
    "date_modified": "2025-11-05T14:10:23.000",
    "request_status": "Pending",
    "responsible_agency": "Department of Sanitation",
    "final_address": "7609 Mayo Rd",
    "address_councildis": "E",
    "status": "Assigned to Contractor",
    "contractor": "Waste Pro",
    "rowid": "1238201",
    "final_x": "3700900.04093",
    "final_y": "560810.48355",
    "longitude": "-90.00574080445155",
    "latitude": "30.03543033185322",
    "geocoded_column": {
      "latitude": "30.03543033185322",
      "longitude": "-90.00574080445155"
    }
  },
  {
    "service_request": "2025-1238200",
    "request_type": "Trash/Recycling",
    "request_reason": "Order Recycling Cart",
    "date_created": "2025-11-05T14:10:08.000",
    "date_modified": "2025-11-05T14:10:11.000",
    "request_status": "Pending",
    "responsible_agency": "Department of Sanitation",
    "final_address": "5141 Mckendall Pl",
    "address_councildis": "E",
    "status": "Pending",
    "rowid": "1238200",
    "final_x": "3718113.72901",
    "final_y": "558888.830172",
    "longitude": "-89.9514165128859",
    "latitude": "30.02958693727156",
    "geocoded_column": {
      "latitude": "30.02958693727156",
      "longitude": "-89.9514165128859"
    }
  },
  {
    "service_request": "2025-1238199",
    "request_type": "Trash/Recycling",
    "request_reason": "Repair Trash Cart",
    "date_created": "2025-11-05T14:08:46.000",
    "date_modified": "2025-11-05T14:08:47.000",
    "request_status": "Pending",
    "responsible_agency": "Department of Sanitation",
    "final_address": "5141 Mckendall Pl",
    "address_councildis": "E",
    "status": "Assigned to Contractor",
    "contractor": "Waste Pro",
    "rowid": "1238199",
    "final_x": "3718113.72901",
    "final_y": "558888.830172",
    "longitude": "-89.9514165128859",
    "latitude": "30.02958693727156",
    "geocoded_column": {
      "latitude": "30.02958693727156",
      "longitude": "-89.9514165128859"
    }
  },
  {
    "service_request": "2025-1238198",
    "request_type": "Abandoned Vehicles",
    "request_reason": "Abandoned/Junk Vehicles",
    "date_created": "2025-11-05T14:06:50.000",
    "date_modified": "2025-11-05T15:55:29.000",
    "request_status": "Pending",
    "responsible_agency": "Department of Public Works",
    "final_address": "7600 Lehigh St",
    "address_councildis": "E",
    "status": "Inspected",
    "rowid": "1238198",
    "final_x": "3710613.03819",
    "final_y": "565509.265698",
    "longitude": "-89.97487033168466",
    "latitude": "30.048037090647043",
    "geocoded_column": {
      "latitude": "30.048037090647043",
      "longitude": "-89.97487033168466"
    }
  },
  {
    "service_request": "2025-1238197",
    "request_type": "Trash/Recycling",
    "request_reason": "Request a Large Item Pick Up",
    "date_created": "2025-11-05T14:06:29.000",
    "date_modified": "2025-11-05T14:06:31.000",
    "request_status": "Pending",
    "responsible_agency": "Department of Sanitation",
    "final_address": "11029 Vienna St",
    "address_councildis": "E",
    "status": "Assigned to Contractor",
    "contractor": "Waste Pro",
    "rowid": "1238197",
    "final_x": "3716016.12748",
    "final_y": "557903.238555",
    "longitude": "-89.9580822069174",
    "latitude": "30.026946346181965",
    "geocoded_column": {
      "latitude": "30.026946346181965",
      "longitude": "-89.9580822069174"
    }
  },
  {
    "service_request": "2025-1238196",
    "request_type": "Trash/Recycling",
    "request_reason": "Request a Large Item Pick Up",
    "date_created": "2025-11-05T14:06:21.000",
    "date_modified": "2025-11-05T14:06:24.000",
    "request_status": "Pending",
    "responsible_agency": "Department of Sanitation",
    "final_address": "7432 Ligustrum Dr",
    "address_councildis": "E",
    "status": "Assigned to Contractor",
    "contractor": "Waste Pro",
    "rowid": "1238196",
    "final_x": "3701629.38455",
    "final_y": "560645.170974",
    "longitude": "-90.00344203315537",
    "latitude": "30.034952531323203",
    "geocoded_column": {
      "latitude": "30.034952531323203",
      "longitude": "-90.00344203315537"
    }
  },
  {
    "service_request": "2025-1238195",
    "request_type": "Trash/Recycling",
    "request_reason": "Order Recycling Cart",
    "date_created": "2025-11-05T14:05:53.000",
    "date_modified": "2025-11-05T14:05:54.000",
    "request_status": "Pending",
    "responsible_agency": "Department of Sanitation",
    "final_address": "1519 S Norman C Francis Prkwy",
    "address_councildis": "B",
    "status": "Pending",
    "rowid": "1238195",
    "final_x": "3669418.77594",
    "final_y": "531310.76237",
    "longitude": "-90.10622566455008",
    "latitude": "29.955281633456583",
    "geocoded_column": {
      "latitude": "29.955281633456583",
      "longitude": "-90.10622566455008"
    }
  },
  {
    "service_request": "2025-1238194",
    "request_type": "Trash/Recycling",
    "request_reason": "Order Trash Cart",
    "date_created": "2025-11-05T14:05:03.000",
    "date_modified": "2025-11-05T14:05:05.000",
    "request_status": "Pending",
    "responsible_agency": "Department of Sanitation",
    "final_address": "1519 S Norman C Francis Prkwy",
    "address_councildis": "B",
    "status": "Assigned to Contractor",
    "contractor": "IV Waste",
    "rowid": "1238194",
    "final_x": "3669418.77594",
    "final_y": "531310.76237",
    "longitude": "-90.10622566455008",
    "latitude": "29.955281633456583",
    "geocoded_column": {
      "latitude": "29.955281633456583",
      "longitude": "-90.10622566455008"
    }
  },
  {
    "service_request": "2025-1238193",
    "request_type": "Trash/Recycling",
    "request_reason": "Illegal Dumping",
    "date_created": "2025-11-05T13:58:58.000",
    "date_modified": "2025-11-05T14:27:42.000",
    "request_status": "Pending",
    "responsible_agency": "Department of Sanitation",
    "final_address": "13751 Explorers Ave",
    "address_councildis": "E",
    "status": "Assigned to Contractor",
    "rowid": "1238193",
    "final_x": "3725963.69734",
    "final_y": "569611.32311",
    "longitude": "-89.92619500201383",
    "latitude": "30.058806684751236",
    "geocoded_column": {
      "latitude": "30.058806684751236",
      "longitude": "-89.92619500201383"
    }
  },
  {
    "service_request": "2025-1238192",
    "request_type": "Trash/Recycling",
    "request_reason": "Request a Large Item Pick Up",
    "date_created": "2025-11-05T13:58:27.000",
    "date_modified": "2025-11-05T13:58:29.000",
    "request_status": "Pending",
    "responsible_agency": "Department of Sanitation",
    "final_address": "3933 St Claude Ave",
    "address_councildis": "C",
    "status": "Assigned to Contractor",
    "contractor": "IV Waste",
    "rowid": "1238192",
    "final_x": "3691786.18697",
    "final_y": "535419.808454",
    "longitude": "-90.03545089125427",
    "latitude": "29.96590247038027",
    "geocoded_column": {
      "latitude": "29.96590247038027",
      "longitude": "-90.03545089125427"
    }
  },
  {
    "service_request": "2025-1238191",
    "request_type": "Trash/Recycling",
    "request_reason": "Order Recycling Cart",
    "date_created": "2025-11-05T13:47:44.000",
    "date_modified": "2025-11-05T13:47:46.000",
    "request_status": "Pending",
    "responsible_agency": "Department of Sanitation",
    "final_address": "4900 Moore Dr",
    "address_councildis": "D",
    "status": "Pending",
    "rowid": "1238191",
    "final_x": "3680004.76245",
    "final_y": "549497.312275",
    "longitude": "-90.07216694974049",
    "latitude": "30.004972355761613",
    "geocoded_column": {
      "latitude": "30.004972355761613",
      "longitude": "-90.07216694974049"
    }
  },
  {
    "service_request": "2025-1238190",
    "request_type": "Roads and Streets",
    "request_reason": "Pothole",
    "date_created": "2025-11-05T13:46:43.000",
    "date_modified": "2025-11-05T13:46:45.000",
    "request_status": "Pending",
    "responsible_agency": "Department of Public Works",
    "final_address": "2636 Valence St",
    "address_councildis": "B",
    "status": "Pending",
    "rowid": "1238190",
    "final_x": "3669311.40001",
    "final_y": "524579.39174",
    "longitude": "-90.10679224143358",
    "latitude": "29.936775716468127",
    "geocoded_column": {
      "latitude": "29.936775716468127",
      "longitude": "-90.10679224143358"
    }
  },
  {
    "service_request": "2025-1238189",
    "request_type": "Trash/Recycling",
    "request_reason": "Request a Large Item Pick Up",
    "date_created": "2025-11-05T13:43:43.000",
    "date_modified": "2025-11-05T13:43:45.000",
    "request_status": "Pending",
    "responsible_agency": "Department of Sanitation",
    "final_address": "6628 Lincoln Beach Blvd",
    "address_councildis": "E",
    "status": "Assigned to Contractor",
    "contractor": "Waste Pro",
    "rowid": "1238189",
    "final_x": "3697129.83395",
    "final_y": "560679.75715",
    "longitude": "-90.01765998116193",
    "latitude": "30.035190455712396",
    "geocoded_column": {
      "latitude": "30.035190455712396",
      "longitude": "-90.01765998116193"
    }
  },
  {
    "service_request": "2025-1238188",
    "request_type": "Trash/Recycling",
    "request_reason": "Request a Large Item Pick Up",
    "date_created": "2025-11-05T13:42:54.000",
    "date_modified": "2025-11-05T13:42:57.000",
    "request_status": "Pending",
    "responsible_agency": "Department of Sanitation",
    "final_address": "9961 E Wheaton Cir",
    "address_councildis": "E",
    "status": "Assigned to Contractor",
    "contractor": "Waste Pro",
    "rowid": "1238188",
    "final_x": "3708719.47332",
    "final_y": "562280.114143",
    "longitude": "-89.98097547566817",
    "latitude": "30.03921980579114",
    "geocoded_column": {
      "latitude": "30.03921980579114",
      "longitude": "-89.98097547566817"
    }
  },
  {
    "service_request": "2025-1238187",
    "request_type": "Trash/Recycling",
    "request_reason": "Repair Trash Cart",
    "date_created": "2025-11-05T13:39:35.000",
    "date_modified": "2025-11-05T13:39:38.000",
    "request_status": "Pending",
    "responsible_agency": "Department of Sanitation",
    "final_address": "833 S Carrollton Ave",
    "address_councildis": "A",
    "status": "Assigned to Contractor",
    "contractor": "IV Waste",
    "rowid": "1238187",
    "final_x": "3661329.84531",
    "final_y": "527440.014719",
    "longitude": "-90.13189583007318",
    "latitude": "29.944874032831155",
    "geocoded_column": {
      "latitude": "29.944874032831155",
      "longitude": "-90.13189583007318"
    }
  },
  {
    "service_request": "2025-1238186",
    "request_type": "Street and Traffic Signs",
    "request_reason": "Street Name Sign Damaged or Missing",
    "date_created": "2025-11-05T13:37:40.000",
    "date_modified": "2025-11-05T13:37:43.000",
    "request_status": "Pending",
    "responsible_agency": "Department of Public Works",
    "final_address": "6115 General Haig St",
    "address_councildis": "A",
    "status": "Pending",
    "rowid": "1238186",
    "final_x": "3670642.66971",
    "final_y": "547889.329234",
    "longitude": "-90.10179840605151",
    "latitude": "30.000830974987338",
    "geocoded_column": {
      "latitude": "30.000830974987338",
      "longitude": "-90.10179840605151"
    }
  },
  {
    "service_request": "2025-1238185",
    "request_type": "Abandoned Vehicles",
    "request_reason": "Abandoned/Junk Vehicles",
    "date_created": "2025-11-05T13:35:32.000",
    "date_modified": "2025-11-05T13:35:34.000",
    "request_status": "Pending",
    "responsible_agency": "Department of Public Works",
    "final_address": "800 BLK Melpomene St",
    "address_councildis": "B",
    "status": "Pending",
    "rowid": "1238185",
    "final_x": "3681649.19277",
    "final_y": "524603.127091",
    "longitude": "-90.06784044180259",
    "latitude": "29.93647207298302",
    "geocoded_column": {
      "latitude": "29.93647207298302",
      "longitude": "-90.06784044180259"
    }
  },
  {
    "service_request": "2025-1238184",
    "request_type": "Trash/Recycling",
    "request_reason": "Repair Recycling Cart",
    "date_created": "2025-11-05T13:32:05.000",
    "date_modified": "2025-11-05T13:32:06.000",
    "request_status": "Pending",
    "responsible_agency": "Department of Sanitation",
    "final_address": "361 Lowerline St",
    "address_councildis": "A",
    "status": "Pending",
    "rowid": "1238184",
    "final_x": "3661690.8496",
    "final_y": "523794.957179",
    "longitude": "-90.13087679605313",
    "latitude": "29.93484086718701",
    "geocoded_column": {
      "latitude": "29.93484086718701",
      "longitude": "-90.13087679605313"
    }
  },
  {
    "service_request": "2025-1238183",
    "request_type": "Street and Traffic Signs",
    "request_reason": "Street Name Sign Damaged or Missing",
    "date_created": "2025-11-05T13:31:15.000",
    "date_modified": "2025-11-05T13:31:17.000",
    "request_status": "Pending",
    "responsible_agency": "Department of Public Works",
    "final_address": "APRICOT ST & MONROE ST",
    "address_councildis": "A",
    "status": "Pending",
    "rowid": "1238183",
    "final_x": "3664252.7",
    "final_y": "534053.68",
    "longitude": "-90.12244678132879",
    "latitude": "29.962974875087685",
    "geocoded_column": {
      "latitude": "29.962974875087685",
      "longitude": "-90.12244678132879"
    }
  },
  {
    "service_request": "2025-1238182",
    "request_type": "Trash/Recycling",
    "request_reason": "Request a Large Item Pick Up",
    "date_created": "2025-11-05T13:30:20.000",
    "date_modified": "2025-11-05T13:30:22.000",
    "request_status": "Pending",
    "responsible_agency": "Department of Sanitation",
    "final_address": "5201 Timber Haven Ln",
    "address_councildis": "C",
    "status": "Assigned to Contractor",
    "contractor": "Richards Disposal",
    "rowid": "1238182",
    "final_x": "3703362.82756",
    "final_y": "511378.269424",
    "longitude": "-89.9997760899271",
    "latitude": "29.899431005516085",
    "geocoded_column": {
      "latitude": "29.899431005516085",
      "longitude": "-89.9997760899271"
    }
  },
  {
    "service_request": "2025-1238181",
    "request_type": "Trash/Recycling",
    "request_reason": "MIssed Recycling Pick-Up",
    "date_created": "2025-11-05T13:25:41.000",
    "date_modified": "2025-11-05T13:25:43.000",
    "request_status": "Pending",
    "responsible_agency": "Department of Sanitation",
    "final_address": "13726 N Lemans St",
    "address_councildis": "E",
    "status": "Assigned to Contractor",
    "contractor": "Waste Pro",
    "rowid": "1238181",
    "final_x": "3726788.91181",
    "final_y": "563566.63056",
    "longitude": "-89.92382164443553",
    "latitude": "30.042158425147097",
    "geocoded_column": {
      "latitude": "30.042158425147097",
      "longitude": "-89.92382164443553"
    }
  },
  {
    "service_request": "2025-1238180",
    "request_type": "Trash/Recycling",
    "request_reason": "Request a Large Item Pick Up",
    "date_created": "2025-11-05T13:23:16.000",
    "date_modified": "2025-11-05T13:24:39.000",
    "request_status": "Pending",
    "responsible_agency": "Department of Sanitation",
    "final_address": "9424 Lincoln Beach Blvd",
    "address_councildis": "E",
    "status": "Assigned to Contractor",
    "contractor": "Waste Pro",
    "rowid": "1238180",
    "final_x": "3705810.72491",
    "final_y": "564813.026466",
    "longitude": "-89.99007405252702",
    "latitude": "30.046278383359994",
    "geocoded_column": {
      "latitude": "30.046278383359994",
      "longitude": "-89.99007405252702"
    }
  },
  {
    "service_request": "2025-1238179",
    "request_type": "Trash/Recycling",
    "request_reason": "Repair Trash Cart",
    "date_created": "2025-11-05T13:20:34.000",
    "date_modified": "2025-11-05T13:20:36.000",
    "request_status": "Pending",
    "responsible_agency": "Department of Sanitation",
    "final_address": "1664 Industry St",
    "address_councildis": "D",
    "status": "Assigned to Contractor",
    "contractor": "IV Waste",
    "rowid": "1238179",
    "final_x": "3680527.98901",
    "final_y": "542580.753549",
    "longitude": "-90.0707547397242",
    "latitude": "29.985938424313105",
    "geocoded_column": {
      "latitude": "29.985938424313105",
      "longitude": "-90.0707547397242"
    }
  },
  {
    "service_request": "2025-1238178",
    "request_type": "Abandoned Vehicles",
    "request_reason": "Abandoned/Junk Vehicles",
    "date_created": "2025-11-05T13:15:58.000",
    "date_modified": "2025-11-05T13:22:33.000",
    "request_status": "Pending",
    "responsible_agency": "Department of Public Works",
    "final_address": "800 BLK Nunez St",
    "address_councildis": "C",
    "status": "Inspected",
    "rowid": "1238178",
    "final_x": "3686912.85416",
    "final_y": "528515.366641",
    "longitude": "-90.05108468727732",
    "latitude": "29.947068511455498",
    "geocoded_column": {
      "latitude": "29.947068511455498",
      "longitude": "-90.05108468727732"
    }
  },
  {
    "service_request": "2025-1238177",
    "request_type": "Abandoned Vehicles",
    "request_reason": "Abandoned/Junk Vehicles",
    "date_created": "2025-11-05T13:14:16.000",
    "date_modified": "2025-11-05T13:19:11.000",
    "request_status": "Pending",
    "responsible_agency": "Department of Public Works",
    "final_address": "500 BLK Homer St",
    "address_councildis": "C",
    "status": "Inspected",
    "rowid": "1238177",
    "final_x": "3687046.84634",
    "final_y": "528331.530067",
    "longitude": "-90.05066812246736",
    "latitude": "29.946558899844195",
    "geocoded_column": {
      "latitude": "29.946558899844195",
      "longitude": "-90.05066812246736"
    }
  },
  {
    "service_request": "2025-1238176",
    "request_type": "Streetlights",
    "request_reason": "Streetlight Outage/Malfunction",
    "date_created": "2025-11-05T13:07:09.000",
    "date_modified": "2025-11-05T13:07:11.000",
    "request_status": "Pending",
    "responsible_agency": "Department of Public Works",
    "final_address": "195 Pinewood Ct",
    "address_councildis": "C",
    "status": "Pending",
    "rowid": "1238176",
    "final_x": "3696079.84266",
    "final_y": "523630.312251",
    "longitude": "-90.02231770581209",
    "latitude": "29.933351048891375",
    "geocoded_column": {
      "latitude": "29.933351048891375",
      "longitude": "-90.02231770581209"
    }
  },
  {
    "service_request": "2025-1238175",
    "request_type": "Roads and Streets",
    "request_reason": "Sidewalk Damaged or Missing",
    "date_created": "2025-11-05T13:06:57.000",
    "date_modified": "2025-11-05T13:07:00.000",
    "request_status": "Pending",
    "responsible_agency": "Department of Public Works",
    "final_address": "1000 BLK Toulouse St",
    "address_councildis": "C",
    "status": "Pending",
    "rowid": "1238175",
    "final_x": "3681308.17803",
    "final_y": "532915.952985",
    "longitude": "-90.06862737408439",
    "latitude": "29.959339902137188",
    "geocoded_column": {
      "latitude": "29.959339902137188",
      "longitude": "-90.06862737408439"
    }
  },
  {
    "service_request": "2025-1238174",
    "request_type": "Trash/Recycling",
    "request_reason": "Repair Recycling Cart",
    "date_created": "2025-11-05T13:06:54.000",
    "date_modified": "2025-11-05T13:06:56.000",
    "request_status": "Pending",
    "responsible_agency": "Department of Sanitation",
    "final_address": "90 English Turn Dr",
    "address_councildis": "C",
    "status": "Pending",
    "rowid": "1238174",
    "final_x": "3722820.08607",
    "final_y": "511892.797616",
    "longitude": "-89.93835265331911",
    "latitude": "29.90020878111052",
    "geocoded_column": {
      "latitude": "29.90020878111052",
      "longitude": "-89.93835265331911"
    }
  },