[
  {
    "service_request": "2026-1283838",
    "request_type": "Health Related Request",
    "request_reason": "Noise Ordinance Complaint",
    "date_created": "2026-05-23T21:31:42.000",
    "date_modified": "2026-05-23T21:31:44.000",
    "request_status": "Pending",
    "responsible_agency": "Health Department",
    "final_address": "800 Bourbon St, New Orleans, Louisiana, 70116",
    "address_councildis": "C",
    "status": "Pending",
    "rowid": "1283838",
    "final_x": "3682553.51528",
    "final_y": "533013.631428",
    "longitude": "-90.06469148499534",
    "latitude": "29.95957063099051",
    "geocoded_column": {
      "latitude": "29.95957063099051",
      "longitude": "-90.06469148499534"
    }
  },
  {
    "service_request": "2026-1283837",
    "request_type": "Trash/Recycling",
    "request_reason": "Missed Trash Pick-Up",
    "date_created": "2026-05-23T21:13:14.000",
    "date_modified": "2026-05-23T21:13:17.000",
    "request_status": "Pending",
    "responsible_agency": "Department of Sanitation",
    "final_address": "0 BLK Admiralty Ct",
    "address_councildis": "C",
    "status": "Assigned to Contractor",
    "contractor": "Richards Disposal",
    "rowid": "1283837",
    "final_x": "3704031.03777",
    "final_y": "523040.620373",
    "longitude": "-89.99723816614093",
    "latitude": "29.931477060413563",
    "geocoded_column": {
      "latitude": "29.931477060413563",
      "longitude": "-89.99723816614093"
    }
  },
  {
    "service_request": "2026-1283836",
    "request_type": "Streetlights",
    "request_reason": "Streetlight Outage/Malfunction",
    "date_created": "2026-05-23T20:35:26.000",
    "date_modified": "2026-05-23T20:35:29.000",
    "request_status": "Pending",
    "responsible_agency": "Department of Public Works",
    "final_address": "2828 Upperline St",
    "address_councildis": "B",
    "status": "Pending",
    "rowid": "1283836",
    "final_x": "3669160.05127",
    "final_y": "525203.114365",
    "longitude": "-90.10724898782733",
    "latitude": "29.938495206542953",
    "geocoded_column": {
      "latitude": "29.938495206542953",
      "longitude": "-90.10724898782733"
    }
  },
  {
    "service_request": "2026-1283835",
    "request_type": "Tree Service",
    "request_reason": "Tree Trim",
    "date_created": "2026-05-23T19:38:39.000",
    "date_modified": "2026-05-23T19:38:41.000",
    "request_status": "Pending",
    "responsible_agency": "Department of Parks & Parkways",
    "final_address": "4241 America St",
    "address_councildis": "E",
    "status": "Pending",
    "rowid": "1283835",
    "final_x": "3700028.62986",
    "final_y": "552383.992022",
    "longitude": "-90.00880241313918",
    "latitude": "30.012288441150698",
    "geocoded_column": {
      "latitude": "30.012288441150698",
      "longitude": "-90.00880241313918"
    }
  },
  {
    "service_request": "2026-1283834",
    "request_type": "Trash/Recycling",
    "request_reason": "Order Recycling Cart",
    "date_created": "2026-05-23T19:12:02.000",
    "date_modified": "2026-05-23T19:12:04.000",
    "request_status": "Pending",
    "responsible_agency": "Department of Sanitation",
    "final_address": "1608 Lisbon St",
    "address_councildis": "D",
    "status": "Pending",
    "rowid": "1283834",
    "final_x": "3679045.60219",
    "final_y": "556085.701338",
    "longitude": "-90.07496855410672",
    "latitude": "30.023117040768604",
    "geocoded_column": {
      "latitude": "30.023117040768604",
      "longitude": "-90.07496855410672"
    }
  },
  {
    "service_request": "2026-1283833",
    "request_type": "Trash/Recycling",
    "request_reason": "Replace Recycling Cart",
    "date_created": "2026-05-23T18:53:36.000",
    "date_modified": "2026-05-23T18:53:38.000",
    "request_status": "Pending",
    "responsible_agency": "Department of Sanitation",
    "final_address": "818 Bordeaux St",
    "address_councildis": "B",
    "status": "Pending",
    "rowid": "1283833",
    "final_x": "3669564.27969",
    "final_y": "518429.819446",
    "longitude": "-90.10620180454744",
    "latitude": "29.919858909799583",
    "geocoded_column": {
      "latitude": "29.919858909799583",
      "longitude": "-90.10620180454744"
    }
  },
  {
    "service_request": "2026-1283832",
    "request_type": "Healthy Homes",
    "request_reason": "Healthy Homes",
    "date_created": "2026-05-23T18:25:22.000",
    "date_modified": "2026-05-23T18:25:24.000",
    "request_status": "Pending",
    "responsible_agency": "Department of Code Enforcement",
    "final_address": "428 Park Blvd",
    "address_councildis": "C",
    "status": "Pending",
    "rowid": "1283832",
    "final_x": "3687039.59535",
    "final_y": "525891.166909",
    "longitude": "-90.05077726060355",
    "latitude": "29.939848951875543",
    "geocoded_column": {
      "latitude": "29.939848951875543",
      "longitude": "-90.05077726060355"
    }
  },
  {
    "service_request": "2026-1283831",
    "request_type": "Trash/Recycling",
    "request_reason": "Request a Large Item Pick Up",
    "date_created": "2026-05-23T18:15:38.000",
    "date_modified": "2026-05-23T18:15:39.000",
    "request_status": "Pending",
    "responsible_agency": "Department of Sanitation",
    "final_address": "5276 Bullard Ave",
    "address_councildis": "E",
    "status": "Assigned to Contractor",
    "contractor": "Waste Pro",
    "rowid": "1283831",
    "final_x": "3718289.37631",
    "final_y": "560069.012829",
    "longitude": "-89.95081648026229",
    "latitude": "30.032826138404516",
    "geocoded_column": {
      "latitude": "30.032826138404516",
      "longitude": "-89.95081648026229"
    }
  },
  {
    "service_request": "2026-1283830",
    "request_type": "Trash/Recycling",
    "request_reason": "Illegal Dumping",
    "date_created": "2026-05-23T18:14:15.000",
    "date_modified": "2026-05-23T18:14:18.000",
    "request_status": "Pending",
    "responsible_agency": "Department of Sanitation",
    "final_address": "1403 Jourdan Ave",
    "address_councildis": "E",
    "status": "Pending",
    "rowid": "1283830",
    "final_x": "3695402.65206",
    "final_y": "535639.94279",
    "longitude": "-90.02402231940037",
    "latitude": "29.96639463101407",
    "geocoded_column": {
      "latitude": "29.96639463101407",
      "longitude": "-90.02402231940037"
    }
  },
  {
    "service_request": "2026-1283829",
    "request_type": "Tree Service",
    "request_reason": "Tree Trim",
    "date_created": "2026-05-23T17:51:11.000",
    "date_modified": "2026-05-23T17:51:12.000",
    "request_status": "Pending",
    "responsible_agency": "Department of Parks & Parkways",
    "final_address": "4900 Gawain Dr",
    "address_councildis": "E",
    "status": "Pending",
    "rowid": "1283829",
    "final_x": "3706805.69553",
    "final_y": "556412.85417",
    "longitude": "-89.98724134574191",
    "latitude": "30.02314911002191",
    "geocoded_column": {
      "latitude": "30.02314911002191",
      "longitude": "-89.98724134574191"
    }
  },
  {
    "service_request": "2026-1283828",
    "request_type": "Traffic Signals",
    "request_reason": "Traffic Signal Malfunctioning or Damaged",
    "date_created": "2026-05-23T17:50:54.000",
    "date_modified": "2026-05-23T17:50:56.000",
    "request_status": "Pending",
    "responsible_agency": "Department of Public Works",
    "final_address": "1824 Nie Prkwy",
    "address_councildis": "C",
    "status": "Pending",
    "rowid": "1283828",
    "final_x": "3701208.50897",
    "final_y": "524059.380476",
    "longitude": "-90.00611123830726",
    "latitude": "29.93436849129078",
    "geocoded_column": {
      "latitude": "29.93436849129078",
      "longitude": "-90.00611123830726"
    }
  },
  {
    "service_request": "2026-1283827",
    "request_type": "General Services",
    "request_reason": "General Service Request",
    "date_created": "2026-05-23T17:47:06.000",
    "date_modified": "2026-05-23T17:47:08.000",
    "request_status": "Pending",
    "responsible_agency": "Orleans Parish Communication District",
    "final_address": "4911 Friar Tuck Dr",
    "address_councildis": "E",
    "status": "Pending",
    "rowid": "1283827",
    "final_x": "3717715.79801",
    "final_y": "557760.492955",
    "longitude": "-89.95271691457673",
    "latitude": "30.02649765206411",
    "geocoded_column": {
      "latitude": "30.02649765206411",
      "longitude": "-89.95271691457673"
    }
  },
  {
    "service_request": "2026-1283826",
    "request_type": "Abandoned Vehicles",
    "request_reason": "Abandoned/Junk Vehicles",
    "date_created": "2026-05-23T17:46:22.000",
    "date_modified": "2026-05-23T17:46:24.000",
    "request_status": "Pending",
    "responsible_agency": "Department of Public Works",
    "final_address": "5979 Argonne Blvd",
    "address_councildis": "A",
    "status": "Pending",
    "rowid": "1283826",
    "final_x": "3670205.19316",
    "final_y": "547067.167761",
    "longitude": "-90.1032083142158",
    "latitude": "29.99858323808711",
    "geocoded_column": {
      "latitude": "29.99858323808711",
      "longitude": "-90.1032083142158"
    }
  },
  {
    "service_request": "2026-1283825",
    "request_type": "Trash/Recycling",
    "request_reason": "Request a Large Item Pick Up",
    "date_created": "2026-05-23T17:21:35.000",
    "date_modified": "2026-05-23T17:21:36.000",
    "request_status": "Pending",
    "responsible_agency": "Department of Sanitation",
    "final_address": "333 N Rendon St",
    "address_councildis": "B",
    "status": "Assigned to Contractor",
    "contractor": "IV Waste",
    "rowid": "1283825",
    "final_x": "3674221.8738",
    "final_y": "537342.901256",
    "longitude": "-90.09085268375617",
    "latitude": "29.971725677887797",
    "geocoded_column": {
      "latitude": "29.971725677887797",
      "longitude": "-90.09085268375617"
    }
  },
  {
    "service_request": "2026-1283824",
    "request_type": "Trash/Recycling",
    "request_reason": "Change Size of Trash Cart",
    "date_created": "2026-05-23T16:28:57.000",
    "date_modified": "2026-05-23T16:28:59.000",
    "request_status": "Pending",
    "responsible_agency": "Department of Sanitation",
    "final_address": "0 BLK Allard Blvd",
    "address_councildis": "A",
    "status": "Assigned to Contractor",
    "contractor": "IV Waste",
    "rowid": "1283824",
    "final_x": "3672821.79572",
    "final_y": "540498.945693",
    "longitude": "-90.09516664976555",
    "latitude": "29.98044539706053",
    "geocoded_column": {
      "latitude": "29.98044539706053",
      "longitude": "-90.09516664976555"
    }
  },
  {
    "service_request": "2026-1283823",
    "request_type": "Roads and Streets",
    "request_reason": "Pothole",
    "date_created": "2026-05-23T16:26:13.000",
    "date_modified": "2026-05-23T16:26:15.000",
    "request_status": "Pending",
    "responsible_agency": "Department of Public Works",
    "final_address": "1000 BLK General Taylor St",
    "address_councildis": "B",
    "status": "Pending",
    "rowid": "1283823",
    "final_x": "3672988.00012",
    "final_y": "519531.59327",
    "longitude": "-90.09535719324596",
    "latitude": "29.92278717184743",
    "geocoded_column": {
      "latitude": "29.92278717184743",
      "longitude": "-90.09535719324596"
    }
  },
  {
    "service_request": "2026-1283822",
    "request_type": "Trash/Recycling",
    "request_reason": "Order Trash Cart",
    "date_created": "2026-05-23T15:43:12.000",
    "date_modified": "2026-05-23T15:43:14.000",
    "request_status": "Pending",
    "responsible_agency": "Department of Sanitation",
    "final_address": "1724 Constantinople St",
    "address_councildis": "B",
    "status": "Assigned to Contractor",
    "contractor": "IV Waste",
    "rowid": "1283822",
    "final_x": "3672212.09447",
    "final_y": "521593.964409",
    "longitude": "-90.09773622577097",
    "latitude": "29.928481059427604",
    "geocoded_column": {
      "latitude": "29.928481059427604",
      "longitude": "-90.09773622577097"
    }
  },
  {
    "service_request": "2026-1283821",
    "request_type": "Trash/Recycling",
    "request_reason": "Replace Trash Cart",
    "date_created": "2026-05-23T15:40:17.000",
    "date_modified": "2026-05-23T15:40:19.000",
    "request_status": "Pending",
    "responsible_agency": "Department of Sanitation",
    "final_address": "2317 New Orleans St",
    "address_councildis": "D",
    "status": "Assigned to Contractor",
    "contractor": "IV Waste",
    "rowid": "1283821",
    "final_x": "3682077.10991",
    "final_y": "540660.745547",
    "longitude": "-90.06592876475283",
    "latitude": "29.980612049352473",
    "geocoded_column": {
      "latitude": "29.980612049352473",
      "longitude": "-90.06592876475283"
    }
  },
  {
    "service_request": "2026-1283820",
    "request_type": "General Services",
    "request_reason": "General Service Request",
    "date_created": "2026-05-23T15:24:48.000",
    "date_modified": "2026-05-23T15:24:50.000",
    "request_status": "Pending",
    "responsible_agency": "Orleans Parish Communication District",
    "final_address": "2417 Josephine St",
    "address_councildis": "B",
    "status": "Pending",
    "rowid": "1283820",
    "final_x": "3676088.95374",
    "final_y": "526378.134846",
    "longitude": "-90.0853333108126",
    "latitude": "29.94152044359696",
    "geocoded_column": {
      "latitude": "29.94152044359696",
      "longitude": "-90.0853333108126"
    }
  },
  {
    "service_request": "2026-1283819",
    "request_type": "Trash/Recycling",
    "request_reason": "Request a Large Item Pick Up",
    "date_created": "2026-05-23T14:58:12.000",
    "date_modified": "2026-05-23T14:58:14.000",
    "request_status": "Pending",
    "responsible_agency": "Department of Sanitation",
    "final_address": "10 Caddo Pl",
    "address_councildis": "E",
    "status": "Assigned to Contractor",
    "contractor": "Waste Pro",
    "rowid": "1283819",
    "final_x": "3725849.40665",
    "final_y": "564437.220897",
    "longitude": "-89.92675702280515",
    "latitude": "30.044583930763164",
    "geocoded_column": {
      "latitude": "30.044583930763164",
      "longitude": "-89.92675702280515"
    }
  },
  {
    "service_request": "2026-1283818",
    "request_type": "Streetlights",
    "request_reason": "Streetlight Outage/Malfunction",
    "date_created": "2026-05-23T14:48:15.000",
    "date_modified": "2026-05-23T14:48:19.000",
    "request_status": "Pending",
    "responsible_agency": "Department of Public Works",
    "final_address": "1308 Esplanade Ave",
    "address_councildis": "C",
    "status": "Pending",
    "rowid": "1283818",
    "final_x": "3682011.74824",
    "final_y": "535909.870215",
    "longitude": "-90.06630112904976",
    "latitude": "29.967550777446046",
    "geocoded_column": {
      "latitude": "29.967550777446046",
      "longitude": "-90.06630112904976"
    }
  },
  {
    "service_request": "2026-1283817",
    "request_type": "Street and Traffic Signs",
    "request_reason": "Street Name Sign Damaged or Missing",
    "date_created": "2026-05-23T14:33:46.000",
    "date_modified": "2026-05-23T14:33:47.000",
    "request_status": "Pending",
    "responsible_agency": "Department of Public Works",
    "final_address": "LAFAYE ST & DREUX AVE",
    "address_councildis": "D",
    "status": "Pending",
    "rowid": "1283817",
    "final_x": "3687300.6",
    "final_y": "552274.08",
    "longitude": "-90.04901962676468",
    "latitude": "30.012384634206246",
    "geocoded_column": {
      "latitude": "30.012384634206246",
      "longitude": "-90.04901962676468"
    }
  },
  {
    "service_request": "2026-1283816",
    "request_type": "Street and Traffic Signs",
    "request_reason": "Street Name Sign Damaged or Missing",
    "date_created": "2026-05-23T14:32:57.000",
    "date_modified": "2026-05-23T14:32:58.000",
    "request_status": "Pending",
    "responsible_agency": "Department of Public Works",
    "final_address": "LOMBARD ST & DEMONTLUZIN ST",
    "address_councildis": "D",
    "status": "Pending",
    "rowid": "1283816",
    "final_x": "3687217.5",
    "final_y": "549684.08",
    "longitude": "-90.04937386880458",
    "latitude": "30.005265641780117",
    "geocoded_column": {
      "latitude": "30.005265641780117",
      "longitude": "-90.04937386880458"
    }
  },
  {
    "service_request": "2026-1283815",
    "request_type": "Road Striping",
    "request_reason": "Bike Lane",
    "date_created": "2026-05-23T14:32:38.000",
    "date_modified": "2026-05-23T14:32:46.000",
    "request_status": "Pending",
    "responsible_agency": "Department of Public Works",
    "final_address": "2820 Napoleon Ave",
    "address_councildis": "B",
    "status": "Pending",
    "rowid": "1283815",
    "final_x": "3670304.62554",
    "final_y": "525274.278781",
    "longitude": "-90.10363302923435",
    "latitude": "29.938657160000645",
    "geocoded_column": {
      "latitude": "29.938657160000645",
      "longitude": "-90.10363302923435"
    }
  },
  {
    "service_request": "2026-1283814",
    "request_type": "Street and Traffic Signs",
    "request_reason": "Street Name Sign Damaged or Missing",
    "date_created": "2026-05-23T14:32:03.000",
    "date_modified": "2026-05-23T14:32:04.000",
    "request_status": "Pending",
    "responsible_agency": "Department of Public Works",
    "final_address": "EASTERN ST & GENTILLY BLVD",
    "address_councildis": "D",
    "status": "Pending",
    "rowid": "1283814",
    "final_x": "3688165.95",
    "final_y": "548791.11",
    "longitude": "-90.04640920343587",
    "latitude": "30.002781042976363",
    "geocoded_column": {
      "latitude": "30.002781042976363",
      "longitude": "-90.04640920343587"
    }
  },
  {
    "service_request": "2026-1283813",
    "request_type": "Street and Traffic Signs",
    "request_reason": "Street Name Sign Damaged or Missing",
    "date_created": "2026-05-23T14:30:59.000",
    "date_modified": "2026-05-23T14:31:00.000",
    "request_status": "Pending",
    "responsible_agency": "Department of Public Works",
    "final_address": "DEMONTLUZIN ST & GENTILLY BLVD",
    "address_councildis": "D",
    "status": "Pending",
    "rowid": "1283813",
    "final_x": "3687280.88",
    "final_y": "548871.82",
    "longitude": "-90.04920239625183",
    "latitude": "30.003030269176335",
    "geocoded_column": {
      "latitude": "30.003030269176335",
      "longitude": "-90.04920239625183"
    }
  },
  {
    "service_request": "2026-1283812",
    "request_type": "Street and Traffic Signs",
    "request_reason": "Street Name Sign Damaged or Missing",
    "date_created": "2026-05-23T14:30:05.000",
    "date_modified": "2026-05-23T14:30:07.000",
    "request_status": "Pending",
    "responsible_agency": "Department of Public Works",
    "final_address": "LOMBARD ST & BACCICH ST",
    "address_councildis": "D",
    "status": "Pending",
    "rowid": "1283812",
    "final_x": "3687794.9",
    "final_y": "549732.18",
    "longitude": "-90.04754803741719",
    "latitude": "30.00538009644894",
    "geocoded_column": {
      "latitude": "30.00538009644894",
      "longitude": "-90.04754803741719"
    }
  },
  {
    "service_request": "2026-1283811",
    "request_type": "Street and Traffic Signs",
    "request_reason": "Street Name Sign Damaged or Missing",
    "date_created": "2026-05-23T14:29:19.000",
    "date_modified": "2026-05-23T14:29:21.000",
    "request_status": "Pending",
    "responsible_agency": "Department of Public Works",
    "final_address": "EASTERN ST & MIRABEAU AVE",
    "address_councildis": "D",
    "status": "Pending",
    "rowid": "1283811",
    "final_x": "3687977.5",
    "final_y": "551035.18",
    "longitude": "-90.04692495103771",
    "latitude": "30.00895723491497",
    "geocoded_column": {
      "latitude": "30.00895723491497",
      "longitude": "-90.04692495103771"
    }
  },
  {
    "service_request": "2026-1283810",
    "request_type": "Street and Traffic Signs",
    "request_reason": "Street Name Sign Damaged or Missing",
    "date_created": "2026-05-23T14:28:19.000",
    "date_modified": "2026-05-23T14:28:20.000",
    "request_status": "Pending",
    "responsible_agency": "Department of Public Works",
    "final_address": "LAFAYE ST & MIRABEAU AVE",
    "address_councildis": "D",
    "status": "Pending",
    "rowid": "1283810",
    "final_x": "3687403.4",
    "final_y": "550987.88",
    "longitude": "-90.04874039453605",
    "latitude": "30.008844886931794",
    "geocoded_column": {
      "latitude": "30.008844886931794",
      "longitude": "-90.04874039453605"
    }
  },
  {
    "service_request": "2026-1283809",
    "request_type": "Street and Traffic Signs",
    "request_reason": "Street Name Sign Damaged or Missing",
    "date_created": "2026-05-23T14:27:14.000",
    "date_modified": "2026-05-23T14:27:15.000",
    "request_status": "Pending",
    "responsible_agency": "Department of Public Works",
    "final_address": "DREUX AVE & DEMONTLUZIN ST",
    "address_councildis": "D",
    "status": "Pending",
    "rowid": "1283809",
    "final_x": "3687008.4",
    "final_y": "552251.38",
    "longitude": "-90.04994361649717",
    "latitude": "30.01233121968989",
    "geocoded_column": {
      "latitude": "30.01233121968989",
      "longitude": "-90.04994361649717"
    }
  },
  {
    "service_request": "2026-1283808",
    "request_type": "General Services",
    "request_reason": "General Service Request",
    "date_created": "2026-05-23T14:26:29.000",
    "date_modified": "2026-05-23T14:26:30.000",
    "request_status": "Pending",
    "responsible_agency": "Orleans Parish Communication District",
    "final_address": "6204 Vermillion Blvd",
    "address_councildis": "D",
    "status": "Pending",
    "rowid": "1283808",
    "final_x": "3682971.40431",
    "final_y": "555775.786841",
    "longitude": "-90.06257475362337",
    "latitude": "30.022145759928886",
    "geocoded_column": {
      "latitude": "30.022145759928886",
      "longitude": "-90.06257475362337"
    }
  },
  {
    "service_request": "2026-1283807",
    "request_type": "Street and Traffic Signs",
    "request_reason": "Street Name Sign Damaged or Missing",
    "date_created": "2026-05-23T14:26:20.000",
    "date_modified": "2026-05-23T14:26:21.000",
    "request_status": "Pending",
    "responsible_agency": "Department of Public Works",
    "final_address": "FILMORE ST & LAFAYE ST",
    "address_councildis": "D",
    "status": "Pending",
    "rowid": "1283807",
    "final_x": "3687275.2",
    "final_y": "552581.58",
    "longitude": "-90.04908898760426",
    "latitude": "30.013230929046244",
    "geocoded_column": {
      "latitude": "30.013230929046244",
      "longitude": "-90.04908898760426"
    }
  },
  {
    "service_request": "2026-1283806",
    "request_type": "Street and Traffic Signs",
    "request_reason": "Street Name Sign Damaged or Missing",
    "date_created": "2026-05-23T14:25:26.000",
    "date_modified": "2026-05-23T14:25:27.000",
    "request_status": "Pending",
    "responsible_agency": "Department of Public Works",
    "final_address": "DREUX AVE & PAINTERS ST",
    "address_councildis": "D",
    "status": "Pending",
    "rowid": "1283806",
    "final_x": "3686074.4",
    "final_y": "552179.18",
    "longitude": "-90.05289707565001",
    "latitude": "30.012161427544395",
    "geocoded_column": {
      "latitude": "30.012161427544395",
      "longitude": "-90.05289707565001"
    }
  },
  {
    "service_request": "2026-1283805",
    "request_type": "General Services",
    "request_reason": "General Service Request",
    "date_created": "2026-05-23T14:25:07.000",
    "date_modified": "2026-05-23T14:25:08.000",
    "request_status": "Pending",
    "responsible_agency": "Orleans Parish Communication District",
    "final_address": "13026 Cherbourg St",
    "address_councildis": "E",
    "status": "Pending",
    "rowid": "1283805",
    "final_x": "3724004.04243",
    "final_y": "560885.11267",
    "longitude": "-89.93272636437362",
    "latitude": "30.034879253384762",
    "geocoded_column": {
      "latitude": "30.034879253384762",
      "longitude": "-89.93272636437362"
    }
  },
  {
    "service_request": "2026-1283804",
    "request_type": "Street and Traffic Signs",
    "request_reason": "Street Name Sign Damaged or Missing",
    "date_created": "2026-05-23T14:24:08.000",
    "date_modified": "2026-05-23T14:24:10.000",
    "request_status": "Pending",
    "responsible_agency": "Department of Public Works",
    "final_address": "DREUX AVE & MUSIC ST",
    "address_councildis": "D",
    "status": "Pending",
    "rowid": "1283804",
    "final_x": "3685500.3",
    "final_y": "552131.98",
    "longitude": "-90.05471256722169",
    "latitude": "30.01204927223271",
    "geocoded_column": {
      "latitude": "30.01204927223271",
      "longitude": "-90.05471256722169"
    }
  },
  {
    "service_request": "2026-1283803",
    "request_type": "Street and Traffic Signs",
    "request_reason": "Street Name Sign Damaged or Missing",
    "date_created": "2026-05-23T14:23:08.000",
    "date_modified": "2026-05-23T14:23:09.000",
    "request_status": "Pending",
    "responsible_agency": "Department of Public Works",
    "final_address": "FILMORE ST & ARTS ST",
    "address_councildis": "D",
    "status": "Pending",
    "rowid": "1283803",
    "final_x": "3685760.6",
    "final_y": "552551.88",
    "longitude": "-90.05387535569996",
    "latitude": "30.013195854309444",
    "geocoded_column": {
      "latitude": "30.013195854309444",
      "longitude": "-90.05387535569996"
    }
  },
  {
    "service_request": "2026-1283802",
    "request_type": "Street and Traffic Signs",
    "request_reason": "Street Name Sign Damaged or Missing",
    "date_created": "2026-05-23T14:22:25.000",
    "date_modified": "2026-05-23T14:22:26.000",
    "request_status": "Pending",
    "responsible_agency": "Department of Public Works",
    "final_address": "FILMORE ST & MUSIC ST",
    "address_councildis": "D",
    "status": "Pending",
    "rowid": "1283802",
    "final_x": "3685469.7",
    "final_y": "552545.28",
    "longitude": "-90.05479467546797",
    "latitude": "30.013186634947928",
    "geocoded_column": {
      "latitude": "30.013186634947928",
      "longitude": "-90.05479467546797"
    }
  },
  {
    "service_request": "2026-1283801",
    "request_type": "Street and Traffic Signs",
    "request_reason": "Street Name Sign Damaged or Missing",
    "date_created": "2026-05-23T14:21:20.000",
    "date_modified": "2026-05-23T14:21:21.000",
    "request_status": "Pending",
    "responsible_agency": "Department of Public Works",
    "final_address": "FILMORE ST & SPAIN ST",
    "address_councildis": "D",
    "status": "Pending",
    "rowid": "1283801",
    "final_x": "3684833.2",
    "final_y": "552503.78",
    "longitude": "-90.05680713308134",
    "latitude": "30.013092038015685",
    "geocoded_column": {
      "latitude": "30.013092038015685",
      "longitude": "-90.05680713308134"
    }
  },
  {
    "service_request": "2026-1283800",
    "request_type": "Street and Traffic Signs",
    "request_reason": "Street Name Sign Damaged or Missing",
    "date_created": "2026-05-23T14:20:30.000",
    "date_modified": "2026-05-23T14:20:32.000",
    "request_status": "Pending",
    "responsible_agency": "Department of Public Works",
    "final_address": "FILMORE ST & MANDEVILLE ST",
    "address_councildis": "D",
    "status": "Pending",
    "rowid": "1283800",
    "final_x": "3684533.3",
    "final_y": "552479.78",
    "longitude": "-90.05775549873357",
    "latitude": "30.01303523002654",
    "geocoded_column": {
      "latitude": "30.01303523002654",
      "longitude": "-90.05775549873357"
    }
  },
  {
    "service_request": "2026-1283799",
    "request_type": "Street and Traffic Signs",
    "request_reason": "Street Name Sign Damaged or Missing",
    "date_created": "2026-05-23T14:19:37.000",
    "date_modified": "2026-05-23T14:19:39.000",
    "request_status": "Pending",
    "responsible_agency": "Department of Public Works",
    "final_address": "DREUX AVE & SPAIN ST",
    "address_councildis": "D",
    "status": "Pending",
    "rowid": "1283799",
    "final_x": "3684857.3",
    "final_y": "552081.68",
    "longitude": "-90.05674584795771",
    "latitude": "30.011930678871675",
    "geocoded_column": {
      "latitude": "30.011930678871675",
      "longitude": "-90.05674584795771"
    }
  },
  {
    "service_request": "2026-1283798",
    "request_type": "Street and Traffic Signs",
    "request_reason": "Street Name Sign Damaged or Missing",
    "date_created": "2026-05-23T14:18:33.000",
    "date_modified": "2026-05-23T14:18:35.000",
    "request_status": "Pending",
    "responsible_agency": "Department of Public Works",
    "final_address": "MANDEVILLE ST & GENTILLY BLVD",
    "address_councildis": "D",
    "status": "Pending",
    "rowid": "1283798",
    "final_x": "3684873.32",
    "final_y": "548325.19",
    "longitude": "-90.05682745153017",
    "latitude": "30.0016012030017",
    "geocoded_column": {
      "latitude": "30.0016012030017",
      "longitude": "-90.05682745153017"
    }
  },
  {
    "service_request": "2026-1283797",
    "request_type": "Trash/Recycling",
    "request_reason": "Illegal Dumping",
    "date_created": "2026-05-23T14:04:46.000",
    "date_modified": "2026-05-23T14:04:48.000",
    "request_status": "Pending",
    "responsible_agency": "Department of Sanitation",
    "final_address": "8701 Pritchard Pl",
    "address_councildis": "A",
    "status": "Pending",
    "rowid": "1283797",
    "final_x": "3664491.29236",
    "final_y": "534366.411589",
    "longitude": "-90.1216828899228",
    "latitude": "29.963827849252564",
    "geocoded_column": {
      "latitude": "29.963827849252564",
      "longitude": "-90.1216828899228"
    }
  },
  {
    "service_request": "2026-1283796",
    "request_type": "Street and Traffic Signs",
    "request_reason": "Additional Signage Request",
    "date_created": "2026-05-23T13:56:53.000",
    "date_modified": "2026-05-23T13:56:56.000",
    "request_status": "Pending",
    "responsible_agency": "Department of Public Works",
    "final_address": "1325 Josephine St B",
    "address_councildis": "B",
    "status": "Pending",
    "rowid": "1283796",
    "final_x": "3678678.17736",
    "final_y": "523078.476411",
    "longitude": "-90.0772728160294",
    "latitude": "29.932369674414456",
    "geocoded_column": {
      "latitude": "29.932369674414456",
      "longitude": "-90.0772728160294"
    }
  },
  {
    "service_request": "2026-1283795",
    "request_type": "Property Maintenance",
    "request_reason": "Property Maintenance",
    "date_created": "2026-05-23T13:44:51.000",
    "date_modified": "2026-05-23T13:44:53.000",
    "request_status": "Pending",
    "responsible_agency": "Department of Code Enforcement",
    "final_address": "2019 Cadiz St",
    "address_councildis": "B",
    "status": "Pending",
    "rowid": "1283795",
    "final_x": "3669985.17121",
    "final_y": "522365.389754",
    "longitude": "-90.10474005289079",
    "latitude": "29.930668074174076",
    "geocoded_column": {
      "latitude": "29.930668074174076",
      "longitude": "-90.10474005289079"
    }
  },
  {
    "service_request": "2026-1283794",
    "request_type": "Trash/Recycling",
    "request_reason": "Illegal Dumping",
    "date_created": "2026-05-23T13:35:26.000",
    "date_modified": "2026-05-23T13:35:28.000",
    "request_status": "Pending",
    "responsible_agency": "Department of Sanitation",
    "final_address": "5101 Canal Blvd",
    "address_councildis": "A",
    "status": "Pending",
    "rowid": "1283794",
    "final_x": "3668047.66221",
    "final_y": "541296.987276",
    "longitude": "-90.11021855882808",
    "latitude": "29.982780727159295",
    "geocoded_column": {
      "latitude": "29.982780727159295",
      "longitude": "-90.11021855882808"
    }
  },
  {
    "service_request": "2026-1283793",
    "request_type": "Trash/Recycling",
    "request_reason": "Request a Large Item Pick Up",
    "date_created": "2026-05-23T13:25:27.000",
    "date_modified": "2026-05-23T13:25:30.000",
    "request_status": "Pending",
    "responsible_agency": "Department of Sanitation",
    "final_address": "3613 Franklin Ave",
    "address_councildis": "D",
    "status": "Assigned to Contractor",
    "contractor": "IV Waste",
    "rowid": "1283793",
    "final_x": "3687217.82902",
    "final_y": "546159.455888",
    "longitude": "-90.0494975898386",
    "latitude": "29.99557419115604",
    "geocoded_column": {
      "latitude": "29.99557419115604",
      "longitude": "-90.0494975898386"
    }
  },
  {
    "service_request": "2026-1283792",
    "request_type": "Homeless Related Request",
    "request_reason": "Homeless Encampment Complaint",
    "date_created": "2026-05-23T13:20:19.000",
    "date_modified": "2026-05-23T13:20:22.000",
    "request_status": "Pending",
    "responsible_agency": "Office Of Homeless Services And Strategy",
    "final_address": "1000 BLK Spain St",
    "address_councildis": "C",
    "status": "Pending",
    "rowid": "1283792",
    "final_x": "3686148.32977",
    "final_y": "536214.54186",
    "longitude": "-90.05322699477739",
    "latitude": "29.968262098250964",
    "geocoded_column": {
      "latitude": "29.968262098250964",
      "longitude": "-90.05322699477739"
    }
  },
  {
    "service_request": "2026-1283791",
    "request_type": "Drainage",
    "request_reason": "Illegal Dumping (Sewer Odor)",
    "date_created": "2026-05-23T13:11:41.000",
    "date_modified": "2026-05-23T13:11:43.000",
    "request_status": "Pending",
    "responsible_agency": "Sewerage & Water Board",
    "final_address": "1000 BLK Spain St",
    "address_councildis": "C",
    "status": "Pending",
    "rowid": "1283791",
    "final_x": "3686148.32977",
    "final_y": "536214.54186",
    "longitude": "-90.05322699477739",
    "latitude": "29.968262098250964",
    "geocoded_column": {
      "latitude": "29.968262098250964",
      "longitude": "-90.05322699477739"
    }
  },
  {
    "service_request": "2026-1283790",
    "request_type": "Drainage",
    "request_reason": "Illegal Dumping (Sewer Odor)",
    "date_created": "2026-05-23T13:07:17.000",
    "date_modified": "2026-05-23T13:07:18.000",
    "request_status": "Pending",
    "responsible_agency": "Sewerage & Water Board",
    "final_address": "820 Spain St Unit 10",
    "address_councildis": "C",
    "status": "Pending",
    "rowid": "1283790",
    "final_x": "3686091.36956",
    "final_y": "535477.121542",
    "longitude": "-90.05343288991705",
    "latitude": "29.966236198247074",
    "geocoded_column": {
      "latitude": "29.966236198247074",
      "longitude": "-90.05343288991705"
    }
  },
  {
    "service_request": "2026-1283789",
    "request_type": "General Services",
    "request_reason": "General Service Request",
    "date_created": "2026-05-23T13:04:38.000",
    "date_modified": "2026-05-23T13:04:40.000",
    "request_status": "Pending",
    "responsible_agency": "Orleans Parish Communication District",
    "final_address": "4843 Evangeline Dr",
    "address_councildis": "E",
    "status": "Pending",
    "rowid": "1283789",
    "final_x": "3709109.20062",
    "final_y": "556414.731226",
    "longitude": "-89.97996277020059",
    "latitude": "30.02307966307461",
    "geocoded_column": {
      "latitude": "30.02307966307461",
      "longitude": "-89.97996277020059"
    }
  },
  {
    "service_request": "2026-1283788",
    "request_type": "General Services",
    "request_reason": "General Service Request",
    "date_created": "2026-05-23T13:04:37.000",
    "date_modified": "2026-05-23T13:04:40.000",
    "request_status": "Pending",
    "responsible_agency": "Orleans Parish Communication District",
    "final_address": "4843 Evangeline Dr",
    "address_councildis": "E",
    "status": "Pending",
    "rowid": "1283788",
    "final_x": "3709109.20062",
    "final_y": "556414.731226",
    "longitude": "-89.97996277020059",
    "latitude": "30.02307966307461",
    "geocoded_column": {
      "latitude": "30.02307966307461",
      "longitude": "-89.97996277020059"
    }
  },
  {
    "service_request": "2026-1283787",
    "request_type": "Property Maintenance",
    "request_reason": "Property Maintenance",
    "date_created": "2026-05-23T12:59:21.000",
    "date_modified": "2026-05-23T12:59:23.000",
    "request_status": "Pending",
    "responsible_agency": "Department of Code Enforcement",
    "final_address": "3716 Buchanan St",
    "address_councildis": "D",
    "status": "Pending",
    "rowid": "1283787",
    "final_x": "3677353.89262",
    "final_y": "545855.916304",
    "longitude": "-90.0806673631031",
    "latitude": "29.995039763448787",
    "geocoded_column": {
      "latitude": "29.995039763448787",
      "longitude": "-90.0806673631031"
    }
  },
  {
    "service_request": "2026-1283786",
    "request_type": "Trash/Recycling",
    "request_reason": "Order Trash Cart",
    "date_created": "2026-05-23T12:55:14.000",
    "date_modified": "2026-05-23T12:55:16.000",
    "request_status": "Pending",
    "responsible_agency": "Department of Sanitation",
    "final_address": "3722 Buchanan St",
    "address_councildis": "D",
    "status": "Assigned to Contractor",
    "contractor": "IV Waste",
    "rowid": "1283786",
    "final_x": "3677350.32501",
    "final_y": "545903.599568",
    "longitude": "-90.08067698612513",
    "latitude": "29.995170982907464",
    "geocoded_column": {
      "latitude": "29.995170982907464",
      "longitude": "-90.08067698612513"
    }
  },
  {
    "service_request": "2026-1283785",
    "request_type": "Trash/Recycling",
    "request_reason": "Replace Trash Cart",
    "date_created": "2026-05-23T12:53:53.000",
    "date_modified": "2026-05-23T12:53:55.000",
    "request_status": "Pending",
    "responsible_agency": "Department of Sanitation",
    "final_address": "921 Eighth St",
    "address_councildis": "B",
    "status": "Assigned to Contractor",
    "contractor": "IV Waste",
    "rowid": "1283785",
    "final_x": "3676453.44981",
    "final_y": "519780.413048",
    "longitude": "-90.08440956642377",
    "latitude": "29.923367940358844",
    "geocoded_column": {
      "latitude": "29.923367940358844",
      "longitude": "-90.08440956642377"
    }
  },
  {
    "service_request": "2026-1283784",
    "request_type": "Trash/Recycling",
    "request_reason": "Order Trash Cart",
    "date_created": "2026-05-23T12:32:58.000",
    "date_modified": "2026-05-23T12:33:01.000",
    "request_status": "Pending",
    "responsible_agency": "Department of Sanitation",
    "final_address": "330 40Th St",
    "address_councildis": "A",
    "status": "Assigned to Contractor",
    "contractor": "IV Waste",
    "rowid": "1283784",
    "final_x": "3665121.49908",
    "final_y": "553304.990423",
    "longitude": "-90.11905896821767",
    "latitude": "30.01588417436606",
    "geocoded_column": {
      "latitude": "30.01588417436606",
      "longitude": "-90.11905896821767"
    }
  },
  {
    "service_request": "2026-1283783",
    "request_type": "Abandoned Vehicles",
    "request_reason": "Abandoned/Junk Vehicles",
    "date_created": "2026-05-23T12:11:35.000",
    "date_modified": "2026-05-23T12:11:37.000",
    "request_status": "Pending",
    "responsible_agency": "Department of Public Works",
    "final_address": "5310 St Anthony Ave",
    "address_councildis": "D",
    "status": "Pending",
    "rowid": "1283783",
    "final_x": "3682098.7494",
    "final_y": "552429.44719",
    "longitude": "-90.06544912066836",
    "latitude": "30.012971129132858",
    "geocoded_column": {
      "latitude": "30.012971129132858",
      "longitude": "-90.06544912066836"
    }
  },
  {
    "service_request": "2026-1283782",
    "request_type": "Trash/Recycling",
    "request_reason": "Request a Large Item Pick Up",
    "date_created": "2026-05-23T12:07:48.000",
    "date_modified": "2026-05-23T12:07:50.000",
    "request_status": "Pending",
    "responsible_agency": "Department of Sanitation",
    "final_address": "1726 Constantinople St",
    "address_councildis": "B",
    "status": "Assigned to Contractor",
    "contractor": "IV Waste",
    "rowid": "1283782",
    "final_x": "3672210.81735",
    "final_y": "521611.833465",
    "longitude": "-90.09773964910023",
    "latitude": "29.92853023145648",
    "geocoded_column": {
      "latitude": "29.92853023145648",
      "longitude": "-90.09773964910023"
    }
  },
  {
    "service_request": "2026-1283781",
    "request_type": "Tree Service",
    "request_reason": "Blocking Stop Sign or Traffic Signal",
    "date_created": "2026-05-23T12:05:10.000",
    "date_modified": "2026-05-23T12:05:12.000",
    "request_status": "Pending",
    "responsible_agency": "Department of Parks & Parkways",
    "final_address": "12921 Ashland Dr",
    "address_councildis": "E",
    "status": "Pending",
    "rowid": "1283781",
    "final_x": "3717133.00344",
    "final_y": "567236.177316",
    "longitude": "-89.95419807581092",
    "latitude": "30.052571236947585",
    "geocoded_column": {
      "latitude": "30.052571236947585",
      "longitude": "-89.95419807581092"
    }
  },
  {
    "service_request": "2026-1283780",
    "request_type": "Tree Service",
    "request_reason": "Tree Trim",
    "date_created": "2026-05-23T11:55:36.000",
    "date_modified": "2026-05-23T11:55:38.000",
    "request_status": "Pending",
    "responsible_agency": "Department of Parks & Parkways",
    "final_address": "4815 Copernicus St",
    "address_councildis": "C",
    "status": "Pending",
    "rowid": "1283780",
    "final_x": "3701857.99588",
    "final_y": "522754.967866",
    "longitude": "-90.0041086114445",
    "latitude": "29.930761108865823",
    "geocoded_column": {
      "latitude": "29.930761108865823",
      "longitude": "-90.0041086114445"
    }
  },
  {
    "service_request": "2026-1283779",
    "request_type": "General Services",
    "request_reason": "General Service Request",
    "date_created": "2026-05-23T11:34:44.000",
    "date_modified": "2026-05-23T11:34:46.000",
    "request_status": "Pending",
    "responsible_agency": "Orleans Parish Communication District",
    "final_address": "0 BLK Elmira Ct",
    "address_councildis": "C",
    "status": "Pending",
    "rowid": "1283779",
    "final_x": "3688010.6725",
    "final_y": "526989.288329",
    "longitude": "-90.04767253785737",
    "latitude": "29.94283849029746",
    "geocoded_column": {
      "latitude": "29.94283849029746",
      "longitude": "-90.04767253785737"
    }
  },
  {
    "service_request": "2026-1283778",
    "request_type": "Trash/Recycling",
    "request_reason": "Damaged Caused By Contractor",
    "date_created": "2026-05-23T11:32:29.000",
    "date_modified": "2026-05-23T11:32:30.000",
    "request_status": "Pending",
    "responsible_agency": "Department of Sanitation",
    "final_address": "5810 Pembrook Dr",
    "address_councildis": "C",
    "status": "Assigned to Contractor",
    "contractor": "Richards Disposal",
    "rowid": "1283778",
    "final_x": "3705148.72011",
    "final_y": "520742.021241",
    "longitude": "-89.99379463589676",
    "latitude": "29.925120833121174",
    "geocoded_column": {
      "latitude": "29.925120833121174",
      "longitude": "-89.99379463589676"
    }
  },
  {
    "service_request": "2026-1283777",
    "request_type": "Streetlights",
    "request_reason": "Streetlight Outage/Malfunction",
    "date_created": "2026-05-23T11:29:23.000",
    "date_modified": "2026-05-23T11:29:25.000",
    "request_status": "Pending",
    "responsible_agency": "Department of Public Works",
    "final_address": "1320 N Broad St",
    "address_councildis": "C",
    "status": "Pending",
    "rowid": "1283777",
    "final_x": "3678196.39848",
    "final_y": "538820.420745",
    "longitude": "-90.07824940976504",
    "latitude": "29.975669247509128",
    "geocoded_column": {
      "latitude": "29.975669247509128",
      "longitude": "-90.07824940976504"
    }
  },
  {
    "service_request": "2026-1283776",
    "request_type": "Trash/Recycling",
    "request_reason": "Replace Trash Cart",
    "date_created": "2026-05-23T11:19:50.000",
    "date_modified": "2026-05-23T11:19:51.000",
    "request_status": "Pending",
    "responsible_agency": "Department of Sanitation",
    "final_address": "609 Third St",
    "address_councildis": "B",
    "status": "Assigned to Contractor",
    "contractor": "IV Waste",
    "rowid": "1283776",
    "final_x": "3678559.51554",
    "final_y": "519742.287352",
    "longitude": "-90.0777628269166",
    "latitude": "29.92319981935844",
    "geocoded_column": {
      "latitude": "29.92319981935844",
      "longitude": "-90.0777628269166"
    }
  },
  {
    "service_request": "2026-1283775",
    "request_type": "Trash/Recycling",
    "request_reason": "Order Recycling Cart",
    "date_created": "2026-05-23T11:16:33.000",
    "date_modified": "2026-05-23T11:16:35.000",
    "request_status": "Pending",
    "responsible_agency": "Department of Sanitation",
    "final_address": "5618 N Miro St Apt A",
    "address_councildis": "E",
    "status": "Pending",
    "rowid": "1283775",
    "final_x": "3699287.50954",
    "final_y": "537787.31124",
    "longitude": "-90.011675856389",
    "latitude": "29.972176490579653",
    "geocoded_column": {
      "latitude": "29.972176490579653",
      "longitude": "-90.011675856389"
    }
  },
  {
    "service_request": "2026-1283774",
    "request_type": "General Services",
    "request_reason": "General Service Request",
    "date_created": "2026-05-23T11:07:27.000",
    "date_modified": "2026-05-23T11:07:28.000",
    "request_status": "Pending",
    "responsible_agency": "Orleans Parish Communication District",
    "final_address": "3212 General Taylor St Unit A",
    "address_councildis": "B",
    "status": "Pending",
    "rowid": "1283774",
    "final_x": "3671205.18887",
    "final_y": "526799.87187",
    "longitude": "-90.10073803613301",
    "latitude": "29.942825439625206",
    "geocoded_column": {
      "latitude": "29.942825439625206",
      "longitude": "-90.10073803613301"
    }
  },
  {
    "service_request": "2026-1283773",
    "request_type": "Tree Service",
    "request_reason": "Tree Trim",
    "date_created": "2026-05-23T11:05:09.000",
    "date_modified": "2026-05-23T11:05:11.000",
    "request_status": "Pending",
    "responsible_agency": "Department of Parks & Parkways",
    "final_address": "4547 Paris Ave",
    "address_councildis": "D",
    "status": "Pending",
    "rowid": "1283773",
    "final_x": "3679474.95663",
    "final_y": "549643.643604",
    "longitude": "-90.07383563396391",
    "latitude": "30.005390737943145",
    "geocoded_column": {
      "latitude": "30.005390737943145",
      "longitude": "-90.07383563396391"
    }
  },
  {
    "service_request": "2026-1283772",
    "request_type": "Trash/Recycling",
    "request_reason": "Order Second Trash Cart",
    "date_created": "2026-05-23T11:04:03.000",
    "date_modified": "2026-05-23T11:04:05.000",
    "request_status": "Pending",
    "responsible_agency": "Department of Sanitation",
    "final_address": "2731 Mandeville St",
    "address_councildis": "D",
    "status": "Assigned to Contractor",
    "contractor": "IV Waste",
    "rowid": "1283772",
    "final_x": "3685288.25692",
    "final_y": "542932.584013",
    "longitude": "-90.05570657795485",
    "latitude": "29.986760748769292",
    "geocoded_column": {
      "latitude": "29.986760748769292",
      "longitude": "-90.05570657795485"
    }
  },
  {
    "service_request": "2026-1283771",
    "request_type": "Tree Service",
    "request_reason": "Street or Sidewalk Blocked",
    "date_created": "2026-05-23T11:02:40.000",
    "date_modified": "2026-05-23T11:02:42.000",
    "request_status": "Pending",
    "responsible_agency": "Department of Parks & Parkways",
    "final_address": "4752 Overton Dr",
    "address_councildis": "D",
    "status": "Pending",
    "rowid": "1283771",
    "final_x": "3679607.16277",
    "final_y": "549564.348755",
    "longitude": "-90.07342072029711",
    "latitude": "30.005168709027625",
    "geocoded_column": {
      "latitude": "30.005168709027625",
      "longitude": "-90.07342072029711"
    }
  },
  {
    "service_request": "2026-1283770",
    "request_type": "Drainage",
    "request_reason": "Catch Basin Not Draining",
    "date_created": "2026-05-23T10:57:21.000",
    "date_modified": "2026-05-23T10:57:24.000",
    "request_status": "Pending",
    "responsible_agency": "Sewerage & Water Board",
    "final_address": "2001 S Carrollton Ave",
    "address_councildis": "A",
    "status": "Pending",
    "rowid": "1283770",
    "final_x": "3664006.3426",
    "final_y": "530367.866434",
    "longitude": "-90.12334766054956",
    "latitude": "29.952847244474306",
    "geocoded_column": {
      "latitude": "29.952847244474306",
      "longitude": "-90.12334766054956"
    }
  },
  {
    "service_request": "2026-1283769",
    "request_type": "Trash/Recycling",
    "request_reason": "Order Trash Cart",
    "date_created": "2026-05-23T10:53:22.000",
    "date_modified": "2026-05-23T10:53:23.000",
    "request_status": "Pending",
    "responsible_agency": "Department of Sanitation",
    "final_address": "1033 Henry Clay Ave",
    "address_councildis": "A",
    "status": "Assigned to Contractor",
    "contractor": "IV Waste",
    "rowid": "1283769",
    "final_x": "3664183.99904",
    "final_y": "520434.328568",
    "longitude": "-90.12311797706194",
    "latitude": "29.92552802249848",
    "geocoded_column": {
      "latitude": "29.92552802249848",
      "longitude": "-90.12311797706194"
    }
  },
  {
    "service_request": "2026-1283768",
    "request_type": "Trash/Recycling",
    "request_reason": "Order Second Trash Cart",
    "date_created": "2026-05-23T10:50:10.000",
    "date_modified": "2026-05-23T10:50:14.000",
    "request_status": "Pending",
    "responsible_agency": "Department of Sanitation",
    "final_address": "4013 Pauger St",
    "address_councildis": "D",
    "status": "Assigned to Contractor",
    "contractor": "IV Waste",
    "rowid": "1283768",
    "final_x": "3683167.97173",
    "final_y": "545930.1508",
    "longitude": "-90.06229873819838",
    "latitude": "29.995067829817646",
    "geocoded_column": {
      "latitude": "29.995067829817646",
      "longitude": "-90.06229873819838"
    }
  },
  {
    "service_request": "2026-1283767",
    "request_type": "Streetlights",
    "request_reason": "Streetlight Outage/Malfunction",
    "date_created": "2026-05-23T10:46:06.000",
    "date_modified": "2026-05-23T10:46:08.000",
    "request_status": "Pending",
    "responsible_agency": "Department of Public Works",
    "final_address": "2500 Gentilly Blvd",
    "address_councildis": "D",
    "status": "Pending",
    "rowid": "1283767",
    "final_x": "3681737.48245",
    "final_y": "545064.885519",
    "longitude": "-90.06684770726106",
    "latitude": "29.99273221053106",
    "geocoded_column": {
      "latitude": "29.99273221053106",
      "longitude": "-90.06684770726106"
    }
  },
  {
    "service_request": "2026-1283766",
    "request_type": "Streetlights",
    "request_reason": "Streetlight Outage/Malfunction",
    "date_created": "2026-05-23T10:44:50.000",
    "date_modified": "2026-05-23T10:44:52.000",
    "request_status": "Pending",
    "responsible_agency": "Department of Public Works",
    "final_address": "5712 S Claiborne Ave",
    "address_councildis": "A",
    "status": "Pending",
    "rowid": "1283766",
    "final_x": "3667316.37121",
    "final_y": "526228.279486",
    "longitude": "-90.11303522589489",
    "latitude": "29.94136819756626",
    "geocoded_column": {
      "latitude": "29.94136819756626",
      "longitude": "-90.11303522589489"
    }
  },
  {
    "service_request": "2026-1283765",
    "request_type": "Drainage",
    "request_reason": "Catch Basin Not Draining",
    "date_created": "2026-05-23T10:41:38.000",
    "date_modified": "2026-05-23T10:41:40.000",
    "request_status": "Pending",
    "responsible_agency": "Sewerage & Water Board",
    "final_address": "1201 Riviera Ave",
    "address_councildis": "D",
    "status": "Pending",
    "rowid": "1283765",
    "final_x": "3676821.97435",
    "final_y": "550909.154965",
    "longitude": "-90.0821733380724",
    "latitude": "30.008950360000725",
    "geocoded_column": {
      "latitude": "30.008950360000725",
      "longitude": "-90.0821733380724"
    }
  },
  {
    "service_request": "2026-1283764",
    "request_type": "Trash/Recycling",
    "request_reason": "Order Trash Cart",
    "date_created": "2026-05-23T10:39:25.000",
    "date_modified": "2026-05-23T10:39:26.000",
    "request_status": "Pending",
    "responsible_agency": "Department of Sanitation",
    "final_address": "978 Taft Pl",
    "address_councildis": "A",
    "status": "Assigned to Contractor",
    "contractor": "IV Waste",
    "rowid": "1283764",
    "final_x": "3673948.75502",
    "final_y": "540597.242763",
    "longitude": "-90.09160385814343",
    "latitude": "29.980682147879424",
    "geocoded_column": {
      "latitude": "29.980682147879424",
      "longitude": "-90.09160385814343"
    }
  },
  {
    "service_request": "2026-1283763",
    "request_type": "Trash/Recycling",
    "request_reason": "Missed Trash Pick-Up",
    "date_created": "2026-05-23T10:37:46.000",
    "date_modified": "2026-05-23T10:37:49.000",
    "request_status": "Pending",
    "responsible_agency": "Department of Sanitation",
    "final_address": "3074 Sullen Pl",
    "address_councildis": "C",
    "status": "Assigned to Contractor",
    "contractor": "Richards Disposal",
    "rowid": "1283763",
    "final_x": "3707853.14174",
    "final_y": "519162.005111",
    "longitude": "-89.98531639739093",
    "latitude": "29.92068913125304",
    "geocoded_column": {
      "latitude": "29.92068913125304",
      "longitude": "-89.98531639739093"
    }
  },
  {
    "service_request": "2026-1283762",
    "request_type": "Trash/Recycling",
    "request_reason": "Request a Large Item Pick Up",
    "date_created": "2026-05-23T10:11:49.000",
    "date_modified": "2026-05-23T10:11:51.000",
    "request_status": "Pending",
    "responsible_agency": "Department of Sanitation",
    "final_address": "1803 Fats Domino Ave",
    "address_councildis": "E",
    "status": "Assigned to Contractor",
    "contractor": "Waste Pro",
    "rowid": "1283762",
    "final_x": "3698791.39479",
    "final_y": "536415.597511",
    "longitude": "-90.0132925674498",
    "latitude": "29.96842049636947",
    "geocoded_column": {
      "latitude": "29.96842049636947",
      "longitude": "-90.0132925674498"
    }
  },
  {
    "service_request": "2026-1283760",
    "request_type": "Trash/Recycling",
    "request_reason": "Repair Recycling Cart",
    "date_created": "2026-05-23T09:30:36.000",
    "date_modified": "2026-05-23T09:30:37.000",
    "request_status": "Pending",
    "responsible_agency": "Department of Sanitation",
    "final_address": "5907 Catina St",
    "address_councildis": "A",
    "status": "Pending",
    "rowid": "1283760",
    "final_x": "3666815.44801",
    "final_y": "547163.105809",
    "longitude": "-90.1139133463965",
    "latitude": "29.99894666119186",
    "geocoded_column": {
      "latitude": "29.99894666119186",
      "longitude": "-90.1139133463965"
    }
  },
  {
    "service_request": "2026-1283759",
    "request_type": "Trash/Recycling",
    "request_reason": "Replace Recycling Cart",
    "date_created": "2026-05-23T09:29:51.000",
    "date_modified": "2026-05-23T09:29:53.000",
    "request_status": "Pending",
    "responsible_agency": "Department of Sanitation",
    "final_address": "903 Fourth St",
    "address_councildis": "B",
    "status": "Pending",
    "rowid": "1283759",
    "final_x": "3677717.6029",
    "final_y": "520455.978872",
    "longitude": "-90.08039579082815",
    "latitude": "29.92518757948355",
    "geocoded_column": {
      "latitude": "29.92518757948355",
      "longitude": "-90.08039579082815"
    }
  },
  {
    "service_request": "2026-1283758",
    "request_type": "Trash/Recycling",
    "request_reason": "Repair Trash Cart",
    "date_created": "2026-05-23T09:27:35.000",
    "date_modified": "2026-05-23T09:27:38.000",
    "request_status": "Pending",
    "responsible_agency": "Department of Sanitation",
    "final_address": "5907 Catina St",
    "address_councildis": "A",
    "status": "Assigned to Contractor",
    "contractor": "IV Waste",
    "rowid": "1283758",
    "final_x": "3666815.44801",
    "final_y": "547163.105809",
    "longitude": "-90.1139133463965",
    "latitude": "29.99894666119186",
    "geocoded_column": {
      "latitude": "29.99894666119186",
      "longitude": "-90.1139133463965"
    }
  },
  {
    "service_request": "2026-1283757",
    "request_type": "Trash/Recycling",
    "request_reason": "Replace Trash Cart",
    "date_created": "2026-05-23T09:16:16.000",
    "date_modified": "2026-05-23T09:16:18.000",
    "request_status": "Pending",
    "responsible_agency": "Department of Sanitation",
    "final_address": "2355 N Galvez St",
    "address_councildis": "D",
    "status": "Assigned to Contractor",
    "contractor": "IV Waste",
    "rowid": "1283757",
    "final_x": "3685956.18383",
    "final_y": "540122.403659",
    "longitude": "-90.05369597642962",
    "latitude": "29.979013251764638",
    "geocoded_column": {
      "latitude": "29.979013251764638",
      "longitude": "-90.05369597642962"
    }
  },
  {
    "service_request": "2026-1283756",
    "request_type": "General Services",
    "request_reason": "General Service Request",
    "date_created": "2026-05-23T08:37:50.000",
    "date_modified": "2026-05-23T08:37:53.000",
    "request_status": "Pending",
    "responsible_agency": "Orleans Parish Communication District",
    "final_address": "515 Ursulines Ave",
    "address_councildis": "C",
    "status": "Pending",
    "rowid": "1283756",
    "final_x": "3683970.87817",
    "final_y": "533254.267716",
    "longitude": "-90.06020734427973",
    "latitude": "29.960189072750396",
    "geocoded_column": {
      "latitude": "29.960189072750396",
      "longitude": "-90.06020734427973"
    }
  },
  {
    "service_request": "2026-1283755",
    "request_type": "Streetlights",
    "request_reason": "Streetlight Outage/Malfunction",
    "date_created": "2026-05-23T08:14:20.000",
    "date_modified": "2026-05-23T08:14:22.000",
    "request_status": "Pending",
    "responsible_agency": "Department of Public Works",
    "final_address": "2644 General Collins Ave",
    "address_councildis": "C",
    "status": "Pending",
    "rowid": "1283755",
    "final_x": "3698433.80612",
    "final_y": "521346.475385",
    "longitude": "-90.01496938488393",
    "latitude": "29.926997016950835",
    "geocoded_column": {
      "latitude": "29.926997016950835",
      "longitude": "-90.01496938488393"
    }
  },
  {
    "service_request": "2026-1283754",
    "request_type": "Property Maintenance",
    "request_reason": "Property Maintenance",
    "date_created": "2026-05-23T08:10:52.000",
    "date_modified": "2026-05-23T08:10:54.000",
    "request_status": "Pending",
    "responsible_agency": "Department of Code Enforcement",
    "final_address": "9901 Chef Menteur Hwy",
    "address_councildis": "E",
    "status": "Pending",
    "rowid": "1283754",
    "final_x": "3712157.88626",
    "final_y": "554756.899864",
    "longitude": "-89.97039200370233",
    "latitude": "30.0184219152567",
    "geocoded_column": {
      "latitude": "30.0184219152567",
      "longitude": "-89.97039200370233"
    }
  },
  {
    "service_request": "2026-1283753",
    "request_type": "Trash/Recycling",
    "request_reason": "Damaged Caused By Contractor",
    "date_created": "2026-05-23T08:07:00.000",
    "date_modified": "2026-05-23T08:07:02.000",
    "request_status": "Pending",
    "responsible_agency": "Department of Sanitation",
    "final_address": "2521 St Thomas St",
    "address_councildis": "B",
    "status": "Assigned to Contractor",
    "contractor": "IV Waste",
    "rowid": "1283753",
    "final_x": "3678655.78338",
    "final_y": "519726.741752",
    "longitude": "-90.07745948387316",
    "latitude": "29.9231541731117",
    "geocoded_column": {
      "latitude": "29.9231541731117",
      "longitude": "-90.07745948387316"
    }
  },
  {
    "service_request": "2026-1283752",
    "request_type": "Safety & Permits",
    "request_reason": "Zoning Enforcement",
    "date_created": "2026-05-23T08:02:38.000",
    "date_modified": "2026-05-23T08:02:40.000",
    "request_status": "Pending",
    "responsible_agency": "Safety and Permits",
    "final_address": "4943 Citrus Dr",
    "address_councildis": "E",
    "status": "Pending",
    "rowid": "1283752",
    "final_x": "3710712.18622",
    "final_y": "557135.65577",
    "longitude": "-89.97487073244176",
    "latitude": "30.025009766050502",
    "geocoded_column": {
      "latitude": "30.025009766050502",
      "longitude": "-89.97487073244176"
    }
  },
  {
    "service_request": "2026-1283751",
    "request_type": "Roads and Streets",
    "request_reason": "Street Subsidence (Sinking)",
    "date_created": "2026-05-23T07:44:19.000",
    "date_modified": "2026-05-23T07:44:22.000",
    "request_status": "Pending",
    "responsible_agency": "Sewerage & Water Board",
    "final_address": "5527 Mandeville St",
    "address_councildis": "D",
    "status": "Pending",
    "rowid": "1283751",
    "final_x": "3684461.82524",
    "final_y": "553324.792407",
    "longitude": "-90.05795160401684",
    "latitude": "30.015360892900603",
    "geocoded_column": {
      "latitude": "30.015360892900603",
      "longitude": "-90.05795160401684"
    }
  },
  {
    "service_request": "2026-1283750",
    "request_type": "Property Maintenance",
    "request_reason": "Property Maintenance",
    "date_created": "2026-05-23T07:31:46.000",
    "date_modified": "2026-05-23T07:31:48.000",
    "request_status": "Pending",
    "responsible_agency": "Department of Code Enforcement",
    "final_address": "2100 BLK Saint Thomas St",
    "address_councildis": "B",
    "status": "Pending",
    "rowid": "1283750",
    "final_x": "3680123.53014",
    "final_y": "520757.095085",
    "longitude": "-90.07279059083827",
    "latitude": "29.92594299300261",
    "geocoded_column": {
      "latitude": "29.92594299300261",
      "longitude": "-90.07279059083827"
    }
  },
  {
    "service_request": "2026-1283749",
    "request_type": "Trash/Recycling",
    "request_reason": "Replace Trash Cart",
    "date_created": "2026-05-23T07:29:30.000",
    "date_modified": "2026-05-23T07:29:35.000",
    "request_status": "Pending",
    "responsible_agency": "Department of Sanitation",
    "final_address": "4012 Perrier St",
    "address_councildis": "B",
    "status": "Assigned to Contractor",
    "contractor": "IV Waste",
    "rowid": "1283749",
    "final_x": "3672266.95963",
    "final_y": "520150.384824",
    "longitude": "-90.0976121732228",
    "latitude": "29.924510051607648",
    "geocoded_column": {
      "latitude": "29.924510051607648",
      "longitude": "-90.0976121732228"
    }
  },
  {
    "service_request": "2026-1283748",
    "request_type": "Street and Traffic Signs",
    "request_reason": "Traffic or Parking Sign Damaged or Missing",
    "date_created": "2026-05-23T07:16:25.000",
    "date_modified": "2026-05-23T07:16:28.000",
    "request_status": "Pending",
    "responsible_agency": "Department of Public Works",
    "final_address": "2406 Kerlerec St",
    "address_councildis": "D",
    "status": "Pending",
    "rowid": "1283748",
    "final_x": "3679180.93557",
    "final_y": "538649.662409",
    "longitude": "-90.07514588936534",
    "latitude": "29.97517003191912",
    "geocoded_column": {
      "latitude": "29.97517003191912",
      "longitude": "-90.07514588936534"
    }
  },
  {
    "service_request": "2026-1283747",
    "request_type": "Trash/Recycling",
    "request_reason": "Return Trash Cart",
    "date_created": "2026-05-23T06:35:41.000",
    "date_modified": "2026-05-23T06:35:42.000",
    "request_status": "Pending",
    "responsible_agency": "Department of Sanitation",
    "final_address": "1120 Upperline St",
    "address_councildis": "B",
    "status": "Assigned to Contractor",
    "contractor": "IV Waste",
    "rowid": "1283747",
    "final_x": "3668956.61812",
    "final_y": "519531.740663",
    "longitude": "-90.10808270904685",
    "latitude": "29.922906724893117",
    "geocoded_column": {
      "latitude": "29.922906724893117",
      "longitude": "-90.10808270904685"
    }
  },
  {
    "service_request": "2026-1283746",
    "request_type": "Drainage",
    "request_reason": "Drainage Manhole Cover Missing or Damaged",
    "date_created": "2026-05-23T06:35:15.000",
    "date_modified": "2026-05-23T06:35:16.000",
    "request_status": "Pending",
    "responsible_agency": "Sewerage & Water Board",
    "final_address": "3737 Gentilly Blvd",
    "address_councildis": "D",
    "status": "Pending",
    "rowid": "1283746",
    "final_x": "3687333.41084",
    "final_y": "549004.090643",
    "longitude": "-90.04903176058781",
    "latitude": "30.00339234655874",
    "geocoded_column": {
      "latitude": "30.00339234655874",
      "longitude": "-90.04903176058781"
    }
  },
  {
    "service_request": "2026-1283745",
    "request_type": "Abandoned Vehicles",
    "request_reason": "Abandoned/Junk Vehicles",
    "date_created": "2026-05-23T06:28:34.000",
    "date_modified": "2026-05-23T06:28:35.000",
    "request_status": "Pending",
    "responsible_agency": "Department of Public Works",
    "final_address": "2308 Benefit St",
    "address_councildis": "D",
    "status": "Pending",
    "rowid": "1283745",
    "final_x": "3685230.5517",
    "final_y": "544435.837071",
    "longitude": "-90.05583590916538",
    "latitude": "29.990895929383083",
    "geocoded_column": {
      "latitude": "29.990895929383083",
      "longitude": "-90.05583590916538"
    }
  },
  {
    "service_request": "2026-1283744",
    "request_type": "Trash/Recycling",
    "request_reason": "Replace Trash Cart",
    "date_created": "2026-05-23T05:44:51.000",
    "date_modified": "2026-05-23T05:44:53.000",
    "request_status": "Pending",
    "responsible_agency": "Department of Sanitation",
    "final_address": "6809 Memphis St",
    "address_councildis": "A",
    "status": "Assigned to Contractor",
    "contractor": "IV Waste",
    "rowid": "1283744",
    "final_x": "3669783.43034",
    "final_y": "552761.293206",
    "longitude": "-90.10434773810219",
    "latitude": "30.014252533244456",
    "geocoded_column": {
      "latitude": "30.014252533244456",
      "longitude": "-90.10434773810219"
    }
  },
  {
    "service_request": "2026-1283743",
    "request_type": "General Services",
    "request_reason": "General Service Request",
    "date_created": "2026-05-23T05:42:30.000",
    "date_modified": "2026-05-23T05:42:32.000",
    "request_status": "Pending",
    "responsible_agency": "Orleans Parish Communication District",
    "final_address": "1498 Athis St",
    "address_councildis": "D",
    "status": "Pending",
    "rowid": "1283743",
    "final_x": "3678334.17832",
    "final_y": "553689.364951",
    "longitude": "-90.07729949907689",
    "latitude": "30.016549448567705",
    "geocoded_column": {
      "latitude": "30.016549448567705",
      "longitude": "-90.07729949907689"
    }
  },
  {
    "service_request": "2026-1283742",
    "request_type": "Trash/Recycling",
    "request_reason": "Damaged Caused By Contractor",
    "date_created": "2026-05-23T00:13:08.000",
    "date_modified": "2026-05-23T00:13:11.000",
    "request_status": "Pending",
    "responsible_agency": "Department of Sanitation",
    "final_address": "8202 Plum St",
    "address_councildis": "A",
    "status": "Assigned to Contractor",
    "contractor": "IV Waste",
    "rowid": "1283742",
    "final_x": "3661878.87264",
    "final_y": "528871.282368",
    "longitude": "-90.13011492267508",
    "latitude": "29.94879372082046",
    "geocoded_column": {
      "latitude": "29.94879372082046",
      "longitude": "-90.13011492267508"
    }
  },
  {
    "service_request": "2026-1283741",
    "request_type": "General Services",
    "request_reason": "General Service Request",
    "date_created": "2026-05-22T23:54:32.000",
    "date_modified": "2026-05-22T23:54:35.000",
    "request_status": "Pending",
    "responsible_agency": "Orleans Parish Communication District",
    "final_address": "824 Ida St",
    "address_councildis": "A",
    "status": "Pending",
    "rowid": "1283741",
    "final_x": "3673133.8859",
    "final_y": "540147.831435",
    "longitude": "-90.09419292580512",
    "latitude": "29.979470676312204",
    "geocoded_column": {
      "latitude": "29.979470676312204",
      "longitude": "-90.09419292580512"
    }
  },
  {
    "service_request": "2026-1283739",
    "request_type": "Health Related Request",
    "request_reason": "Noise Ordinance Complaint",
    "date_created": "2026-05-22T22:32:51.000",
    "date_modified": "2026-05-22T22:32:53.000",
    "request_status": "Pending",
    "responsible_agency": "Health Department",
    "final_address": "800 Bourbon St, New Orleans, Louisiana, 70116",
    "address_councildis": "C",
    "status": "Pending",
    "rowid": "1283739",
    "final_x": "3682553.51528",
    "final_y": "533013.631428",
    "longitude": "-90.06469148499534",
    "latitude": "29.95957063099051",
    "geocoded_column": {
      "latitude": "29.95957063099051",
      "longitude": "-90.06469148499534"
    }
  },
  {
    "service_request": "2026-1283738",
    "request_type": "RTCC Camera Issue",
    "request_reason": "Camera Appears Damaged",
    "date_created": "2026-05-22T22:19:55.000",
    "date_modified": "2026-05-22T22:19:57.000",
    "request_status": "Pending",
    "responsible_agency": "Real Time Crime Center",
    "final_address": "527 Elysian Fields Ave",
    "address_councildis": "C",
    "rowid": "1283738",
    "final_x": "3685254.46197",
    "final_y": "534382.565957",
    "longitude": "-90.0561143513319",
    "latitude": "29.963252226806528",
    "geocoded_column": {
      "latitude": "29.963252226806528",
      "longitude": "-90.0561143513319"
    }
  },
  {
    "service_request": "2026-1283737",
    "request_type": "Streetlights",
    "request_reason": "Streetlight Outage/Malfunction",
    "date_created": "2026-05-22T22:10:57.000",
    "date_modified": "2026-05-22T22:10:59.000",
    "request_status": "Pending",
    "responsible_agency": "Department of Public Works",
    "final_address": "600 Verret St",
    "address_councildis": "C",
    "status": "Pending",
    "rowid": "1283737",
    "final_x": "3687079.53295",
    "final_y": "529449.930689",
    "longitude": "-90.05052538655315",
    "latitude": "29.949633114079695",
    "geocoded_column": {
      "latitude": "29.949633114079695",
      "longitude": "-90.05052538655315"
    }
  },
  {
    "service_request": "2026-1283736",
    "request_type": "Streetlights",
    "request_reason": "Streetlight Outage/Malfunction",
    "date_created": "2026-05-22T22:08:58.000",
    "date_modified": "2026-05-22T22:09:00.000",
    "request_status": "Pending",
    "responsible_agency": "Department of Public Works",
    "final_address": "10101 Lake Forest Blvd",
    "address_councildis": "E",
    "status": "Pending",
    "rowid": "1283736",
    "final_x": "3711938.26546",
    "final_y": "560199.761309",
    "longitude": "-89.97088143346714",
    "latitude": "30.03339481735599",
    "geocoded_column": {
      "latitude": "30.03339481735599",
      "longitude": "-89.97088143346714"
    }
  },
  {
    "service_request": "2026-1283735",
    "request_type": "Streetlights",
    "request_reason": "Streetlight Outage/Malfunction",
    "date_created": "2026-05-22T22:01:30.000",
    "date_modified": "2026-05-22T22:01:32.000",
    "request_status": "Pending",
    "responsible_agency": "Department of Public Works",
    "final_address": "10101 Lake Forest Blvd",
    "address_councildis": "E",
    "status": "Pending",
    "rowid": "1283735",
    "final_x": "3711938.26546",
    "final_y": "560199.761309",
    "longitude": "-89.97088143346714",
    "latitude": "30.03339481735599",
    "geocoded_column": {
      "latitude": "30.03339481735599",
      "longitude": "-89.97088143346714"
    }
  },
  {
    "service_request": "2026-1283734",
    "request_type": "Trash/Recycling",
    "request_reason": "Damaged Caused By Contractor",
    "date_created": "2026-05-22T21:47:40.000",
    "date_modified": "2026-05-22T21:47:42.000",
    "request_status": "Pending",
    "responsible_agency": "Department of Sanitation",
    "final_address": "515 Broadway St",
    "address_councildis": "A",
    "status": "Assigned to Contractor",
    "contractor": "IV Waste",
    "rowid": "1283734",
    "final_x": "3662543.73517",
    "final_y": "523975.542204",
    "longitude": "-90.12817823837224",
    "latitude": "29.93531278106947",
    "geocoded_column": {
      "latitude": "29.93531278106947",
      "longitude": "-90.12817823837224"
    }
  },
  {
    "service_request": "2026-1283733",
    "request_type": "Street and Traffic Signs",
    "request_reason": "Additional Signage Request",
    "date_created": "2026-05-22T21:28:36.000",
    "date_modified": "2026-05-22T21:28:37.000",
    "request_status": "Pending",
    "responsible_agency": "Department of Public Works",
    "final_address": "PALM ST & CAMPHOR ST",
    "address_councildis": "A",
    "status": "Pending",
    "rowid": "1283733",
    "final_x": "3663907.9",
    "final_y": "538163.08",
    "longitude": "-90.1233985932493",
    "latitude": "29.974284384375338",
    "geocoded_column": {
      "latitude": "29.974284384375338",
      "longitude": "-90.1233985932493"
    }
  },
  {
    "service_request": "2026-1283732",
    "request_type": "Streetlights",
    "request_reason": "Streetlight Outage/Malfunction",
    "date_created": "2026-05-22T21:11:13.000",
    "date_modified": "2026-05-22T21:11:15.000",
    "request_status": "Pending",
    "responsible_agency": "Department of Public Works",
    "final_address": "2818 Kabel Dr",
    "address_councildis": "C",
    "status": "Pending",
    "rowid": "1283732",
    "final_x": "3700768.41757",
    "final_y": "520735.775353",
    "longitude": "-90.00762198092518",
    "latitude": "29.925243736485175",
    "geocoded_column": {
      "latitude": "29.925243736485175",
      "longitude": "-90.00762198092518"
    }
  },
  {
    "service_request": "2026-1283731",
    "request_type": "Streetlights",
    "request_reason": "Streetlight Outage/Malfunction",
    "date_created": "2026-05-22T21:09:24.000",
    "date_modified": "2026-05-22T21:09:25.000",
    "request_status": "Pending",
    "responsible_agency": "Department of Public Works",
    "final_address": "2518 State St",
    "address_councildis": "A",
    "status": "Pending",
    "rowid": "1283731",
    "final_x": "3666807.26951",
    "final_y": "525959.616573",
    "longitude": "-90.1146515855642",
    "latitude": "29.940644359392703",
    "geocoded_column": {
      "latitude": "29.940644359392703",
      "longitude": "-90.1146515855642"
    }
  },
  {
    "service_request": "2026-1283730",
    "request_type": "Health Related Request",
    "request_reason": "Noise Ordinance Complaint",
    "date_created": "2026-05-22T21:08:20.000",
    "date_modified": "2026-05-22T21:08:22.000",
    "request_status": "Pending",
    "responsible_agency": "Health Department",
    "final_address": "800 Bourbon St, New Orleans, Louisiana, 70116",
    "address_councildis": "C",
    "status": "Pending",
    "rowid": "1283730",
    "final_x": "3682553.51528",
    "final_y": "533013.631428",
    "longitude": "-90.06469148499534",
    "latitude": "29.95957063099051",
    "geocoded_column": {
      "latitude": "29.95957063099051",
      "longitude": "-90.06469148499534"
    }
  },
  {
    "service_request": "2026-1283729",
    "request_type": "Trash/Recycling",
    "request_reason": "Order Trash Cart",
    "date_created": "2026-05-22T20:57:29.000",
    "date_modified": "2026-05-22T20:57:31.000",
    "request_status": "Pending",
    "responsible_agency": "Department of Sanitation",
    "final_address": "941 St Philip St",
    "address_councildis": "C",
    "status": "Assigned to Contractor",
    "contractor": "IV Waste",
    "rowid": "1283729",
    "final_x": "3682421.40866",
    "final_y": "534013.515781",
    "longitude": "-90.06507369942653",
    "latitude": "29.962323992165285",
    "geocoded_column": {
      "latitude": "29.962323992165285",
      "longitude": "-90.06507369942653"
    }
  },
  {
    "service_request": "2026-1283728",
    "request_type": "Trash/Recycling",
    "request_reason": "Replace Trash Cart",
    "date_created": "2026-05-22T20:34:25.000",
    "date_modified": "2026-05-22T20:34:27.000",
    "request_status": "Pending",
    "responsible_agency": "Department of Sanitation",
    "final_address": "6540 Oakland Dr",
    "address_councildis": "A",
    "status": "Assigned to Contractor",
    "contractor": "IV Waste",
    "rowid": "1283728",
    "final_x": "3666639.80762",
    "final_y": "540191.360587",
    "longitude": "-90.11470242880395",
    "latitude": "29.979781873081667",
    "geocoded_column": {
      "latitude": "29.979781873081667",
      "longitude": "-90.11470242880395"
    }
  },
  {
    "service_request": "2026-1283727",
    "request_type": "General Services",
    "request_reason": "General Service Request",
    "date_created": "2026-05-22T20:04:37.000",
    "date_modified": "2026-05-22T20:04:38.000",
    "request_status": "Pending",
    "responsible_agency": "Orleans Parish Communication District",
    "final_address": "5000 BLK Pontchartrain Blvd",
    "address_councildis": "A",
    "status": "Pending",
    "rowid": "1283727",
    "final_x": "3666939.22776",
    "final_y": "540401.179812",
    "longitude": "-90.11374968077287",
    "latitude": "29.980350045854163",
    "geocoded_column": {
      "latitude": "29.980350045854163",
      "longitude": "-90.11374968077287"
    }
  },
  {
    "service_request": "2026-1283726",
    "request_type": "Utility Poles",
    "request_reason": "Wires Sagging/Hanging Low",
    "date_created": "2026-05-22T20:02:52.000",
    "date_modified": "2026-05-22T20:02:54.000",
    "request_status": "Pending",
    "responsible_agency": "Utility Company Collective",
    "final_address": "925 Washington Ave",
    "address_councildis": "B",
    "status": "Pending",
    "rowid": "1283726",
    "final_x": "3677367.10568",
    "final_y": "520428.266104",
    "longitude": "-90.08150315515392",
    "latitude": "29.925121912022405",
    "geocoded_column": {
      "latitude": "29.925121912022405",
      "longitude": "-90.08150315515392"
    }
  },
  {
    "service_request": "2026-1283725",
    "request_type": "Drainage",
    "request_reason": "Catch Basin Not Draining",
    "date_created": "2026-05-22T19:32:37.000",
    "date_modified": "2026-05-22T19:32:40.000",
    "request_status": "Pending",
    "responsible_agency": "Sewerage & Water Board",
    "final_address": "3244 Elmwood Park Dr",
    "address_councildis": "C",
    "status": "Pending",
    "rowid": "1283725",
    "final_x": "3695099.88694",
    "final_y": "518260.562422",
    "longitude": "-90.02560482122895",
    "latitude": "29.918616854445336",
    "geocoded_column": {
      "latitude": "29.918616854445336",
      "longitude": "-90.02560482122895"
    }
  },
  {
    "service_request": "2026-1283724",
    "request_type": "Trash/Recycling",
    "request_reason": "Request a Large Item Pick Up",
    "date_created": "2026-05-22T19:11:10.000",
    "date_modified": "2026-05-22T19:11:12.000",
    "request_status": "Pending",
    "responsible_agency": "Department of Sanitation",
    "final_address": "1022 Governor Nicholls St",
    "address_councildis": "C",
    "status": "Assigned to Contractor",
    "contractor": "IV Waste",
    "rowid": "1283724",
    "final_x": "3682628.0909",
    "final_y": "534674.57735",
    "longitude": "-90.06439790940458",
    "latitude": "29.964135392884398",
    "geocoded_column": {
      "latitude": "29.964135392884398",
      "longitude": "-90.06439790940458"
    }
  },
  {
    "service_request": "2026-1283723",
    "request_type": "Trash/Recycling",
    "request_reason": "Replace Trash Cart",
    "date_created": "2026-05-22T18:53:41.000",
    "date_modified": "2026-05-22T18:53:43.000",
    "request_status": "Pending",
    "responsible_agency": "Department of Sanitation",
    "final_address": "66 Pinewood Ct",
    "address_councildis": "C",
    "status": "Assigned to Contractor",
    "contractor": "Richards Disposal",
    "rowid": "1283723",
    "final_x": "3695921.1032",
    "final_y": "523116.293435",
    "longitude": "-90.02283739314046",
    "latitude": "29.931942666411754",
    "geocoded_column": {
      "latitude": "29.931942666411754",
      "longitude": "-90.02283739314046"
    }
  },
  {
    "service_request": "2026-1283722",
    "request_type": "Trash/Recycling",
    "request_reason": "Request a Large Item Pick Up",
    "date_created": "2026-05-22T18:41:19.000",
    "date_modified": "2026-05-22T18:41:22.000",
    "request_status": "Pending",
    "responsible_agency": "Department of Sanitation",
    "final_address": "6821 Dorchester St",
    "address_councildis": "E",
    "status": "Assigned to Contractor",
    "contractor": "Waste Pro",
    "rowid": "1283722",
    "final_x": "3698670.03639",
    "final_y": "559516.886237",
    "longitude": "-90.01283506897029",
    "latitude": "30.031944293184083",
    "geocoded_column": {
      "latitude": "30.031944293184083",
      "longitude": "-90.01283506897029"
    }
  },
  {
    "service_request": "2026-1283721",
    "request_type": "Drainage",
    "request_reason": "Ditch and Culvert Maintenance",
    "date_created": "2026-05-22T18:18:42.000",
    "date_modified": "2026-05-22T18:18:44.000",
    "request_status": "Pending",
    "responsible_agency": "Department of Public Works",
    "final_address": "2020 Seventh St",
    "address_councildis": "B",
    "status": "Pending",
    "rowid": "1283721",
    "final_x": "3674330.05057",
    "final_y": "523415.858555",
    "longitude": "-90.09098792599798",
    "latitude": "29.933427709429793",
    "geocoded_column": {
      "latitude": "29.933427709429793",
      "longitude": "-90.09098792599798"
    }
  },
  {
    "service_request": "2026-1283720",
    "request_type": "Abandoned Vehicles",
    "request_reason": "Abandoned/Junk Vehicles",
    "date_created": "2026-05-22T18:06:16.000",
    "date_modified": "2026-05-22T18:06:18.000",
    "request_status": "Pending",
    "responsible_agency": "Department of Public Works",
    "final_address": "1620 Broadway St",
    "address_councildis": "A",
    "status": "Pending",
    "rowid": "1283720",
    "final_x": "3665008.65031",
    "final_y": "527862.567551",
    "longitude": "-90.1202665518321",
    "latitude": "29.945929341320046",
    "geocoded_column": {
      "latitude": "29.945929341320046",
      "longitude": "-90.1202665518321"
    }
  },
  {
    "service_request": "2026-1283719",
    "request_type": "Trash/Recycling",
    "request_reason": "Repair Recycling Cart",
    "date_created": "2026-05-22T17:55:39.000",
    "date_modified": "2026-05-22T17:55:41.000",
    "request_status": "Pending",
    "responsible_agency": "Department of Sanitation",
    "final_address": "2019 St Claude Ave",
    "address_councildis": "C",
    "status": "Pending",
    "rowid": "1283719",
    "final_x": "3684416.92137",
    "final_y": "536327.133895",
    "longitude": "-90.05869089443202",
    "latitude": "29.96862476003874",
    "geocoded_column": {
      "latitude": "29.96862476003874",
      "longitude": "-90.05869089443202"
    }
  },
  {
    "service_request": "2026-1283718",
    "request_type": "Drainage",
    "request_reason": "Catch Basin Not Draining",
    "date_created": "2026-05-22T17:50:46.000",
    "date_modified": "2026-05-22T17:50:47.000",
    "request_status": "Pending",
    "responsible_agency": "Sewerage & Water Board",
    "final_address": "4800 Canal St",
    "address_councildis": "A",
    "status": "Pending",
    "rowid": "1283718",
    "final_x": "3668726.27777",
    "final_y": "540033.165771",
    "longitude": "-90.10811782560283",
    "latitude": "29.979285710546975",
    "geocoded_column": {
      "latitude": "29.979285710546975",
      "longitude": "-90.10811782560283"
    }
  },
  {
    "service_request": "2026-1283717",
    "request_type": "General Services",
    "request_reason": "General Service Request",
    "date_created": "2026-05-22T17:49:11.000",
    "date_modified": "2026-05-22T17:49:13.000",
    "request_status": "Pending",
    "responsible_agency": "Orleans Parish Communication District",
    "final_address": "Freret, New Orleans, Louisiana and Jefferson Parish",
    "address_councildis": "B",
    "status": "Pending",
    "rowid": "1283717",
    "final_x": "3675850.43425",
    "final_y": "526455.48787",
    "longitude": "-90.08608370644836",
    "latitude": "29.94174028002796",
    "geocoded_column": {
      "latitude": "29.94174028002796",
      "longitude": "-90.08608370644836"
    }
  },
  {
    "service_request": "2026-1283716",
    "request_type": "Trash/Recycling",
    "request_reason": "Replace Trash Cart",
    "date_created": "2026-05-22T17:43:43.000",
    "date_modified": "2026-05-22T17:43:46.000",
    "request_status": "Pending",
    "responsible_agency": "Department of Sanitation",
    "final_address": "4027 Baronne St",
    "address_councildis": "B",
    "status": "Assigned to Contractor",
    "contractor": "IV Waste",
    "rowid": "1283716",
    "final_x": "3672010.74715",
    "final_y": "521776.660346",
    "longitude": "-90.09836562148938",
    "latitude": "29.928989383097843",
    "geocoded_column": {
      "latitude": "29.928989383097843",
      "longitude": "-90.09836562148938"
    }
  },
  {
    "service_request": "2026-1283715",
    "request_type": "Property Maintenance",
    "request_reason": "Property Maintenance",
    "date_created": "2026-05-22T17:37:01.000",
    "date_modified": "2026-05-22T17:37:03.000",
    "request_status": "Pending",
    "responsible_agency": "Department of Code Enforcement",
    "final_address": "4418 Marais St",
    "address_councildis": "D",
    "status": "Pending",
    "rowid": "1283715",
    "final_x": "3693282.78128",
    "final_y": "535212.192006",
    "longitude": "-90.03073216641008",
    "latitude": "29.965284902022262",
    "geocoded_column": {
      "latitude": "29.965284902022262",
      "longitude": "-90.03073216641008"
    }
  },
  {
    "service_request": "2026-1283714",
    "request_type": "Drainage",
    "request_reason": "Catch Basin Not Draining",
    "date_created": "2026-05-22T17:36:37.000",
    "date_modified": "2026-05-22T17:36:38.000",
    "request_status": "Pending",
    "responsible_agency": "Sewerage & Water Board",
    "final_address": "1800 Wilton Dr",
    "address_councildis": "D",
    "status": "Pending",
    "rowid": "1283714",
    "final_x": "3681164.88207",
    "final_y": "550808.302165",
    "longitude": "-90.0684561753667",
    "latitude": "30.008541945873183",
    "geocoded_column": {
      "latitude": "30.008541945873183",
      "longitude": "-90.0684561753667"
    }
  },
  {
    "service_request": "2026-1283713",
    "request_type": "Trash/Recycling",
    "request_reason": "Request a Large Item Pick Up",
    "date_created": "2026-05-22T17:30:15.000",
    "date_modified": "2026-05-22T17:30:17.000",
    "request_status": "Pending",
    "responsible_agency": "Department of Sanitation",
    "final_address": "2626 State St",
    "address_councildis": "A",
    "status": "Assigned to Contractor",
    "contractor": "IV Waste",
    "rowid": "1283713",
    "final_x": "3666931.70337",
    "final_y": "526334.776958",
    "longitude": "-90.11424612365987",
    "latitude": "29.941672290143597",
    "geocoded_column": {
      "latitude": "29.941672290143597",
      "longitude": "-90.11424612365987"
    }
  },
  {
    "service_request": "2026-1283712",
    "request_type": "Trash/Recycling",
    "request_reason": "Order Second Trash Cart",
    "date_created": "2026-05-22T17:26:50.000",
    "date_modified": "2026-05-22T17:26:52.000",
    "request_status": "Pending",
    "responsible_agency": "Department of Sanitation",
    "final_address": "5426 Chatham Dr",
    "address_councildis": "D",
    "status": "Assigned to Contractor",
    "contractor": "IV Waste",
    "rowid": "1283712",
    "final_x": "3679672.21346",
    "final_y": "552507.91855",
    "longitude": "-90.07311293496453",
    "latitude": "30.01326050128149",
    "geocoded_column": {
      "latitude": "30.01326050128149",
      "longitude": "-90.07311293496453"
    }
  },
  {
    "service_request": "2026-1283711",
    "request_type": "Drainage",
    "request_reason": "Catch Basin Not Draining",
    "date_created": "2026-05-22T17:26:42.000",
    "date_modified": "2026-05-22T17:26:45.000",
    "request_status": "Pending",
    "responsible_agency": "Sewerage & Water Board",
    "final_address": "1800 Wilton Dr",
    "address_councildis": "D",
    "status": "Pending",
    "rowid": "1283711",
    "final_x": "3681164.88207",
    "final_y": "550808.302165",
    "longitude": "-90.0684561753667",
    "latitude": "30.008541945873183",
    "geocoded_column": {
      "latitude": "30.008541945873183",
      "longitude": "-90.0684561753667"
    }
  },
  {
    "service_request": "2026-1283710",
    "request_type": "Trash/Recycling",
    "request_reason": "Request a Large Item Pick Up",
    "date_created": "2026-05-22T17:06:42.000",
    "date_modified": "2026-05-22T17:06:45.000",
    "request_status": "Pending",
    "responsible_agency": "Department of Sanitation",
    "final_address": "2714 Palmer Ave",
    "address_councildis": "A",
    "status": "Assigned to Contractor",
    "contractor": "IV Waste",
    "rowid": "1283710",
    "final_x": "3666711.39905",
    "final_y": "526656.182462",
    "longitude": "-90.11493088157681",
    "latitude": "29.942562494858546",
    "geocoded_column": {
      "latitude": "29.942562494858546",
      "longitude": "-90.11493088157681"
    }
  },
  {
    "service_request": "2026-1283709",
    "request_type": "Drainage",
    "request_reason": "Catch Basin Not Draining",
    "date_created": "2026-05-22T16:46:34.000",
    "date_modified": "2026-05-22T16:46:35.000",
    "request_status": "Pending",
    "responsible_agency": "Sewerage & Water Board",
    "final_address": "4640 S Claiborne Ave",
    "address_councildis": "B",
    "status": "Pending",
    "rowid": "1283709",
    "final_x": "3669279.80724",
    "final_y": "525623.021629",
    "longitude": "-90.10685671504329",
    "latitude": "29.93964629191596",
    "geocoded_column": {
      "latitude": "29.93964629191596",
      "longitude": "-90.10685671504329"
    }
  },
  {
    "service_request": "2026-1283708",
    "request_type": "Trash/Recycling",
    "request_reason": "Request a Large Item Pick Up",
    "date_created": "2026-05-22T16:46:23.000",
    "date_modified": "2026-05-22T16:46:24.000",
    "request_status": "Pending",
    "responsible_agency": "Department of Sanitation",
    "final_address": "74 Egret St",
    "address_councildis": "D",
    "status": "Assigned to Contractor",
    "contractor": "IV Waste",
    "rowid": "1283708",
    "final_x": "3673840.31534",
    "final_y": "555463.203353",
    "longitude": "-90.09143746560028",
    "latitude": "30.021561550135562",
    "geocoded_column": {
      "latitude": "30.021561550135562",
      "longitude": "-90.09143746560028"
    }
  },
  {
    "service_request": "2026-1283707",
    "request_type": "Trash/Recycling",
    "request_reason": "Request a Large Item Pick Up",
    "date_created": "2026-05-22T16:44:51.000",
    "date_modified": "2026-05-22T16:44:53.000",
    "request_status": "Pending",
    "responsible_agency": "Department of Sanitation",
    "final_address": "7860 Sand St",
    "address_councildis": "E",
    "status": "Assigned to Contractor",
    "contractor": "Waste Pro",
    "rowid": "1283707",
    "final_x": "3720003.04281",
    "final_y": "574366.087595",
    "longitude": "-89.9448537434209",
    "latitude": "30.072080210771624",
    "geocoded_column": {
      "latitude": "30.072080210771624",
      "longitude": "-89.9448537434209"
    }
  },
  {
    "service_request": "2026-1283706",
    "request_type": "Trash/Recycling",
    "request_reason": "Request a Large Item Pick Up",
    "date_created": "2026-05-22T16:43:26.000",
    "date_modified": "2026-05-22T16:43:27.000",
    "request_status": "Pending",
    "responsible_agency": "Department of Sanitation",
    "final_address": "14712 Beekman Rd",
    "address_councildis": "E",
    "status": "Assigned to Contractor",
    "contractor": "Waste Pro",
    "rowid": "1283706",
    "final_x": "3721284.71615",
    "final_y": "573671.832682",
    "longitude": "-89.94082867374001",
    "latitude": "30.070128538451875",
    "geocoded_column": {
      "latitude": "30.070128538451875",
      "longitude": "-89.94082867374001"
    }
  },
  {
    "service_request": "2026-1283705",
    "request_type": "Trash/Recycling",
    "request_reason": "Repair Trash Cart",
    "date_created": "2026-05-22T16:34:42.000",
    "date_modified": "2026-05-22T16:34:43.000",
    "request_status": "Pending",
    "responsible_agency": "Department of Sanitation",
    "final_address": "4007 Iroquois St, New Orleans, Louisiana, 70126",
    "address_councildis": "D",
    "status": "Assigned to Contractor",
    "contractor": "IV Waste",
    "rowid": "1283705",
    "final_x": "3689192.37116",
    "final_y": "547870.613202",
    "longitude": "-90.04319935019922",
    "latitude": "30.000218274107212",
    "geocoded_column": {
      "latitude": "30.000218274107212",
      "longitude": "-90.04319935019922"
    }
  },
  {
    "service_request": "2026-1283704",
    "request_type": "Health Related Request",
    "request_reason": "Noise Ordinance Complaint",
    "date_created": "2026-05-22T16:32:51.000",
    "date_modified": "2026-05-22T16:32:56.000",
    "request_status": "Pending",
    "responsible_agency": "Health Department",
    "final_address": "316 N Villere St Apt R",
    "address_councildis": "C",
    "status": "Pending",
    "rowid": "1283704",
    "final_x": "3679615.1149",
    "final_y": "533185.384516",
    "longitude": "-90.07396431208856",
    "latitude": "29.96013202165831",
    "geocoded_column": {
      "latitude": "29.96013202165831",
      "longitude": "-90.07396431208856"
    }
  },
  {
    "service_request": "2026-1283703",
    "request_type": "Streetlights",
    "request_reason": "Streetlight Outage/Malfunction",
    "date_created": "2026-05-22T16:30:16.000",
    "date_modified": "2026-05-22T16:30:18.000",
    "request_status": "Pending",
    "responsible_agency": "Department of Public Works",
    "final_address": "1254 Granada Dr",
    "address_councildis": "D",
    "status": "Pending",
    "rowid": "1283703",
    "final_x": "3677158.10146",
    "final_y": "550426.34338",
    "longitude": "-90.08112806979075",
    "latitude": "30.00761270436358",
    "geocoded_column": {
      "latitude": "30.00761270436358",
      "longitude": "-90.08112806979075"
    }
  },
  {
    "service_request": "2026-1283702",
    "request_type": "Trash/Recycling",
    "request_reason": "Repair Trash Cart",
    "date_created": "2026-05-22T16:28:06.000",
    "date_modified": "2026-05-22T16:28:07.000",
    "request_status": "Pending",
    "responsible_agency": "Department of Sanitation",
    "final_address": "4007 Iroquois St, New Orleans, Louisiana, 70126",
    "address_councildis": "D",
    "status": "Assigned to Contractor",
    "contractor": "IV Waste",
    "rowid": "1283702",
    "final_x": "3689192.37116",
    "final_y": "547870.613202",
    "longitude": "-90.04319935019922",
    "latitude": "30.000218274107212",
    "geocoded_column": {
      "latitude": "30.000218274107212",
      "longitude": "-90.04319935019922"
    }
  },
  {
    "service_request": "2026-1283701",
    "request_type": "Abandoned Vehicles",
    "request_reason": "Abandoned/Junk Vehicles",
    "date_created": "2026-05-22T16:27:51.000",
    "date_modified": "2026-05-22T16:27:53.000",
    "request_status": "Pending",
    "responsible_agency": "Department of Public Works",
    "final_address": "3432 Bruxelles St",
    "address_councildis": "D",
    "status": "Pending",
    "rowid": "1283701",
    "final_x": "3680087.51221",
    "final_y": "545078.108175",
    "longitude": "-90.0720592027112",
    "latitude": "29.992818610176084",
    "geocoded_column": {
      "latitude": "29.992818610176084",
      "longitude": "-90.0720592027112"
    }
  },
  {
    "service_request": "2026-1283700",
    "request_type": "Drainage",
    "request_reason": "Catch Basin Not Draining",
    "date_created": "2026-05-22T16:27:22.000",
    "date_modified": "2026-05-22T16:27:24.000",
    "request_status": "Pending",
    "responsible_agency": "Sewerage & Water Board",
    "final_address": "4236 DHemecourt St",
    "address_councildis": "A",
    "status": "Pending",
    "rowid": "1283700",
    "final_x": "3669133.43412",
    "final_y": "537315.186056",
    "longitude": "-90.10692374270195",
    "latitude": "29.97180020437056",
    "geocoded_column": {
      "latitude": "29.97180020437056",
      "longitude": "-90.10692374270195"
    }
  },
  {
    "service_request": "2026-1283699",
    "request_type": "Trash/Recycling",
    "request_reason": "Missed Trash Pick-Up",
    "date_created": "2026-05-22T16:18:28.000",
    "date_modified": "2026-05-22T16:58:12.000",
    "case_close_date": "2026-05-22T11:58:11.000",
    "request_status": "Closed",
    "responsible_agency": "Department of Sanitation",
    "final_address": "2713 Peniston St",
    "address_councildis": "B",
    "status": "Invalid Request",
    "contractor": "IV Waste",
    "contractor_action": "Invalid Request",
    "rowid": "1283699",
    "final_x": "3671972.58299",
    "final_y": "525039.100413",
    "longitude": "-90.0983750996398",
    "latitude": "29.937961170555067",
    "geocoded_column": {
      "latitude": "29.937961170555067",
      "longitude": "-90.0983750996398"
    }
  },
  {
    "service_request": "2026-1283698",
    "request_type": "Street and Traffic Signs",
    "request_reason": "Street Name Sign Damaged or Missing",
    "date_created": "2026-05-22T16:14:42.000",
    "date_modified": "2026-05-22T16:14:43.000",
    "request_status": "Pending",
    "responsible_agency": "Department of Public Works",
    "final_address": "5600 Durbridge Dr",
    "address_councildis": "C",
    "status": "Pending",
    "rowid": "1283698",
    "final_x": "3704460.10513",
    "final_y": "521919.792378",
    "longitude": "-89.99592496123817",
    "latitude": "29.928381411137472",
    "geocoded_column": {
      "latitude": "29.928381411137472",
      "longitude": "-89.99592496123817"
    }
  },
  {
    "service_request": "2026-1283697",
    "request_type": "Street and Traffic Signs",
    "request_reason": "Additional Signage Request",
    "date_created": "2026-05-22T16:14:25.000",
    "date_modified": "2026-05-22T16:14:26.000",
    "request_status": "Pending",
    "responsible_agency": "Department of Public Works",
    "final_address": "2022 Chippewa St",
    "address_councildis": "B",
    "status": "Pending",
    "rowid": "1283697",
    "final_x": "3680319.5629",
    "final_y": "521299.788281",
    "longitude": "-90.07215291779012",
    "latitude": "29.927429290313864",
    "geocoded_column": {
      "latitude": "29.927429290313864",
      "longitude": "-90.07215291779012"
    }
  },