[
  {
    "service_request": "2024-1075012",
    "request_type": "Trash/Recycling",
    "request_reason": "Request a Large Item Pick Up",
    "date_created": "2024-03-12T23:25:36.000",
    "date_modified": "2024-03-12T23:25:36.000",
    "request_status": "Pending",
    "responsible_agency": "Department of Sanitation",
    "final_address": "5610 Pembrook Dr",
    "address_councildis": "C",
    "status": "Assigned to Contractor",
    "contractor": "Richards Disposal",
    "rowid": "1075012",
    "final_x": "3704355.1665",
    "final_y": "521043.518329",
    "longitude": "-89.99628850493797",
    "latitude": "29.925975330096",
    "geocoded_column": {
      "latitude": "29.925975330096",
      "longitude": "-89.99628850493797"
    }
  },
  {
    "service_request": "2024-1075011",
    "request_type": "Trash/Recycling",
    "request_reason": "Request a Large Item Pick Up",
    "date_created": "2024-03-12T23:18:55.000",
    "date_modified": "2024-03-12T23:18:56.000",
    "request_status": "Pending",
    "responsible_agency": "Department of Sanitation",
    "final_address": "5610 Pembrook Dr",
    "address_councildis": "C",
    "status": "Assigned to Contractor",
    "contractor": "Richards Disposal",
    "rowid": "1075011",
    "final_x": "3704355.1665",
    "final_y": "521043.518329",
    "longitude": "-89.99628850493797",
    "latitude": "29.925975330096",
    "geocoded_column": {
      "latitude": "29.925975330096",
      "longitude": "-89.99628850493797"
    }
  },
  {
    "service_request": "2024-1075010",
    "request_type": "Abandoned Vehicles",
    "request_reason": "Abandoned/Junk Vehicles",
    "date_created": "2024-03-12T23:08:46.000",
    "date_modified": "2024-03-12T23:08:46.000",
    "request_status": "Pending",
    "responsible_agency": "Department of Public Works",
    "final_address": "115 10Th St",
    "address_councildis": "A",
    "status": "Pending",
    "rowid": "1075010",
    "final_x": "3665924.57965",
    "final_y": "547539.745682",
    "longitude": "-90.11671499127267",
    "latitude": "30.00000832994382",
    "geocoded_column": {
      "latitude": "30.00000832994382",
      "longitude": "-90.11671499127267"
    }
  },
  {
    "service_request": "2024-1075009",
    "request_type": "Trash/Recycling",
    "request_reason": "Missed Trash Pick-Up",
    "date_created": "2024-03-12T23:07:17.000",
    "date_modified": "2024-03-12T23:07:17.000",
    "request_status": "Pending",
    "responsible_agency": "Department of Sanitation",
    "final_address": "2522 Jefferson Ave",
    "address_councildis": "A",
    "status": "Assigned to Contractor",
    "contractor": "Richards Disposal",
    "rowid": "1075009",
    "final_x": "3668039.10708",
    "final_y": "524855.95622",
    "longitude": "-90.1107996285821",
    "latitude": "29.937573566434033",
    "geocoded_column": {
      "latitude": "29.937573566434033",
      "longitude": "-90.1107996285821"
    }
  },
  {
    "service_request": "2024-1075008",
    "request_type": "Trash/Recycling",
    "request_reason": "Replace Trash Cart",
    "date_created": "2024-03-12T23:01:41.000",
    "date_modified": "2024-03-12T23:01:42.000",
    "request_status": "Pending",
    "responsible_agency": "Department of Sanitation",
    "final_address": "4038 Banks St",
    "address_councildis": "A",
    "status": "Assigned to Contractor",
    "contractor": "Richards Disposal",
    "rowid": "1075008",
    "final_x": "3670463.79892",
    "final_y": "537235.199752",
    "longitude": "-90.10272494526228",
    "latitude": "29.97154104923241",
    "geocoded_column": {
      "latitude": "29.97154104923241",
      "longitude": "-90.10272494526228"
    }
  },
  {
    "service_request": "2024-1075007",
    "request_type": "Trash/Recycling",
    "request_reason": "Repair Recycling Cart",
    "date_created": "2024-03-12T22:39:46.000",
    "date_modified": "2024-03-12T22:39:46.000",
    "request_status": "Pending",
    "responsible_agency": "Department of Sanitation",
    "final_address": "2 Kingsmill Ln",
    "address_councildis": "C",
    "status": "Pending",
    "rowid": "1075007",
    "final_x": "3721901.56594",
    "final_y": "510798.810287",
    "longitude": "-89.94129330686822",
    "latitude": "29.897231419197897",
    "geocoded_column": {
      "latitude": "29.897231419197897",
      "longitude": "-89.94129330686822"
    }
  },
  {
    "service_request": "2024-1075006",
    "request_type": "Trash/Recycling",
    "request_reason": "Request a Large Item Pick Up",
    "date_created": "2024-03-12T22:28:17.000",
    "date_modified": "2024-03-12T22:28:18.000",
    "request_status": "Pending",
    "responsible_agency": "Department of Sanitation",
    "final_address": "5932 Mandeville St",
    "address_councildis": "D",
    "status": "Assigned to Contractor",
    "contractor": "IV Waste",
    "rowid": "1075006",
    "final_x": "3684233.18293",
    "final_y": "554901.965208",
    "longitude": "-90.05861857043861",
    "latitude": "30.019704535234624",
    "geocoded_column": {
      "latitude": "30.019704535234624",
      "longitude": "-90.05861857043861"
    }
  },
  {
    "service_request": "2024-1075005",
    "request_type": "Trash/Recycling",
    "request_reason": "Request a Large Item Pick Up",
    "date_created": "2024-03-12T22:15:14.000",
    "date_modified": "2024-03-12T22:15:14.000",
    "request_status": "Pending",
    "responsible_agency": "Department of Sanitation",
    "final_address": "3641 Post Oak Ave",
    "address_councildis": "C",
    "status": "Assigned to Contractor",
    "contractor": "Richards Disposal",
    "rowid": "1075005",
    "final_x": "3703827.2915",
    "final_y": "514435.422963",
    "longitude": "-89.9981978967589",
    "latitude": "29.907822268121915",
    "geocoded_column": {
      "latitude": "29.907822268121915",
      "longitude": "-89.9981978967589"
    }
  },
  {
    "service_request": "2024-1075004",
    "request_type": "Trash/Recycling",
    "request_reason": "Request a Large Item Pick Up",
    "date_created": "2024-03-12T21:31:39.000",
    "date_modified": "2024-03-12T21:31:40.000",
    "request_status": "Pending",
    "responsible_agency": "Department of Sanitation",
    "final_address": "3100 Baronne St, New Orleans, Louisiana, 70115",
    "address_councildis": "B",
    "status": "Assigned to Contractor",
    "contractor": "Richards Disposal",
    "rowid": "1075004",
    "final_x": "3674573.74676",
    "final_y": "522487.338426",
    "longitude": "-90.09025039074213",
    "latitude": "29.930867313035233",
    "geocoded_column": {
      "latitude": "29.930867313035233",
      "longitude": "-90.09025039074213"
    }
  },
  {
    "service_request": "2024-1075003",
    "request_type": "Trash/Recycling",
    "request_reason": "Order Recycling Cart",
    "date_created": "2024-03-12T21:31:35.000",
    "date_modified": "2024-03-12T21:31:35.000",
    "request_status": "Pending",
    "responsible_agency": "Department of Sanitation",
    "final_address": "4029 Iroquois St",
    "address_councildis": "D",
    "status": "Pending",
    "rowid": "1075003",
    "final_x": "3689172.69564",
    "final_y": "548059.82581",
    "longitude": "-90.04325477632133",
    "latitude": "30.00073914908981",
    "geocoded_column": {
      "latitude": "30.00073914908981",
      "longitude": "-90.04325477632133"
    }
  },
  {
    "service_request": "2024-1075002",
    "request_type": "Traffic Signals/Signs/Striping/Streetlights",
    "request_reason": "Street Light Outage/Malfunction",
    "date_created": "2024-03-12T21:21:21.000",
    "date_modified": "2024-03-12T21:21:21.000",
    "request_status": "Pending",
    "responsible_agency": "Department of Public Works",
    "final_address": "Yellowstone Court & Yellowstone Drive",
    "address_councildis": "C",
    "status": "Assigned to Contractor",
    "contractor": "Legacy Professional Services",
    "rowid": "1075002",
    "final_x": "3699518.32861",
    "final_y": "518052.589238",
    "longitude": "-90.01166578714042",
    "latitude": "29.917905602199323",
    "geocoded_column": {
      "latitude": "29.917905602199323",
      "longitude": "-90.01166578714042"
    }
  },
  {
    "service_request": "2024-1075001",
    "request_type": "Property Maintenance",
    "request_reason": "Property Maintenance",
    "date_created": "2024-03-12T21:20:14.000",
    "date_modified": "2024-03-12T21:20:14.000",
    "request_status": "Pending",
    "responsible_agency": "Department of Code Enforcement",
    "final_address": "2016 Simon Bolivar Ave",
    "address_councildis": "B",
    "status": "Pending",
    "rowid": "1075001",
    "final_x": "3676725.78549",
    "final_y": "525779.983357",
    "longitude": "-90.08334330686334",
    "latitude": "29.939856636776053",
    "geocoded_column": {
      "latitude": "29.939856636776053",
      "longitude": "-90.08334330686334"
    }
  },
  {
    "service_request": "2024-1075000",
    "request_type": "Property Maintenance",
    "request_reason": "Property Maintenance",
    "date_created": "2024-03-12T21:18:38.000",
    "date_modified": "2024-03-12T21:18:38.000",
    "request_status": "Pending",
    "responsible_agency": "Department of Code Enforcement",
    "final_address": "2100 St Andrew St Apt A",
    "address_councildis": "B",
    "status": "Pending",
    "rowid": "1075000",
    "final_x": "3676972.43733",
    "final_y": "525668.049853",
    "longitude": "-90.08256844818295",
    "latitude": "29.939541455642104",
    "geocoded_column": {
      "latitude": "29.939541455642104",
      "longitude": "-90.08256844818295"
    }
  },
  {
    "service_request": "2024-1074999",
    "request_type": "Trash/Recycling",
    "request_reason": "Replace Trash Cart",
    "date_created": "2024-03-12T21:09:49.000",
    "date_modified": "2024-03-12T21:09:49.000",
    "request_status": "Pending",
    "responsible_agency": "Department of Sanitation",
    "final_address": "1800 Lamanche St",
    "address_councildis": "E",
    "status": "Assigned to Contractor",
    "contractor": "Waste Pro",
    "rowid": "1074999",
    "final_x": "3698995.769",
    "final_y": "536353.179271",
    "longitude": "-90.01264941963893",
    "latitude": "29.968242393121127",
    "geocoded_column": {
      "latitude": "29.968242393121127",
      "longitude": "-90.01264941963893"
    }
  },
  {
    "service_request": "2024-1074998",
    "request_type": "Trash/Recycling",
    "request_reason": "Repair Trash Cart",
    "date_created": "2024-03-12T21:09:05.000",
    "date_modified": "2024-03-12T21:09:06.000",
    "request_status": "Pending",
    "responsible_agency": "Department of Sanitation",
    "final_address": "108 Berkley Dr",
    "address_councildis": "C",
    "status": "Assigned to Contractor",
    "contractor": "Richards Disposal",
    "rowid": "1074998",
    "final_x": "3705938.94769",
    "final_y": "518229.601014",
    "longitude": "-89.99139304360854",
    "latitude": "29.918187125558315",
    "geocoded_column": {
      "latitude": "29.918187125558315",
      "longitude": "-89.99139304360854"
    }
  },
  {
    "service_request": "2024-1074997",
    "request_type": "Traffic Signals/Signs/Striping/Streetlights",
    "request_reason": "Street Light Outage/Malfunction",
    "date_created": "2024-03-12T21:05:53.000",
    "date_modified": "2024-03-12T21:05:54.000",
    "request_status": "Pending",
    "responsible_agency": "Department of Public Works",
    "final_address": "2213 Clouet St",
    "address_councildis": "D",
    "status": "Assigned to Contractor",
    "contractor": "Legacy Professional Services",
    "rowid": "1074997",
    "final_x": "3690112.64252",
    "final_y": "540252.311883",
    "longitude": "-90.04056369777315",
    "latitude": "29.97924216524396",
    "geocoded_column": {
      "latitude": "29.97924216524396",
      "longitude": "-90.04056369777315"
    }
  },
  {
    "service_request": "2024-1074996",
    "request_type": "Traffic Signals/Signs/Striping/Streetlights",
    "request_reason": "Street Light Outage/Malfunction",
    "date_created": "2024-03-12T21:04:52.000",
    "date_modified": "2024-03-12T21:04:53.000",
    "request_status": "Pending",
    "responsible_agency": "Department of Public Works",
    "final_address": "1500 BLK Robert C Blakes Sr Dr",
    "address_councildis": "B",
    "status": "Assigned to Contractor",
    "contractor": "Legacy Professional Services",
    "rowid": "1074996",
    "final_x": "3678723.48044",
    "final_y": "525645.789375",
    "longitude": "-90.07704093812136",
    "latitude": "29.939427573754234",
    "geocoded_column": {
      "latitude": "29.939427573754234",
      "longitude": "-90.07704093812136"
    }
  },
  {
    "service_request": "2024-1074995",
    "request_type": "Traffic Signals/Signs/Striping/Streetlights",
    "request_reason": "Street Light Outage/Malfunction",
    "date_created": "2024-03-12T20:50:07.000",
    "date_modified": "2024-03-12T20:50:08.000",
    "request_status": "Pending",
    "responsible_agency": "Department of Public Works",
    "final_address": "5864 General Haig St",
    "address_councildis": "A",
    "status": "Assigned to Contractor",
    "contractor": "Legacy Professional Services",
    "rowid": "1074995",
    "final_x": "3670397.86586",
    "final_y": "546299.302096",
    "longitude": "-90.10262571233852",
    "latitude": "29.99646618485502",
    "geocoded_column": {
      "latitude": "29.99646618485502",
      "longitude": "-90.10262571233852"
    }
  },
  {
    "service_request": "2024-1074994",
    "request_type": "Traffic Signals/Signs/Striping/Streetlights",
    "request_reason": "Traffic Sign Missing/Damaged",
    "date_created": "2024-03-12T20:35:25.000",
    "date_modified": "2024-03-12T20:35:25.000",
    "request_status": "Pending",
    "responsible_agency": "Department of Public Works",
    "final_address": "1 Almonaster Ave",
    "address_councildis": "D",
    "status": "Pending",
    "rowid": "1074994",
    "final_x": "3688053.015",
    "final_y": "540761.172875",
    "longitude": "-90.04705074841057",
    "latitude": "29.98070508640901",
    "geocoded_column": {
      "latitude": "29.98070508640901",
      "longitude": "-90.04705074841057"
    }
  },
  {
    "service_request": "2024-1074993",
    "request_type": "Trash/Recycling",
    "request_reason": "Return Trash Cart",
    "date_created": "2024-03-12T20:30:06.000",
    "date_modified": "2024-03-12T20:30:07.000",
    "request_status": "Pending",
    "responsible_agency": "Department of Sanitation",
    "final_address": "1101 Cadiz St",
    "address_councildis": "B",
    "status": "Assigned to Contractor",
    "contractor": "Richards Disposal",
    "rowid": "1074993",
    "final_x": "3670265.71943",
    "final_y": "519479.606391",
    "longitude": "-90.1039521425658",
    "latitude": "29.922724816604784",
    "geocoded_column": {
      "latitude": "29.922724816604784",
      "longitude": "-90.1039521425658"
    }
  },
  {
    "service_request": "2024-1074992",
    "request_type": "Roads/Drainage",
    "request_reason": "Pothole",
    "date_created": "2024-03-12T20:27:31.000",
    "date_modified": "2024-03-12T20:27:31.000",
    "request_status": "Pending",
    "responsible_agency": "Department of Public Works",
    "final_address": "2317 N Roman St",
    "address_councildis": "D",
    "status": "Pending",
    "rowid": "1074992",
    "final_x": "3685722.70614",
    "final_y": "539034.586698",
    "longitude": "-90.05447173319749",
    "latitude": "29.976029304636583",
    "geocoded_column": {
      "latitude": "29.976029304636583",
      "longitude": "-90.05447173319749"
    }
  },
  {
    "service_request": "2024-1074991",
    "request_type": "Roads/Drainage",
    "request_reason": "Pothole",
    "date_created": "2024-03-12T20:18:16.000",
    "date_modified": "2024-03-12T20:18:16.000",
    "request_status": "Pending",
    "responsible_agency": "Department of Public Works",
    "final_address": "1932 Franklin Ave",
    "address_councildis": "D",
    "status": "Pending",
    "rowid": "1074991",
    "final_x": "3687588.48246",
    "final_y": "539750.846538",
    "longitude": "-90.04855372158403",
    "latitude": "29.97794137661801",
    "geocoded_column": {
      "latitude": "29.97794137661801",
      "longitude": "-90.04855372158403"
    }
  },
  {
    "service_request": "2024-1074990",
    "request_type": "Trash/Recycling",
    "request_reason": "Missed Trash Pick-Up",
    "date_created": "2024-03-12T20:18:15.000",
    "date_modified": "2024-03-12T20:18:16.000",
    "request_status": "Pending",
    "responsible_agency": "Department of Sanitation",
    "final_address": "8527 Palm St",
    "address_councildis": "A",
    "status": "Assigned to Contractor",
    "contractor": "Richards Disposal",
    "rowid": "1074990",
    "final_x": "3666510.33652",
    "final_y": "535852.417479",
    "longitude": "-90.11525703406313",
    "latitude": "29.967855013998776",
    "geocoded_column": {
      "latitude": "29.967855013998776",
      "longitude": "-90.11525703406313"
    }
  },
  {
    "service_request": "2024-1074989",
    "request_type": "Parks & Parkways",
    "request_reason": "Request Grass Cutting Service (City Owned Property)",
    "date_created": "2024-03-12T20:17:53.000",
    "date_modified": "2024-03-12T20:17:53.000",
    "request_status": "Pending",
    "responsible_agency": "Department of Parks & Parkway",
    "final_address": "1 Filmore Ave",
    "address_councildis": "D",
    "status": "Pending",
    "rowid": "1074989",
    "final_x": "3676598.62043",
    "final_y": "551796.767702",
    "longitude": "-90.0828483842002",
    "latitude": "30.011397681988203",
    "geocoded_column": {
      "latitude": "30.011397681988203",
      "longitude": "-90.0828483842002"
    }
  },
  {
    "service_request": "2024-1074988",
    "request_type": "Abandoned Vehicles",
    "request_reason": "Abandoned/Junk Vehicles",
    "date_created": "2024-03-12T19:49:29.000",
    "date_modified": "2024-03-12T19:49:29.000",
    "request_status": "Pending",
    "responsible_agency": "Department of Public Works",
    "final_address": "514 Verret St",
    "address_councildis": "C",
    "status": "Pending",
    "rowid": "1074988",
    "final_x": "3687035.64118",
    "final_y": "529772.719617",
    "longitude": "-90.05065256342615",
    "latitude": "29.950522024406837",
    "geocoded_column": {
      "latitude": "29.950522024406837",
      "longitude": "-90.05065256342615"
    }
  },
  {
    "service_request": "2024-1074987",
    "request_type": "Traffic Signals/Signs/Striping/Streetlights",
    "request_reason": "Street Light Outage/Malfunction",
    "date_created": "2024-03-12T19:33:08.000",
    "date_modified": "2024-03-12T19:33:08.000",
    "request_status": "Pending",
    "responsible_agency": "Department of Public Works",
    "final_address": "1 Almonaster Ave",
    "address_councildis": "D",
    "status": "Assigned to Contractor",
    "contractor": "Legacy Professional Services",
    "rowid": "1074987",
    "final_x": "3688053.015",
    "final_y": "540761.172875",
    "longitude": "-90.04705074841057",
    "latitude": "29.98070508640901",
    "geocoded_column": {
      "latitude": "29.98070508640901",
      "longitude": "-90.04705074841057"
    }
  },
  {
    "service_request": "2024-1074986",
    "request_type": "Trash/Recycling",
    "request_reason": "Replace Trash Cart",
    "date_created": "2024-03-12T19:27:50.000",
    "date_modified": "2024-03-12T19:27:51.000",
    "request_status": "Pending",
    "responsible_agency": "Department of Sanitation",
    "final_address": "965 Harding Dr",
    "address_councildis": "A",
    "status": "Assigned to Contractor",
    "contractor": "Richards Disposal",
    "rowid": "1074986",
    "final_x": "3674343.49051",
    "final_y": "540214.953419",
    "longitude": "-90.09037020693987",
    "latitude": "29.979619215184",
    "geocoded_column": {
      "latitude": "29.979619215184",
      "longitude": "-90.09037020693987"
    }
  },
  {
    "service_request": "2024-1074985",
    "request_type": "Traffic Signals/Signs/Striping/Streetlights",
    "request_reason": "Street Light Outage/Malfunction",
    "date_created": "2024-03-12T19:18:30.000",
    "date_modified": "2024-03-12T19:18:31.000",
    "request_status": "Pending",
    "responsible_agency": "Department of Public Works",
    "final_address": "1001 Jourdan Ave",
    "address_councildis": "E",
    "status": "Assigned to Contractor",
    "contractor": "Legacy Professional Services",
    "rowid": "1074985",
    "final_x": "3694972.97066",
    "final_y": "534088.906821",
    "longitude": "-90.02543514903665",
    "latitude": "29.962143324380477",
    "geocoded_column": {
      "latitude": "29.962143324380477",
      "longitude": "-90.02543514903665"
    }
  },
  {
    "service_request": "2024-1074984",
    "request_type": "Roads/Drainage",
    "request_reason": "Road Shoulder Repair",
    "date_created": "2024-03-12T19:14:54.000",
    "date_modified": "2024-03-12T19:14:54.000",
    "request_status": "Pending",
    "responsible_agency": "Department of Public Works",
    "final_address": "1103 Soniat St",
    "address_councildis": "B",
    "status": "Pending",
    "rowid": "1074984",
    "final_x": "3668403.82119",
    "final_y": "519407.569399",
    "longitude": "-90.1098318637457",
    "latitude": "29.922581535155803",
    "geocoded_column": {
      "latitude": "29.922581535155803",
      "longitude": "-90.1098318637457"
    }
  },
  {
    "service_request": "2024-1074982",
    "request_type": "Traffic Signals/Signs/Striping/Streetlights",
    "request_reason": "Street Light Outage/Malfunction",
    "date_created": "2024-03-12T19:10:33.000",
    "date_modified": "2024-03-12T19:10:34.000",
    "request_status": "Pending",
    "responsible_agency": "Department of Public Works",
    "final_address": "1 Almonaster Ave",
    "address_councildis": "D",
    "status": "Assigned to Contractor",
    "contractor": "Legacy Professional Services",
    "rowid": "1074982",
    "final_x": "3688053.015",
    "final_y": "540761.172875",
    "longitude": "-90.04705074841057",
    "latitude": "29.98070508640901",
    "geocoded_column": {
      "latitude": "29.98070508640901",
      "longitude": "-90.04705074841057"
    }
  },
  {
    "service_request": "2024-1074981",
    "request_type": "Trash/Recycling",
    "request_reason": "Repair Trash Cart",
    "date_created": "2024-03-12T18:58:47.000",
    "date_modified": "2024-03-12T18:58:47.000",
    "request_status": "Pending",
    "responsible_agency": "Department of Sanitation",
    "final_address": "7001 Walmsley Ave",
    "address_councildis": "B",
    "status": "Assigned to Contractor",
    "contractor": "Richards Disposal",
    "rowid": "1074981",
    "final_x": "3667843.71649",
    "final_y": "530875.500482",
    "longitude": "-90.11121380024242",
    "latitude": "29.95413109234143",
    "geocoded_column": {
      "latitude": "29.95413109234143",
      "longitude": "-90.11121380024242"
    }
  },
  {
    "service_request": "2024-1074980",
    "request_type": "Roads/Drainage",
    "request_reason": "Street Flooding / Drainage",
    "date_created": "2024-03-12T18:51:20.000",
    "date_modified": "2024-03-12T18:51:20.000",
    "request_status": "Pending",
    "responsible_agency": "Department of Public Works",
    "final_address": "BARRACKS ST & N DORGENOIS ST",
    "address_councildis": "D",
    "status": "Pending",
    "rowid": "1074980",
    "final_x": "3678488.2",
    "final_y": "538385.48",
    "longitude": "-90.07734287629003",
    "latitude": "29.974464518460447",
    "geocoded_column": {
      "latitude": "29.974464518460447",
      "longitude": "-90.07734287629003"
    }
  },
  {
    "service_request": "2024-1074979",
    "request_type": "Traffic Signals/Signs/Striping/Streetlights",
    "request_reason": "Street Light Outage/Malfunction",
    "date_created": "2024-03-12T18:46:10.000",
    "date_modified": "2024-03-12T18:46:11.000",
    "request_status": "Pending",
    "responsible_agency": "Department of Public Works",
    "final_address": "1 Alvar St",
    "address_councildis": "C",
    "status": "Assigned to Contractor",
    "contractor": "Legacy Professional Services",
    "rowid": "1074979",
    "final_x": "3691520.30396",
    "final_y": "535149.698822",
    "longitude": "-90.0363001939289",
    "latitude": "29.965168042095222",
    "geocoded_column": {
      "latitude": "29.965168042095222",
      "longitude": "-90.0363001939289"
    }
  },
  {
    "service_request": "2024-1074977",
    "request_type": "Trash/Recycling",
    "request_reason": "Request a Large Item Pick Up",
    "date_created": "2024-03-12T18:36:22.000",
    "date_modified": "2024-03-12T18:36:23.000",
    "request_status": "Pending",
    "responsible_agency": "Department of Sanitation",
    "final_address": "11211 N Idlewood Ct, New Orleans, Louisiana, 70128",
    "address_councildis": "E",
    "status": "Assigned to Contractor",
    "contractor": "Waste Pro",
    "rowid": "1074977",
    "final_x": "3716025.86207",
    "final_y": "560277.469149",
    "longitude": "-89.9579613954362",
    "latitude": "30.03347420878148",
    "geocoded_column": {
      "latitude": "30.03347420878148",
      "longitude": "-89.9579613954362"
    }
  },
  {
    "service_request": "2024-1074976",
    "request_type": "Trash/Recycling",
    "request_reason": "Illegal Dumping",
    "date_created": "2024-03-12T18:36:00.000",
    "date_modified": "2024-03-12T18:36:00.000",
    "request_status": "Pending",
    "responsible_agency": "Department of Sanitation",
    "final_address": "11000 BLK Curran Rd",
    "address_councildis": "E",
    "status": "Pending",
    "rowid": "1074976",
    "final_x": "3710463.03901",
    "final_y": "566095.700929",
    "longitude": "-89.9753224434146",
    "latitude": "30.04965443966925",
    "geocoded_column": {
      "latitude": "30.04965443966925",
      "longitude": "-89.9753224434146"
    }
  },
  {
    "service_request": "2024-1074975",
    "request_type": "Trash/Recycling",
    "request_reason": "Order Recycling Cart",
    "date_created": "2024-03-12T18:25:10.000",
    "date_modified": "2024-03-12T18:25:10.000",
    "request_status": "Pending",
    "responsible_agency": "Department of Sanitation",
    "final_address": "3023 Somerset Dr",
    "address_councildis": "C",
    "status": "Pending",
    "rowid": "1074975",
    "final_x": "3702541.44593",
    "final_y": "519895.368952",
    "longitude": "-90.00205595529796",
    "latitude": "29.922876384774252",
    "geocoded_column": {
      "latitude": "29.922876384774252",
      "longitude": "-90.00205595529796"
    }
  },
  {
    "service_request": "2024-1074974",
    "request_type": "Health Related Request",
    "request_reason": "Noise Ordinance Complaint",
    "date_created": "2024-03-12T18:22:39.000",
    "date_modified": "2024-03-12T18:22:39.000",
    "request_status": "Pending",
    "responsible_agency": "Health Department",
    "final_address": "2326 Robert St",
    "address_councildis": "B",
    "status": "Pending",
    "rowid": "1074974",
    "final_x": "3668768.91015",
    "final_y": "524152.10502",
    "longitude": "-90.10851933252462",
    "latitude": "29.93561677142102",
    "geocoded_column": {
      "latitude": "29.93561677142102",
      "longitude": "-90.10851933252462"
    }
  },
  {
    "service_request": "2024-1074973",
    "request_type": "Trash/Recycling",
    "request_reason": "Missed Trash Pick-Up",
    "date_created": "2024-03-12T18:18:18.000",
    "date_modified": "2024-03-12T18:18:19.000",
    "request_status": "Pending",
    "responsible_agency": "Department of Sanitation",
    "final_address": "1507 Bodenger Blvd",
    "address_councildis": "C",
    "status": "Assigned to Contractor",
    "contractor": "Richards Disposal",
    "rowid": "1074973",
    "final_x": "3688442.00521",
    "final_y": "526138.509374",
    "longitude": "-90.04634089107428",
    "latitude": "29.940485822708816",
    "geocoded_column": {
      "latitude": "29.940485822708816",
      "longitude": "-90.04634089107428"
    }
  },
  {
    "service_request": "2024-1074972",
    "request_type": "Trash/Recycling",
    "request_reason": "MIssed Recycling Pick-Up",
    "date_created": "2024-03-12T18:15:24.000",
    "date_modified": "2024-03-12T18:15:25.000",
    "request_status": "Pending",
    "responsible_agency": "Department of Sanitation",
    "final_address": "1528 St Philip St",
    "address_councildis": "C",
    "status": "Assigned to Contractor",
    "contractor": "Richards Disposal",
    "rowid": "1074972",
    "final_x": "3680772.24552",
    "final_y": "535182.214022",
    "longitude": "-90.07024083428946",
    "latitude": "29.96558760095176",
    "geocoded_column": {
      "latitude": "29.96558760095176",
      "longitude": "-90.07024083428946"
    }
  },
  {
    "service_request": "2024-1074971",
    "request_type": "Traffic Signals/Signs/Striping/Streetlights",
    "request_reason": "Traffic Sign Missing/Damaged",
    "date_created": "2024-03-12T18:00:36.000",
    "date_modified": "2024-03-12T18:00:36.000",
    "request_status": "Pending",
    "responsible_agency": "Department of Public Works",
    "final_address": "1627 S Liberty St",
    "address_councildis": "B",
    "status": "Pending",
    "rowid": "1074971",
    "final_x": "3676620.7092",
    "final_y": "526501.022526",
    "longitude": "-90.08365022093311",
    "latitude": "29.941842408353324",
    "geocoded_column": {
      "latitude": "29.941842408353324",
      "longitude": "-90.08365022093311"
    }
  },
  {
    "service_request": "2024-1074970",
    "request_type": "Trash/Recycling",
    "request_reason": "Replace Trash Cart",
    "date_created": "2024-03-12T18:00:27.000",
    "date_modified": "2024-03-12T18:00:27.000",
    "request_status": "Pending",
    "responsible_agency": "Department of Sanitation",
    "final_address": "814 Arabella St",
    "address_councildis": "A",
    "status": "Assigned to Contractor",
    "contractor": "Richards Disposal",
    "rowid": "1074970",
    "final_x": "3665815.94938",
    "final_y": "519076.895735",
    "longitude": "-90.11801184033719",
    "latitude": "29.921748013732184",
    "geocoded_column": {
      "latitude": "29.921748013732184",
      "longitude": "-90.11801184033719"
    }
  },
  {
    "service_request": "2024-1074969",
    "request_type": "Trash/Recycling",
    "request_reason": "Replace Trash Cart",
    "date_created": "2024-03-12T17:58:16.000",
    "date_modified": "2024-03-12T17:58:16.000",
    "request_status": "Pending",
    "responsible_agency": "Department of Sanitation",
    "final_address": "1727 General Taylor St",
    "address_councildis": "B",
    "status": "Assigned to Contractor",
    "contractor": "Richards Disposal",
    "rowid": "1074969",
    "final_x": "3672535.44705",
    "final_y": "521652.779321",
    "longitude": "-90.09671346528233",
    "latitude": "29.928633189947366",
    "geocoded_column": {
      "latitude": "29.928633189947366",
      "longitude": "-90.09671346528233"
    }
  },
  {
    "service_request": "2024-1074968",
    "request_type": "Traffic Signals/Signs/Striping/Streetlights",
    "request_reason": "Traffic Sign Missing/Damaged",
    "date_created": "2024-03-12T17:58:08.000",
    "date_modified": "2024-03-12T17:58:08.000",
    "request_status": "Pending",
    "responsible_agency": "Department of Public Works",
    "final_address": "1800 S Liberty St",
    "address_councildis": "B",
    "status": "Pending",
    "rowid": "1074968",
    "final_x": "3676672.05947",
    "final_y": "526320.358654",
    "longitude": "-90.08349431896318",
    "latitude": "29.941344102269568",
    "geocoded_column": {
      "latitude": "29.941344102269568",
      "longitude": "-90.08349431896318"
    }
  },
  {
    "service_request": "2024-1074967",
    "request_type": "Trash/Recycling",
    "request_reason": "Request a Large Item Pick Up",
    "date_created": "2024-03-12T17:52:22.000",
    "date_modified": "2024-03-12T17:52:22.000",
    "request_status": "Pending",
    "responsible_agency": "Department of Sanitation",
    "final_address": "4842 Gabriel Dr",
    "address_councildis": "E",
    "status": "Assigned to Contractor",
    "contractor": "Waste Pro",
    "rowid": "1074967",
    "final_x": "3708759.61144",
    "final_y": "556382.21609",
    "longitude": "-89.98106859726059",
    "latitude": "30.023001607871134",
    "geocoded_column": {
      "latitude": "30.023001607871134",
      "longitude": "-89.98106859726059"
    }
  },
  {
    "service_request": "2024-1074966",
    "request_type": "Roads/Drainage",
    "request_reason": "Accessibility Ramps, Curbs and Sidewalk Repair",
    "date_created": "2024-03-12T17:49:57.000",
    "date_modified": "2024-03-12T17:49:57.000",
    "request_status": "Pending",
    "responsible_agency": "Department of Public Works",
    "final_address": "44 Grand Canyon Dr",
    "address_councildis": "C",
    "status": "Pending",
    "rowid": "1074966",
    "final_x": "3699475.80042",
    "final_y": "516614.764021",
    "longitude": "-90.01185236531828",
    "latitude": "29.913953420389934",
    "geocoded_column": {
      "latitude": "29.913953420389934",
      "longitude": "-90.01185236531828"
    }
  },
  {
    "service_request": "2024-1074965",
    "request_type": "Trash/Recycling",
    "request_reason": "Request a Large Item Pick Up",
    "date_created": "2024-03-12T17:47:32.000",
    "date_modified": "2024-03-12T17:47:33.000",
    "request_status": "Pending",
    "responsible_agency": "Department of Sanitation",
    "final_address": "2536 Eton St",
    "address_councildis": "C",
    "status": "Assigned to Contractor",
    "contractor": "Richards Disposal",
    "rowid": "1074965",
    "final_x": "3704132.47543",
    "final_y": "521816.021306",
    "longitude": "-89.99696302932628",
    "latitude": "29.92810658762805",
    "geocoded_column": {
      "latitude": "29.92810658762805",
      "longitude": "-89.99696302932628"
    }
  },
  {
    "service_request": "2024-1074964",
    "request_type": "Property Maintenance",
    "request_reason": "Property Maintenance",
    "date_created": "2024-03-12T17:41:14.000",
    "date_modified": "2024-03-12T17:41:14.000",
    "request_status": "Pending",
    "responsible_agency": "Department of Code Enforcement",
    "final_address": "1441 France St",
    "address_councildis": "D",
    "status": "Pending",
    "rowid": "1074964",
    "final_x": "3692782.12387",
    "final_y": "536606.685895",
    "longitude": "-90.03226320750355",
    "latitude": "29.969134907879464",
    "geocoded_column": {
      "latitude": "29.969134907879464",
      "longitude": "-90.03226320750355"
    }
  },
  {
    "service_request": "2024-1074963",
    "request_type": "Trash/Recycling",
    "request_reason": "Request a Large Item Pick Up",
    "date_created": "2024-03-12T17:40:03.000",
    "date_modified": "2024-03-12T17:40:04.000",
    "request_status": "Pending",
    "responsible_agency": "Department of Sanitation",
    "final_address": "4715 Mark Twain Dr",
    "address_councildis": "D",
    "status": "Assigned to Contractor",
    "contractor": "IV Waste",
    "rowid": "1074963",
    "final_x": "3691475.63472",
    "final_y": "551308.107989",
    "longitude": "-90.03586345865129",
    "latitude": "30.00959923637887",
    "geocoded_column": {
      "latitude": "30.00959923637887",
      "longitude": "-90.03586345865129"
    }
  },
  {
    "service_request": "2024-1074962",
    "request_type": "Trash/Recycling",
    "request_reason": "Missed Trash Pick-Up",
    "date_created": "2024-03-12T17:38:36.000",
    "date_modified": "2024-03-12T17:38:37.000",
    "request_status": "Pending",
    "responsible_agency": "Department of Sanitation",
    "final_address": "4715 Mark Twain Dr",
    "address_councildis": "D",
    "status": "Assigned to Contractor",
    "contractor": "IV Waste",
    "rowid": "1074962",
    "final_x": "3691475.63472",
    "final_y": "551308.107989",
    "longitude": "-90.03586345865129",
    "latitude": "30.00959923637887",
    "geocoded_column": {
      "latitude": "30.00959923637887",
      "longitude": "-90.03586345865129"
    }
  },
  {
    "service_request": "2024-1074961",
    "request_type": "Trash/Recycling",
    "request_reason": "Missed Trash Pick-Up",
    "date_created": "2024-03-12T17:38:20.000",
    "date_modified": "2024-03-12T17:38:21.000",
    "request_status": "Pending",
    "responsible_agency": "Department of Sanitation",
    "final_address": "3702 Carondelet St",
    "address_councildis": "B",
    "status": "Assigned to Contractor",
    "contractor": "Richards Disposal",
    "rowid": "1074961",
    "final_x": "3672976.98356",
    "final_y": "521480.509625",
    "longitude": "-90.09532550018668",
    "latitude": "29.928146393685758",
    "geocoded_column": {
      "latitude": "29.928146393685758",
      "longitude": "-90.09532550018668"
    }
  },
  {
    "service_request": "2024-1074960",
    "request_type": "Trash/Recycling",
    "request_reason": "Replace Trash Cart",
    "date_created": "2024-03-12T17:37:29.000",
    "date_modified": "2024-03-12T17:37:30.000",
    "request_status": "Pending",
    "responsible_agency": "Department of Sanitation",
    "final_address": "4715 Mark Twain Dr",
    "address_councildis": "D",
    "status": "Assigned to Contractor",
    "contractor": "IV Waste",
    "rowid": "1074960",
    "final_x": "3691475.63472",
    "final_y": "551308.107989",
    "longitude": "-90.03586345865129",
    "latitude": "30.00959923637887",
    "geocoded_column": {
      "latitude": "30.00959923637887",
      "longitude": "-90.03586345865129"
    }
  },
  {
    "service_request": "2024-1074959",
    "request_type": "Trash/Recycling",
    "request_reason": "MIssed Recycling Pick-Up",
    "date_created": "2024-03-12T17:37:01.000",
    "date_modified": "2024-03-12T17:37:01.000",
    "request_status": "Pending",
    "responsible_agency": "Department of Sanitation",
    "final_address": "45 Allard Blvd",
    "address_councildis": "A",
    "status": "Assigned to Contractor",
    "contractor": "Richards Disposal",
    "rowid": "1074959",
    "final_x": "3672795.25339",
    "final_y": "540897.385291",
    "longitude": "-90.09523688434224",
    "latitude": "29.981541758322457",
    "geocoded_column": {
      "latitude": "29.981541758322457",
      "longitude": "-90.09523688434224"
    }
  },
  {
    "service_request": "2024-1074958",
    "request_type": "Property Maintenance",
    "request_reason": "Property Maintenance",
    "date_created": "2024-03-12T17:36:23.000",
    "date_modified": "2024-03-12T17:36:23.000",
    "request_status": "Pending",
    "responsible_agency": "Department of Code Enforcement",
    "final_address": "1441 France St",
    "address_councildis": "D",
    "status": "Pending",
    "rowid": "1074958",
    "final_x": "3692782.12387",
    "final_y": "536606.685895",
    "longitude": "-90.03226320750355",
    "latitude": "29.969134907879464",
    "geocoded_column": {
      "latitude": "29.969134907879464",
      "longitude": "-90.03226320750355"
    }
  },
  {
    "service_request": "2024-1074957",
    "request_type": "Trash/Recycling",
    "request_reason": "MIssed Recycling Pick-Up",
    "date_created": "2024-03-12T17:35:43.000",
    "date_modified": "2024-03-12T17:35:44.000",
    "request_status": "Pending",
    "responsible_agency": "Department of Sanitation",
    "final_address": "134 N Alexander St",
    "address_councildis": "A",
    "status": "Assigned to Contractor",
    "contractor": "Richards Disposal",
    "rowid": "1074957",
    "final_x": "3670253.93831",
    "final_y": "539432.27457",
    "longitude": "-90.10331323336244",
    "latitude": "29.97758845966334",
    "geocoded_column": {
      "latitude": "29.97758845966334",
      "longitude": "-90.10331323336244"
    }
  },
  {
    "service_request": "2024-1074956",
    "request_type": "Trash/Recycling",
    "request_reason": "Replace Trash Cart",
    "date_created": "2024-03-12T17:34:22.000",
    "date_modified": "2024-03-12T17:34:23.000",
    "request_status": "Pending",
    "responsible_agency": "Department of Sanitation",
    "final_address": "1723 Valmont St",
    "address_councildis": "B",
    "status": "Assigned to Contractor",
    "contractor": "Richards Disposal",
    "rowid": "1074956",
    "final_x": "3668011.35137",
    "final_y": "522014.812282",
    "longitude": "-90.11098294200377",
    "latitude": "29.929762143521685",
    "geocoded_column": {
      "latitude": "29.929762143521685",
      "longitude": "-90.11098294200377"
    }
  },
  {
    "service_request": "2024-1074955",
    "request_type": "Trash/Recycling",
    "request_reason": "Replace Trash Cart",
    "date_created": "2024-03-12T17:20:04.000",
    "date_modified": "2024-03-12T17:20:05.000",
    "request_status": "Pending",
    "responsible_agency": "Department of Sanitation",
    "final_address": "200 BLK S Saint Patrick St",
    "address_councildis": "A",
    "status": "Assigned to Contractor",
    "contractor": "Richards Disposal",
    "rowid": "1074955",
    "final_x": "3668751.37736",
    "final_y": "539359.724546",
    "longitude": "-90.10806129539976",
    "latitude": "29.9774332365208",
    "geocoded_column": {
      "latitude": "29.9774332365208",
      "longitude": "-90.10806129539976"
    }
  },
  {
    "service_request": "2024-1074954",
    "request_type": "Trash/Recycling",
    "request_reason": "Request a Large Item Pick Up",
    "date_created": "2024-03-12T17:18:26.000",
    "date_modified": "2024-03-12T17:18:27.000",
    "request_status": "Pending",
    "responsible_agency": "Department of Sanitation",
    "final_address": "3628 Somerset Dr",
    "address_councildis": "C",
    "status": "Assigned to Contractor",
    "contractor": "Richards Disposal",
    "rowid": "1074954",
    "final_x": "3702525.9834",
    "final_y": "517246.335925",
    "longitude": "-90.00220190535892",
    "latitude": "29.91559294860735",
    "geocoded_column": {
      "latitude": "29.91559294860735",
      "longitude": "-90.00220190535892"
    }
  },
  {
    "service_request": "2024-1074953",
    "request_type": "Abandoned Vehicles",
    "request_reason": "Abandoned/Junk Vehicles",
    "date_created": "2024-03-12T17:15:16.000",
    "date_modified": "2024-03-12T17:15:16.000",
    "request_status": "Pending",
    "responsible_agency": "Department of Public Works",
    "final_address": "919 Cadiz St",
    "address_councildis": "B",
    "status": "Pending",
    "rowid": "1074953",
    "final_x": "3670329.6779",
    "final_y": "518884.975223",
    "longitude": "-90.103770392142",
    "latitude": "29.921087882645825",
    "geocoded_column": {
      "latitude": "29.921087882645825",
      "longitude": "-90.103770392142"
    }
  },
  {
    "service_request": "2024-1074952",
    "request_type": "Trash/Recycling",
    "request_reason": "Illegal Dumping",
    "date_created": "2024-03-12T17:08:58.000",
    "date_modified": "2024-03-12T17:08:58.000",
    "request_status": "Pending",
    "responsible_agency": "Department of Sanitation",
    "final_address": "8912 Edinburgh St",
    "address_councildis": "A",
    "status": "Pending",
    "rowid": "1074952",
    "final_x": "3665275.62605",
    "final_y": "536398.530695",
    "longitude": "-90.11913802888331",
    "latitude": "29.969392677526614",
    "geocoded_column": {
      "latitude": "29.969392677526614",
      "longitude": "-90.11913802888331"
    }
  },
  {
    "service_request": "2024-1074951",
    "request_type": "Roads/Drainage",
    "request_reason": "Catch Basin - Clogged",
    "date_created": "2024-03-12T17:04:07.000",
    "date_modified": "2024-03-12T17:04:07.000",
    "request_status": "Pending",
    "responsible_agency": "Department of Public Works",
    "final_address": "3801 St Charles Ave",
    "address_councildis": "B",
    "status": "Pending",
    "rowid": "1074951",
    "final_x": "3672810.5954",
    "final_y": "521145.010809",
    "longitude": "-90.09586218902811",
    "latitude": "29.927228821917506",
    "geocoded_column": {
      "latitude": "29.927228821917506",
      "longitude": "-90.09586218902811"
    }
  },
  {
    "service_request": "2024-1074950",
    "request_type": "Roads/Drainage",
    "request_reason": "Catch Basin - Clogged",
    "date_created": "2024-03-12T17:01:42.000",
    "date_modified": "2024-03-12T17:01:42.000",
    "request_status": "Pending",
    "responsible_agency": "Department of Public Works",
    "final_address": "8140 Freret St",
    "address_councildis": "A",
    "status": "Pending",
    "rowid": "1074950",
    "final_x": "3661243.66598",
    "final_y": "528030.524095",
    "longitude": "-90.13214838111907",
    "latitude": "29.946500229678588",
    "geocoded_column": {
      "latitude": "29.946500229678588",
      "longitude": "-90.13214838111907"
    }
  },
  {
    "service_request": "2024-1074949",
    "request_type": "Abandoned Vehicles",
    "request_reason": "Abandoned/Junk Vehicles",
    "date_created": "2024-03-12T16:58:53.000",
    "date_modified": "2024-03-12T16:58:53.000",
    "request_status": "Pending",
    "responsible_agency": "Department of Public Works",
    "final_address": "3326 Somerset Dr",
    "address_councildis": "C",
    "status": "Pending",
    "rowid": "1074949",
    "final_x": "3702596.62257",
    "final_y": "519003.356279",
    "longitude": "-90.00191450311469",
    "latitude": "29.92042189457661",
    "geocoded_column": {
      "latitude": "29.92042189457661",
      "longitude": "-90.00191450311469"
    }
  },
  {
    "service_request": "2024-1074948",
    "request_type": "Parks & Parkways",
    "request_reason": "Request Tree Service (Right of Way/Public Property)",
    "date_created": "2024-03-12T16:58:26.000",
    "date_modified": "2024-03-12T16:58:27.000",
    "request_status": "Pending",
    "responsible_agency": "Department of Parks & Parkway",
    "final_address": "3560 Rue Colette",
    "address_councildis": "C",
    "status": "Pending",
    "rowid": "1074948",
    "final_x": "3704587.35927",
    "final_y": "517324.702325",
    "longitude": "-89.9956925881836",
    "latitude": "29.915742421506817",
    "geocoded_column": {
      "latitude": "29.915742421506817",
      "longitude": "-89.9956925881836"
    }
  },
  {
    "service_request": "2024-1074947",
    "request_type": "Trash/Recycling",
    "request_reason": "Illegal Dumping",
    "date_created": "2024-03-12T16:57:37.000",
    "date_modified": "2024-03-12T16:57:38.000",
    "request_status": "Pending",
    "responsible_agency": "Department of Sanitation",
    "final_address": "VESPASIAN ST & WALL BLVD",
    "address_councildis": "C",
    "status": "Pending",
    "rowid": "1074947",
    "final_x": "3693787.3",
    "final_y": "523092.38",
    "longitude": "-90.02957441415647",
    "latitude": "29.931943843780935",
    "geocoded_column": {
      "latitude": "29.931943843780935",
      "longitude": "-90.02957441415647"
    }
  },
  {
    "service_request": "2024-1074946",
    "request_type": "Roads/Drainage",
    "request_reason": "Catch Basin - Clogged",
    "date_created": "2024-03-12T16:56:33.000",
    "date_modified": "2024-03-12T16:56:33.000",
    "request_status": "Pending",
    "responsible_agency": "Department of Public Works",
    "final_address": "8140 Freret St",
    "address_councildis": "A",
    "status": "Pending",
    "rowid": "1074946",
    "final_x": "3661243.66598",
    "final_y": "528030.524095",
    "longitude": "-90.13214838111907",
    "latitude": "29.946500229678588",
    "geocoded_column": {
      "latitude": "29.946500229678588",
      "longitude": "-90.13214838111907"
    }
  },
  {
    "service_request": "2024-1074945",
    "request_type": "Trash/Recycling",
    "request_reason": "Missed Trash Pick-Up",
    "date_created": "2024-03-12T16:49:52.000",
    "date_modified": "2024-03-12T17:03:09.000",
    "case_close_date": "2024-03-12T12:03:09.000",
    "request_status": "Closed",
    "responsible_agency": "Department of Sanitation",
    "final_address": "6300 BLK Orleans Ave",
    "address_councildis": "A",
    "status": "Assigned to Contractor",
    "contractor": "IV Waste",
    "contractor_action": "Invalid Pick-Up",
    "rowid": "1074945",
    "final_x": "3671104.06163",
    "final_y": "549466.998295",
    "longitude": "-90.10028719791876",
    "latitude": "30.005155369773494",
    "geocoded_column": {
      "latitude": "30.005155369773494",
      "longitude": "-90.10028719791876"
    }
  },
  {
    "service_request": "2024-1074944",
    "request_type": "Roads/Drainage",
    "request_reason": "Street Flooding / Drainage",
    "date_created": "2024-03-12T16:49:47.000",
    "date_modified": "2024-03-12T16:49:47.000",
    "request_status": "Pending",
    "responsible_agency": "Department of Public Works",
    "final_address": "6744 Cindy Pl",
    "address_councildis": "E",
    "status": "Pending",
    "rowid": "1074944",
    "final_x": "3707101.4602",
    "final_y": "558820.1119",
    "longitude": "-89.98621737697741",
    "latitude": "30.02975857167119",
    "geocoded_column": {
      "latitude": "30.02975857167119",
      "longitude": "-89.98621737697741"
    }
  },
  {
    "service_request": "2024-1074943",
    "request_type": "Roads/Drainage",
    "request_reason": "Catch Basin - Broken/Damage",
    "date_created": "2024-03-12T16:49:01.000",
    "date_modified": "2024-03-12T16:49:02.000",
    "request_status": "Pending",
    "responsible_agency": "Department of Public Works",
    "final_address": "1030 St Anthony St",
    "address_councildis": "C",
    "status": "Pending",
    "rowid": "1074943",
    "final_x": "3683527.48393",
    "final_y": "535711.709383",
    "longitude": "-90.06152135556526",
    "latitude": "29.966959730907476",
    "geocoded_column": {
      "latitude": "29.966959730907476",
      "longitude": "-90.06152135556526"
    }
  },
  {
    "service_request": "2024-1074941",
    "request_type": "Abandoned Vehicles",
    "request_reason": "Abandoned/Junk Vehicles",
    "date_created": "2024-03-12T16:48:01.000",
    "date_modified": "2024-03-12T16:48:01.000",
    "request_status": "Pending",
    "responsible_agency": "Department of Public Works",
    "final_address": "TOLEDANO ST & LA SALLE ST",
    "address_councildis": "B",
    "status": "Pending",
    "rowid": "1074941",
    "final_x": "3673441.5",
    "final_y": "524309.68",
    "longitude": "-90.09376250764169",
    "latitude": "29.93591188831088",
    "geocoded_column": {
      "latitude": "29.93591188831088",
      "longitude": "-90.09376250764169"
    }
  },
  {
    "service_request": "2024-1074940",
    "request_type": "Trash/Recycling",
    "request_reason": "Request a Large Item Pick Up",
    "date_created": "2024-03-12T16:45:58.000",
    "date_modified": "2024-03-12T16:45:59.000",
    "request_status": "Pending",
    "responsible_agency": "Department of Sanitation",
    "final_address": "6318 Brunswick Ct",
    "address_councildis": "C",
    "status": "Assigned to Contractor",
    "contractor": "Richards Disposal",
    "rowid": "1074940",
    "final_x": "3707390.31012",
    "final_y": "517085.409845",
    "longitude": "-89.98685435652114",
    "latitude": "29.914994179793027",
    "geocoded_column": {
      "latitude": "29.914994179793027",
      "longitude": "-89.98685435652114"
    }
  },
  {
    "service_request": "2024-1074939",
    "request_type": "Trash/Recycling",
    "request_reason": "Missed Trash Pick-Up",
    "date_created": "2024-03-12T16:45:55.000",
    "date_modified": "2024-03-12T17:04:35.000",
    "case_close_date": "2024-03-12T12:04:35.000",
    "request_status": "Closed",
    "responsible_agency": "Department of Sanitation",
    "final_address": "6370 Orleans Ave",
    "address_councildis": "A",
    "status": "Assigned to Contractor",
    "contractor": "IV Waste",
    "contractor_action": "Completed",
    "rowid": "1074939",
    "final_x": "3671072.16385",
    "final_y": "549655.172692",
    "longitude": "-90.10038157323031",
    "latitude": "30.005673727171864",
    "geocoded_column": {
      "latitude": "30.005673727171864",
      "longitude": "-90.10038157323031"
    }
  },
  {
    "service_request": "2024-1074938",
    "request_type": "Roads/Drainage",
    "request_reason": "Alley Way",
    "date_created": "2024-03-12T16:43:26.000",
    "date_modified": "2024-03-12T16:43:26.000",
    "request_status": "Pending",
    "responsible_agency": "Department of Public Works",
    "final_address": "622 PirateS Aly",
    "address_councildis": "C",
    "status": "Pending",
    "rowid": "1074938",
    "final_x": "3682736.74882",
    "final_y": "532445.114627",
    "longitude": "-90.06413276163453",
    "latitude": "29.958001824335554",
    "geocoded_column": {
      "latitude": "29.958001824335554",
      "longitude": "-90.06413276163453"
    }
  },
  {
    "service_request": "2024-1074937",
    "request_type": "Trash/Recycling",
    "request_reason": "Request a Large Item Pick Up",
    "date_created": "2024-03-12T16:42:42.000",
    "date_modified": "2024-03-12T16:42:43.000",
    "request_status": "Pending",
    "responsible_agency": "Department of Sanitation",
    "final_address": "4859 Lurline St",
    "address_councildis": "E",
    "status": "Assigned to Contractor",
    "contractor": "Waste Pro",
    "rowid": "1074937",
    "final_x": "3711978.34674",
    "final_y": "556810.744218",
    "longitude": "-89.970882115412",
    "latitude": "30.02407505165901",
    "geocoded_column": {
      "latitude": "30.02407505165901",
      "longitude": "-89.970882115412"
    }
  },
  {
    "service_request": "2024-1074936",
    "request_type": "Trash/Recycling",
    "request_reason": "Order Trash Cart",
    "date_created": "2024-03-12T16:40:06.000",
    "date_modified": "2024-03-12T16:40:07.000",
    "request_status": "Pending",
    "responsible_agency": "Department of Sanitation",
    "final_address": "1725 St Andrew St B",
    "address_councildis": "B",
    "status": "Assigned to Contractor",
    "contractor": "Richards Disposal",
    "rowid": "1074936",
    "final_x": "3677754.78165",
    "final_y": "524795.476028",
    "longitude": "-90.08012860991803",
    "latitude": "29.937118660233775",
    "geocoded_column": {
      "latitude": "29.937118660233775",
      "longitude": "-90.08012860991803"
    }
  },
  {
    "service_request": "2024-1074935",
    "request_type": "Traffic Signals/Signs/Striping/Streetlights",
    "request_reason": "Street Light Outage/Malfunction",
    "date_created": "2024-03-12T16:39:23.000",
    "date_modified": "2024-03-12T16:40:51.000",
    "request_status": "Pending",
    "responsible_agency": "Department of Public Works",
    "final_address": "CABILDO ALY & PIRATES ALY",
    "address_councildis": "C",
    "status": "Assigned to Contractor",
    "contractor": "Legacy Professional Services",
    "rowid": "1074935",
    "final_x": "3682757.78",
    "final_y": "532450.58",
    "longitude": "-90.06406615997433",
    "latitude": "29.958016211686434",
    "geocoded_column": {
      "latitude": "29.958016211686434",
      "longitude": "-90.06406615997433"
    }
  },
  {
    "service_request": "2024-1074934",
    "request_type": "Trash/Recycling",
    "request_reason": "Missed Trash Pick-Up",
    "date_created": "2024-03-12T16:31:45.000",
    "date_modified": "2024-03-12T16:31:45.000",
    "request_status": "Pending",
    "responsible_agency": "Department of Sanitation",
    "final_address": "2540 Esplanade Ave, New Orleans, Louisiana, 70119",
    "address_councildis": "D",
    "status": "Assigned to Contractor",
    "contractor": "Richards Disposal",
    "rowid": "1074934",
    "final_x": "3678320.94197",
    "final_y": "538729.288009",
    "longitude": "-90.0778592202657",
    "latitude": "29.975414912265574",
    "geocoded_column": {
      "latitude": "29.975414912265574",
      "longitude": "-90.0778592202657"
    }
  },
  {
    "service_request": "2024-1074933",
    "request_type": "Trash/Recycling",
    "request_reason": "Missed Trash Pick-Up",
    "date_created": "2024-03-12T16:31:30.000",
    "date_modified": "2024-03-12T16:31:31.000",
    "request_status": "Pending",
    "responsible_agency": "Department of Sanitation",
    "final_address": "7354 Means Ave",
    "address_councildis": "E",
    "status": "Assigned to Contractor",
    "contractor": "Waste Pro",
    "rowid": "1074933",
    "final_x": "3708445.92907",
    "final_y": "563966.755681",
    "longitude": "-89.98177707503667",
    "latitude": "30.04386627204719",
    "geocoded_column": {
      "latitude": "30.04386627204719",
      "longitude": "-89.98177707503667"
    }
  },
  {
    "service_request": "2024-1074932",
    "request_type": "Trash/Recycling",
    "request_reason": "Missed Trash Pick-Up",
    "date_created": "2024-03-12T16:31:04.000",
    "date_modified": "2024-03-12T16:31:05.000",
    "request_status": "Pending",
    "responsible_agency": "Department of Sanitation",
    "final_address": "1300 N Broad St, New Orleans, Louisiana, 70119",
    "address_councildis": "D",
    "status": "Assigned to Contractor",
    "contractor": "Richards Disposal",
    "rowid": "1074932",
    "final_x": "3678119.03803",
    "final_y": "538717.037385",
    "longitude": "-90.07849731140278",
    "latitude": "29.975387308563494",
    "geocoded_column": {
      "latitude": "29.975387308563494",
      "longitude": "-90.07849731140278"
    }
  },
  {
    "service_request": "2024-1074931",
    "request_type": "Trash/Recycling",
    "request_reason": "Order Recycling Cart",
    "date_created": "2024-03-12T16:29:39.000",
    "date_modified": "2024-03-12T16:29:39.000",
    "request_status": "Pending",
    "responsible_agency": "Department of Sanitation",
    "final_address": "2225 Mandeville St",
    "address_councildis": "D",
    "status": "Pending",
    "rowid": "1074931",
    "final_x": "3685474.567",
    "final_y": "540624.547659",
    "longitude": "-90.05519941379757",
    "latitude": "29.98040875135475",
    "geocoded_column": {
      "latitude": "29.98040875135475",
      "longitude": "-90.05519941379757"
    }
  },
  {
    "service_request": "2024-1074929",
    "request_type": "Roads/Drainage",
    "request_reason": "Accessibility Ramps, Curbs and Sidewalk Repair",
    "date_created": "2024-03-12T16:29:15.000",
    "date_modified": "2024-03-12T16:29:15.000",
    "request_status": "Pending",
    "responsible_agency": "Department of Public Works",
    "final_address": "4232 Cadiz St",
    "address_councildis": "B",
    "status": "Pending",
    "rowid": "1074929",
    "final_x": "3669169.56878",
    "final_y": "528664.13536",
    "longitude": "-90.10710200579089",
    "latitude": "29.948011611842137",
    "geocoded_column": {
      "latitude": "29.948011611842137",
      "longitude": "-90.10710200579089"
    }
  },
  {
    "service_request": "2024-1074930",
    "request_type": "Abandoned Vehicles",
    "request_reason": "Abandoned/Junk Vehicles",
    "date_created": "2024-03-12T16:29:15.000",
    "date_modified": "2024-03-12T16:29:15.000",
    "request_status": "Pending",
    "responsible_agency": "Department of Public Works",
    "final_address": "510 Wallace Dr",
    "address_councildis": "D",
    "status": "Pending",
    "rowid": "1074930",
    "final_x": "3681413.48623",
    "final_y": "548664.513363",
    "longitude": "-90.06774556320632",
    "latitude": "30.0026397486523",
    "geocoded_column": {
      "latitude": "30.0026397486523",
      "longitude": "-90.06774556320632"
    }
  },
  {
    "service_request": "2024-1074928",
    "request_type": "Trash/Recycling",
    "request_reason": "Return Trash Cart",
    "date_created": "2024-03-12T16:26:43.000",
    "date_modified": "2024-03-12T16:26:44.000",
    "request_status": "Pending",
    "responsible_agency": "Department of Sanitation",
    "final_address": "8011 Vanderkloot Ave",
    "address_councildis": "E",
    "status": "Assigned to Contractor",
    "contractor": "Waste Pro",
    "rowid": "1074928",
    "final_x": "3705370.39735",
    "final_y": "564353.660129",
    "longitude": "-89.99148270482665",
    "latitude": "30.045029494568112",
    "geocoded_column": {
      "latitude": "30.045029494568112",
      "longitude": "-89.99148270482665"
    }
  },
  {
    "service_request": "2024-1074927",
    "request_type": "Roads/Drainage",
    "request_reason": "Catch Basin - Clogged",
    "date_created": "2024-03-12T16:25:43.000",
    "date_modified": "2024-03-12T16:25:43.000",
    "request_status": "Pending",
    "responsible_agency": "Department of Public Works",
    "final_address": "2400 BLK Gravier St",
    "address_councildis": "B",
    "status": "Pending",
    "rowid": "1074927",
    "final_x": "3675063.42247",
    "final_y": "532801.581822",
    "longitude": "-90.0883507717693",
    "latitude": "29.95921346445692",
    "geocoded_column": {
      "latitude": "29.95921346445692",
      "longitude": "-90.0883507717693"
    }
  },
  {
    "service_request": "2024-1074926",
    "request_type": "Property Maintenance",
    "request_reason": "Property Maintenance",
    "date_created": "2024-03-12T16:25:12.000",
    "date_modified": "2024-03-12T16:49:40.000",
    "case_close_date": "2024-03-12T11:49:40.000",
    "request_status": "Closed",
    "responsible_agency": "Department of Code Enforcement",
    "final_address": "4568 Laine Ave",
    "address_councildis": "E",
    "status": "Resolved",
    "rowid": "1074926",
    "final_x": "3705738.45931",
    "final_y": "554317.086552",
    "longitude": "-89.99069114680827",
    "latitude": "30.017420989602584",
    "geocoded_column": {
      "latitude": "30.017420989602584",
      "longitude": "-89.99069114680827"
    }
  },
  {
    "service_request": "2024-1074925",
    "request_type": "Trash/Recycling",
    "request_reason": "Repair Trash Cart",
    "date_created": "2024-03-12T16:24:41.000",
    "date_modified": "2024-03-12T16:24:42.000",
    "request_status": "Pending",
    "responsible_agency": "Department of Sanitation",
    "final_address": "928 N Gayoso St",
    "address_councildis": "A",
    "status": "Assigned to Contractor",
    "contractor": "Richards Disposal",
    "rowid": "1074925",
    "final_x": "3676332.98248",
    "final_y": "538419.354249",
    "longitude": "-90.08414841050549",
    "latitude": "29.974622442886385",
    "geocoded_column": {
      "latitude": "29.974622442886385",
      "longitude": "-90.08414841050549"
    }
  },
  {
    "service_request": "2024-1074924",
    "request_type": "Trash/Recycling",
    "request_reason": "Order Trash Cart",
    "date_created": "2024-03-12T16:24:13.000",
    "date_modified": "2024-03-12T16:24:14.000",
    "request_status": "Pending",
    "responsible_agency": "Department of Sanitation",
    "final_address": "14505 Duane Rd",
    "address_councildis": "E",
    "status": "Assigned to Contractor",
    "contractor": "Waste Pro",
    "rowid": "1074924",
    "final_x": "3720403.14374",
    "final_y": "573182.071785",
    "longitude": "-89.94363430423095",
    "latitude": "30.068811331200987",
    "geocoded_column": {
      "latitude": "30.068811331200987",
      "longitude": "-89.94363430423095"
    }
  },
  {
    "service_request": "2024-1074923",
    "request_type": "Trash/Recycling",
    "request_reason": "Missed Trash Pick-Up",
    "date_created": "2024-03-12T16:21:25.000",
    "date_modified": "2024-03-12T16:21:25.000",
    "request_status": "Pending",
    "responsible_agency": "Department of Sanitation",
    "final_address": "7126 Chef Menteur Hwy",
    "address_councildis": "E",
    "status": "Assigned to Contractor",
    "contractor": "Waste Pro",
    "rowid": "1074923",
    "final_x": "3701262.59754",
    "final_y": "552063.26735",
    "longitude": "-90.00491554329656",
    "latitude": "30.01136729131207",
    "geocoded_column": {
      "latitude": "30.01136729131207",
      "longitude": "-90.00491554329656"
    }
  },
  {
    "service_request": "2024-1074922",
    "request_type": "Traffic Signals/Signs/Striping/Streetlights",
    "request_reason": "Traffic Signal Malfunctioning/Damaged",
    "date_created": "2024-03-12T16:20:11.000",
    "date_modified": "2024-03-12T16:20:11.000",
    "request_status": "Pending",
    "responsible_agency": "Department of Public Works",
    "final_address": "EARHART BLVD & MAGNOLIA ST",
    "address_councildis": "B",
    "status": "Pending",
    "rowid": "1074922",
    "final_x": "3676590.5",
    "final_y": "528721.38",
    "longitude": "-90.08366914458753",
    "latitude": "29.947948562397546",
    "geocoded_column": {
      "latitude": "29.947948562397546",
      "longitude": "-90.08366914458753"
    }
  },
  {
    "service_request": "2024-1074921",
    "request_type": "Trash/Recycling",
    "request_reason": "Order Recycling Cart",
    "date_created": "2024-03-12T16:19:07.000",
    "date_modified": "2024-03-12T16:19:07.000",
    "request_status": "Pending",
    "responsible_agency": "Department of Sanitation",
    "final_address": "1511 Holiday Pl",
    "address_councildis": "C",
    "status": "Pending",
    "rowid": "1074921",
    "final_x": "3698896.66487",
    "final_y": "525496.962109",
    "longitude": "-90.01335733876289",
    "latitude": "29.93839477029175",
    "geocoded_column": {
      "latitude": "29.93839477029175",
      "longitude": "-90.01335733876289"
    }
  },
  {
    "service_request": "2024-1074920",
    "request_type": "Trash/Recycling",
    "request_reason": "Request a Large Item Pick Up",
    "date_created": "2024-03-12T16:18:46.000",
    "date_modified": "2024-03-12T16:18:47.000",
    "request_status": "Pending",
    "responsible_agency": "Department of Sanitation",
    "final_address": "8801 Forshey St",
    "address_councildis": "A",
    "status": "Assigned to Contractor",
    "contractor": "Richards Disposal",
    "rowid": "1074920",
    "final_x": "3665162.45453",
    "final_y": "535647.51879",
    "longitude": "-90.11952055959061",
    "latitude": "29.967330940121567",
    "geocoded_column": {
      "latitude": "29.967330940121567",
      "longitude": "-90.11952055959061"
    }
  },
  {
    "service_request": "2024-1074919",
    "request_type": "Trash/Recycling",
    "request_reason": "Order Trash Cart",
    "date_created": "2024-03-12T16:17:49.000",
    "date_modified": "2024-03-12T16:17:49.000",
    "request_status": "Pending",
    "responsible_agency": "Department of Sanitation",
    "final_address": "3900 BLK Louisiana Avenue Pkwy",
    "address_councildis": "B",
    "status": "Assigned to Contractor",
    "contractor": "Richards Disposal",
    "rowid": "1074919",
    "final_x": "3671108.30637",
    "final_y": "529305.107188",
    "longitude": "-90.10095884838921",
    "latitude": "29.949716882818805",
    "geocoded_column": {
      "latitude": "29.949716882818805",
      "longitude": "-90.10095884838921"
    }
  },
  {
    "service_request": "2024-1074918",
    "request_type": "Abandoned Vehicles",
    "request_reason": "Abandoned/Junk Vehicles",
    "date_created": "2024-03-12T16:17:32.000",
    "date_modified": "2024-03-12T16:17:32.000",
    "request_status": "Pending",
    "responsible_agency": "Department of Public Works",
    "final_address": "142 S Dupre St",
    "address_councildis": "B",
    "status": "Pending",
    "rowid": "1074918",
    "final_x": "3674427.33384",
    "final_y": "535320.064582",
    "longitude": "-90.09027311310578",
    "latitude": "29.966157434126377",
    "geocoded_column": {
      "latitude": "29.966157434126377",
      "longitude": "-90.09027311310578"
    }
  },
  {
    "service_request": "2024-1074917",
    "request_type": "Trash/Recycling",
    "request_reason": "Request a Large Item Pick Up",
    "date_created": "2024-03-12T16:17:05.000",
    "date_modified": "2024-03-12T16:17:06.000",
    "request_status": "Pending",
    "responsible_agency": "Department of Sanitation",
    "final_address": "4777 Sherwood Dr",
    "address_councildis": "E",
    "status": "Assigned to Contractor",
    "contractor": "Waste Pro",
    "rowid": "1074917",
    "final_x": "3718054.77657",
    "final_y": "557114.948378",
    "longitude": "-89.95167039002837",
    "latitude": "30.02471142799496",
    "geocoded_column": {
      "latitude": "30.02471142799496",
      "longitude": "-89.95167039002837"
    }
  },
  {
    "service_request": "2024-1074916",
    "request_type": "Trash/Recycling",
    "request_reason": "Order Recycling Cart",
    "date_created": "2024-03-12T16:15:58.000",
    "date_modified": "2024-03-12T16:15:59.000",
    "request_status": "Pending",
    "responsible_agency": "Department of Sanitation",
    "final_address": "820 N Dupre St",
    "address_councildis": "A",
    "status": "Pending",
    "rowid": "1074916",
    "final_x": "3676334.69461",
    "final_y": "537876.044617",
    "longitude": "-90.08416170962262",
    "latitude": "29.97312847587101",
    "geocoded_column": {
      "latitude": "29.97312847587101",
      "longitude": "-90.08416170962262"
    }
  },
  {
    "service_request": "2024-1074915",
    "request_type": "Trash/Recycling",
    "request_reason": "Illegal Dumping",
    "date_created": "2024-03-12T16:14:19.000",
    "date_modified": "2024-03-12T16:14:19.000",
    "request_status": "Pending",
    "responsible_agency": "Department of Sanitation",
    "final_address": "8502 Hayne Blvd",
    "address_councildis": "E",
    "status": "Pending",
    "rowid": "1074915",
    "final_x": "3703262.60836",
    "final_y": "563464.379168",
    "longitude": "-89.99817701910673",
    "latitude": "30.042652024964585",
    "geocoded_column": {
      "latitude": "30.042652024964585",
      "longitude": "-89.99817701910673"
    }
  },
  {
    "service_request": "2024-1074914",
    "request_type": "Traffic Signals/Signs/Striping/Streetlights",
    "request_reason": "Street Light Outage/Malfunction",
    "date_created": "2024-03-12T16:09:15.000",
    "date_modified": "2024-03-12T16:09:16.000",
    "request_status": "Pending",
    "responsible_agency": "Department of Public Works",
    "final_address": "ZENO PL & MELVIN PL",
    "address_councildis": "E",
    "status": "Assigned to Contractor",
    "contractor": "Legacy Professional Services",
    "rowid": "1074914",
    "final_x": "3718211.5",
    "final_y": "561806.23",
    "longitude": "-89.95099634529092",
    "latitude": "30.037605366306323",
    "geocoded_column": {
      "latitude": "30.037605366306323",
      "longitude": "-89.95099634529092"
    }
  },
  {
    "service_request": "2024-1074912",
    "request_type": "Abandoned Vehicles",
    "request_reason": "Abandoned/Junk Vehicles",
    "date_created": "2024-03-12T16:04:11.000",
    "date_modified": "2024-03-12T16:04:11.000",
    "request_status": "Pending",
    "responsible_agency": "Department of Public Works",
    "final_address": "South Clark Street & Tulane Avenue",
    "address_councildis": "B",
    "status": "Pending",
    "rowid": "1074912",
    "final_x": "3671471.48059",
    "final_y": "535166.847622",
    "longitude": "-90.09961286183665",
    "latitude": "29.96582397958821",
    "geocoded_column": {
      "latitude": "29.96582397958821",
      "longitude": "-90.09961286183665"
    }
  },
  {
    "service_request": "2024-1074910",
    "request_type": "Roads/Drainage",
    "request_reason": "Pothole",
    "date_created": "2024-03-12T15:59:16.000",
    "date_modified": "2024-03-12T15:59:56.000",
    "request_status": "Pending",
    "responsible_agency": "Department of Public Works",
    "final_address": "3000 BLK N Miro St",
    "address_councildis": "D",
    "status": "Pending",
    "rowid": "1074910",
    "final_x": "3689903.29995",
    "final_y": "540170.319709",
    "longitude": "-90.04122780157991",
    "latitude": "29.97902320854706",
    "geocoded_column": {
      "latitude": "29.97902320854706",
      "longitude": "-90.04122780157991"
    }
  },
  {
    "service_request": "2024-1074909",
    "request_type": "Trash/Recycling",
    "request_reason": "Illegal Dumping",
    "date_created": "2024-03-12T15:57:21.000",
    "date_modified": "2024-03-12T15:57:22.000",
    "request_status": "Pending",
    "responsible_agency": "Department of Sanitation",
    "final_address": "MARTIN DR & I 10 W SERVICE RD",
    "address_councildis": "E",
    "status": "Pending",
    "rowid": "1074909",
    "final_x": "3699142.9",
    "final_y": "557625.28",
    "longitude": "-90.01140976213324",
    "latitude": "30.026728111571583",
    "geocoded_column": {
      "latitude": "30.026728111571583",
      "longitude": "-90.01140976213324"
    }
  },
  {
    "service_request": "2024-1074908",
    "request_type": "Roads/Drainage",
    "request_reason": "Pothole",
    "date_created": "2024-03-12T15:54:05.000",
    "date_modified": "2024-03-12T15:54:05.000",
    "request_status": "Pending",
    "responsible_agency": "Department of Public Works",
    "final_address": "13900 Wales St",
    "address_councildis": "E",
    "status": "Pending",
    "rowid": "1074908",
    "final_x": "3717912.91641",
    "final_y": "572289.259689",
    "longitude": "-89.95154042289478",
    "latitude": "30.066439280557407",
    "geocoded_column": {
      "latitude": "30.066439280557407",
      "longitude": "-89.95154042289478"
    }
  },
  {
    "service_request": "2024-1074907",
    "request_type": "Trash/Recycling",
    "request_reason": "Illegal Dumping",
    "date_created": "2024-03-12T15:53:49.000",
    "date_modified": "2024-03-12T15:53:49.000",
    "request_status": "Pending",
    "responsible_agency": "Department of Sanitation",
    "final_address": "4000 Velie St",
    "address_councildis": "D",
    "status": "Pending",
    "rowid": "1074907",
    "final_x": "3689594.57807",
    "final_y": "547879.952594",
    "longitude": "-90.04192842773566",
    "latitude": "30.000231495983982",
    "geocoded_column": {
      "latitude": "30.000231495983982",
      "longitude": "-90.04192842773566"
    }
  },
  {
    "service_request": "2024-1074906",
    "request_type": "Property Maintenance",
    "request_reason": "Property Maintenance",
    "date_created": "2024-03-12T15:50:45.000",
    "date_modified": "2024-03-12T16:34:39.000",
    "case_close_date": "2024-03-12T11:34:39.000",
    "request_status": "Closed",
    "responsible_agency": "Department of Code Enforcement",
    "final_address": "2917 Hiawatha St",
    "address_councildis": "D",
    "status": "Resolved",
    "rowid": "1074906",
    "final_x": "3689289.05731",
    "final_y": "548140.027026",
    "longitude": "-90.04288432919081",
    "latitude": "30.00095607044914",
    "geocoded_column": {
      "latitude": "30.00095607044914",
      "longitude": "-90.04288432919081"
    }
  },
  {
    "service_request": "2024-1074905",
    "request_type": "Trash/Recycling",
    "request_reason": "Return Trash Cart",
    "date_created": "2024-03-12T15:50:43.000",
    "date_modified": "2024-03-12T15:50:43.000",
    "request_status": "Pending",
    "responsible_agency": "Department of Sanitation",
    "final_address": "857 Wilson Dr",
    "address_councildis": "A",
    "status": "Assigned to Contractor",
    "contractor": "Richards Disposal",
    "rowid": "1074905",
    "final_x": "3674033.71771",
    "final_y": "539692.351626",
    "longitude": "-90.09136648650885",
    "latitude": "29.97819147504569",
    "geocoded_column": {
      "latitude": "29.97819147504569",
      "longitude": "-90.09136648650885"
    }
  },
  {
    "service_request": "2024-1074904",
    "request_type": "Trash/Recycling",
    "request_reason": "Request a Large Item Pick Up",
    "date_created": "2024-03-12T15:50:39.000",
    "date_modified": "2024-03-12T15:51:35.000",
    "request_status": "Pending",
    "responsible_agency": "Department of Sanitation",
    "final_address": "13900 Wales St",
    "address_councildis": "E",
    "status": "Assigned to Contractor",
    "contractor": "Waste Pro",
    "rowid": "1074904",
    "final_x": "3717912.91641",
    "final_y": "572289.259689",
    "longitude": "-89.95154042289478",
    "latitude": "30.066439280557407",
    "geocoded_column": {
      "latitude": "30.066439280557407",
      "longitude": "-89.95154042289478"
    }
  },
  {
    "service_request": "2024-1074903",
    "request_type": "Abandoned Vehicles",
    "request_reason": "Abandoned/Junk Vehicles",
    "date_created": "2024-03-12T15:50:15.000",
    "date_modified": "2024-03-12T15:50:15.000",
    "request_status": "Pending",
    "responsible_agency": "Department of Public Works",
    "final_address": "4140 Washington Ave",
    "address_councildis": "B",
    "status": "Pending",
    "rowid": "1074903",
    "final_x": "3670876.92283",
    "final_y": "530207.305473",
    "longitude": "-90.10165881334878",
    "latitude": "29.952204472384715",
    "geocoded_column": {
      "latitude": "29.952204472384715",
      "longitude": "-90.10165881334878"
    }
  },
  {
    "service_request": "2024-1074902",
    "request_type": "Trash/Recycling",
    "request_reason": "Request a Large Item Pick Up",
    "date_created": "2024-03-12T15:45:40.000",
    "date_modified": "2024-03-12T16:32:32.000",
    "case_close_date": "2024-03-12T11:32:32.000",
    "request_status": "Closed",
    "responsible_agency": "Department of Sanitation",
    "final_address": "7512 Garnet St",
    "address_councildis": "D",
    "status": "Assigned to Contractor",
    "contractor": "IV Waste",
    "contractor_action": "Completed",
    "rowid": "1074902",
    "final_x": "3667326.43969",
    "final_y": "556530.460122",
    "longitude": "-90.11198369319493",
    "latitude": "30.02468864100917",
    "geocoded_column": {
      "latitude": "30.02468864100917",
      "longitude": "-90.11198369319493"
    }
  },
  {
    "service_request": "2024-1074901",
    "request_type": "Roads/Drainage",
    "request_reason": "Street Flooding / Drainage",
    "date_created": "2024-03-12T15:43:25.000",
    "date_modified": "2024-03-12T15:43:25.000",
    "request_status": "Pending",
    "responsible_agency": "Department of Public Works",
    "final_address": "1723 Short St",
    "address_councildis": "A",
    "status": "Pending",
    "rowid": "1074901",
    "final_x": "3663638.24986",
    "final_y": "529482.001281",
    "longitude": "-90.12453944792016",
    "latitude": "29.9504220842327",
    "geocoded_column": {
      "latitude": "29.9504220842327",
      "longitude": "-90.12453944792016"
    }
  },
  {
    "service_request": "2024-1074900",
    "request_type": "Trash/Recycling",
    "request_reason": "Missed Trash Pick-Up",
    "date_created": "2024-03-12T15:42:44.000",
    "date_modified": "2024-03-12T15:42:44.000",
    "request_status": "Pending",
    "responsible_agency": "Department of Sanitation",
    "final_address": "10210 Chevy Chase Dr",
    "address_councildis": "E",
    "status": "Assigned to Contractor",
    "contractor": "Waste Pro",
    "rowid": "1074900",
    "final_x": "3710098.65483",
    "final_y": "563136.636256",
    "longitude": "-89.97658485194798",
    "latitude": "30.041530070280356",
    "geocoded_column": {
      "latitude": "30.041530070280356",
      "longitude": "-89.97658485194798"
    }
  },
  {
    "service_request": "2024-1074899",
    "request_type": "Trash/Recycling",
    "request_reason": "Request a Large Item Pick Up",
    "date_created": "2024-03-12T15:42:23.000",
    "date_modified": "2024-03-12T15:42:24.000",
    "request_status": "Pending",
    "responsible_agency": "Department of Sanitation",
    "final_address": "6006 Dauphine St",
    "address_councildis": "E",
    "status": "Assigned to Contractor",
    "contractor": "Waste Pro",
    "rowid": "1074899",
    "final_x": "3698792.54186",
    "final_y": "532285.750595",
    "longitude": "-90.01343917850178",
    "latitude": "29.957064854006223",
    "geocoded_column": {
      "latitude": "29.957064854006223",
      "longitude": "-90.01343917850178"
    }
  },
  {
    "service_request": "2024-1074898",
    "request_type": "Trash/Recycling",
    "request_reason": "Order Recycling Cart",
    "date_created": "2024-03-12T15:36:51.000",
    "date_modified": "2024-03-12T15:36:51.000",
    "request_status": "Pending",
    "responsible_agency": "Department of Sanitation",
    "final_address": "2306 St Louis St",
    "address_councildis": "B",
    "status": "Pending",
    "rowid": "1074898",
    "final_x": "3677500.64757",
    "final_y": "535286.843142",
    "longitude": "-90.08056880016471",
    "latitude": "29.965974052949495",
    "geocoded_column": {
      "latitude": "29.965974052949495",
      "longitude": "-90.08056880016471"
    }
  },
  {
    "service_request": "2024-1074897",
    "request_type": "Trash/Recycling",
    "request_reason": "Order Trash Cart",
    "date_created": "2024-03-12T15:36:05.000",
    "date_modified": "2024-03-12T15:36:05.000",
    "request_status": "Pending",
    "responsible_agency": "Department of Sanitation",
    "final_address": "2306 St Louis St",
    "address_councildis": "B",
    "status": "Assigned to Contractor",
    "contractor": "Richards Disposal",
    "rowid": "1074897",
    "final_x": "3677500.64757",
    "final_y": "535286.843142",
    "longitude": "-90.08056880016471",
    "latitude": "29.965974052949495",
    "geocoded_column": {
      "latitude": "29.965974052949495",
      "longitude": "-90.08056880016471"
    }
  },
  {
    "service_request": "2024-1074896",
    "request_type": "Property Maintenance",
    "request_reason": "Property Maintenance",
    "date_created": "2024-03-12T15:34:13.000",
    "date_modified": "2024-03-12T15:34:13.000",
    "request_status": "Pending",
    "responsible_agency": "Department of Code Enforcement",
    "final_address": "4314 N Derbigny St",
    "address_councildis": "D",
    "status": "Pending",
    "rowid": "1074896",
    "final_x": "3693395.84131",
    "final_y": "537207.219592",
    "longitude": "-90.03030348545148",
    "latitude": "29.970766986985588",
    "geocoded_column": {
      "latitude": "29.970766986985588",
      "longitude": "-90.03030348545148"
    }
  },
  {
    "service_request": "2024-1074895",
    "request_type": "Roads/Drainage",
    "request_reason": "Pothole",
    "date_created": "2024-03-12T15:31:31.000",
    "date_modified": "2024-03-12T15:31:31.000",
    "request_status": "Pending",
    "responsible_agency": "Department of Public Works",
    "final_address": "4216 Chestnut St",
    "address_councildis": "B",
    "status": "Pending",
    "rowid": "1074895",
    "final_x": "3671574.31393",
    "final_y": "519539.203703",
    "longitude": "-90.09981939416457",
    "latitude": "29.922850019854593",
    "geocoded_column": {
      "latitude": "29.922850019854593",
      "longitude": "-90.09981939416457"
    }
  },
  {
    "service_request": "2024-1074894",
    "request_type": "Trash/Recycling",
    "request_reason": "Replace Trash Cart",
    "date_created": "2024-03-12T15:29:27.000",
    "date_modified": "2024-03-12T15:29:27.000",
    "request_status": "Pending",
    "responsible_agency": "Department of Sanitation",
    "final_address": "4174 Iberville St",
    "address_councildis": "A",
    "status": "Assigned to Contractor",
    "contractor": "Richards Disposal",
    "rowid": "1074894",
    "final_x": "3670860.36769",
    "final_y": "539008.457034",
    "longitude": "-90.10141231014327",
    "latitude": "29.976405191319486",
    "geocoded_column": {
      "latitude": "29.976405191319486",
      "longitude": "-90.10141231014327"
    }
  },
  {
    "service_request": "2024-1074893",
    "request_type": "Property Maintenance",
    "request_reason": "Property Maintenance",
    "date_created": "2024-03-12T15:26:53.000",
    "date_modified": "2024-03-12T15:26:54.000",
    "request_status": "Pending",
    "responsible_agency": "Department of Code Enforcement",
    "final_address": "12221 Morrison Rd",
    "address_councildis": "E",
    "status": "Pending",
    "rowid": "1074893",
    "final_x": "3714214.20901",
    "final_y": "567291.013028",
    "longitude": "-89.96342137733272",
    "latitude": "30.0528182852956",
    "geocoded_column": {
      "latitude": "30.0528182852956",
      "longitude": "-89.96342137733272"
    }
  },
  {
    "service_request": "2024-1074892",
    "request_type": "Trash/Recycling",
    "request_reason": "Missed Trash Pick-Up",
    "date_created": "2024-03-12T15:26:39.000",
    "date_modified": "2024-03-12T15:26:39.000",
    "request_status": "Pending",
    "responsible_agency": "Department of Sanitation",
    "final_address": "3132 Louisiana Avenue Prkwy",
    "address_councildis": "B",
    "status": "Assigned to Contractor",
    "contractor": "Richards Disposal",
    "rowid": "1074892",
    "final_x": "3671925.35316",
    "final_y": "526770.951102",
    "longitude": "-90.09846528439388",
    "latitude": "29.942724595889338",
    "geocoded_column": {
      "latitude": "29.942724595889338",
      "longitude": "-90.09846528439388"
    }
  },
  {
    "service_request": "2024-1074891",
    "request_type": "Trash/Recycling",
    "request_reason": "Missed Trash Pick-Up",
    "date_created": "2024-03-12T15:26:17.000",
    "date_modified": "2024-03-12T15:26:17.000",
    "request_status": "Pending",
    "responsible_agency": "Department of Sanitation",
    "final_address": "7440 Weaver Ave",
    "address_councildis": "E",
    "status": "Assigned to Contractor",
    "contractor": "Waste Pro",
    "rowid": "1074891",
    "final_x": "3707618.22174",
    "final_y": "563911.963745",
    "longitude": "-89.98439500844526",
    "latitude": "30.043742434828403",
    "geocoded_column": {
      "latitude": "30.043742434828403",
      "longitude": "-89.98439500844526"
    }
  },
  {
    "service_request": "2024-1074889",
    "request_type": "Trash/Recycling",
    "request_reason": "Order Trash Cart",
    "date_created": "2024-03-12T15:25:58.000",
    "date_modified": "2024-03-12T15:25:59.000",
    "request_status": "Pending",
    "responsible_agency": "Department of Sanitation",
    "final_address": "1615 N Roman St",
    "address_councildis": "D",
    "status": "Assigned to Contractor",
    "contractor": "IV Waste",
    "rowid": "1074889",
    "final_x": "3681672.09826",
    "final_y": "538369.387785",
    "longitude": "-90.06728792984048",
    "latitude": "29.974323924238835",
    "geocoded_column": {
      "latitude": "29.974323924238835",
      "longitude": "-90.06728792984048"
    }
  },
  {
    "service_request": "2024-1074888",
    "request_type": "Abandoned Vehicles",
    "request_reason": "Abandoned/Junk Vehicles",
    "date_created": "2024-03-12T15:23:29.000",
    "date_modified": "2024-03-12T15:23:29.000",
    "request_status": "Pending",
    "responsible_agency": "Department of Public Works",
    "final_address": "2500 BLK New York St",
    "address_councildis": "D",
    "status": "Pending",
    "rowid": "1074888",
    "final_x": "3686101.00801",
    "final_y": "556728.474585",
    "longitude": "-90.0526523636064",
    "latitude": "30.024669492541236",
    "geocoded_column": {
      "latitude": "30.024669492541236",
      "longitude": "-90.0526523636064"
    }
  },
  {
    "service_request": "2024-1074887",
    "request_type": "Roads/Drainage",
    "request_reason": "Pothole",
    "date_created": "2024-03-12T15:22:46.000",
    "date_modified": "2024-03-12T15:22:46.000",
    "request_status": "Pending",
    "responsible_agency": "Department of Public Works",
    "final_address": "1301 Constantinople St",
    "address_councildis": "B",
    "status": "Pending",
    "rowid": "1074887",
    "final_x": "3672430.66305",
    "final_y": "520250.7726",
    "longitude": "-90.09709199725775",
    "latitude": "29.924781230435865",
    "geocoded_column": {
      "latitude": "29.924781230435865",
      "longitude": "-90.09709199725775"
    }
  },
  {
    "service_request": "2024-1074886",
    "request_type": "Trash/Recycling",
    "request_reason": "Repair Trash Cart",
    "date_created": "2024-03-12T15:21:27.000",
    "date_modified": "2024-03-12T15:22:21.000",
    "request_status": "Pending",
    "responsible_agency": "Department of Sanitation",
    "final_address": "38 Tennyson Pl",
    "address_councildis": "C",
    "status": "Assigned to Contractor",
    "contractor": "Richards Disposal",
    "rowid": "1074886",
    "final_x": "3705244.54667",
    "final_y": "517533.957558",
    "longitude": "-89.99361054773802",
    "latitude": "29.916296689566348",
    "geocoded_column": {
      "latitude": "29.916296689566348",
      "longitude": "-89.99361054773802"
    }
  },
  {
    "service_request": "2024-1074885",
    "request_type": "Trash/Recycling",
    "request_reason": "Request a Large Item Pick Up",
    "date_created": "2024-03-12T15:20:59.000",
    "date_modified": "2024-03-12T15:20:59.000",
    "request_status": "Pending",
    "responsible_agency": "Department of Sanitation",
    "final_address": "10138 Hammond St",
    "address_councildis": "E",
    "status": "Assigned to Contractor",
    "contractor": "Waste Pro",
    "rowid": "1074885",
    "final_x": "3713115.06776",
    "final_y": "556352.927258",
    "longitude": "-89.96730757583401",
    "latitude": "30.022779022531825",
    "geocoded_column": {
      "latitude": "30.022779022531825",
      "longitude": "-89.96730757583401"
    }
  },
  {
    "service_request": "2024-1074884",
    "request_type": "Abandoned Vehicles",
    "request_reason": "Abandoned/Junk Vehicles",
    "date_created": "2024-03-12T15:20:48.000",
    "date_modified": "2024-03-12T15:20:48.000",
    "request_status": "Pending",
    "responsible_agency": "Department of Public Works",
    "final_address": "N DERBIGNY ST & POLAND AVE",
    "address_councildis": "D",
    "status": "Pending",
    "rowid": "1074884",
    "final_x": "3693610.46",
    "final_y": "537239.95",
    "longitude": "-90.02962452012265",
    "latitude": "29.970850271411457",
    "geocoded_column": {
      "latitude": "29.970850271411457",
      "longitude": "-90.02962452012265"
    }
  },
  {
    "service_request": "2024-1074883",
    "request_type": "Trash/Recycling",
    "request_reason": "Replace Recycling Cart",
    "date_created": "2024-03-12T15:20:43.000",
    "date_modified": "2024-03-12T15:20:43.000",
    "request_status": "Pending",
    "responsible_agency": "Department of Sanitation",
    "final_address": "5922 Warwick Ct",
    "address_councildis": "C",
    "status": "Pending",
    "rowid": "1074883",
    "final_x": "3705652.83652",
    "final_y": "515945.724596",
    "longitude": "-89.99238049932589",
    "latitude": "29.911916463910455",
    "geocoded_column": {
      "latitude": "29.911916463910455",
      "longitude": "-89.99238049932589"
    }
  },
  {
    "service_request": "2024-1074882",
    "request_type": "Trash/Recycling",
    "request_reason": "Request a Large Item Pick Up",
    "date_created": "2024-03-12T15:17:57.000",
    "date_modified": "2024-03-12T15:17:58.000",
    "request_status": "Pending",
    "responsible_agency": "Department of Sanitation",
    "final_address": "20 Chatham Dr",
    "address_councildis": "D",
    "status": "Assigned to Contractor",
    "contractor": "IV Waste",
    "rowid": "1074882",
    "final_x": "3679832.0733",
    "final_y": "551177.339669",
    "longitude": "-90.0726541153853",
    "latitude": "30.009597053639535",
    "geocoded_column": {
      "latitude": "30.009597053639535",
      "longitude": "-90.0726541153853"
    }
  },
  {
    "service_request": "2024-1074881",
    "request_type": "Traffic Signals/Signs/Striping/Streetlights",
    "request_reason": "Street Light Outage/Malfunction",
    "date_created": "2024-03-12T15:16:10.000",
    "date_modified": "2024-03-12T15:16:10.000",
    "request_status": "Pending",
    "responsible_agency": "Department of Public Works",
    "final_address": "BULLARD AVE & CURRAN BLVD",
    "address_councildis": "E",
    "status": "Assigned to Contractor",
    "contractor": "Legacy Professional Services",
    "rowid": "1074881",
    "final_x": "3712844.0",
    "final_y": "567682.28",
    "longitude": "-89.96773744290849",
    "latitude": "30.053939081591853",
    "geocoded_column": {
      "latitude": "30.053939081591853",
      "longitude": "-89.96773744290849"
    }
  },
  {
    "service_request": "2024-1074880",
    "request_type": "Trash/Recycling",
    "request_reason": "Order Recycling Cart",
    "date_created": "2024-03-12T15:15:54.000",
    "date_modified": "2024-03-12T15:15:54.000",
    "request_status": "Pending",
    "responsible_agency": "Department of Sanitation",
    "final_address": "5378 Chatham Dr",
    "address_councildis": "D",
    "status": "Pending",
    "rowid": "1074880",
    "final_x": "3679695.90274",
    "final_y": "552209.352854",
    "longitude": "-90.07304846468568",
    "latitude": "30.012438836969224",
    "geocoded_column": {
      "latitude": "30.012438836969224",
      "longitude": "-90.07304846468568"
    }
  },
  {
    "service_request": "2024-1074879",
    "request_type": "Trash/Recycling",
    "request_reason": "Order Trash Cart",
    "date_created": "2024-03-12T15:15:37.000",
    "date_modified": "2024-03-12T15:15:38.000",
    "request_status": "Pending",
    "responsible_agency": "Department of Sanitation",
    "final_address": "5378 Chatham Dr",
    "address_councildis": "D",
    "status": "Assigned to Contractor",
    "contractor": "IV Waste",
    "rowid": "1074879",
    "final_x": "3679695.90274",
    "final_y": "552209.352854",
    "longitude": "-90.07304846468568",
    "latitude": "30.012438836969224",
    "geocoded_column": {
      "latitude": "30.012438836969224",
      "longitude": "-90.07304846468568"
    }
  },
  {
    "service_request": "2024-1074878",
    "request_type": "Trash/Recycling",
    "request_reason": "Request a Large Item Pick Up",
    "date_created": "2024-03-12T15:15:32.000",
    "date_modified": "2024-03-12T15:15:33.000",
    "request_status": "Pending",
    "responsible_agency": "Department of Sanitation",
    "final_address": "6204 Waldo Dr",
    "address_councildis": "D",
    "status": "Assigned to Contractor",
    "contractor": "IV Waste",
    "rowid": "1074878",
    "final_x": "3681050.01992",
    "final_y": "555642.384473",
    "longitude": "-90.06865049730902",
    "latitude": "30.021837402920493",
    "geocoded_column": {
      "latitude": "30.021837402920493",
      "longitude": "-90.06865049730902"
    }
  },
  {
    "service_request": "2024-1074877",
    "request_type": "Trash/Recycling",
    "request_reason": "Order Trash Cart",
    "date_created": "2024-03-12T15:08:51.000",
    "date_modified": "2024-03-12T15:08:52.000",
    "request_status": "Pending",
    "responsible_agency": "Department of Sanitation",
    "final_address": "438 S Telemachus St",
    "address_councildis": "B",
    "status": "Assigned to Contractor",
    "contractor": "Richards Disposal",
    "rowid": "1074877",
    "final_x": "3671430.21422",
    "final_y": "536134.036231",
    "longitude": "-90.09971029651342",
    "latitude": "29.968484645624464",
    "geocoded_column": {
      "latitude": "29.968484645624464",
      "longitude": "-90.09971029651342"
    }
  },
  {
    "service_request": "2024-1074876",
    "request_type": "Trash/Recycling",
    "request_reason": "Request a Large Item Pick Up",
    "date_created": "2024-03-12T15:07:32.000",
    "date_modified": "2024-03-12T15:07:32.000",
    "request_status": "Pending",
    "responsible_agency": "Department of Sanitation",
    "final_address": "2715 Chippewa St",
    "address_councildis": "B",
    "status": "Assigned to Contractor",
    "contractor": "Richards Disposal",
    "rowid": "1074876",
    "final_x": "3678005.65224",
    "final_y": "519699.36748",
    "longitude": "-90.07951264510021",
    "latitude": "29.923098479876728",
    "geocoded_column": {
      "latitude": "29.923098479876728",
      "longitude": "-90.07951264510021"
    }
  },
  {
    "service_request": "2024-1074875",
    "request_type": "Roads/Drainage",
    "request_reason": "Pothole",
    "date_created": "2024-03-12T15:05:42.000",
    "date_modified": "2024-03-12T15:05:42.000",
    "request_status": "Pending",
    "responsible_agency": "Department of Public Works",
    "final_address": "1312 Milan St",
    "address_councildis": "B",
    "status": "Pending",
    "rowid": "1074875",
    "final_x": "3671625.82823",
    "final_y": "520286.919608",
    "longitude": "-90.09963137110304",
    "latitude": "29.92490447494246",
    "geocoded_column": {
      "latitude": "29.92490447494246",
      "longitude": "-90.09963137110304"
    }
  },
  {
    "service_request": "2024-1074874",
    "request_type": "Trash/Recycling",
    "request_reason": "Request a Large Item Pick Up",
    "date_created": "2024-03-12T15:05:37.000",
    "date_modified": "2024-03-12T15:05:37.000",
    "request_status": "Pending",
    "responsible_agency": "Department of Sanitation",
    "final_address": "2534 Governor Nicholls St",
    "address_councildis": "D",
    "status": "Assigned to Contractor",
    "contractor": "Richards Disposal",
    "rowid": "1074874",
    "final_x": "3678390.72936",
    "final_y": "537928.847497",
    "longitude": "-90.07766651588855",
    "latitude": "29.973211873390206",
    "geocoded_column": {
      "latitude": "29.973211873390206",
      "longitude": "-90.07766651588855"
    }
  },
  {
    "service_request": "2024-1074873",
    "request_type": "Trash/Recycling",
    "request_reason": "Request a Large Item Pick Up",
    "date_created": "2024-03-12T15:05:02.000",
    "date_modified": "2024-03-12T15:05:03.000",
    "request_status": "Pending",
    "responsible_agency": "Department of Sanitation",
    "final_address": "4918 Haik Dr",
    "address_councildis": "D",
    "status": "Assigned to Contractor",
    "contractor": "IV Waste",
    "rowid": "1074873",
    "final_x": "3681923.22946",
    "final_y": "550797.418837",
    "longitude": "-90.06606069612111",
    "latitude": "30.008488980809023",
    "geocoded_column": {
      "latitude": "30.008488980809023",
      "longitude": "-90.06606069612111"
    }
  },
  {
    "service_request": "2024-1074872",
    "request_type": "Traffic Signals/Signs/Striping/Streetlights",
    "request_reason": "Street Light Outage/Malfunction",
    "date_created": "2024-03-12T15:02:19.000",
    "date_modified": "2024-03-12T15:02:20.000",
    "request_status": "Pending",
    "responsible_agency": "Department of Public Works",
    "final_address": "3900 BLK France Road Pkwy",
    "address_councildis": "D",
    "status": "Assigned to Contractor",
    "contractor": "Legacy Professional Services",
    "rowid": "1074872",
    "final_x": "3694164.19464",
    "final_y": "543299.640222",
    "longitude": "-90.02765769737653",
    "latitude": "29.98749490794828",
    "geocoded_column": {
      "latitude": "29.98749490794828",
      "longitude": "-90.02765769737653"
    }
  },
  {
    "service_request": "2024-1074871",
    "request_type": "Trash/Recycling",
    "request_reason": "Missed Trash Pick-Up",
    "date_created": "2024-03-12T15:00:03.000",
    "date_modified": "2024-03-12T15:00:03.000",
    "request_status": "Pending",
    "responsible_agency": "Department of Sanitation",
    "final_address": "4114 Prytania St",
    "address_councildis": "B",
    "status": "Assigned to Contractor",
    "contractor": "Richards Disposal",
    "rowid": "1074871",
    "final_x": "3671880.13083",
    "final_y": "520367.562104",
    "longitude": "-90.09882587677305",
    "latitude": "29.92511868489121",
    "geocoded_column": {
      "latitude": "29.92511868489121",
      "longitude": "-90.09882587677305"
    }
  },
  {
    "service_request": "2024-1074870",
    "request_type": "Traffic Signals/Signs/Striping/Streetlights",
    "request_reason": "Additional signage",
    "date_created": "2024-03-12T14:57:22.000",
    "date_modified": "2024-03-12T14:57:23.000",
    "request_status": "Pending",
    "responsible_agency": "Department of Public Works",
    "final_address": "2319 Pauger St",
    "address_councildis": "D",
    "status": "Pending",
    "rowid": "1074870",
    "final_x": "3683797.5382",
    "final_y": "538231.518281",
    "longitude": "-90.06058013530686",
    "latitude": "29.973880086766044",
    "geocoded_column": {
      "latitude": "29.973880086766044",
      "longitude": "-90.06058013530686"
    }
  },