[
  {
    "service_request": "2026-1263444",
    "request_type": "Health Related Request",
    "request_reason": "Noise Ordinance Complaint",
    "date_created": "2026-03-06T21:56:10.000",
    "date_modified": "2026-03-06T21:56:12.000",
    "request_status": "Pending",
    "responsible_agency": "Health Department",
    "final_address": "905 Toulouse St, New Orleans, Louisiana, 70112",
    "address_councildis": "A",
    "status": "Pending",
    "rowid": "1263444",
    "final_x": "3672833.87041",
    "final_y": "539324.734602",
    "longitude": "-90.09516858748749",
    "latitude": "29.977216358287198",
    "geocoded_column": {
      "latitude": "29.977216358287198",
      "longitude": "-90.09516858748749"
    }
  },
  {
    "service_request": "2026-1263443",
    "request_type": "Parks & Parkways",
    "request_reason": "Request Tree Service (Right of Way/Public Property)",
    "date_created": "2026-03-06T21:54:59.000",
    "date_modified": "2026-03-06T21:55:02.000",
    "request_status": "Pending",
    "responsible_agency": "Department of Parks & Parkway",
    "final_address": "7422 W Laverne St",
    "address_councildis": "D",
    "status": "Pending",
    "rowid": "1263443",
    "final_x": "3695259.46877",
    "final_y": "558091.828123",
    "longitude": "-90.02366408746867",
    "latitude": "30.02813355854713",
    "geocoded_column": {
      "latitude": "30.02813355854713",
      "longitude": "-90.02366408746867"
    }
  },
  {
    "service_request": "2026-1263442",
    "request_type": "Roads and Streets",
    "request_reason": "Pothole",
    "date_created": "2026-03-06T21:20:37.000",
    "date_modified": "2026-03-06T21:20:39.000",
    "request_status": "Pending",
    "responsible_agency": "Department of Public Works",
    "final_address": "1718 Lakeshore Dr",
    "address_councildis": "D",
    "status": "Pending",
    "rowid": "1263442",
    "final_x": "3678267.83419",
    "final_y": "558114.751131",
    "longitude": "-90.07735585525279",
    "latitude": "30.02871964913554",
    "geocoded_column": {
      "latitude": "30.02871964913554",
      "longitude": "-90.07735585525279"
    }
  },
  {
    "service_request": "2026-1263441",
    "request_type": "Abandoned Vehicles",
    "request_reason": "Abandoned/Junk Vehicles",
    "date_created": "2026-03-06T21:01:39.000",
    "date_modified": "2026-03-06T21:01:40.000",
    "request_status": "Pending",
    "responsible_agency": "Department of Public Works",
    "final_address": "1000 Louisa St",
    "address_councildis": "C",
    "status": "Pending",
    "rowid": "1263441",
    "final_x": "3689422.93833",
    "final_y": "535468.405382",
    "longitude": "-90.04291220602619",
    "latitude": "29.966109486889835",
    "geocoded_column": {
      "latitude": "29.966109486889835",
      "longitude": "-90.04291220602619"
    }
  },
  {
    "service_request": "2026-1263440",
    "request_type": "Trash/Recycling",
    "request_reason": "Request a Large Item Pick Up",
    "date_created": "2026-03-06T21:00:06.000",
    "date_modified": "2026-03-06T21:00:09.000",
    "request_status": "Pending",
    "responsible_agency": "Department of Sanitation",
    "final_address": "5048 Westlake Dr",
    "address_councildis": "E",
    "status": "Assigned to Contractor",
    "contractor": "Waste Pro",
    "rowid": "1263440",
    "final_x": "3699525.29693",
    "final_y": "556001.006617",
    "longitude": "-90.01026069939067",
    "latitude": "30.022249845997166",
    "geocoded_column": {
      "latitude": "30.022249845997166",
      "longitude": "-90.01026069939067"
    }
  },
  {
    "service_request": "2026-1263439",
    "request_type": "Streetlights",
    "request_reason": "Streetlight Outage/Malfunction",
    "date_created": "2026-03-06T20:09:12.000",
    "date_modified": "2026-03-06T20:09:13.000",
    "request_status": "Pending",
    "responsible_agency": "Department of Public Works",
    "final_address": "1132 Napoleon Ave",
    "address_councildis": "B",
    "status": "Pending",
    "rowid": "1263439",
    "final_x": "3670827.49076",
    "final_y": "519759.793848",
    "longitude": "-90.10216934586585",
    "latitude": "29.92347865787735",
    "geocoded_column": {
      "latitude": "29.92347865787735",
      "longitude": "-90.10216934586585"
    }
  },
  {
    "service_request": "2026-1263438",
    "request_type": "Roads and Streets",
    "request_reason": "Street Subsidence (Sinking)",
    "date_created": "2026-03-06T19:58:29.000",
    "date_modified": "2026-03-06T19:58:30.000",
    "request_status": "Pending",
    "responsible_agency": "Sewerage & Water Board",
    "final_address": "2366 Annunciation St",
    "address_councildis": "B",
    "status": "Pending",
    "rowid": "1263438",
    "final_x": "3678757.17838",
    "final_y": "520598.79276",
    "longitude": "-90.07710923952732",
    "latitude": "29.925548973580955",
    "geocoded_column": {
      "latitude": "29.925548973580955",
      "longitude": "-90.07710923952732"
    }
  },
  {
    "service_request": "2026-1263437",
    "request_type": "Trash/Recycling",
    "request_reason": "Request a Large Item Pick Up",
    "date_created": "2026-03-06T19:57:15.000",
    "date_modified": "2026-03-06T19:57:17.000",
    "request_status": "Pending",
    "responsible_agency": "Department of Sanitation",
    "final_address": "1033 Jourdan Ave",
    "address_councildis": "E",
    "status": "Assigned to Contractor",
    "contractor": "Waste Pro",
    "rowid": "1263437",
    "final_x": "3695029.5224",
    "final_y": "534303.476229",
    "longitude": "-90.02524883280513",
    "latitude": "29.96273153942836",
    "geocoded_column": {
      "latitude": "29.96273153942836",
      "longitude": "-90.02524883280513"
    }
  },
  {
    "service_request": "2026-1263436",
    "request_type": "Health Related Request",
    "request_reason": "Noise Ordinance Complaint",
    "date_created": "2026-03-06T19:43:51.000",
    "date_modified": "2026-03-06T19:43:53.000",
    "request_status": "Pending",
    "responsible_agency": "Health Department",
    "final_address": "2442 Dreux Ave, New Orleans, Louisiana, 70122",
    "address_councildis": "D",
    "status": "Pending",
    "rowid": "1263436",
    "final_x": "3685670.86332",
    "final_y": "552072.288662",
    "longitude": "-90.0541757906849",
    "latitude": "30.01187990843413",
    "geocoded_column": {
      "latitude": "30.01187990843413",
      "longitude": "-90.0541757906849"
    }
  },
  {
    "service_request": "2026-1263435",
    "request_type": "Property Maintenance",
    "request_reason": "Property Maintenance",
    "date_created": "2026-03-06T19:22:27.000",
    "date_modified": "2026-03-06T19:22:29.000",
    "request_status": "Pending",
    "responsible_agency": "Department of Code Enforcement",
    "final_address": "6892 Parc Brittany Blvd",
    "address_councildis": "E",
    "status": "Pending",
    "rowid": "1263435",
    "final_x": "3702642.99268",
    "final_y": "557880.366811",
    "longitude": "-90.00034053924813",
    "latitude": "30.02731800838932",
    "geocoded_column": {
      "latitude": "30.02731800838932",
      "longitude": "-90.00034053924813"
    }
  },
  {
    "service_request": "2026-1263434",
    "request_type": "Abandoned Vehicles",
    "request_reason": "Abandoned/Junk Vehicles",
    "date_created": "2026-03-06T19:17:32.000",
    "date_modified": "2026-03-06T19:17:34.000",
    "request_status": "Pending",
    "responsible_agency": "Department of Public Works",
    "final_address": "6892 Parc Brittany Blvd",
    "address_councildis": "E",
    "status": "Pending",
    "rowid": "1263434",
    "final_x": "3702642.99268",
    "final_y": "557880.366811",
    "longitude": "-90.00034053924813",
    "latitude": "30.02731800838932",
    "geocoded_column": {
      "latitude": "30.02731800838932",
      "longitude": "-90.00034053924813"
    }
  },
  {
    "service_request": "2026-1263433",
    "request_type": "Health Related Request",
    "request_reason": "Noise Ordinance Complaint",
    "date_created": "2026-03-06T18:57:46.000",
    "date_modified": "2026-03-06T18:57:49.000",
    "request_status": "Pending",
    "responsible_agency": "Health Department",
    "final_address": "2442 Dreux Ave, New Orleans, Louisiana, 70122",
    "address_councildis": "D",
    "status": "Pending",
    "rowid": "1263433",
    "final_x": "3685670.86332",
    "final_y": "552072.288662",
    "longitude": "-90.0541757906849",
    "latitude": "30.01187990843413",
    "geocoded_column": {
      "latitude": "30.01187990843413",
      "longitude": "-90.0541757906849"
    }
  },
  {
    "service_request": "2026-1263432",
    "request_type": "Health Related Request",
    "request_reason": "Noise Ordinance Complaint",
    "date_created": "2026-03-06T18:38:57.000",
    "date_modified": "2026-03-06T18:39:00.000",
    "request_status": "Pending",
    "responsible_agency": "Health Department",
    "final_address": "2442 Dreux Ave, New Orleans, Louisiana, 70122",
    "address_councildis": "D",
    "status": "Pending",
    "rowid": "1263432",
    "final_x": "3685670.86332",
    "final_y": "552072.288662",
    "longitude": "-90.0541757906849",
    "latitude": "30.01187990843413",
    "geocoded_column": {
      "latitude": "30.01187990843413",
      "longitude": "-90.0541757906849"
    }
  },
  {
    "service_request": "2026-1263431",
    "request_type": "General Services",
    "request_reason": "General Service Request",
    "date_created": "2026-03-06T18:09:03.000",
    "date_modified": "2026-03-06T18:09:05.000",
    "request_status": "Pending",
    "responsible_agency": "Orleans Parish Communication District",
    "final_address": "I-610 W, New Orleans, Louisiana, 70122 and West Rd, New Orleans, Louisiana, 70118",
    "status": "Pending",
    "rowid": "1263431",
    "longitude": "0.0",
    "latitude": "0.0",
    "geocoded_column": {
      "latitude": "0.0",
      "longitude": "0.0"
    }
  },
  {
    "service_request": "2026-1263430",
    "request_type": "Healthy Homes",
    "request_reason": "Healthy Homes",
    "date_created": "2026-03-06T17:46:39.000",
    "date_modified": "2026-03-06T17:46:41.000",
    "request_status": "Pending",
    "responsible_agency": "Department of Code Enforcement",
    "final_address": "3443 Esplanade Ave",
    "address_councildis": "A",
    "status": "Pending",
    "rowid": "1263430",
    "final_x": "3674984.858",
    "final_y": "541532.608716",
    "longitude": "-90.08829928752895",
    "latitude": "29.98322316835311",
    "geocoded_column": {
      "latitude": "29.98322316835311",
      "longitude": "-90.08829928752895"
    }
  },
  {
    "service_request": "2026-1263429",
    "request_type": "Property Maintenance",
    "request_reason": "Property Maintenance",
    "date_created": "2026-03-06T17:29:44.000",
    "date_modified": "2026-03-06T17:29:46.000",
    "request_status": "Pending",
    "responsible_agency": "Department of Code Enforcement",
    "final_address": "4334 S Carrollton Ave",
    "address_councildis": "A",
    "status": "Pending",
    "rowid": "1263429",
    "final_x": "3670041.00673",
    "final_y": "537011.737224",
    "longitude": "-90.10406776019904",
    "latitude": "29.970939080911293",
    "geocoded_column": {
      "latitude": "29.970939080911293",
      "longitude": "-90.10406776019904"
    }
  },
  {
    "service_request": "2026-1263428",
    "request_type": "Parks & Parkways",
    "request_reason": "Park Maintenance/Clean Up",
    "date_created": "2026-03-06T17:27:51.000",
    "date_modified": "2026-03-06T17:27:52.000",
    "request_status": "Pending",
    "responsible_agency": "Department of Parks & Parkway",
    "final_address": "3900 Amanda St",
    "address_councildis": "C",
    "status": "Pending",
    "rowid": "1263428",
    "final_x": "3710131.96069",
    "final_y": "516468.324661",
    "longitude": "-89.9782238419158",
    "latitude": "29.91320853947722",
    "geocoded_column": {
      "latitude": "29.91320853947722",
      "longitude": "-89.9782238419158"
    }
  },
  {
    "service_request": "2026-1263427",
    "request_type": "Drainage",
    "request_reason": "Catch Basin Not Draining",
    "date_created": "2026-03-06T17:15:59.000",
    "date_modified": "2026-03-06T17:16:01.000",
    "request_status": "Pending",
    "responsible_agency": "Sewerage & Water Board",
    "final_address": "2200 BLK Third St",
    "address_councildis": "B",
    "status": "Pending",
    "rowid": "1263427",
    "final_x": "3675162.77103",
    "final_y": "524803.596506",
    "longitude": "-90.08831147058224",
    "latitude": "29.937218684246506",
    "geocoded_column": {
      "latitude": "29.937218684246506",
      "longitude": "-90.08831147058224"
    }
  },
  {
    "service_request": "2026-1263426",
    "request_type": "Parks & Parkways",
    "request_reason": "Request Tree Service (Right of Way/Public Property)",
    "date_created": "2026-03-06T17:14:12.000",
    "date_modified": "2026-03-06T17:14:14.000",
    "request_status": "Pending",
    "responsible_agency": "Department of Parks & Parkway",
    "final_address": "5237 Annunciation St",
    "address_councildis": "B",
    "status": "Pending",
    "rowid": "1263426",
    "final_x": "3667700.88532",
    "final_y": "517601.399606",
    "longitude": "-90.11211152224206",
    "latitude": "29.91763575641988",
    "geocoded_column": {
      "latitude": "29.91763575641988",
      "longitude": "-90.11211152224206"
    }
  },
  {
    "service_request": "2026-1263425",
    "request_type": "Road Striping",
    "request_reason": "Lane Striping or other Pavement Markings",
    "date_created": "2026-03-06T17:09:19.000",
    "date_modified": "2026-03-06T17:09:21.000",
    "request_status": "Pending",
    "responsible_agency": "Department of Public Works",
    "final_address": "1111 Canal St",
    "address_councildis": "C",
    "status": "Pending",
    "rowid": "1263425",
    "final_x": "3679986.71823",
    "final_y": "531707.587395",
    "longitude": "-90.07284220329849",
    "latitude": "29.956057344840524",
    "geocoded_column": {
      "latitude": "29.956057344840524",
      "longitude": "-90.07284220329849"
    }
  },
  {
    "service_request": "2026-1263424",
    "request_type": "Property Maintenance",
    "request_reason": "Property Maintenance",
    "date_created": "2026-03-06T17:03:52.000",
    "date_modified": "2026-03-06T17:03:54.000",
    "request_status": "Pending",
    "responsible_agency": "Department of Code Enforcement",
    "final_address": "3900 Jennifer St",
    "address_councildis": "C",
    "status": "Pending",
    "rowid": "1263424",
    "final_x": "3709669.85777",
    "final_y": "516506.353397",
    "longitude": "-89.97968094656501",
    "latitude": "29.913328124079914",
    "geocoded_column": {
      "latitude": "29.913328124079914",
      "longitude": "-89.97968094656501"
    }
  },
  {
    "service_request": "2026-1263423",
    "request_type": "Trash/Recycling",
    "request_reason": "Replace Trash Cart",
    "date_created": "2026-03-06T17:01:46.000",
    "date_modified": "2026-03-06T17:01:48.000",
    "request_status": "Pending",
    "responsible_agency": "Department of Sanitation",
    "final_address": "2744 Conti St",
    "address_councildis": "B",
    "status": "Assigned to Contractor",
    "contractor": "IV Waste",
    "rowid": "1263423",
    "final_x": "3675696.56942",
    "final_y": "536250.168007",
    "longitude": "-90.08623292358367",
    "latitude": "29.968676981559465",
    "geocoded_column": {
      "latitude": "29.968676981559465",
      "longitude": "-90.08623292358367"
    }
  },
  {
    "service_request": "2026-1263422",
    "request_type": "Trash/Recycling",
    "request_reason": "Request a Large Item Pick Up",
    "date_created": "2026-03-06T16:48:58.000",
    "date_modified": "2026-03-06T16:48:59.000",
    "request_status": "Pending",
    "responsible_agency": "Department of Sanitation",
    "final_address": "5721 Norland Ave",
    "address_councildis": "C",
    "status": "Assigned to Contractor",
    "contractor": "Richards Disposal",
    "rowid": "1263422",
    "final_x": "3704697.9619",
    "final_y": "520512.722104",
    "longitude": "-89.99522597635863",
    "latitude": "29.92450482206889",
    "geocoded_column": {
      "latitude": "29.92450482206889",
      "longitude": "-89.99522597635863"
    }
  },
  {
    "service_request": "2026-1263421",
    "request_type": "Road Striping",
    "request_reason": "Lane Striping or other Pavement Markings",
    "date_created": "2026-03-06T16:48:37.000",
    "date_modified": "2026-03-06T16:48:39.000",
    "request_status": "Pending",
    "responsible_agency": "Department of Public Works",
    "final_address": "1110 Canal St",
    "address_councildis": "B",
    "status": "Pending",
    "rowid": "1263421",
    "final_x": "3679843.08674",
    "final_y": "531586.760451",
    "longitude": "-90.07329993781637",
    "latitude": "29.95572945533321",
    "geocoded_column": {
      "latitude": "29.95572945533321",
      "longitude": "-90.07329993781637"
    }
  },
  {
    "service_request": "2026-1263420",
    "request_type": "Trash/Recycling",
    "request_reason": "Illegal Dumping",
    "date_created": "2026-03-06T16:40:22.000",
    "date_modified": "2026-03-06T16:40:23.000",
    "request_status": "Pending",
    "responsible_agency": "Department of Sanitation",
    "final_address": "1100 BLK Royal St",
    "address_councildis": "C",
    "status": "Pending",
    "rowid": "1263420",
    "final_x": "3683549.57742",
    "final_y": "533765.09794",
    "longitude": "-90.0615198167896",
    "latitude": "29.961606545166394",
    "geocoded_column": {
      "latitude": "29.961606545166394",
      "longitude": "-90.0615198167896"
    }
  },
  {
    "service_request": "2026-1263419",
    "request_type": "Trash/Recycling",
    "request_reason": "Order Trash Cart",
    "date_created": "2026-03-06T16:38:32.000",
    "date_modified": "2026-03-06T16:38:34.000",
    "request_status": "Pending",
    "responsible_agency": "Department of Sanitation",
    "final_address": "8811 Dinkins St",
    "address_councildis": "E",
    "status": "Assigned to Contractor",
    "contractor": "Waste Pro",
    "rowid": "1263419",
    "final_x": "3704448.54391",
    "final_y": "563336.887264",
    "longitude": "-89.99443372603372",
    "latitude": "30.042263422976415",
    "geocoded_column": {
      "latitude": "30.042263422976415",
      "longitude": "-89.99443372603372"
    }
  },
  {
    "service_request": "2026-1263418",
    "request_type": "Trash/Recycling",
    "request_reason": "Request a Large Item Pick Up",
    "date_created": "2026-03-06T16:36:08.000",
    "date_modified": "2026-03-06T16:36:11.000",
    "request_status": "Pending",
    "responsible_agency": "Department of Sanitation",
    "final_address": "3258 St Thomas St",
    "address_councildis": "B",
    "status": "Assigned to Contractor",
    "contractor": "IV Waste",
    "rowid": "1263418",
    "final_x": "3676158.34337",
    "final_y": "518201.689206",
    "longitude": "-90.08539538202092",
    "latitude": "29.9190357993134",
    "geocoded_column": {
      "latitude": "29.9190357993134",
      "longitude": "-90.08539538202092"
    }
  },
  {
    "service_request": "2026-1263417",
    "request_type": "Abandoned Vehicles",
    "request_reason": "Abandoned/Junk Vehicles",
    "date_created": "2026-03-06T16:32:38.000",
    "date_modified": "2026-03-06T16:32:39.000",
    "request_status": "Pending",
    "responsible_agency": "Department of Public Works",
    "final_address": "8612 Chase St",
    "address_councildis": "E",
    "status": "Pending",
    "rowid": "1263417",
    "final_x": "3703703.13412",
    "final_y": "563403.099168",
    "longitude": "-89.99678705114428",
    "latitude": "30.042469407740093",
    "geocoded_column": {
      "latitude": "30.042469407740093",
      "longitude": "-89.99678705114428"
    }
  },
  {
    "service_request": "2026-1263416",
    "request_type": "Trash/Recycling",
    "request_reason": "Request a Large Item Pick Up",
    "date_created": "2026-03-06T16:31:34.000",
    "date_modified": "2026-03-06T16:31:35.000",
    "request_status": "Pending",
    "responsible_agency": "Department of Sanitation",
    "final_address": "8730 Gervais St",
    "address_councildis": "E",
    "status": "Assigned to Contractor",
    "contractor": "Waste Pro",
    "rowid": "1263416",
    "final_x": "3704458.05918",
    "final_y": "562951.712224",
    "longitude": "-89.99441787848068",
    "latitude": "30.04120403806333",
    "geocoded_column": {
      "latitude": "30.04120403806333",
      "longitude": "-89.99441787848068"
    }
  },
  {
    "service_request": "2026-1263415",
    "request_type": "Trash/Recycling",
    "request_reason": "Request a Large Item Pick Up",
    "date_created": "2026-03-06T16:28:28.000",
    "date_modified": "2026-03-06T16:28:29.000",
    "request_status": "Pending",
    "responsible_agency": "Department of Sanitation",
    "final_address": "4116 Hollygrove St",
    "address_councildis": "A",
    "status": "Assigned to Contractor",
    "contractor": "IV Waste",
    "rowid": "1263415",
    "final_x": "3666617.96052",
    "final_y": "538260.315849",
    "longitude": "-90.11483628882587",
    "latitude": "29.97447278647707",
    "geocoded_column": {
      "latitude": "29.97447278647707",
      "longitude": "-90.11483628882587"
    }
  },
  {
    "service_request": "2026-1263414",
    "request_type": "Trash/Recycling",
    "request_reason": "Request a Large Item Pick Up",
    "date_created": "2026-03-06T16:24:15.000",
    "date_modified": "2026-03-06T16:24:17.000",
    "request_status": "Pending",
    "responsible_agency": "Department of Sanitation",
    "final_address": "6900 Coventry St",
    "address_councildis": "E",
    "status": "Assigned to Contractor",
    "contractor": "Waste Pro",
    "rowid": "1263414",
    "final_x": "3698807.26416",
    "final_y": "559688.739997",
    "longitude": "-90.01239516298646",
    "latitude": "30.032412475617893",
    "geocoded_column": {
      "latitude": "30.032412475617893",
      "longitude": "-90.01239516298646"
    }
  },
  {
    "service_request": "2026-1263413",
    "request_type": "Roads and Streets",
    "request_reason": "Debris in Driving Lanes",
    "date_created": "2026-03-06T16:18:56.000",
    "date_modified": "2026-03-06T16:18:57.000",
    "request_status": "Pending",
    "responsible_agency": "Department of Public Works",
    "final_address": "1930 Sixth St",
    "address_councildis": "B",
    "status": "Pending",
    "rowid": "1263413",
    "final_x": "3674737.31643",
    "final_y": "523343.899195",
    "longitude": "-90.08970467524092",
    "latitude": "29.933217696672404",
    "geocoded_column": {
      "latitude": "29.933217696672404",
      "longitude": "-90.08970467524092"
    }
  },
  {
    "service_request": "2026-1263412",
    "request_type": "Trash/Recycling",
    "request_reason": "Dead Animal Pick Up",
    "date_created": "2026-03-06T16:18:47.000",
    "date_modified": "2026-03-06T16:18:49.000",
    "request_status": "Pending",
    "responsible_agency": "Department of Sanitation",
    "final_address": "BROADWAY ST & EARHART BLVD",
    "address_councildis": "B",
    "status": "Assigned to Contractor",
    "contractor": "IV Waste",
    "rowid": "1263412",
    "final_x": "3668145.2",
    "final_y": "532464.98",
    "longitude": "-90.11020825918047",
    "latitude": "29.958492793934585",
    "geocoded_column": {
      "latitude": "29.958492793934585",
      "longitude": "-90.11020825918047"
    }
  },
  {
    "service_request": "2026-1263411",
    "request_type": "Trash/Recycling",
    "request_reason": "Order Trash Cart",
    "date_created": "2026-03-06T16:13:12.000",
    "date_modified": "2026-03-06T16:13:14.000",
    "request_status": "Pending",
    "responsible_agency": "Department of Sanitation",
    "final_address": "0 BLK Ani St",
    "address_councildis": "D",
    "status": "Assigned to Contractor",
    "contractor": "IV Waste",
    "rowid": "1263411",
    "final_x": "3672561.96849",
    "final_y": "554474.005997",
    "longitude": "-90.0955104718156",
    "latitude": "30.01887964634331",
    "geocoded_column": {
      "latitude": "30.01887964634331",
      "longitude": "-90.0955104718156"
    }
  },
  {
    "service_request": "2026-1263410",
    "request_type": "Trash/Recycling",
    "request_reason": "Missed Trash Pick-Up",
    "date_created": "2026-03-06T16:08:27.000",
    "date_modified": "2026-03-06T16:08:28.000",
    "request_status": "Pending",
    "responsible_agency": "Department of Sanitation",
    "final_address": "2537 Eton St",
    "address_councildis": "C",
    "status": "Assigned to Contractor",
    "contractor": "Richards Disposal",
    "rowid": "1263410",
    "final_x": "3703992.72708",
    "final_y": "521887.778042",
    "longitude": "-89.99740153882706",
    "latitude": "29.928308374481688",
    "geocoded_column": {
      "latitude": "29.928308374481688",
      "longitude": "-89.99740153882706"
    }
  },
  {
    "service_request": "2026-1263409",
    "request_type": "General Services",
    "request_reason": "General Service Request",
    "date_created": "2026-03-06T16:07:03.000",
    "date_modified": "2026-03-06T16:07:06.000",
    "request_status": "Pending",
    "responsible_agency": "Orleans Parish Communication District",
    "final_address": "5211 Magazine St",
    "address_councildis": "B",
    "status": "Pending",
    "rowid": "1263409",
    "final_x": "3667942.2242",
    "final_y": "518659.436343",
    "longitude": "-90.11131413076522",
    "latitude": "29.920537949834422",
    "geocoded_column": {
      "latitude": "29.920537949834422",
      "longitude": "-90.11131413076522"
    }
  },
  {
    "service_request": "2026-1263408",
    "request_type": "Safety & Permits",
    "request_reason": "Zoning Enforcement",
    "date_created": "2026-03-06T16:05:46.000",
    "date_modified": "2026-03-06T16:05:49.000",
    "request_status": "Pending",
    "responsible_agency": "Safety and Permits",
    "final_address": "7133 St Charles Ave",
    "address_councildis": "A",
    "status": "Pending",
    "rowid": "1263408",
    "final_x": "3663060.96986",
    "final_y": "524705.924796",
    "longitude": "-90.12652103472567",
    "latitude": "29.93730613317918",
    "geocoded_column": {
      "latitude": "29.93730613317918",
      "longitude": "-90.12652103472567"
    }
  },
  {
    "service_request": "2026-1263407",
    "request_type": "General Services",
    "request_reason": "General Service Request",
    "date_created": "2026-03-06T16:02:34.000",
    "date_modified": "2026-03-06T16:02:35.000",
    "request_status": "Pending",
    "responsible_agency": "Orleans Parish Communication District",
    "final_address": "5211 Magazine St",
    "address_councildis": "B",
    "status": "Pending",
    "rowid": "1263407",
    "final_x": "3667942.2242",
    "final_y": "518659.436343",
    "longitude": "-90.11131413076522",
    "latitude": "29.920537949834422",
    "geocoded_column": {
      "latitude": "29.920537949834422",
      "longitude": "-90.11131413076522"
    }
  },
  {
    "service_request": "2026-1263406",
    "request_type": "Trash/Recycling",
    "request_reason": "Order Trash Cart",
    "date_created": "2026-03-06T16:01:26.000",
    "date_modified": "2026-03-06T16:01:42.000",
    "request_status": "Pending",
    "responsible_agency": "Department of Sanitation",
    "final_address": "5010 Congress Dr",
    "address_councildis": "D",
    "status": "Assigned to Contractor",
    "contractor": "IV Waste",
    "rowid": "1263406",
    "final_x": "3691917.49328",
    "final_y": "552769.927126",
    "longitude": "-90.03441512319202",
    "latitude": "30.013604932384165",
    "geocoded_column": {
      "latitude": "30.013604932384165",
      "longitude": "-90.03441512319202"
    }
  },
  {
    "service_request": "2026-1263405",
    "request_type": "Trash/Recycling",
    "request_reason": "Repair Trash Cart",
    "date_created": "2026-03-06T15:53:10.000",
    "date_modified": "2026-03-06T15:53:12.000",
    "request_status": "Pending",
    "responsible_agency": "Department of Sanitation",
    "final_address": "2111 Beck St",
    "address_councildis": "C",
    "status": "Assigned to Contractor",
    "contractor": "Richards Disposal",
    "rowid": "1263405",
    "final_x": "3700434.08004",
    "final_y": "523286.458235",
    "longitude": "-90.00858428307457",
    "latitude": "29.932267865595836",
    "geocoded_column": {
      "latitude": "29.932267865595836",
      "longitude": "-90.00858428307457"
    }
  },
  {
    "service_request": "2026-1263404",
    "request_type": "Property Maintenance",
    "request_reason": "Property Maintenance",
    "date_created": "2026-03-06T15:51:06.000",
    "date_modified": "2026-03-06T15:51:07.000",
    "request_status": "Pending",
    "responsible_agency": "Department of Code Enforcement",
    "final_address": "1808 Diana St",
    "address_councildis": "C",
    "status": "Pending",
    "rowid": "1263404",
    "final_x": "3690893.51523",
    "final_y": "527455.853759",
    "longitude": "-90.03855410039675",
    "latitude": "29.94403212943426",
    "geocoded_column": {
      "latitude": "29.94403212943426",
      "longitude": "-90.03855410039675"
    }
  },
  {
    "service_request": "2026-1263403",
    "request_type": "Utility Poles",
    "request_reason": "Wires Sagging/Hanging Low",
    "date_created": "2026-03-06T15:50:42.000",
    "date_modified": "2026-03-06T15:50:45.000",
    "request_status": "Pending",
    "responsible_agency": "Utility Company Collective",
    "final_address": "CONERY ST & PRYTANIA ST",
    "address_councildis": "B",
    "status": "Pending",
    "rowid": "1263403",
    "final_x": "3675998.5",
    "final_y": "521950.98",
    "longitude": "-90.0857710739367",
    "latitude": "29.929349924059725",
    "geocoded_column": {
      "latitude": "29.929349924059725",
      "longitude": "-90.0857710739367"
    }
  },
  {
    "service_request": "2026-1263402",
    "request_type": "Trash/Recycling",
    "request_reason": "Request a Large Item Pick Up",
    "date_created": "2026-03-06T15:47:52.000",
    "date_modified": "2026-03-06T15:47:54.000",
    "request_status": "Pending",
    "responsible_agency": "Department of Sanitation",
    "final_address": "1709 Third St",
    "address_councildis": "B",
    "status": "Assigned to Contractor",
    "contractor": "IV Waste",
    "rowid": "1263402",
    "final_x": "3676203.73614",
    "final_y": "523292.844091",
    "longitude": "-90.08507703494969",
    "latitude": "29.9330334674755",
    "geocoded_column": {
      "latitude": "29.9330334674755",
      "longitude": "-90.08507703494969"
    }
  },
  {
    "service_request": "2026-1263401",
    "request_type": "Property Maintenance",
    "request_reason": "Property Maintenance",
    "date_created": "2026-03-06T15:44:09.000",
    "date_modified": "2026-03-06T15:44:10.000",
    "request_status": "Pending",
    "responsible_agency": "Department of Code Enforcement",
    "final_address": "4047 Franklin Ave",
    "address_councildis": "D",
    "status": "Pending",
    "rowid": "1263401",
    "final_x": "3687105.35561",
    "final_y": "548011.707474",
    "longitude": "-90.04978733954778",
    "latitude": "30.000670679107603",
    "geocoded_column": {
      "latitude": "30.000670679107603",
      "longitude": "-90.04978733954778"
    }
  },
  {
    "service_request": "2026-1263400",
    "request_type": "Trash/Recycling",
    "request_reason": "Illegal Dumping",
    "date_created": "2026-03-06T15:43:37.000",
    "date_modified": "2026-03-06T15:43:40.000",
    "request_status": "Pending",
    "responsible_agency": "Department of Sanitation",
    "final_address": "4116 Hollygrove St",
    "address_councildis": "A",
    "status": "Pending",
    "rowid": "1263400",
    "final_x": "3666617.96052",
    "final_y": "538260.315849",
    "longitude": "-90.11483628882587",
    "latitude": "29.97447278647707",
    "geocoded_column": {
      "latitude": "29.97447278647707",
      "longitude": "-90.11483628882587"
    }
  },
  {
    "service_request": "2026-1263399",
    "request_type": "Street and Traffic Signs",
    "request_reason": "Traffic or Parking Sign Damaged or Missing",
    "date_created": "2026-03-06T15:36:46.000",
    "date_modified": "2026-03-06T15:36:48.000",
    "request_status": "Pending",
    "responsible_agency": "Department of Public Works",
    "final_address": "0 BLK McAlister Pl",
    "address_councildis": "A",
    "status": "Pending",
    "rowid": "1263399",
    "final_x": "3665141.27171",
    "final_y": "525531.366704",
    "longitude": "-90.11992576379487",
    "latitude": "29.939515425689827",
    "geocoded_column": {
      "latitude": "29.939515425689827",
      "longitude": "-90.11992576379487"
    }
  },
  {
    "service_request": "2026-1263398",
    "request_type": "Trash/Recycling",
    "request_reason": "Request a Large Item Pick Up",
    "date_created": "2026-03-06T15:33:26.000",
    "date_modified": "2026-03-06T15:33:27.000",
    "request_status": "Pending",
    "responsible_agency": "Department of Sanitation",
    "final_address": "7519 Burthe St",
    "address_councildis": "A",
    "status": "Assigned to Contractor",
    "contractor": "IV Waste",
    "rowid": "1263398",
    "final_x": "3662735.57741",
    "final_y": "526306.823486",
    "longitude": "-90.1274951367705",
    "latitude": "29.94171751522883",
    "geocoded_column": {
      "latitude": "29.94171751522883",
      "longitude": "-90.1274951367705"
    }
  },
  {
    "service_request": "2026-1263397",
    "request_type": "Trash/Recycling",
    "request_reason": "Repair Recycling Cart",
    "date_created": "2026-03-06T15:33:13.000",
    "date_modified": "2026-03-06T15:33:14.000",
    "request_status": "Pending",
    "responsible_agency": "Department of Sanitation",
    "final_address": "2839 Baronne St",
    "address_councildis": "B",
    "status": "Pending",
    "rowid": "1263397",
    "final_x": "3675217.21992",
    "final_y": "522991.245307",
    "longitude": "-90.0882017469979",
    "latitude": "29.932233682569613",
    "geocoded_column": {
      "latitude": "29.932233682569613",
      "longitude": "-90.0882017469979"
    }
  },
  {
    "service_request": "2026-1263396",
    "request_type": "Trash/Recycling",
    "request_reason": "Request a Large Item Pick Up",
    "date_created": "2026-03-06T15:31:53.000",
    "date_modified": "2026-03-06T15:32:04.000",
    "request_status": "Pending",
    "responsible_agency": "Department of Sanitation",
    "final_address": "2216 Clouet St",
    "address_councildis": "D",
    "status": "Assigned to Contractor",
    "contractor": "IV Waste",
    "rowid": "1263396",
    "final_x": "3690038.90633",
    "final_y": "540298.268299",
    "longitude": "-90.0407949474407",
    "latitude": "29.97937081630536",
    "geocoded_column": {
      "latitude": "29.97937081630536",
      "longitude": "-90.0407949474407"
    }
  },
  {
    "service_request": "2026-1263395",
    "request_type": "Trash/Recycling",
    "request_reason": "MIssed Recycling Pick-Up",
    "date_created": "2026-03-06T15:31:27.000",
    "date_modified": "2026-03-06T15:31:29.000",
    "request_status": "Pending",
    "responsible_agency": "Department of Sanitation",
    "final_address": "4811 Eunice Dr",
    "address_councildis": "E",
    "status": "Assigned to Contractor",
    "contractor": "Waste Pro",
    "rowid": "1263395",
    "final_x": "3710554.88625",
    "final_y": "556338.68681",
    "longitude": "-89.97539761464581",
    "latitude": "30.022823541021314",
    "geocoded_column": {
      "latitude": "30.022823541021314",
      "longitude": "-89.97539761464581"
    }
  },
  {
    "service_request": "2026-1263394",
    "request_type": "Trash/Recycling",
    "request_reason": "Request a Large Item Pick Up",
    "date_created": "2026-03-06T15:23:53.000",
    "date_modified": "2026-03-06T15:23:54.000",
    "request_status": "Pending",
    "responsible_agency": "Department of Sanitation",
    "final_address": "608 River Oaks Dr",
    "address_councildis": "C",
    "status": "Assigned to Contractor",
    "contractor": "Richards Disposal",
    "rowid": "1263394",
    "final_x": "3701546.71242",
    "final_y": "520588.055416",
    "longitude": "-90.00517057288094",
    "latitude": "29.924812774758163",
    "geocoded_column": {
      "latitude": "29.924812774758163",
      "longitude": "-90.00517057288094"
    }
  },
  {
    "service_request": "2026-1263393",
    "request_type": "Safety & Permits",
    "request_reason": "Licenses & Permits",
    "date_created": "2026-03-06T15:15:07.000",
    "date_modified": "2026-03-06T15:18:42.000",
    "request_status": "Pending",
    "responsible_agency": "Safety and Permits",
    "final_address": "4536 S Saratoga St",
    "address_councildis": "B",
    "status": "Pending",
    "rowid": "1263393",
    "final_x": "3669973.17063",
    "final_y": "522471.234426",
    "longitude": "-90.10477435450129",
    "latitude": "29.930959466914356",
    "geocoded_column": {
      "latitude": "29.930959466914356",
      "longitude": "-90.10477435450129"
    }
  },
  {
    "service_request": "2026-1263392",
    "request_type": "Trash/Recycling",
    "request_reason": "Repair Recycling Cart",
    "date_created": "2026-03-06T15:09:08.000",
    "date_modified": "2026-03-06T15:09:10.000",
    "request_status": "Pending",
    "responsible_agency": "Department of Sanitation",
    "final_address": "4902 Magnolia St",
    "address_councildis": "B",
    "status": "Pending",
    "rowid": "1263392",
    "final_x": "3669095.82593",
    "final_y": "524581.5735",
    "longitude": "-90.10747274745053",
    "latitude": "29.936788058901676",
    "geocoded_column": {
      "latitude": "29.936788058901676",
      "longitude": "-90.10747274745053"
    }
  },
  {
    "service_request": "2026-1263391",
    "request_type": "Property Maintenance",
    "request_reason": "Property Maintenance",
    "date_created": "2026-03-06T15:01:43.000",
    "date_modified": "2026-03-06T15:01:45.000",
    "request_status": "Pending",
    "responsible_agency": "Department of Code Enforcement",
    "final_address": "4440 Jeanne Marie Pl",
    "address_councildis": "D",
    "status": "Pending",
    "rowid": "1263391",
    "final_x": "3678430.58005",
    "final_y": "548945.403155",
    "longitude": "-90.07715923255043",
    "latitude": "30.003502349204762",
    "geocoded_column": {
      "latitude": "30.003502349204762",
      "longitude": "-90.07715923255043"
    }
  },
  {
    "service_request": "2026-1263390",
    "request_type": "Trash/Recycling",
    "request_reason": "Request a Large Item Pick Up",
    "date_created": "2026-03-06T15:00:18.000",
    "date_modified": "2026-03-06T15:00:31.000",
    "request_status": "Pending",
    "responsible_agency": "Department of Sanitation",
    "final_address": "1616 Spain St",
    "address_councildis": "D",
    "status": "Assigned to Contractor",
    "contractor": "IV Waste",
    "rowid": "1263390",
    "final_x": "3685944.60162",
    "final_y": "538376.898057",
    "longitude": "-90.0537941197977",
    "latitude": "29.9742140798663",
    "geocoded_column": {
      "latitude": "29.9742140798663",
      "longitude": "-90.0537941197977"
    }
  },
  {
    "service_request": "2026-1263389",
    "request_type": "Abandoned Vehicles",
    "request_reason": "Abandoned/Junk Vehicles",
    "date_created": "2026-03-06T14:58:41.000",
    "date_modified": "2026-03-06T14:58:42.000",
    "request_status": "Pending",
    "responsible_agency": "Department of Public Works",
    "final_address": "3529 Robert St",
    "address_councildis": "B",
    "status": "Pending",
    "rowid": "1263389",
    "final_x": "3668981.54343",
    "final_y": "527861.282751",
    "longitude": "-90.10772279349534",
    "latitude": "29.945809559967667",
    "geocoded_column": {
      "latitude": "29.945809559967667",
      "longitude": "-90.10772279349534"
    }
  },
  {
    "service_request": "2026-1263388",
    "request_type": "Alley Ways",
    "request_reason": "Alley Way Issues",
    "date_created": "2026-03-06T14:58:11.000",
    "date_modified": "2026-03-06T14:58:13.000",
    "request_status": "Pending",
    "responsible_agency": "Department of Public Works",
    "final_address": "6406 Vicksburg St",
    "address_councildis": "A",
    "status": "Pending",
    "rowid": "1263388",
    "final_x": "3669088.43022",
    "final_y": "550125.222804",
    "longitude": "-90.10663276188474",
    "latitude": "30.00702474396962",
    "geocoded_column": {
      "latitude": "30.00702474396962",
      "longitude": "-90.10663276188474"
    }
  },
  {
    "service_request": "2026-1263387",
    "request_type": "Roads and Streets",
    "request_reason": "Push-up/Pavement Expansion",
    "date_created": "2026-03-06T14:53:47.000",
    "date_modified": "2026-03-06T14:53:49.000",
    "request_status": "Pending",
    "responsible_agency": "Department of Public Works",
    "final_address": "8101 Spruce St",
    "address_councildis": "A",
    "status": "Pending",
    "rowid": "1263387",
    "final_x": "3663847.62771",
    "final_y": "530509.111234",
    "longitude": "-90.12384410637577",
    "latitude": "29.95324022943966",
    "geocoded_column": {
      "latitude": "29.95324022943966",
      "longitude": "-90.12384410637577"
    }
  },
  {
    "service_request": "2026-1263386",
    "request_type": "Healthy Homes",
    "request_reason": "Healthy Homes",
    "date_created": "2026-03-06T14:49:38.000",
    "date_modified": "2026-03-06T14:49:40.000",
    "request_status": "Pending",
    "responsible_agency": "Department of Code Enforcement",
    "final_address": "618 Dauphine St",
    "address_councildis": "C",
    "status": "Pending",
    "rowid": "1263386",
    "final_x": "3681918.80968",
    "final_y": "532657.906564",
    "longitude": "-90.06670815396339",
    "latitude": "29.9586118162204",
    "geocoded_column": {
      "latitude": "29.9586118162204",
      "longitude": "-90.06670815396339"
    }
  },
  {
    "service_request": "2026-1263385",
    "request_type": "Roads and Streets",
    "request_reason": "Pothole",
    "date_created": "2026-03-06T14:47:57.000",
    "date_modified": "2026-03-06T14:49:19.000",
    "request_status": "Pending",
    "responsible_agency": "Department of Public Works",
    "final_address": "CAMP ST & ANDREW HIGGINS ST & CAMP EXIT",
    "address_councildis": "B",
    "status": "Pending",
    "rowid": "1263385",
    "final_x": "3680554.8",
    "final_y": "526985.78",
    "longitude": "-90.07121262529816",
    "latitude": "29.943056765689015",
    "geocoded_column": {
      "latitude": "29.943056765689015",
      "longitude": "-90.07121262529816"
    }
  },
  {
    "service_request": "2026-1263384",
    "request_type": "Streetlights",
    "request_reason": "Streetlight Outage/Malfunction",
    "date_created": "2026-03-06T14:44:14.000",
    "date_modified": "2026-03-06T14:44:16.000",
    "request_status": "Pending",
    "responsible_agency": "Department of Public Works",
    "final_address": "8713 Curran Rd",
    "address_councildis": "E",
    "status": "Pending",
    "rowid": "1263384",
    "final_x": "3704449.6611",
    "final_y": "562775.022624",
    "longitude": "-89.99445094392858",
    "latitude": "30.04071848122416",
    "geocoded_column": {
      "latitude": "30.04071848122416",
      "longitude": "-89.99445094392858"
    }
  },
  {
    "service_request": "2026-1263383",
    "request_type": "Health Related Request",
    "request_reason": "Homeless Encampment Complaint",
    "date_created": "2026-03-06T14:44:03.000",
    "date_modified": "2026-03-06T14:44:48.000",
    "request_status": "Pending",
    "responsible_agency": "Office Of Homeless Services And Strategy",
    "final_address": "2500 BLK Decatur St",
    "address_councildis": "C",
    "status": "Pending",
    "rowid": "1263383",
    "final_x": "3686433.27178",
    "final_y": "534255.236723",
    "longitude": "-90.05239630830124",
    "latitude": "29.962865933197502",
    "geocoded_column": {
      "latitude": "29.962865933197502",
      "longitude": "-90.05239630830124"
    }
  },
  {
    "service_request": "2026-1263382",
    "request_type": "Streetlights",
    "request_reason": "Streetlight Outage/Malfunction",
    "date_created": "2026-03-06T14:43:25.000",
    "date_modified": "2026-03-06T14:43:27.000",
    "request_status": "Pending",
    "responsible_agency": "Department of Public Works",
    "final_address": "CROWDER BLVD & MORRISON RD",
    "address_councildis": "E",
    "status": "Pending",
    "rowid": "1263382",
    "final_x": "3703739.9",
    "final_y": "560831.58",
    "longitude": "-89.99676565482832",
    "latitude": "30.035397561791353",
    "geocoded_column": {
      "latitude": "30.035397561791353",
      "longitude": "-89.99676565482832"
    }
  },
  {
    "service_request": "2026-1263381",
    "request_type": "Trash/Recycling",
    "request_reason": "Request a Large Item Pick Up",
    "date_created": "2026-03-06T14:42:54.000",
    "date_modified": "2026-03-06T14:42:57.000",
    "request_status": "Pending",
    "responsible_agency": "Department of Sanitation",
    "final_address": "2218 Bienville Ave",
    "address_councildis": "B",
    "status": "Assigned to Contractor",
    "contractor": "IV Waste",
    "rowid": "1263381",
    "final_x": "3677261.23355",
    "final_y": "534558.949765",
    "longitude": "-90.08134997925727",
    "latitude": "29.96397978827964",
    "geocoded_column": {
      "latitude": "29.96397978827964",
      "longitude": "-90.08134997925727"
    }
  },
  {
    "service_request": "2026-1263380",
    "request_type": "Abandoned Vehicles",
    "request_reason": "Abandoned/Junk Vehicles",
    "date_created": "2026-03-06T14:41:43.000",
    "date_modified": "2026-03-06T14:41:44.000",
    "request_status": "Pending",
    "responsible_agency": "Department of Public Works",
    "final_address": "3609 Annunciation St",
    "address_councildis": "B",
    "status": "Pending",
    "rowid": "1263380",
    "final_x": "3674438.86107",
    "final_y": "518278.189174",
    "longitude": "-90.0908202943593",
    "latitude": "29.91929753078668",
    "geocoded_column": {
      "latitude": "29.91929753078668",
      "longitude": "-90.0908202943593"
    }
  },
  {
    "service_request": "2026-1263379",
    "request_type": "Trash/Recycling",
    "request_reason": "Request a Large Item Pick Up",
    "date_created": "2026-03-06T14:40:35.000",
    "date_modified": "2026-03-06T14:40:37.000",
    "request_status": "Pending",
    "responsible_agency": "Department of Sanitation",
    "final_address": "826 N Rocheblave St",
    "address_councildis": "D",
    "status": "Assigned to Contractor",
    "contractor": "IV Waste",
    "rowid": "1263379",
    "final_x": "3677902.4347",
    "final_y": "536773.85108",
    "longitude": "-90.07924857196839",
    "latitude": "29.970050732974858",
    "geocoded_column": {
      "latitude": "29.970050732974858",
      "longitude": "-90.07924857196839"
    }
  },
  {
    "service_request": "2026-1263378",
    "request_type": "Trash/Recycling",
    "request_reason": "Order Recycling Cart",
    "date_created": "2026-03-06T14:39:18.000",
    "date_modified": "2026-03-06T14:39:20.000",
    "request_status": "Pending",
    "responsible_agency": "Department of Sanitation",
    "final_address": "1126 N Prieur St",
    "address_councildis": "D",
    "status": "Pending",
    "rowid": "1263378",
    "final_x": "3679999.00661",
    "final_y": "536631.165511",
    "longitude": "-90.07263234659746",
    "latitude": "29.969595135661493",
    "geocoded_column": {
      "latitude": "29.969595135661493",
      "longitude": "-90.07263234659746"
    }
  },
  {
    "service_request": "2026-1263377",
    "request_type": "Trash/Recycling",
    "request_reason": "Illegal Dumping",
    "date_created": "2026-03-06T14:38:57.000",
    "date_modified": "2026-03-06T14:42:02.000",
    "request_status": "Pending",
    "responsible_agency": "Department of Sanitation",
    "final_address": "1401 Hero Blvd",
    "address_councildis": "C",
    "status": "Pending",
    "rowid": "1263377",
    "final_x": "3689320.95075",
    "final_y": "523374.586491",
    "longitude": "-90.04366413830826",
    "latitude": "29.932858796191994",
    "geocoded_column": {
      "latitude": "29.932858796191994",
      "longitude": "-90.04366413830826"
    }
  },
  {
    "service_request": "2026-1263376",
    "request_type": "Abandoned Vehicles",
    "request_reason": "Abandoned/Junk Vehicles",
    "date_created": "2026-03-06T14:37:02.000",
    "date_modified": "2026-03-06T14:37:03.000",
    "request_status": "Pending",
    "responsible_agency": "Department of Public Works",
    "final_address": "4402 Fontainebleau Dr",
    "address_councildis": "A",
    "status": "Pending",
    "rowid": "1263376",
    "final_x": "3669201.53294",
    "final_y": "529468.699649",
    "longitude": "-90.106973893277",
    "latitude": "29.95022296031851",
    "geocoded_column": {
      "latitude": "29.95022296031851",
      "longitude": "-90.106973893277"
    }
  },
  {
    "service_request": "2026-1263375",
    "request_type": "Streetlights",
    "request_reason": "Streetlight Outage/Malfunction",
    "date_created": "2026-03-06T14:36:47.000",
    "date_modified": "2026-03-06T14:37:20.000",
    "request_status": "Pending",
    "responsible_agency": "Department of Public Works",
    "final_address": "4500 St Ferdinand Dr",
    "address_councildis": "D",
    "status": "Pending",
    "rowid": "1263375",
    "final_x": "3689481.03375",
    "final_y": "549648.747476",
    "longitude": "-90.04222415824658",
    "latitude": "30.005098554760806",
    "geocoded_column": {
      "latitude": "30.005098554760806",
      "longitude": "-90.04222415824658"
    }
  },
  {
    "service_request": "2026-1263374",
    "request_type": "Trash/Recycling",
    "request_reason": "Return Trash Cart",
    "date_created": "2026-03-06T14:33:37.000",
    "date_modified": "2026-03-06T15:53:05.000",
    "request_status": "Pending",
    "responsible_agency": "Department of Sanitation",
    "final_address": "834 Lakeshore Prkwy",
    "address_councildis": "D",
    "status": "Assigned to Contractor",
    "contractor": "IV Waste",
    "rowid": "1263374",
    "final_x": "3670457.32417",
    "final_y": "557040.811802",
    "longitude": "-90.10207327369655",
    "latitude": "30.02599979236278",
    "geocoded_column": {
      "latitude": "30.02599979236278",
      "longitude": "-90.10207327369655"
    }
  },
  {
    "service_request": "2026-1263373",
    "request_type": "Trash/Recycling",
    "request_reason": "Return Recycling Cart",
    "date_created": "2026-03-06T14:32:34.000",
    "date_modified": "2026-03-06T14:32:35.000",
    "request_status": "Pending",
    "responsible_agency": "Department of Sanitation",
    "final_address": "26 Lakewood Pl",
    "address_councildis": "C",
    "status": "Pending",
    "rowid": "1263373",
    "final_x": "3701220.18666",
    "final_y": "512539.516273",
    "longitude": "-90.00649549713462",
    "latitude": "29.902692437431437",
    "geocoded_column": {
      "latitude": "29.902692437431437",
      "longitude": "-90.00649549713462"
    }
  },
  {
    "service_request": "2026-1263372",
    "request_type": "Trash/Recycling",
    "request_reason": "Request a Large Item Pick Up",
    "date_created": "2026-03-06T14:31:35.000",
    "date_modified": "2026-03-06T14:31:37.000",
    "request_status": "Pending",
    "responsible_agency": "Department of Sanitation",
    "final_address": "7141 Foch Rd",
    "address_councildis": "D",
    "status": "Assigned to Contractor",
    "contractor": "Waste Pro",
    "rowid": "1263372",
    "final_x": "3696480.85072",
    "final_y": "557201.470107",
    "longitude": "-90.01983686582311",
    "latitude": "30.025646971874373",
    "geocoded_column": {
      "latitude": "30.025646971874373",
      "longitude": "-90.01983686582311"
    }
  },
  {
    "service_request": "2026-1263371",
    "request_type": "Trash/Recycling",
    "request_reason": "Return Trash Cart",
    "date_created": "2026-03-06T14:30:44.000",
    "date_modified": "2026-03-06T14:31:06.000",
    "request_status": "Pending",
    "responsible_agency": "Department of Sanitation",
    "final_address": "2721 Loyola Ave",
    "address_councildis": "B",
    "status": "Assigned to Contractor",
    "contractor": "IV Waste",
    "rowid": "1263371",
    "final_x": "3674824.49966",
    "final_y": "524410.17702",
    "longitude": "-90.08939289944816",
    "latitude": "29.936147011224193",
    "geocoded_column": {
      "latitude": "29.936147011224193",
      "longitude": "-90.08939289944816"
    }
  },
  {
    "service_request": "2026-1263370",
    "request_type": "Abandoned Vehicles",
    "request_reason": "Abandoned/Junk Vehicles",
    "date_created": "2026-03-06T14:30:05.000",
    "date_modified": "2026-03-06T14:35:51.000",
    "request_status": "Pending",
    "responsible_agency": "Department of Public Works",
    "final_address": "1600 BLK Pauline St",
    "address_councildis": "D",
    "status": "Pending",
    "rowid": "1263370",
    "final_x": "3691723.62505",
    "final_y": "537508.885728",
    "longitude": "-90.03557373995835",
    "latitude": "29.971648643969356",
    "geocoded_column": {
      "latitude": "29.971648643969356",
      "longitude": "-90.03557373995835"
    }
  },
  {
    "service_request": "2026-1263369",
    "request_type": "Trash/Recycling",
    "request_reason": "Request a Large Item Pick Up",
    "date_created": "2026-03-06T14:29:44.000",
    "date_modified": "2026-03-06T14:29:46.000",
    "request_status": "Pending",
    "responsible_agency": "Department of Sanitation",
    "final_address": "26 Lakewood Pl",
    "address_councildis": "C",
    "status": "Assigned to Contractor",
    "contractor": "Richards Disposal",
    "rowid": "1263369",
    "final_x": "3701220.18666",
    "final_y": "512539.516273",
    "longitude": "-90.00649549713462",
    "latitude": "29.902692437431437",
    "geocoded_column": {
      "latitude": "29.902692437431437",
      "longitude": "-90.00649549713462"
    }
  },
  {
    "service_request": "2026-1263368",
    "request_type": "Trash/Recycling",
    "request_reason": "Request a Large Item Pick Up",
    "date_created": "2026-03-06T14:28:06.000",
    "date_modified": "2026-03-06T14:28:09.000",
    "request_status": "Pending",
    "responsible_agency": "Department of Sanitation",
    "final_address": "1741 Louisa St",
    "address_councildis": "D",
    "status": "Assigned to Contractor",
    "contractor": "IV Waste",
    "rowid": "1263368",
    "final_x": "3690229.3119",
    "final_y": "538399.952521",
    "longitude": "-90.04026123354087",
    "latitude": "29.97414521430932",
    "geocoded_column": {
      "latitude": "29.97414521430932",
      "longitude": "-90.04026123354087"
    }
  },
  {
    "service_request": "2026-1263367",
    "request_type": "Trash/Recycling",
    "request_reason": "Repair Recycling Cart",
    "date_created": "2026-03-06T14:26:49.000",
    "date_modified": "2026-03-06T14:26:50.000",
    "request_status": "Pending",
    "responsible_agency": "Department of Sanitation",
    "final_address": "608 Jena St",
    "address_councildis": "B",
    "status": "Pending",
    "rowid": "1263367",
    "final_x": "3670720.86619",
    "final_y": "517795.530742",
    "longitude": "-90.10257252051969",
    "latitude": "29.918080707495",
    "geocoded_column": {
      "latitude": "29.918080707495",
      "longitude": "-90.10257252051969"
    }
  },
  {
    "service_request": "2026-1263366",
    "request_type": "Trash/Recycling",
    "request_reason": "Replace Trash Cart",
    "date_created": "2026-03-06T14:24:26.000",
    "date_modified": "2026-03-06T14:24:29.000",
    "request_status": "Pending",
    "responsible_agency": "Department of Sanitation",
    "final_address": "7472 Garfield St",
    "address_councildis": "A",
    "status": "Assigned to Contractor",
    "contractor": "IV Waste",
    "rowid": "1263366",
    "final_x": "3661029.3136",
    "final_y": "523998.158076",
    "longitude": "-90.13295854714063",
    "latitude": "29.93541867798147",
    "geocoded_column": {
      "latitude": "29.93541867798147",
      "longitude": "-90.13295854714063"
    }
  },
  {
    "service_request": "2026-1263365",
    "request_type": "Roads and Streets",
    "request_reason": "Street Subsidence (Sinking)",
    "date_created": "2026-03-06T14:23:34.000",
    "date_modified": "2026-03-06T14:23:35.000",
    "request_status": "Pending",
    "responsible_agency": "Sewerage & Water Board",
    "final_address": "4627 Palmyra St",
    "address_councildis": "A",
    "status": "Pending",
    "rowid": "1263365",
    "final_x": "3668767.99092",
    "final_y": "539163.389322",
    "longitude": "-90.1080154550975",
    "latitude": "29.976892892344466",
    "geocoded_column": {
      "latitude": "29.976892892344466",
      "longitude": "-90.1080154550975"
    }
  },
  {
    "service_request": "2026-1263364",
    "request_type": "Trash/Recycling",
    "request_reason": "Return Trash Cart",
    "date_created": "2026-03-06T14:22:11.000",
    "date_modified": "2026-03-06T15:52:29.000",
    "case_close_date": "2026-03-06T09:52:27.000",
    "request_status": "Closed",
    "responsible_agency": "Department of Sanitation",
    "final_address": "4235 S Carrollton Ave",
    "address_councildis": "A",
    "status": "Assigned to Contractor",
    "contractor": "IV Waste",
    "contractor_action": "Duplicate",
    "rowid": "1263364",
    "final_x": "3669655.08826",
    "final_y": "536861.454216",
    "longitude": "-90.10529163046427",
    "latitude": "29.97053723140887",
    "geocoded_column": {
      "latitude": "29.97053723140887",
      "longitude": "-90.10529163046427"
    }
  },
  {
    "service_request": "2026-1263363",
    "request_type": "Trash/Recycling",
    "request_reason": "Request a Large Item Pick Up",
    "date_created": "2026-03-06T14:15:00.000",
    "date_modified": "2026-03-06T14:15:01.000",
    "request_status": "Pending",
    "responsible_agency": "Department of Sanitation",
    "final_address": "602 Thayer St",
    "address_councildis": "C",
    "status": "Assigned to Contractor",
    "contractor": "Richards Disposal",
    "rowid": "1263363",
    "final_x": "3689546.41494",
    "final_y": "529341.541825",
    "longitude": "-90.04274019846433",
    "latitude": "29.949258912330063",
    "geocoded_column": {
      "latitude": "29.949258912330063",
      "longitude": "-90.04274019846433"
    }
  },
  {
    "service_request": "2026-1263362",
    "request_type": "Health Related Request",
    "request_reason": "Homeless Encampment Complaint",
    "date_created": "2026-03-06T14:14:33.000",
    "date_modified": "2026-03-06T14:59:15.000",
    "case_close_date": "2026-03-06T08:59:14.000",
    "request_status": "Closed",
    "responsible_agency": "Office Of Homeless Services And Strategy",
    "final_address": "ELYSIAN FIELDS AV OVER & FLORIDA AVE",
    "address_councildis": "D",
    "status": "Referred to External Agency",
    "rowid": "1263362",
    "final_x": "3684508.45",
    "final_y": "542348.88",
    "longitude": "-90.05819021267064",
    "latitude": "29.98517965418547",
    "geocoded_column": {
      "latitude": "29.98517965418547",
      "longitude": "-90.05819021267064"
    }
  },
  {
    "service_request": "2026-1263361",
    "request_type": "Trash/Recycling",
    "request_reason": "Return Trash Cart",
    "date_created": "2026-03-06T14:14:04.000",
    "date_modified": "2026-03-06T15:57:08.000",
    "request_status": "Pending",
    "responsible_agency": "Department of Sanitation",
    "final_address": "4235 S Carrollton Ave",
    "address_councildis": "A",
    "status": "Assigned to Contractor",
    "contractor": "IV Waste",
    "rowid": "1263361",
    "final_x": "3669655.08826",
    "final_y": "536861.454216",
    "longitude": "-90.10529163046427",
    "latitude": "29.97053723140887",
    "geocoded_column": {
      "latitude": "29.97053723140887",
      "longitude": "-90.10529163046427"
    }
  },
  {
    "service_request": "2026-1263360",
    "request_type": "Drainage",
    "request_reason": "Catch Basin Not Draining",
    "date_created": "2026-03-06T14:13:41.000",
    "date_modified": "2026-03-06T14:13:44.000",
    "request_status": "Pending",
    "responsible_agency": "Sewerage & Water Board",
    "final_address": "PERDIDO ST & S GAYOSO ST",
    "address_councildis": "B",
    "status": "Pending",
    "rowid": "1263360",
    "final_x": "3672561.6",
    "final_y": "533520.08",
    "longitude": "-90.09622644069105",
    "latitude": "29.96126360144017",
    "geocoded_column": {
      "latitude": "29.96126360144017",
      "longitude": "-90.09622644069105"
    }
  },
  {
    "service_request": "2026-1263359",
    "request_type": "Mosquito, Termite & Rodent Control",
    "request_reason": "Rodent Complaint (Mice & Rats)",
    "date_created": "2026-03-06T14:13:18.000",
    "date_modified": "2026-03-06T14:13:19.000",
    "request_status": "Pending",
    "responsible_agency": "Mosquito, Termite & Rodent Control Board",
    "final_address": "4802 St Anthony Ave",
    "address_councildis": "D",
    "status": "Pending",
    "rowid": "1263359",
    "final_x": "3682310.898",
    "final_y": "550220.773076",
    "longitude": "-90.06485609715233",
    "latitude": "30.006891618238267",
    "geocoded_column": {
      "latitude": "30.006891618238267",
      "longitude": "-90.06485609715233"
    }
  },
  {
    "service_request": "2026-1263358",
    "request_type": "Mosquito, Termite & Rodent Control",
    "request_reason": "Rodent Complaint (Mice & Rats)",
    "date_created": "2026-03-06T14:13:12.000",
    "date_modified": "2026-03-06T14:13:13.000",
    "request_status": "Pending",
    "responsible_agency": "Mosquito, Termite & Rodent Control Board",
    "final_address": "4725 Cartier Ave",
    "address_councildis": "D",
    "status": "Pending",
    "rowid": "1263358",
    "final_x": "3677855.22971",
    "final_y": "550107.094548",
    "longitude": "-90.0789366802513",
    "latitude": "30.006713917724966",
    "geocoded_column": {
      "latitude": "30.006713917724966",
      "longitude": "-90.0789366802513"
    }
  },
  {
    "service_request": "2026-1263357",
    "request_type": "Road Striping",
    "request_reason": "Lane Striping or other Pavement Markings",
    "date_created": "2026-03-06T14:11:53.000",
    "date_modified": "2026-03-06T14:11:54.000",
    "request_status": "Pending",
    "responsible_agency": "Department of Public Works",
    "final_address": "2200 BLK Tchoupitoulas St",
    "address_councildis": "B",
    "status": "Pending",
    "rowid": "1263357",
    "final_x": "3680413.16998",
    "final_y": "519712.189366",
    "longitude": "-90.07191259533315",
    "latitude": "29.923061079080675",
    "geocoded_column": {
      "latitude": "29.923061079080675",
      "longitude": "-90.07191259533315"
    }
  },
  {
    "service_request": "2026-1263356",
    "request_type": "New Orleans Recreation Development Commission (NORDC)",
    "request_reason": "Facilities and Parks Maintenance/Clean Up",
    "date_created": "2026-03-06T14:11:51.000",
    "date_modified": "2026-03-06T14:11:53.000",
    "request_status": "Pending",
    "responsible_agency": "New Orleans Recreation Development Commission",
    "final_address": "5205 Perlita St",
    "address_councildis": "D",
    "status": "Pending",
    "rowid": "1263356",
    "final_x": "3678638.16123",
    "final_y": "551311.864533",
    "longitude": "-90.07642144321284",
    "latitude": "30.010003013142793",
    "geocoded_column": {
      "latitude": "30.010003013142793",
      "longitude": "-90.07642144321284"
    }
  },
  {
    "service_request": "2026-1263355",
    "request_type": "Trash/Recycling",
    "request_reason": "Repair Trash Cart",
    "date_created": "2026-03-06T14:05:15.000",
    "date_modified": "2026-03-06T14:05:22.000",
    "request_status": "Pending",
    "responsible_agency": "Department of Sanitation",
    "final_address": "5516 N Rampart St",
    "address_councildis": "E",
    "status": "Assigned to Contractor",
    "contractor": "Waste Pro",
    "rowid": "1263355",
    "final_x": "3697727.31927",
    "final_y": "533327.569348",
    "longitude": "-90.01676500246836",
    "latitude": "29.959963182799722",
    "geocoded_column": {
      "latitude": "29.959963182799722",
      "longitude": "-90.01676500246836"
    }
  },
  {
    "service_request": "2026-1263354",
    "request_type": "Trash/Recycling",
    "request_reason": "Request a Large Item Pick Up",
    "date_created": "2026-03-06T14:01:02.000",
    "date_modified": "2026-03-06T14:03:04.000",
    "request_status": "Pending",
    "responsible_agency": "Department of Sanitation",
    "final_address": "1717 Foucher St",
    "address_councildis": "B",
    "status": "Assigned to Contractor",
    "contractor": "IV Waste",
    "rowid": "1263354",
    "final_x": "3673454.21569",
    "final_y": "521840.798906",
    "longitude": "-90.09380667978644",
    "latitude": "29.92912288657063",
    "geocoded_column": {
      "latitude": "29.92912288657063",
      "longitude": "-90.09380667978644"
    }
  },
  {
    "service_request": "2026-1263353",
    "request_type": "Roads and Streets",
    "request_reason": "Pothole",
    "date_created": "2026-03-06T13:59:52.000",
    "date_modified": "2026-03-06T14:00:49.000",
    "request_status": "Pending",
    "responsible_agency": "Department of Public Works",
    "final_address": "2417 Onzaga St",
    "address_councildis": "D",
    "status": "Pending",
    "rowid": "1263353",
    "final_x": "3680076.89423",
    "final_y": "539916.066634",
    "longitude": "-90.07227219922254",
    "latitude": "29.978625123333323",
    "geocoded_column": {
      "latitude": "29.978625123333323",
      "longitude": "-90.07227219922254"
    }
  },
  {
    "service_request": "2026-1263352",
    "request_type": "Roads and Streets",
    "request_reason": "Street Subsidence (Sinking)",
    "date_created": "2026-03-06T13:57:35.000",
    "date_modified": "2026-03-06T13:57:36.000",
    "request_status": "Pending",
    "responsible_agency": "Sewerage & Water Board",
    "final_address": "8553 Chef Menteur Hwy",
    "address_councildis": "E",
    "status": "Pending",
    "rowid": "1263352",
    "final_x": "3707110.20606",
    "final_y": "553436.067159",
    "longitude": "-89.98638973511878",
    "latitude": "30.014954258896108",
    "geocoded_column": {
      "latitude": "30.014954258896108",
      "longitude": "-89.98638973511878"
    }
  },
  {
    "service_request": "2026-1263351",
    "request_type": "Trash/Recycling",
    "request_reason": "Request a Large Item Pick Up",
    "date_created": "2026-03-06T13:56:46.000",
    "date_modified": "2026-03-06T13:56:54.000",
    "request_status": "Pending",
    "responsible_agency": "Department of Sanitation",
    "final_address": "4325 St Claude Ave",
    "address_councildis": "D",
    "status": "Assigned to Contractor",
    "contractor": "IV Waste",
    "rowid": "1263351",
    "final_x": "3692962.5199",
    "final_y": "535185.670982",
    "longitude": "-90.03174448280637",
    "latitude": "29.96522198550151",
    "geocoded_column": {
      "latitude": "29.96522198550151",
      "longitude": "-90.03174448280637"
    }
  },
  {
    "service_request": "2026-1263350",
    "request_type": "Trash/Recycling",
    "request_reason": "Request a Large Item Pick Up",
    "date_created": "2026-03-06T13:53:22.000",
    "date_modified": "2026-03-06T13:53:24.000",
    "request_status": "Pending",
    "responsible_agency": "Department of Sanitation",
    "final_address": "1717 Dufossat St",
    "address_councildis": "B",
    "status": "Assigned to Contractor",
    "contractor": "IV Waste",
    "rowid": "1263350",
    "final_x": "3668208.43674",
    "final_y": "521948.332346",
    "longitude": "-90.11036301569239",
    "latitude": "29.92957356234371",
    "geocoded_column": {
      "latitude": "29.92957356234371",
      "longitude": "-90.11036301569239"
    }
  },
  {
    "service_request": "2026-1263349",
    "request_type": "Trash/Recycling",
    "request_reason": "Repair Recycling Cart",
    "date_created": "2026-03-06T13:50:17.000",
    "date_modified": "2026-03-06T13:50:18.000",
    "request_status": "Pending",
    "responsible_agency": "Department of Sanitation",
    "final_address": "1204 Gallier St",
    "address_councildis": "C",
    "status": "Pending",
    "rowid": "1263349",
    "final_x": "3690526.33916",
    "final_y": "536062.707463",
    "longitude": "-90.03940651163276",
    "latitude": "29.967709394844814",
    "geocoded_column": {
      "latitude": "29.967709394844814",
      "longitude": "-90.03940651163276"
    }
  },
  {
    "service_request": "2026-1263348",
    "request_type": "Trash/Recycling",
    "request_reason": "Request a Large Item Pick Up",
    "date_created": "2026-03-06T13:47:20.000",
    "date_modified": "2026-03-06T13:47:22.000",
    "request_status": "Pending",
    "responsible_agency": "Department of Sanitation",
    "final_address": "9021 Bunker Hill Rd",
    "address_councildis": "E",
    "status": "Assigned to Contractor",
    "contractor": "Waste Pro",
    "rowid": "1263348",
    "final_x": "3706238.23083",
    "final_y": "561853.372511",
    "longitude": "-89.98883268264953",
    "latitude": "30.038126722567913",
    "geocoded_column": {
      "latitude": "30.038126722567913",
      "longitude": "-89.98883268264953"
    }
  },
  {
    "service_request": "2026-1263347",
    "request_type": "Trash/Recycling",
    "request_reason": "Order Recycling Cart",
    "date_created": "2026-03-06T13:42:38.000",
    "date_modified": "2026-03-06T13:42:39.000",
    "request_status": "Pending",
    "responsible_agency": "Department of Sanitation",
    "final_address": "1622 Spain St",
    "address_councildis": "D",
    "status": "Pending",
    "rowid": "1263347",
    "final_x": "3685937.40476",
    "final_y": "538428.932169",
    "longitude": "-90.05381501402967",
    "latitude": "29.974357376430497",
    "geocoded_column": {
      "latitude": "29.974357376430497",
      "longitude": "-90.05381501402967"
    }
  },
  {
    "service_request": "2026-1263346",
    "request_type": "Trash/Recycling",
    "request_reason": "Request a Large Item Pick Up",
    "date_created": "2026-03-06T13:39:58.000",
    "date_modified": "2026-03-06T13:40:00.000",
    "request_status": "Pending",
    "responsible_agency": "Department of Sanitation",
    "final_address": "1017 Saux Ln",
    "address_councildis": "C",
    "status": "Assigned to Contractor",
    "contractor": "Richards Disposal",
    "rowid": "1263346",
    "final_x": "3692577.43997",
    "final_y": "527450.651455",
    "longitude": "-90.03323769139695",
    "latitude": "29.94396539673697",
    "geocoded_column": {
      "latitude": "29.94396539673697",
      "longitude": "-90.03323769139695"
    }
  },
  {
    "service_request": "2026-1263345",
    "request_type": "Trash/Recycling",
    "request_reason": "Request a Large Item Pick Up",
    "date_created": "2026-03-06T13:39:31.000",
    "date_modified": "2026-03-06T13:39:33.000",
    "request_status": "Pending",
    "responsible_agency": "Department of Sanitation",
    "final_address": "121 Mary Jane Ln",
    "address_councildis": "E",
    "status": "Assigned to Contractor",
    "contractor": "Waste Pro",
    "rowid": "1263345",
    "final_x": "3718076.41529",
    "final_y": "571619.16068",
    "longitude": "-89.95104913794462",
    "latitude": "30.064591366342825",
    "geocoded_column": {
      "latitude": "30.064591366342825",
      "longitude": "-89.95104913794462"
    }
  },
  {
    "service_request": "2026-1263344",
    "request_type": "Trash/Recycling",
    "request_reason": "Return Trash Cart",
    "date_created": "2026-03-06T13:35:14.000",
    "date_modified": "2026-03-06T13:35:17.000",
    "request_status": "Pending",
    "responsible_agency": "Department of Sanitation",
    "final_address": "121 N Hennessey St",
    "address_councildis": "A",
    "status": "Assigned to Contractor",
    "contractor": "IV Waste",
    "rowid": "1263344",
    "final_x": "3670390.74497",
    "final_y": "539186.848138",
    "longitude": "-90.10288947413162",
    "latitude": "29.976909581260333",
    "geocoded_column": {
      "latitude": "29.976909581260333",
      "longitude": "-90.10288947413162"
    }
  },
  {
    "service_request": "2026-1263343",
    "request_type": "Trash/Recycling",
    "request_reason": "Order Trash Cart",
    "date_created": "2026-03-06T13:32:45.000",
    "date_modified": "2026-03-06T13:32:47.000",
    "request_status": "Pending",
    "responsible_agency": "Department of Sanitation",
    "final_address": "2614 St Philip St",
    "address_councildis": "D",
    "status": "Assigned to Contractor",
    "contractor": "IV Waste",
    "rowid": "1263343",
    "final_x": "3677698.86779",
    "final_y": "537574.51892",
    "longitude": "-90.07986379601121",
    "latitude": "29.972258420282646",
    "geocoded_column": {
      "latitude": "29.972258420282646",
      "longitude": "-90.07986379601121"
    }
  },
  {
    "service_request": "2026-1263342",
    "request_type": "Trash/Recycling",
    "request_reason": "Request a Large Item Pick Up",
    "date_created": "2026-03-06T13:32:25.000",
    "date_modified": "2026-03-06T13:32:26.000",
    "request_status": "Pending",
    "responsible_agency": "Department of Sanitation",
    "final_address": "4534 Dodt Ave",
    "address_councildis": "E",
    "status": "Assigned to Contractor",
    "contractor": "Waste Pro",
    "rowid": "1263342",
    "final_x": "3705479.3178",
    "final_y": "554051.656024",
    "longitude": "-89.9915197445933",
    "latitude": "30.01669950453427",
    "geocoded_column": {
      "latitude": "30.01669950453427",
      "longitude": "-89.9915197445933"
    }
  },
  {
    "service_request": "2026-1263341",
    "request_type": "Trash/Recycling",
    "request_reason": "Order Trash Cart",
    "date_created": "2026-03-06T13:30:39.000",
    "date_modified": "2026-03-06T13:30:41.000",
    "request_status": "Pending",
    "responsible_agency": "Department of Sanitation",
    "final_address": "2612 St Philip St",
    "address_councildis": "D",
    "status": "Assigned to Contractor",
    "contractor": "IV Waste",
    "rowid": "1263341",
    "final_x": "3677708.56686",
    "final_y": "537567.639944",
    "longitude": "-90.07983340234365",
    "latitude": "29.972239213709376",
    "geocoded_column": {
      "latitude": "29.972239213709376",
      "longitude": "-90.07983340234365"
    }
  },
  {
    "service_request": "2026-1263340",
    "request_type": "Trash/Recycling",
    "request_reason": "Request a Large Item Pick Up",
    "date_created": "2026-03-06T13:30:24.000",
    "date_modified": "2026-03-06T13:30:26.000",
    "request_status": "Pending",
    "responsible_agency": "Department of Sanitation",
    "final_address": "4576 Bonita Dr",
    "address_councildis": "E",
    "status": "Assigned to Contractor",
    "contractor": "Waste Pro",
    "rowid": "1263340",
    "final_x": "3704502.26097",
    "final_y": "554233.7398",
    "longitude": "-89.99460008556574",
    "latitude": "30.017231589049242",
    "geocoded_column": {
      "latitude": "30.017231589049242",
      "longitude": "-89.99460008556574"
    }
  },
  {
    "service_request": "2026-1263339",
    "request_type": "General Services",
    "request_reason": "General Service Request",
    "date_created": "2026-03-06T13:29:11.000",
    "date_modified": "2026-03-06T13:30:48.000",
    "case_close_date": "2026-03-06T07:30:46.000",
    "request_status": "Closed",
    "responsible_agency": "Orleans Parish Communication District",
    "final_address": "4109 Annunciation St",
    "address_councildis": "B",
    "status": "Referred to External Agency",
    "rowid": "1263339",
    "final_x": "3672161.62599",
    "final_y": "517882.895798",
    "longitude": "-90.09802184232225",
    "latitude": "29.918278302733547",
    "geocoded_column": {
      "latitude": "29.918278302733547",
      "longitude": "-90.09802184232225"
    }
  },
  {
    "service_request": "2026-1263338",
    "request_type": "Trash/Recycling",
    "request_reason": "Request a Large Item Pick Up",
    "date_created": "2026-03-06T13:26:40.000",
    "date_modified": "2026-03-06T13:26:42.000",
    "request_status": "Pending",
    "responsible_agency": "Department of Sanitation",
    "final_address": "4834 Michoud Blvd",
    "address_councildis": "E",
    "status": "Assigned to Contractor",
    "contractor": "Waste Pro",
    "rowid": "1263338",
    "final_x": "3724987.40089",
    "final_y": "560760.549662",
    "longitude": "-89.92962366832438",
    "latitude": "30.034503669224947",
    "geocoded_column": {
      "latitude": "30.034503669224947",
      "longitude": "-89.92962366832438"
    }
  },
  {
    "service_request": "2026-1263337",
    "request_type": "Streetlights",
    "request_reason": "Streetlight Outage/Malfunction",
    "date_created": "2026-03-06T13:24:31.000",
    "date_modified": "2026-03-06T13:24:33.000",
    "request_status": "Pending",
    "responsible_agency": "Department of Public Works",
    "final_address": "2136 Jena St",
    "address_councildis": "B",
    "status": "Pending",
    "rowid": "1263337",
    "final_x": "3670163.21178",
    "final_y": "522906.269691",
    "longitude": "-90.10415968659133",
    "latitude": "29.932150070222384",
    "geocoded_column": {
      "latitude": "29.932150070222384",
      "longitude": "-90.10415968659133"
    }
  },
  {
    "service_request": "2026-1263336",
    "request_type": "Trash/Recycling",
    "request_reason": "Missed Trash Pick-Up",
    "date_created": "2026-03-06T13:23:09.000",
    "date_modified": "2026-03-06T13:23:10.000",
    "request_status": "Pending",
    "responsible_agency": "Department of Sanitation",
    "final_address": "10140 Lincoln Beach Blvd",
    "address_councildis": "E",
    "status": "Assigned to Contractor",
    "contractor": "Waste Pro",
    "rowid": "1263336",
    "final_x": "3708011.82212",
    "final_y": "566054.435427",
    "longitude": "-89.98307128033045",
    "latitude": "30.049620627278028",
    "geocoded_column": {
      "latitude": "30.049620627278028",
      "longitude": "-89.98307128033045"
    }
  },
  {
    "service_request": "2026-1263335",
    "request_type": "Roads and Streets",
    "request_reason": "Push-up/Pavement Expansion",
    "date_created": "2026-03-06T13:21:11.000",
    "date_modified": "2026-03-06T13:21:13.000",
    "request_status": "Pending",
    "responsible_agency": "Department of Public Works",
    "final_address": "FRANKLIN AVE & FILMORE ST",
    "address_councildis": "D",
    "status": "Pending",
    "rowid": "1263335",
    "final_x": "3686616.6",
    "final_y": "552564.28",
    "longitude": "-90.05117041998118",
    "latitude": "30.013203640426944",
    "geocoded_column": {
      "latitude": "30.013203640426944",
      "longitude": "-90.05117041998118"
    }
  },
  {
    "service_request": "2026-1263334",
    "request_type": "Streetlights",
    "request_reason": "Streetlight Outage/Malfunction",
    "date_created": "2026-03-06T13:20:32.000",
    "date_modified": "2026-03-06T13:20:34.000",
    "request_status": "Pending",
    "responsible_agency": "Department of Public Works",
    "final_address": "5939 Tchoupitoulas St",
    "address_councildis": "A",
    "status": "Pending",
    "rowid": "1263334",
    "final_x": "3664510.18586",
    "final_y": "517449.298934",
    "longitude": "-90.12218789993068",
    "latitude": "29.917310647128602",
    "geocoded_column": {
      "latitude": "29.917310647128602",
      "longitude": "-90.12218789993068"
    }
  },
  {
    "service_request": "2026-1263333",
    "request_type": "Taxi Issues",
    "request_reason": "Transportation For Hire Complaint",
    "date_created": "2026-03-06T13:15:57.000",
    "date_modified": "2026-03-06T13:22:30.000",
    "request_status": "Pending",
    "responsible_agency": "Department of Public Works",
    "final_address": "124 Royal St",
    "address_councildis": "C",
    "status": "Pending",
    "rowid": "1263333",
    "final_x": "3681355.49378",
    "final_y": "530845.47949",
    "longitude": "-90.06855012968984",
    "latitude": "29.95364536655723",
    "geocoded_column": {
      "latitude": "29.95364536655723",
      "longitude": "-90.06855012968984"
    }
  },
  {
    "service_request": "2026-1263332",
    "request_type": "Trash/Recycling",
    "request_reason": "Request a Large Item Pick Up",
    "date_created": "2026-03-06T13:13:40.000",
    "date_modified": "2026-03-06T13:13:42.000",
    "request_status": "Pending",
    "responsible_agency": "Department of Sanitation",
    "final_address": "6120 Story St",
    "address_councildis": "A",
    "status": "Assigned to Contractor",
    "contractor": "IV Waste",
    "rowid": "1263332",
    "final_x": "3666816.73722",
    "final_y": "526365.780478",
    "longitude": "-90.11460805531601",
    "latitude": "29.9417609026127",
    "geocoded_column": {
      "latitude": "29.9417609026127",
      "longitude": "-90.11460805531601"
    }
  },
  {
    "service_request": "2026-1263331",
    "request_type": "Trash/Recycling",
    "request_reason": "Order Recycling Cart",
    "date_created": "2026-03-06T13:10:50.000",
    "date_modified": "2026-03-06T13:10:52.000",
    "request_status": "Pending",
    "responsible_agency": "Department of Sanitation",
    "final_address": "4650 Lurline St",
    "address_councildis": "E",
    "status": "Pending",
    "rowid": "1263331",
    "final_x": "3711952.10296",
    "final_y": "555570.435801",
    "longitude": "-89.97101163554711",
    "latitude": "30.020665549043276",
    "geocoded_column": {
      "latitude": "30.020665549043276",
      "longitude": "-89.97101163554711"
    }
  },
  {
    "service_request": "2026-1263330",
    "request_type": "Trash/Recycling",
    "request_reason": "Order Trash Cart",
    "date_created": "2026-03-06T13:09:26.000",
    "date_modified": "2026-03-06T13:09:27.000",
    "request_status": "Pending",
    "responsible_agency": "Department of Sanitation",
    "final_address": "8914 Forshey St",
    "address_councildis": "A",
    "status": "Assigned to Contractor",
    "contractor": "IV Waste",
    "rowid": "1263330",
    "final_x": "3664789.1424",
    "final_y": "535890.810631",
    "longitude": "-90.12069135860602",
    "latitude": "29.96801078082985",
    "geocoded_column": {
      "latitude": "29.96801078082985",
      "longitude": "-90.12069135860602"
    }
  },
  {
    "service_request": "2026-1263329",
    "request_type": "Trash/Recycling",
    "request_reason": "Repair Trash Cart",
    "date_created": "2026-03-06T13:07:32.000",
    "date_modified": "2026-03-06T13:07:33.000",
    "request_status": "Pending",
    "responsible_agency": "Department of Sanitation",
    "final_address": "8918 Forshey St",
    "address_councildis": "A",
    "status": "Assigned to Contractor",
    "contractor": "IV Waste",
    "rowid": "1263329",
    "final_x": "3664756.26848",
    "final_y": "535921.710727",
    "longitude": "-90.12079414343224",
    "latitude": "29.96809670246799",
    "geocoded_column": {
      "latitude": "29.96809670246799",
      "longitude": "-90.12079414343224"
    }
  },
  {
    "service_request": "2026-1263328",
    "request_type": "Streetlights",
    "request_reason": "Streetlight Outage/Malfunction",
    "date_created": "2026-03-06T13:07:01.000",
    "date_modified": "2026-03-06T13:07:02.000",
    "request_status": "Pending",
    "responsible_agency": "Department of Public Works",
    "final_address": "5641 Christian Ln",
    "address_councildis": "E",
    "status": "Pending",
    "rowid": "1263328",
    "final_x": "3704337.36593",
    "final_y": "557030.329946",
    "longitude": "-89.99501787967738",
    "latitude": "30.02492642951628",
    "geocoded_column": {
      "latitude": "30.02492642951628",
      "longitude": "-89.99501787967738"
    }
  },
  {
    "service_request": "2026-1263327",
    "request_type": "Trash/Recycling",
    "request_reason": "Replace Trash Cart",
    "date_created": "2026-03-06T13:05:32.000",
    "date_modified": "2026-03-06T13:05:34.000",
    "request_status": "Pending",
    "responsible_agency": "Department of Sanitation",
    "final_address": "2512 Soniat St",
    "address_councildis": "B",
    "status": "Assigned to Contractor",
    "contractor": "IV Waste",
    "rowid": "1263327",
    "final_x": "3668503.12212",
    "final_y": "524757.100092",
    "longitude": "-90.10933802841849",
    "latitude": "29.937288122847395",
    "geocoded_column": {
      "latitude": "29.937288122847395",
      "longitude": "-90.10933802841849"
    }
  },
  {
    "service_request": "2026-1263326",
    "request_type": "Trash/Recycling",
    "request_reason": "Return Trash Cart",
    "date_created": "2026-03-06T13:05:23.000",
    "date_modified": "2026-03-06T13:05:24.000",
    "request_status": "Pending",
    "responsible_agency": "Department of Sanitation",
    "final_address": "941 Second St",
    "address_councildis": "B",
    "status": "Assigned to Contractor",
    "contractor": "IV Waste",
    "rowid": "1263326",
    "final_x": "3678096.42062",
    "final_y": "520978.924857",
    "longitude": "-90.07918191551167",
    "latitude": "29.92661411558879",
    "geocoded_column": {
      "latitude": "29.92661411558879",
      "longitude": "-90.07918191551167"
    }
  },
  {
    "service_request": "2026-1263325",
    "request_type": "Alley Ways",
    "request_reason": "Alley Way Issues",
    "date_created": "2026-03-06T13:04:42.000",
    "date_modified": "2026-03-06T13:04:44.000",
    "request_status": "Pending",
    "responsible_agency": "Department of Public Works",
    "final_address": "5827 Vicksburg St",
    "address_councildis": "A",
    "status": "Pending",
    "rowid": "1263325",
    "final_x": "3668857.78958",
    "final_y": "546127.52776",
    "longitude": "-90.10749653608835",
    "latitude": "29.996039257912965",
    "geocoded_column": {
      "latitude": "29.996039257912965",
      "longitude": "-90.10749653608835"
    }
  },
  {
    "service_request": "2026-1263324",
    "request_type": "Trash/Recycling",
    "request_reason": "Request a Large Item Pick Up",
    "date_created": "2026-03-06T13:01:31.000",
    "date_modified": "2026-03-06T13:01:34.000",
    "request_status": "Pending",
    "responsible_agency": "Department of Sanitation",
    "final_address": "6027 Mandeville St",
    "address_councildis": "D",
    "status": "Assigned to Contractor",
    "contractor": "IV Waste",
    "rowid": "1263324",
    "final_x": "3684312.46594",
    "final_y": "555250.524889",
    "longitude": "-90.05835580790222",
    "latitude": "30.02066052066959",
    "geocoded_column": {
      "latitude": "30.02066052066959",
      "longitude": "-90.05835580790222"
    }
  },
  {
    "service_request": "2026-1263323",
    "request_type": "Trash/Recycling",
    "request_reason": "Request a Large Item Pick Up",
    "date_created": "2026-03-06T13:01:11.000",
    "date_modified": "2026-03-06T13:01:13.000",
    "request_status": "Pending",
    "responsible_agency": "Department of Sanitation",
    "final_address": "1940 Feliciana St",
    "address_councildis": "D",
    "status": "Assigned to Contractor",
    "contractor": "IV Waste",
    "rowid": "1263323",
    "final_x": "3689536.07747",
    "final_y": "539408.065994",
    "longitude": "-90.04241475077023",
    "latitude": "29.976938662345802",
    "geocoded_column": {
      "latitude": "29.976938662345802",
      "longitude": "-90.04241475077023"
    }
  },
  {
    "service_request": "2026-1263322",
    "request_type": "Streetlights",
    "request_reason": "Streetlight Outage/Malfunction",
    "date_created": "2026-03-06T12:57:49.000",
    "date_modified": "2026-03-06T12:57:50.000",
    "request_status": "Pending",
    "responsible_agency": "Department of Public Works",
    "final_address": "5641 Christian Ln",
    "address_councildis": "E",
    "status": "Pending",
    "rowid": "1263322",
    "final_x": "3704337.36593",
    "final_y": "557030.329946",
    "longitude": "-89.99501787967738",
    "latitude": "30.02492642951628",
    "geocoded_column": {
      "latitude": "30.02492642951628",
      "longitude": "-89.99501787967738"
    }
  },
  {
    "service_request": "2026-1263321",
    "request_type": "Trash/Recycling",
    "request_reason": "Illegal Dumping",
    "date_created": "2026-03-06T12:57:31.000",
    "date_modified": "2026-03-06T12:58:27.000",
    "request_status": "Pending",
    "responsible_agency": "Department of Sanitation",
    "final_address": "8000 Redfish St",
    "address_councildis": "E",
    "status": "Pending",
    "rowid": "1263321",
    "final_x": "3698455.5256",
    "final_y": "561040.549982",
    "longitude": "-90.01345747039893",
    "latitude": "30.036140575456592",
    "geocoded_column": {
      "latitude": "30.036140575456592",
      "longitude": "-90.01345747039893"
    }
  },
  {
    "service_request": "2026-1263320",
    "request_type": "Abandoned Vehicles",
    "request_reason": "Abandoned/Junk Vehicles",
    "date_created": "2026-03-06T12:57:00.000",
    "date_modified": "2026-03-06T12:57:02.000",
    "request_status": "Pending",
    "responsible_agency": "Department of Public Works",
    "final_address": "1001 Louisiana Ave",
    "address_councildis": "B",
    "status": "Pending",
    "rowid": "1263320",
    "final_x": "3675228.31809",
    "final_y": "519352.240439",
    "longitude": "-90.0882915367828",
    "latitude": "29.922227264368964",
    "geocoded_column": {
      "latitude": "29.922227264368964",
      "longitude": "-90.0882915367828"
    }
  },
  {
    "service_request": "2026-1263319",
    "request_type": "Drainage",
    "request_reason": "Catch Basin Frame and Cover Missing or Damaged",
    "date_created": "2026-03-06T12:51:28.000",
    "date_modified": "2026-03-06T13:35:59.000",
    "request_status": "Pending",
    "responsible_agency": "Sewerage & Water Board",
    "final_address": "5500 Bundy Rd",
    "address_councildis": "E",
    "status": "Pending",
    "rowid": "1263319",
    "final_x": "3708330.29387",
    "final_y": "558143.568347",
    "longitude": "-89.98235951458518",
    "latitude": "30.027858561830183",
    "geocoded_column": {
      "latitude": "30.027858561830183",
      "longitude": "-89.98235951458518"
    }
  },
  {
    "service_request": "2026-1263318",
    "request_type": "Trash/Recycling",
    "request_reason": "Repair Trash Cart",
    "date_created": "2026-03-06T12:51:07.000",
    "date_modified": "2026-03-06T15:02:45.000",
    "request_status": "Pending",
    "responsible_agency": "Department of Sanitation",
    "final_address": "4512 Jeanne Marie Pl",
    "address_councildis": "D",
    "status": "Assigned to Contractor",
    "contractor": "IV Waste",
    "rowid": "1263318",
    "final_x": "3678412.88814",
    "final_y": "549165.636883",
    "longitude": "-90.07720749694364",
    "latitude": "30.00410844684769",
    "geocoded_column": {
      "latitude": "30.00410844684769",
      "longitude": "-90.07720749694364"
    }
  },
  {
    "service_request": "2026-1263317",
    "request_type": "Property Maintenance",
    "request_reason": "Property Maintenance",
    "date_created": "2026-03-06T12:48:53.000",
    "date_modified": "2026-03-06T12:48:55.000",
    "request_status": "Pending",
    "responsible_agency": "Department of Code Enforcement",
    "final_address": "3681 Bennett St",
    "address_councildis": "C",
    "status": "Pending",
    "rowid": "1263317",
    "final_x": "3710229.54245",
    "final_y": "516565.523253",
    "longitude": "-89.97791221836577",
    "latitude": "29.9134726281518",
    "geocoded_column": {
      "latitude": "29.9134726281518",
      "longitude": "-89.97791221836577"
    }
  },
  {
    "service_request": "2026-1263316",
    "request_type": "Trash/Recycling",
    "request_reason": "Request a Large Item Pick Up",
    "date_created": "2026-03-06T12:47:41.000",
    "date_modified": "2026-03-06T12:47:43.000",
    "request_status": "Pending",
    "responsible_agency": "Department of Sanitation",
    "final_address": "4919 Montegut Dr",
    "address_councildis": "D",
    "status": "Assigned to Contractor",
    "contractor": "IV Waste",
    "rowid": "1263316",
    "final_x": "3689862.3206",
    "final_y": "551508.877717",
    "longitude": "-90.04095331613534",
    "latitude": "30.010201411035585",
    "geocoded_column": {
      "latitude": "30.010201411035585",
      "longitude": "-90.04095331613534"
    }
  },
  {
    "service_request": "2026-1263315",
    "request_type": "Trash/Recycling",
    "request_reason": "Dead Animal Pick Up",
    "date_created": "2026-03-06T12:46:43.000",
    "date_modified": "2026-03-06T14:48:25.000",
    "case_close_date": "2026-03-06T08:48:24.000",
    "request_status": "Closed",
    "responsible_agency": "Department of Sanitation",
    "final_address": "2401 Robert St",
    "address_councildis": "B",
    "status": "Assigned to Contractor",
    "contractor": "IV Waste",
    "contractor_action": "Completed",
    "rowid": "1263315",
    "final_x": "3668876.93364",
    "final_y": "524300.151804",
    "longitude": "-90.10817330272236",
    "latitude": "29.936020677054913",
    "geocoded_column": {
      "latitude": "29.936020677054913",
      "longitude": "-90.10817330272236"
    }
  },
  {
    "service_request": "2026-1263314",
    "request_type": "Trash/Recycling",
    "request_reason": "Request a Large Item Pick Up",
    "date_created": "2026-03-06T12:43:49.000",
    "date_modified": "2026-03-06T12:43:51.000",
    "request_status": "Pending",
    "responsible_agency": "Department of Sanitation",
    "final_address": "4028 Annunciation St",
    "address_councildis": "B",
    "status": "Assigned to Contractor",
    "contractor": "IV Waste",
    "rowid": "1263314",
    "final_x": "3672379.08065",
    "final_y": "517830.757238",
    "longitude": "-90.09733722860796",
    "latitude": "29.918128490286563",
    "geocoded_column": {
      "latitude": "29.918128490286563",
      "longitude": "-90.09733722860796"
    }
  },
  {
    "service_request": "2026-1263313",
    "request_type": "Trash/Recycling",
    "request_reason": "Repair Recycling Cart",
    "date_created": "2026-03-06T12:43:43.000",
    "date_modified": "2026-03-06T12:43:51.000",
    "request_status": "Pending",
    "responsible_agency": "Department of Sanitation",
    "final_address": "7650 Arbor Dr",
    "address_councildis": "E",
    "status": "Pending",
    "rowid": "1263313",
    "final_x": "3702329.72925",
    "final_y": "558247.101212",
    "longitude": "-90.00131694627899",
    "latitude": "30.028336402823026",
    "geocoded_column": {
      "latitude": "30.028336402823026",
      "longitude": "-90.00131694627899"
    }
  },
  {
    "service_request": "2026-1263312",
    "request_type": "Trash/Recycling",
    "request_reason": "Return Recycling Cart",
    "date_created": "2026-03-06T12:40:25.000",
    "date_modified": "2026-03-06T12:40:26.000",
    "request_status": "Pending",
    "responsible_agency": "Department of Sanitation",
    "final_address": "7261 Claridge Ct",
    "address_councildis": "E",
    "status": "Pending",
    "rowid": "1263312",
    "final_x": "3704770.00407",
    "final_y": "561189.135582",
    "longitude": "-89.99349716439232",
    "latitude": "30.036347620458383",
    "geocoded_column": {
      "latitude": "30.036347620458383",
      "longitude": "-89.99349716439232"
    }
  },
  {
    "service_request": "2026-1263311",
    "request_type": "Abandoned Vehicles",
    "request_reason": "Abandoned/Junk Vehicles",
    "date_created": "2026-03-06T12:38:22.000",
    "date_modified": "2026-03-06T12:39:56.000",
    "request_status": "Pending",
    "responsible_agency": "Department of Public Works",
    "final_address": "7528 W Laverne St",
    "address_councildis": "D",
    "status": "Pending",
    "rowid": "1263311",
    "final_x": "3695144.12438",
    "final_y": "558443.635292",
    "longitude": "-90.02401586409448",
    "latitude": "30.029104518723823",
    "geocoded_column": {
      "latitude": "30.029104518723823",
      "longitude": "-90.02401586409448"
    }
  },
  {
    "service_request": "2026-1263310",
    "request_type": "Trash/Recycling",
    "request_reason": "Order Trash Cart",
    "date_created": "2026-03-06T12:38:20.000",
    "date_modified": "2026-03-06T15:43:51.000",
    "request_status": "Pending",
    "responsible_agency": "Department of Sanitation",
    "final_address": "1940 Port St",
    "address_councildis": "D",
    "status": "Assigned to Contractor",
    "contractor": "IV Waste",
    "rowid": "1263310",
    "final_x": "3688238.50569",
    "final_y": "539713.050826",
    "longitude": "-90.04650206681988",
    "latitude": "29.977817395146744",
    "geocoded_column": {
      "latitude": "29.977817395146744",
      "longitude": "-90.04650206681988"
    }
  },
  {
    "service_request": "2026-1263309",
    "request_type": "Trash/Recycling",
    "request_reason": "Illegal Dumping",
    "date_created": "2026-03-06T12:37:58.000",
    "date_modified": "2026-03-06T12:37:59.000",
    "request_status": "Pending",
    "responsible_agency": "Department of Sanitation",
    "final_address": "3900 BLK Amanda St",
    "address_councildis": "C",
    "status": "Pending",
    "rowid": "1263309",
    "final_x": "3710092.21626",
    "final_y": "516390.049029",
    "longitude": "-89.97835220768813",
    "latitude": "29.912994601126417",
    "geocoded_column": {
      "latitude": "29.912994601126417",
      "longitude": "-89.97835220768813"
    }
  },
  {
    "service_request": "2026-1263308",
    "request_type": "Trash/Recycling",
    "request_reason": "Order Trash Cart",
    "date_created": "2026-03-06T12:37:32.000",
    "date_modified": "2026-03-06T15:43:25.000",
    "request_status": "Pending",
    "responsible_agency": "Department of Sanitation",
    "final_address": "1938 Port St",
    "address_councildis": "D",
    "status": "Assigned to Contractor",
    "contractor": "IV Waste",
    "rowid": "1263308",
    "final_x": "3688235.14569",
    "final_y": "539698.325194",
    "longitude": "-90.04651320114266",
    "latitude": "29.977777008620443",
    "geocoded_column": {
      "latitude": "29.977777008620443",
      "longitude": "-90.04651320114266"
    }
  },
  {
    "service_request": "2026-1263307",
    "request_type": "Trash/Recycling",
    "request_reason": "Request a Large Item Pick Up",
    "date_created": "2026-03-06T12:36:20.000",
    "date_modified": "2026-03-06T12:36:21.000",
    "request_status": "Pending",
    "responsible_agency": "Department of Sanitation",
    "final_address": "4814 Marseille St",
    "address_councildis": "E",
    "status": "Assigned to Contractor",
    "contractor": "Waste Pro",
    "rowid": "1263307",
    "final_x": "3729789.94765",
    "final_y": "562198.894751",
    "longitude": "-89.91439090007103",
    "latitude": "30.038295876223454",
    "geocoded_column": {
      "latitude": "30.038295876223454",
      "longitude": "-89.91439090007103"
    }
  },
  {
    "service_request": "2026-1263306",
    "request_type": "Trash/Recycling",
    "request_reason": "Illegal Dumping",
    "date_created": "2026-03-06T12:35:54.000",
    "date_modified": "2026-03-06T12:35:55.000",
    "request_status": "Pending",
    "responsible_agency": "Department of Sanitation",
    "final_address": "7100 Maumus Ave",
    "address_councildis": "C",
    "status": "Pending",
    "rowid": "1263306",
    "final_x": "3710343.67185",
    "final_y": "516549.390261",
    "longitude": "-89.97755259653275",
    "latitude": "29.91342455538422",
    "geocoded_column": {
      "latitude": "29.91342455538422",
      "longitude": "-89.97755259653275"
    }
  },