[
  {
    "service_request": "2024-1153082",
    "request_type": "Trash/Recycling",
    "request_reason": "Request a Large Item Pick Up",
    "date_created": "2024-12-04T23:39:48.000",
    "date_modified": "2024-12-04T23:39:49.000",
    "request_status": "Pending",
    "responsible_agency": "Department of Sanitation",
    "final_address": "11308 Will Stutley Dr",
    "address_councildis": "E",
    "status": "Assigned to Contractor",
    "contractor": "Waste Pro",
    "rowid": "1153082",
    "final_x": "3716953.59775",
    "final_y": "558190.720283",
    "longitude": "-89.95510900151461",
    "latitude": "30.027705834949188",
    "geocoded_column": {
      "latitude": "30.027705834949188",
      "longitude": "-89.95510900151461"
    }
  },
  {
    "service_request": "2024-1153081",
    "request_type": "Street and Traffic Signs",
    "request_reason": "Additional Signage Request",
    "date_created": "2024-12-04T23:02:46.000",
    "date_modified": "2024-12-04T23:02:46.000",
    "request_status": "Pending",
    "responsible_agency": "Department of Public Works",
    "final_address": "6900 BLK Ridgefield Dr",
    "address_councildis": "E",
    "status": "Pending",
    "rowid": "1153081",
    "final_x": "3719606.20215",
    "final_y": "569300.347407",
    "longitude": "-89.94630212621607",
    "latitude": "30.058164767185836",
    "geocoded_column": {
      "latitude": "30.058164767185836",
      "longitude": "-89.94630212621607"
    }
  },
  {
    "service_request": "2024-1153080",
    "request_type": "Abandoned Vehicles",
    "request_reason": "Abandoned/Junk Vehicles",
    "date_created": "2024-12-04T22:52:59.000",
    "date_modified": "2024-12-04T22:52:59.000",
    "request_status": "Pending",
    "responsible_agency": "Department of Public Works",
    "final_address": "7161 Whitmore Pl",
    "address_councildis": "E",
    "status": "Pending",
    "rowid": "1153080",
    "final_x": "3718653.46789",
    "final_y": "569825.545446",
    "longitude": "-89.9492935264582",
    "latitude": "30.059640519591408",
    "geocoded_column": {
      "latitude": "30.059640519591408",
      "longitude": "-89.9492935264582"
    }
  },
  {
    "service_request": "2024-1153079",
    "request_type": "Safety & Permits",
    "request_reason": "Licenses & Permits",
    "date_created": "2024-12-04T22:40:09.000",
    "date_modified": "2024-12-04T22:40:09.000",
    "request_status": "Pending",
    "responsible_agency": "Safety and Permits",
    "final_address": "7025 Whitmore Pl",
    "address_councildis": "E",
    "status": "Pending",
    "rowid": "1153079",
    "final_x": "3719066.07205",
    "final_y": "569252.623078",
    "longitude": "-89.94801122116102",
    "latitude": "30.058051511639054",
    "geocoded_column": {
      "latitude": "30.058051511639054",
      "longitude": "-89.94801122116102"
    }
  },
  {
    "service_request": "2024-1153078",
    "request_type": "Abandoned Vehicles",
    "request_reason": "Abandoned/Junk Vehicles",
    "date_created": "2024-12-04T22:36:16.000",
    "date_modified": "2024-12-04T22:36:16.000",
    "request_status": "Pending",
    "responsible_agency": "Department of Public Works",
    "final_address": "6940 Queensway Dr",
    "address_councildis": "E",
    "status": "Pending",
    "rowid": "1153078",
    "final_x": "3719509.9205",
    "final_y": "568944.646309",
    "longitude": "-89.94662006497596",
    "latitude": "30.057189941411607",
    "geocoded_column": {
      "latitude": "30.057189941411607",
      "longitude": "-89.94662006497596"
    }
  },
  {
    "service_request": "2024-1153077",
    "request_type": "Trash/Recycling",
    "request_reason": "Order Trash Cart",
    "date_created": "2024-12-04T22:29:29.000",
    "date_modified": "2024-12-04T22:29:30.000",
    "request_status": "Pending",
    "responsible_agency": "Department of Sanitation",
    "final_address": "2518 N Derbigny St",
    "address_councildis": "D",
    "status": "Assigned to Contractor",
    "contractor": "IV Waste",
    "rowid": "1153077",
    "final_x": "3687200.10607",
    "final_y": "538663.942089",
    "longitude": "-90.04981880006407",
    "latitude": "29.974964740255736",
    "geocoded_column": {
      "latitude": "29.974964740255736",
      "longitude": "-90.04981880006407"
    }
  },
  {
    "service_request": "2024-1153076",
    "request_type": "Roads and Streets",
    "request_reason": "Pothole",
    "date_created": "2024-12-04T22:24:16.000",
    "date_modified": "2024-12-04T22:24:16.000",
    "request_status": "Pending",
    "responsible_agency": "Department of Public Works",
    "final_address": "730 Huntlee Dr",
    "address_councildis": "C",
    "status": "Pending",
    "rowid": "1153076",
    "final_x": "3701812.55837",
    "final_y": "519716.521272",
    "longitude": "-90.00436329930108",
    "latitude": "29.92240788060357",
    "geocoded_column": {
      "latitude": "29.92240788060357",
      "longitude": "-90.00436329930108"
    }
  },
  {
    "service_request": "2024-1153075",
    "request_type": "Trash/Recycling",
    "request_reason": "Request a Large Item Pick Up",
    "date_created": "2024-12-04T21:52:33.000",
    "date_modified": "2024-12-04T21:52:33.000",
    "request_status": "Pending",
    "responsible_agency": "Department of Sanitation",
    "final_address": "4812 Laine Ave",
    "address_councildis": "E",
    "status": "Assigned to Contractor",
    "contractor": "Waste Pro",
    "rowid": "1153075",
    "final_x": "3705576.71627",
    "final_y": "555859.904153",
    "longitude": "-89.99114508614333",
    "latitude": "30.021668352457652",
    "geocoded_column": {
      "latitude": "30.021668352457652",
      "longitude": "-89.99114508614333"
    }
  },
  {
    "service_request": "2024-1153074",
    "request_type": "Abandoned Vehicles",
    "request_reason": "Abandoned/Junk Vehicles",
    "date_created": "2024-12-04T21:45:45.000",
    "date_modified": "2024-12-04T21:45:45.000",
    "request_status": "Pending",
    "responsible_agency": "Department of Public Works",
    "final_address": "805 Tupelo St",
    "address_councildis": "E",
    "status": "Pending",
    "rowid": "1153074",
    "final_x": "3699152.78512",
    "final_y": "532278.732867",
    "longitude": "-90.01230190463954",
    "latitude": "29.957034142731764",
    "geocoded_column": {
      "latitude": "29.957034142731764",
      "longitude": "-90.01230190463954"
    }
  },
  {
    "service_request": "2024-1153073",
    "request_type": "Abandoned Vehicles",
    "request_reason": "Vehicle Blocking Your Driveway",
    "date_created": "2024-12-04T21:37:20.000",
    "date_modified": "2024-12-04T21:37:20.000",
    "request_status": "Pending",
    "responsible_agency": "Department of Public Works",
    "final_address": "729 Dumaine St",
    "address_councildis": "C",
    "status": "Pending",
    "rowid": "1153073",
    "final_x": "3682832.79023",
    "final_y": "533205.306116",
    "longitude": "-90.06380289422728",
    "latitude": "29.960089165806416",
    "geocoded_column": {
      "latitude": "29.960089165806416",
      "longitude": "-90.06380289422728"
    }
  },
  {
    "service_request": "2024-1153072",
    "request_type": "Traffic Signals",
    "request_reason": "Traffic Signal Malfunctioning or Damaged",
    "date_created": "2024-12-04T21:26:59.000",
    "date_modified": "2024-12-04T21:26:59.000",
    "request_status": "Pending",
    "responsible_agency": "Department of Public Works",
    "final_address": "4740 Chef Menteur Hwy",
    "address_councildis": "D",
    "status": "Pending",
    "rowid": "1153072",
    "final_x": "3692205.37737",
    "final_y": "549998.86434",
    "longitude": "-90.03360487218897",
    "latitude": "30.005976559212918",
    "geocoded_column": {
      "latitude": "30.005976559212918",
      "longitude": "-90.03360487218897"
    }
  },
  {
    "service_request": "2024-1153071",
    "request_type": "Trash/Recycling",
    "request_reason": "Replace Trash Cart",
    "date_created": "2024-12-04T21:18:10.000",
    "date_modified": "2024-12-04T21:18:11.000",
    "request_status": "Pending",
    "responsible_agency": "Department of Sanitation",
    "final_address": "117 34Th St",
    "address_councildis": "A",
    "status": "Assigned to Contractor",
    "contractor": "IV Waste",
    "rowid": "1153071",
    "final_x": "3666120.55015",
    "final_y": "551382.038741",
    "longitude": "-90.11596695156689",
    "latitude": "30.010567581412538",
    "geocoded_column": {
      "latitude": "30.010567581412538",
      "longitude": "-90.11596695156689"
    }
  },
  {
    "service_request": "2024-1153070",
    "request_type": "Trash/Recycling",
    "request_reason": "Replace Trash Cart",
    "date_created": "2024-12-04T20:46:18.000",
    "date_modified": "2024-12-04T20:46:19.000",
    "request_status": "Pending",
    "responsible_agency": "Department of Sanitation",
    "final_address": "3413 Vincennes Pl",
    "address_councildis": "A",
    "status": "Assigned to Contractor",
    "contractor": "IV Waste",
    "rowid": "1153070",
    "final_x": "3668032.48199",
    "final_y": "528698.44832",
    "longitude": "-90.11069110311247",
    "latitude": "29.948139372053998",
    "geocoded_column": {
      "latitude": "29.948139372053998",
      "longitude": "-90.11069110311247"
    }
  },
  {
    "service_request": "2024-1153069",
    "request_type": "Trash/Recycling",
    "request_reason": "Request a Large Item Pick Up",
    "date_created": "2024-12-04T20:33:59.000",
    "date_modified": "2024-12-04T20:34:00.000",
    "request_status": "Pending",
    "responsible_agency": "Department of Sanitation",
    "final_address": "4222 Duplessis St",
    "address_councildis": "D",
    "status": "Assigned to Contractor",
    "contractor": "IV Waste",
    "rowid": "1153069",
    "final_x": "3678304.21698",
    "final_y": "547830.285778",
    "longitude": "-90.07759704080858",
    "latitude": "30.000439980931162",
    "geocoded_column": {
      "latitude": "30.000439980931162",
      "longitude": "-90.07759704080858"
    }
  },
  {
    "service_request": "2024-1153068",
    "request_type": "Trash/Recycling",
    "request_reason": "Request a Large Item Pick Up",
    "date_created": "2024-12-04T20:00:44.000",
    "date_modified": "2024-12-04T20:00:45.000",
    "request_status": "Pending",
    "responsible_agency": "Department of Sanitation",
    "final_address": "1825 Second St",
    "address_councildis": "B",
    "status": "Assigned to Contractor",
    "contractor": "IV Waste",
    "rowid": "1153068",
    "final_x": "3676177.95944",
    "final_y": "523885.334332",
    "longitude": "-90.08513803491786",
    "latitude": "29.934663394254432",
    "geocoded_column": {
      "latitude": "29.934663394254432",
      "longitude": "-90.08513803491786"
    }
  },
  {
    "service_request": "2024-1153067",
    "request_type": "Trash/Recycling",
    "request_reason": "Missed Trash Pick-Up",
    "date_created": "2024-12-04T19:54:14.000",
    "date_modified": "2024-12-04T19:54:15.000",
    "request_status": "Pending",
    "responsible_agency": "Department of Sanitation",
    "final_address": "316 Filmore Ave",
    "address_councildis": "A",
    "status": "Assigned to Contractor",
    "contractor": "IV Waste",
    "rowid": "1153067",
    "final_x": "3667637.9913",
    "final_y": "552056.960214",
    "longitude": "-90.11115001255564",
    "latitude": "30.012378962914116",
    "geocoded_column": {
      "latitude": "30.012378962914116",
      "longitude": "-90.11115001255564"
    }
  },
  {
    "service_request": "2024-1153065",
    "request_type": "Street and Traffic Signs",
    "request_reason": "Stop Sign Missing or Damaged",
    "date_created": "2024-12-04T19:39:28.000",
    "date_modified": "2024-12-04T19:39:28.000",
    "request_status": "Pending",
    "responsible_agency": "Department of Public Works",
    "final_address": "1441 Congress St",
    "address_councildis": "D",
    "status": "Pending",
    "rowid": "1153065",
    "final_x": "3691126.45686",
    "final_y": "537008.964808",
    "longitude": "-90.03747753568169",
    "latitude": "29.970292621610003",
    "geocoded_column": {
      "latitude": "29.970292621610003",
      "longitude": "-90.03747753568169"
    }
  },
  {
    "service_request": "2024-1153064",
    "request_type": "Trash/Recycling",
    "request_reason": "Request a Large Item Pick Up",
    "date_created": "2024-12-04T19:36:56.000",
    "date_modified": "2024-12-04T19:36:57.000",
    "request_status": "Pending",
    "responsible_agency": "Department of Sanitation",
    "final_address": "4829 Dreux Ave",
    "address_councildis": "D",
    "status": "Assigned to Contractor",
    "contractor": "IV Waste",
    "rowid": "1153064",
    "final_x": "3691313.13014",
    "final_y": "553273.996823",
    "longitude": "-90.03630656181487",
    "latitude": "30.0150097608185",
    "geocoded_column": {
      "latitude": "30.0150097608185",
      "longitude": "-90.03630656181487"
    }
  },
  {
    "service_request": "2024-1153063",
    "request_type": "Property Maintenance",
    "request_reason": "Property Maintenance",
    "date_created": "2024-12-04T19:22:14.000",
    "date_modified": "2024-12-04T19:22:14.000",
    "request_status": "Pending",
    "responsible_agency": "Department of Code Enforcement",
    "final_address": "722 Lamarque St",
    "address_councildis": "C",
    "status": "Pending",
    "rowid": "1153063",
    "final_x": "3687585.75202",
    "final_y": "526850.776446",
    "longitude": "-90.04901901176932",
    "latitude": "29.942470732393428",
    "geocoded_column": {
      "latitude": "29.942470732393428",
      "longitude": "-90.04901901176932"
    }
  },
  {
    "service_request": "2024-1153062",
    "request_type": "Roads and Streets",
    "request_reason": "Pothole",
    "date_created": "2024-12-04T19:14:54.000",
    "date_modified": "2024-12-04T19:14:54.000",
    "request_status": "Pending",
    "responsible_agency": "Department of Public Works",
    "final_address": "CANAL ST & DECATUR ST & MAGAZINE ST",
    "address_councildis": "C",
    "status": "Pending",
    "rowid": "1153062",
    "final_x": "3681822.3",
    "final_y": "530252.08",
    "longitude": "-90.06709685805245",
    "latitude": "29.95199954248446",
    "geocoded_column": {
      "latitude": "29.95199954248446",
      "longitude": "-90.06709685805245"
    }
  },
  {
    "service_request": "2024-1153061",
    "request_type": "Healthy Homes",
    "request_reason": "Healthy Homes",
    "date_created": "2024-12-04T18:56:50.000",
    "date_modified": "2024-12-04T18:56:50.000",
    "request_status": "Pending",
    "responsible_agency": "Department of Code Enforcement",
    "final_address": "3419 Franklin Ave",
    "address_councildis": "D",
    "status": "Pending",
    "rowid": "1153061",
    "final_x": "3687236.39606",
    "final_y": "545721.996304",
    "longitude": "-90.0494544220944",
    "latitude": "29.99437076263192",
    "geocoded_column": {
      "latitude": "29.99437076263192",
      "longitude": "-90.0494544220944"
    }
  },
  {
    "service_request": "2024-1153060",
    "request_type": "Property Maintenance",
    "request_reason": "Property Maintenance",
    "date_created": "2024-12-04T18:22:41.000",
    "date_modified": "2024-12-04T18:22:41.000",
    "request_status": "Pending",
    "responsible_agency": "Department of Code Enforcement",
    "final_address": "4138 St Claude Ave",
    "address_councildis": "C",
    "status": "Pending",
    "rowid": "1153060",
    "final_x": "3692314.87517",
    "final_y": "535126.37895",
    "longitude": "-90.03379182630373",
    "latitude": "29.96507916594128",
    "geocoded_column": {
      "latitude": "29.96507916594128",
      "longitude": "-90.03379182630373"
    }
  },
  {
    "service_request": "2024-1153059",
    "request_type": "Trash/Recycling",
    "request_reason": "Replace Trash Cart",
    "date_created": "2024-12-04T18:17:43.000",
    "date_modified": "2024-12-04T18:17:44.000",
    "request_status": "Pending",
    "responsible_agency": "Department of Sanitation",
    "final_address": "3014 Fern St",
    "address_councildis": "B",
    "status": "Assigned to Contractor",
    "contractor": "IV Waste",
    "rowid": "1153059",
    "final_x": "3666905.07162",
    "final_y": "532763.474372",
    "longitude": "-90.11411424070653",
    "latitude": "29.959349896466424",
    "geocoded_column": {
      "latitude": "29.959349896466424",
      "longitude": "-90.11411424070653"
    }
  },
  {
    "service_request": "2024-1153058",
    "request_type": "Property Maintenance",
    "request_reason": "Property Maintenance",
    "date_created": "2024-12-04T17:34:27.000",
    "date_modified": "2024-12-04T17:34:27.000",
    "request_status": "Pending",
    "responsible_agency": "Department of Code Enforcement",
    "final_address": "2434 Forstall St",
    "address_councildis": "E",
    "status": "Pending",
    "rowid": "1153058",
    "final_x": "3697658.8289",
    "final_y": "539338.413706",
    "longitude": "-90.01676318843818",
    "latitude": "29.976493017555878",
    "geocoded_column": {
      "latitude": "29.976493017555878",
      "longitude": "-90.01676318843818"
    }
  },
  {
    "service_request": "2024-1153057",
    "request_type": "Trash/Recycling",
    "request_reason": "Missed Trash Pick-Up",
    "date_created": "2024-12-04T17:33:39.000",
    "date_modified": "2024-12-04T17:33:40.000",
    "request_status": "Pending",
    "responsible_agency": "Department of Sanitation",
    "final_address": "5601 Chamberlain Dr",
    "address_councildis": "D",
    "status": "Assigned to Contractor",
    "contractor": "IV Waste",
    "rowid": "1153057",
    "final_x": "3679505.45237",
    "final_y": "553025.204247",
    "longitude": "-90.07362184370386",
    "latitude": "30.014687892060692",
    "geocoded_column": {
      "latitude": "30.014687892060692",
      "longitude": "-90.07362184370386"
    }
  },
  {
    "service_request": "2024-1153056",
    "request_type": "Abandoned Vehicles",
    "request_reason": "Abandoned/Junk Vehicles",
    "date_created": "2024-12-04T17:20:54.000",
    "date_modified": "2024-12-04T17:20:54.000",
    "request_status": "Pending",
    "responsible_agency": "Department of Public Works",
    "final_address": "243 Pacific Ave",
    "address_councildis": "C",
    "status": "Pending",
    "rowid": "1153056",
    "final_x": "3688506.41084",
    "final_y": "530812.67693",
    "longitude": "-90.0459717551241",
    "latitude": "29.953336196881633",
    "geocoded_column": {
      "latitude": "29.953336196881633",
      "longitude": "-90.0459717551241"
    }
  },
  {
    "service_request": "2024-1153055",
    "request_type": "Abandoned Vehicles",
    "request_reason": "Abandoned/Junk Vehicles",
    "date_created": "2024-12-04T17:17:44.000",
    "date_modified": "2024-12-04T17:17:44.000",
    "request_status": "Pending",
    "responsible_agency": "Department of Public Works",
    "final_address": "243 Pacific Ave",
    "address_councildis": "C",
    "status": "Pending",
    "rowid": "1153055",
    "final_x": "3688506.41084",
    "final_y": "530812.67693",
    "longitude": "-90.0459717551241",
    "latitude": "29.953336196881633",
    "geocoded_column": {
      "latitude": "29.953336196881633",
      "longitude": "-90.0459717551241"
    }
  },
  {
    "service_request": "2024-1153054",
    "request_type": "Abandoned Vehicles",
    "request_reason": "Abandoned/Junk Vehicles",
    "date_created": "2024-12-04T17:16:27.000",
    "date_modified": "2024-12-04T17:16:27.000",
    "request_status": "Pending",
    "responsible_agency": "Department of Public Works",
    "final_address": "243 Pacific Ave",
    "address_councildis": "C",
    "status": "Pending",
    "rowid": "1153054",
    "final_x": "3688506.41084",
    "final_y": "530812.67693",
    "longitude": "-90.0459717551241",
    "latitude": "29.953336196881633",
    "geocoded_column": {
      "latitude": "29.953336196881633",
      "longitude": "-90.0459717551241"
    }
  },
  {
    "service_request": "2024-1153053",
    "request_type": "Trash/Recycling",
    "request_reason": "Request a Large Item Pick Up",
    "date_created": "2024-12-04T17:16:00.000",
    "date_modified": "2024-12-04T17:16:01.000",
    "request_status": "Pending",
    "responsible_agency": "Department of Sanitation",
    "final_address": "2001 Arts St",
    "address_councildis": "D",
    "status": "Assigned to Contractor",
    "contractor": "IV Waste",
    "rowid": "1153053",
    "final_x": "3686974.65442",
    "final_y": "539833.10177",
    "longitude": "-90.05048949240754",
    "latitude": "29.978186459923215",
    "geocoded_column": {
      "latitude": "29.978186459923215",
      "longitude": "-90.05048949240754"
    }
  },
  {
    "service_request": "2024-1153052",
    "request_type": "Streetlights",
    "request_reason": "Streetlight Outage/Malfunction",
    "date_created": "2024-12-04T17:04:08.000",
    "date_modified": "2024-12-04T17:04:09.000",
    "request_status": "Pending",
    "responsible_agency": "Department of Public Works",
    "final_address": "1900 BLK Milan St",
    "address_councildis": "B",
    "status": "Pending",
    "contractor": "Legacy Professional Services",
    "rowid": "1153052",
    "final_x": "3671470.98248",
    "final_y": "522193.18506",
    "longitude": "-90.10005540308008",
    "latitude": "29.930150677474092",
    "geocoded_column": {
      "latitude": "29.930150677474092",
      "longitude": "-90.10005540308008"
    }
  },
  {
    "service_request": "2024-1153051",
    "request_type": "Parks & Parkways",
    "request_reason": "Park Maintenance/Clean Up",
    "date_created": "2024-12-04T17:03:45.000",
    "date_modified": "2024-12-04T17:03:45.000",
    "request_status": "Pending",
    "responsible_agency": "Department of Parks & Parkway",
    "final_address": "Canal and Claiborne",
    "status": "Pending",
    "rowid": "1153051",
    "longitude": "0.0",
    "latitude": "0.0",
    "geocoded_column": {
      "latitude": "0.0",
      "longitude": "0.0"
    }
  },
  {
    "service_request": "2024-1153050",
    "request_type": "Roads and Streets",
    "request_reason": "Pothole",
    "date_created": "2024-12-04T17:02:34.000",
    "date_modified": "2024-12-04T17:02:34.000",
    "request_status": "Pending",
    "responsible_agency": "Department of Public Works",
    "final_address": "1407 Valence St",
    "address_councildis": "B",
    "status": "Pending",
    "rowid": "1153050",
    "final_x": "3669839.25287",
    "final_y": "520292.863992",
    "longitude": "-90.10527081865904",
    "latitude": "29.924973591096933",
    "geocoded_column": {
      "latitude": "29.924973591096933",
      "longitude": "-90.10527081865904"
    }
  },
  {
    "service_request": "2024-1153049",
    "request_type": "Roads and Streets",
    "request_reason": "Debris in Driving Lanes",
    "date_created": "2024-12-04T17:01:33.000",
    "date_modified": "2024-12-04T17:01:33.000",
    "request_status": "Pending",
    "responsible_agency": "Department of Public Works",
    "final_address": "CANAL ST & N CLAIBORNE AVE & S CLAIBORNE AVE",
    "address_councildis": "B",
    "status": "Pending",
    "rowid": "1153049",
    "final_x": "3678370.6",
    "final_y": "532873.28",
    "longitude": "-90.07790502374995",
    "latitude": "29.959311391496197",
    "geocoded_column": {
      "latitude": "29.959311391496197",
      "longitude": "-90.07790502374995"
    }
  },
  {
    "service_request": "2024-1153048",
    "request_type": "Trash/Recycling",
    "request_reason": "Request a Large Item Pick Up",
    "date_created": "2024-12-04T16:58:17.000",
    "date_modified": "2024-12-04T16:58:17.000",
    "request_status": "Pending",
    "responsible_agency": "Department of Sanitation",
    "final_address": "1131 Marigny St",
    "address_councildis": "C",
    "status": "Assigned to Contractor",
    "contractor": "IV Waste",
    "rowid": "1153048",
    "final_x": "3685423.25884",
    "final_y": "536668.622407",
    "longitude": "-90.0555008043378",
    "latitude": "29.969532915102068",
    "geocoded_column": {
      "latitude": "29.969532915102068",
      "longitude": "-90.0555008043378"
    }
  },
  {
    "service_request": "2024-1153047",
    "request_type": "Trash/Recycling",
    "request_reason": "Request a Large Item Pick Up",
    "date_created": "2024-12-04T16:57:27.000",
    "date_modified": "2024-12-04T16:57:28.000",
    "request_status": "Pending",
    "responsible_agency": "Department of Sanitation",
    "final_address": "1340 Reynes St",
    "address_councildis": "E",
    "status": "Assigned to Contractor",
    "contractor": "Waste Pro",
    "rowid": "1153047",
    "final_x": "3696184.06243",
    "final_y": "535343.182982",
    "longitude": "-90.02156537898446",
    "latitude": "29.965554072571706",
    "geocoded_column": {
      "latitude": "29.965554072571706",
      "longitude": "-90.02156537898446"
    }
  },
  {
    "service_request": "2024-1153046",
    "request_type": "Trash/Recycling",
    "request_reason": "Request a Large Item Pick Up",
    "date_created": "2024-12-04T16:55:22.000",
    "date_modified": "2024-12-04T16:55:23.000",
    "request_status": "Pending",
    "responsible_agency": "Department of Sanitation",
    "final_address": "2212 General Taylor St",
    "address_councildis": "B",
    "status": "Assigned to Contractor",
    "contractor": "IV Waste",
    "rowid": "1153046",
    "final_x": "3672075.86452",
    "final_y": "523265.320379",
    "longitude": "-90.09810939850823",
    "latitude": "29.93308078863894",
    "geocoded_column": {
      "latitude": "29.93308078863894",
      "longitude": "-90.09810939850823"
    }
  },
  {
    "service_request": "2024-1153045",
    "request_type": "Trash/Recycling",
    "request_reason": "Illegal Dumping",
    "date_created": "2024-12-04T16:40:32.000",
    "date_modified": "2024-12-04T16:40:32.000",
    "request_status": "Pending",
    "responsible_agency": "Department of Sanitation",
    "final_address": "2425 Law St",
    "address_councildis": "D",
    "status": "Pending",
    "rowid": "1153045",
    "final_x": "3685634.551",
    "final_y": "541966.329996",
    "longitude": "-90.05464682423352",
    "latitude": "29.984093271117256",
    "geocoded_column": {
      "latitude": "29.984093271117256",
      "longitude": "-90.05464682423352"
    }
  },
  {
    "service_request": "2024-1153044",
    "request_type": "Utility Poles",
    "request_reason": "Utility Pole Leaning",
    "date_created": "2024-12-04T16:34:55.000",
    "date_modified": "2024-12-04T16:34:59.000",
    "request_status": "Pending",
    "responsible_agency": "Utility Company Collective",
    "final_address": "4732 St Claude Ave",
    "address_councildis": "E",
    "status": "Pending",
    "rowid": "1153044",
    "final_x": "3694923.81027",
    "final_y": "534435.078213",
    "longitude": "-90.02557791317464",
    "latitude": "29.963096716249932",
    "geocoded_column": {
      "latitude": "29.963096716249932",
      "longitude": "-90.02557791317464"
    }
  },
  {
    "service_request": "2024-1153043",
    "request_type": "Trash/Recycling",
    "request_reason": "Order Recycling Cart",
    "date_created": "2024-12-04T16:32:52.000",
    "date_modified": "2024-12-04T16:32:53.000",
    "request_status": "Pending",
    "responsible_agency": "Department of Sanitation",
    "final_address": "3042 St Peter St",
    "address_councildis": "A",
    "status": "Pending",
    "rowid": "1153043",
    "final_x": "3675308.73915",
    "final_y": "537823.768137",
    "longitude": "-90.08740367903778",
    "latitude": "29.973015447719156",
    "geocoded_column": {
      "latitude": "29.973015447719156",
      "longitude": "-90.08740367903778"
    }
  },
  {
    "service_request": "2024-1153042",
    "request_type": "Streetlights",
    "request_reason": "Streetlight Outage/Malfunction",
    "date_created": "2024-12-04T16:23:56.000",
    "date_modified": "2024-12-04T16:23:57.000",
    "request_status": "Pending",
    "responsible_agency": "Department of Public Works",
    "final_address": "7220 Willowbrae Dr",
    "address_councildis": "E",
    "status": "Pending",
    "contractor": "Legacy Professional Services",
    "rowid": "1153042",
    "final_x": "3711025.45957",
    "final_y": "563551.76976",
    "longitude": "-89.97364027227297",
    "latitude": "30.04264131414468",
    "geocoded_column": {
      "latitude": "30.04264131414468",
      "longitude": "-89.97364027227297"
    }
  },
  {
    "service_request": "2024-1153041",
    "request_type": "Traffic Signals",
    "request_reason": "Traffic Signal Malfunctioning or Damaged",
    "date_created": "2024-12-04T16:19:01.000",
    "date_modified": "2024-12-04T16:19:02.000",
    "request_status": "Pending",
    "responsible_agency": "Department of Public Works",
    "final_address": "MORRISON RD & READ BLVD",
    "address_councildis": "E",
    "status": "Pending",
    "rowid": "1153041",
    "final_x": "3708986.9",
    "final_y": "563787.08",
    "longitude": "-89.9800740921111",
    "latitude": "30.043354679575092",
    "geocoded_column": {
      "latitude": "30.043354679575092",
      "longitude": "-89.9800740921111"
    }
  },
  {
    "service_request": "2024-1153040",
    "request_type": "Safety & Permits",
    "request_reason": "Licenses & Permits",
    "date_created": "2024-12-04T16:18:06.000",
    "date_modified": "2024-12-04T16:18:06.000",
    "request_status": "Pending",
    "responsible_agency": "Safety and Permits",
    "final_address": "102 Fairfax Pl",
    "address_councildis": "C",
    "status": "Pending",
    "rowid": "1153040",
    "final_x": "3705670.86263",
    "final_y": "517508.94495",
    "longitude": "-89.99226585913667",
    "latitude": "29.91621420090068",
    "geocoded_column": {
      "latitude": "29.91621420090068",
      "longitude": "-89.99226585913667"
    }
  },
  {
    "service_request": "2024-1153039",
    "request_type": "Trash/Recycling",
    "request_reason": "Repair Trash Cart",
    "date_created": "2024-12-04T16:16:57.000",
    "date_modified": "2024-12-04T16:16:58.000",
    "request_status": "Pending",
    "responsible_agency": "Department of Sanitation",
    "final_address": "9031 Bunker Hill Rd",
    "address_councildis": "E",
    "status": "Assigned to Contractor",
    "contractor": "Waste Pro",
    "rowid": "1153039",
    "final_x": "3706320.94212",
    "final_y": "561824.358431",
    "longitude": "-89.9885723720645",
    "latitude": "30.038044276506092",
    "geocoded_column": {
      "latitude": "30.038044276506092",
      "longitude": "-89.9885723720645"
    }
  },
  {
    "service_request": "2024-1153038",
    "request_type": "Property Maintenance",
    "request_reason": "Property Maintenance",
    "date_created": "2024-12-04T16:14:41.000",
    "date_modified": "2024-12-04T16:14:42.000",
    "request_status": "Pending",
    "responsible_agency": "Department of Code Enforcement",
    "final_address": "1931 St Claude Ave",
    "address_councildis": "C",
    "status": "Pending",
    "rowid": "1153038",
    "final_x": "3684129.64098",
    "final_y": "536257.877191",
    "longitude": "-90.05960057173445",
    "latitude": "29.96844311212494",
    "geocoded_column": {
      "latitude": "29.96844311212494",
      "longitude": "-90.05960057173445"
    }
  },
  {
    "service_request": "2024-1153037",
    "request_type": "Trash/Recycling",
    "request_reason": "Order Second Trash Cart",
    "date_created": "2024-12-04T16:14:33.000",
    "date_modified": "2024-12-04T16:14:34.000",
    "request_status": "Pending",
    "responsible_agency": "Department of Sanitation",
    "final_address": "212 Magazine St",
    "address_councildis": "B",
    "status": "Assigned to Contractor",
    "contractor": "Empire Services",
    "rowid": "1153037",
    "final_x": "3681704.36066",
    "final_y": "529822.534785",
    "longitude": "-90.06748423821327",
    "latitude": "29.950822021348635",
    "geocoded_column": {
      "latitude": "29.950822021348635",
      "longitude": "-90.06748423821327"
    }
  },
  {
    "service_request": "2024-1153036",
    "request_type": "Trash/Recycling",
    "request_reason": "Order Trash Cart",
    "date_created": "2024-12-04T16:13:48.000",
    "date_modified": "2024-12-04T16:13:49.000",
    "request_status": "Pending",
    "responsible_agency": "Department of Sanitation",
    "final_address": "212 Magazine St",
    "address_councildis": "B",
    "status": "Assigned to Contractor",
    "contractor": "Empire Services",
    "rowid": "1153036",
    "final_x": "3681704.36066",
    "final_y": "529822.534785",
    "longitude": "-90.06748423821327",
    "latitude": "29.950822021348635",
    "geocoded_column": {
      "latitude": "29.950822021348635",
      "longitude": "-90.06748423821327"
    }
  },
  {
    "service_request": "2024-1153035",
    "request_type": "Trash/Recycling",
    "request_reason": "Repair Trash Cart",
    "date_created": "2024-12-04T16:10:41.000",
    "date_modified": "2024-12-04T16:10:42.000",
    "request_status": "Pending",
    "responsible_agency": "Department of Sanitation",
    "final_address": "5325 Wickfield Dr",
    "address_councildis": "D",
    "status": "Assigned to Contractor",
    "contractor": "IV Waste",
    "rowid": "1153035",
    "final_x": "3681177.53032",
    "final_y": "552785.40943",
    "longitude": "-90.06834725743502",
    "latitude": "30.01397789222625",
    "geocoded_column": {
      "latitude": "30.01397789222625",
      "longitude": "-90.06834725743502"
    }
  },
  {
    "service_request": "2024-1153034",
    "request_type": "Trash/Recycling",
    "request_reason": "Request a Large Item Pick Up",
    "date_created": "2024-12-04T16:08:04.000",
    "date_modified": "2024-12-04T16:08:06.000",
    "request_status": "Pending",
    "responsible_agency": "Department of Sanitation",
    "final_address": "1718 Gentilly Blvd",
    "address_councildis": "D",
    "status": "Assigned to Contractor",
    "contractor": "IV Waste",
    "rowid": "1153034",
    "final_x": "3678676.22658",
    "final_y": "541619.388236",
    "longitude": "-90.07663702735348",
    "latitude": "29.983350978977384",
    "geocoded_column": {
      "latitude": "29.983350978977384",
      "longitude": "-90.07663702735348"
    }
  },
  {
    "service_request": "2024-1153033",
    "request_type": "Parks & Parkways",
    "request_reason": "Request Tree Service (Right of Way/Public Property)",
    "date_created": "2024-12-04T16:04:35.000",
    "date_modified": "2024-12-04T16:04:36.000",
    "request_status": "Pending",
    "responsible_agency": "Department of Parks & Parkway",
    "final_address": "5325 Canal Blvd",
    "address_councildis": "A",
    "status": "Pending",
    "rowid": "1153033",
    "final_x": "3668225.27565",
    "final_y": "542762.748557",
    "longitude": "-90.10960812132267",
    "latitude": "29.986805858396487",
    "geocoded_column": {
      "latitude": "29.986805858396487",
      "longitude": "-90.10960812132267"
    }
  },
  {
    "service_request": "2024-1153032",
    "request_type": "Parks & Parkways",
    "request_reason": "Request Tree Service (Right of Way/Public Property)",
    "date_created": "2024-12-04T16:03:58.000",
    "date_modified": "2024-12-04T16:04:11.000",
    "request_status": "Pending",
    "responsible_agency": "Department of Parks & Parkway",
    "final_address": "7506 Sandy Cove Dr",
    "address_councildis": "E",
    "status": "Pending",
    "rowid": "1153032",
    "final_x": "3715981.38418",
    "final_y": "568730.229477",
    "longitude": "-89.95778128356889",
    "latitude": "30.0567173275726",
    "geocoded_column": {
      "latitude": "30.0567173275726",
      "longitude": "-89.95778128356889"
    }
  },
  {
    "service_request": "2024-1153031",
    "request_type": "Property Maintenance",
    "request_reason": "Property Maintenance",
    "date_created": "2024-12-04T16:00:37.000",
    "date_modified": "2024-12-04T16:00:37.000",
    "request_status": "Pending",
    "responsible_agency": "Department of Code Enforcement",
    "final_address": "204 Fairfax Pl",
    "address_councildis": "C",
    "status": "Pending",
    "rowid": "1153031",
    "final_x": "3706226.78673",
    "final_y": "517505.84575",
    "longitude": "-89.9905112711674",
    "latitude": "29.916187776969036",
    "geocoded_column": {
      "latitude": "29.916187776969036",
      "longitude": "-89.9905112711674"
    }
  },
  {
    "service_request": "2024-1153030",
    "request_type": "Trash/Recycling",
    "request_reason": "Request a Large Item Pick Up",
    "date_created": "2024-12-04T15:58:46.000",
    "date_modified": "2024-12-04T15:58:47.000",
    "request_status": "Pending",
    "responsible_agency": "Department of Sanitation",
    "final_address": "7511 Fieldston Rd",
    "address_councildis": "E",
    "status": "Assigned to Contractor",
    "contractor": "Waste Pro",
    "rowid": "1153030",
    "final_x": "3700682.84522",
    "final_y": "560370.615646",
    "longitude": "-90.00644327240218",
    "latitude": "30.034227783607353",
    "geocoded_column": {
      "latitude": "30.034227783607353",
      "longitude": "-90.00644327240218"
    }
  },
  {
    "service_request": "2024-1153029",
    "request_type": "Trash/Recycling",
    "request_reason": "Request a Large Item Pick Up",
    "date_created": "2024-12-04T15:58:13.000",
    "date_modified": "2024-12-04T15:58:14.000",
    "request_status": "Pending",
    "responsible_agency": "Department of Sanitation",
    "final_address": "5929 Chestnut St",
    "address_councildis": "A",
    "status": "Assigned to Contractor",
    "contractor": "IV Waste",
    "rowid": "1153029",
    "final_x": "3665179.07604",
    "final_y": "519869.398712",
    "longitude": "-90.11999569598656",
    "latitude": "29.92394570684376",
    "geocoded_column": {
      "latitude": "29.92394570684376",
      "longitude": "-90.11999569598656"
    }
  },
  {
    "service_request": "2024-1153028",
    "request_type": "Abandoned Vehicles",
    "request_reason": "Abandoned/Junk Vehicles",
    "date_created": "2024-12-04T15:57:00.000",
    "date_modified": "2024-12-04T16:42:58.000",
    "request_status": "Pending",
    "responsible_agency": "Department of Public Works",
    "final_address": "7158 Lamb Rd",
    "address_councildis": "D",
    "rowid": "1153028",
    "final_x": "3697466.65168",
    "final_y": "557548.534299",
    "longitude": "-90.01670928803411",
    "latitude": "30.026570157101705",
    "geocoded_column": {
      "latitude": "30.026570157101705",
      "longitude": "-90.01670928803411"
    }
  },
  {
    "service_request": "2024-1153027",
    "request_type": "Streetlights",
    "request_reason": "Streetlight Outage/Malfunction",
    "date_created": "2024-12-04T15:50:46.000",
    "date_modified": "2024-12-04T15:50:47.000",
    "request_status": "Pending",
    "responsible_agency": "Department of Public Works",
    "final_address": "1129 Soniat St",
    "address_councildis": "B",
    "status": "Pending",
    "contractor": "Legacy Professional Services",
    "rowid": "1153027",
    "final_x": "3668417.86676",
    "final_y": "519542.628471",
    "longitude": "-90.10978297496435",
    "latitude": "29.92295249250317",
    "geocoded_column": {
      "latitude": "29.92295249250317",
      "longitude": "-90.10978297496435"
    }
  },
  {
    "service_request": "2024-1153026",
    "request_type": "Trash/Recycling",
    "request_reason": "Request a Large Item Pick Up",
    "date_created": "2024-12-04T15:50:28.000",
    "date_modified": "2024-12-04T15:50:29.000",
    "request_status": "Pending",
    "responsible_agency": "Department of Sanitation",
    "final_address": "4719 Virgilian St",
    "address_councildis": "D",
    "status": "Assigned to Contractor",
    "contractor": "Waste Pro",
    "rowid": "1153026",
    "final_x": "3697573.29437",
    "final_y": "553614.334103",
    "longitude": "-90.0165151768813",
    "latitude": "30.01574923102479",
    "geocoded_column": {
      "latitude": "30.01574923102479",
      "longitude": "-90.0165151768813"
    }
  },
  {
    "service_request": "2024-1153025",
    "request_type": "Tax and Revenue",
    "request_reason": "General Tax Question",
    "date_created": "2024-12-04T15:50:26.000",
    "date_modified": "2024-12-04T15:50:26.000",
    "request_status": "Pending",
    "responsible_agency": "Bureau of Revenue",
    "final_address": "1300 Perdido St",
    "address_councildis": "B",
    "status": "Pending",
    "rowid": "1153025",
    "final_x": "3678683.48347",
    "final_y": "530227.987073",
    "longitude": "-90.07700859883013",
    "latitude": "29.952028297123956",
    "geocoded_column": {
      "latitude": "29.952028297123956",
      "longitude": "-90.07700859883013"
    }
  },
  {
    "service_request": "2024-1153024",
    "request_type": "Trash/Recycling",
    "request_reason": "MIssed Recycling Pick-Up",
    "date_created": "2024-12-04T15:49:30.000",
    "date_modified": "2024-12-04T15:49:31.000",
    "request_status": "Pending",
    "responsible_agency": "Department of Sanitation",
    "final_address": "3038 Boyd St",
    "address_councildis": "C",
    "status": "Assigned to Contractor",
    "contractor": "Richards Disposal",
    "rowid": "1153024",
    "final_x": "3708148.91384",
    "final_y": "519371.062263",
    "longitude": "-89.98437502098359",
    "latitude": "29.921254394346473",
    "geocoded_column": {
      "latitude": "29.921254394346473",
      "longitude": "-89.98437502098359"
    }
  },
  {
    "service_request": "2024-1153023",
    "request_type": "Safety & Permits",
    "request_reason": "Licenses & Permits",
    "date_created": "2024-12-04T15:49:16.000",
    "date_modified": "2024-12-04T15:49:16.000",
    "request_status": "Pending",
    "responsible_agency": "Safety and Permits",
    "final_address": "4343 Sybil St",
    "address_councildis": "D",
    "status": "Pending",
    "rowid": "1153023",
    "final_x": "3679172.35637",
    "final_y": "548453.046802",
    "longitude": "-90.0748329263614",
    "latitude": "30.002126163591562",
    "geocoded_column": {
      "latitude": "30.002126163591562",
      "longitude": "-90.0748329263614"
    }
  },
  {
    "service_request": "2024-1153022",
    "request_type": "Trash/Recycling",
    "request_reason": "Repair Trash Cart",
    "date_created": "2024-12-04T15:48:49.000",
    "date_modified": "2024-12-04T15:48:50.000",
    "request_status": "Pending",
    "responsible_agency": "Department of Sanitation",
    "final_address": "1907 Octavia St",
    "address_councildis": "A",
    "status": "Assigned to Contractor",
    "contractor": "IV Waste",
    "rowid": "1153022",
    "final_x": "3667369.3193",
    "final_y": "522774.498938",
    "longitude": "-90.11298419114567",
    "latitude": "29.93186985700058",
    "geocoded_column": {
      "latitude": "29.93186985700058",
      "longitude": "-90.11298419114567"
    }
  },
  {
    "service_request": "2024-1153021",
    "request_type": "Trash/Recycling",
    "request_reason": "Order Second Trash Cart",
    "date_created": "2024-12-04T15:46:59.000",
    "date_modified": "2024-12-04T15:47:00.000",
    "request_status": "Pending",
    "responsible_agency": "Department of Sanitation",
    "final_address": "7340 Hansbrough Ave",
    "address_councildis": "E",
    "status": "Assigned to Contractor",
    "contractor": "Waste Pro",
    "rowid": "1153021",
    "final_x": "3708077.68497",
    "final_y": "563581.758432",
    "longitude": "-89.98295521686077",
    "latitude": "30.042819621217635",
    "geocoded_column": {
      "latitude": "30.042819621217635",
      "longitude": "-89.98295521686077"
    }
  },
  {
    "service_request": "2024-1153020",
    "request_type": "Trash/Recycling",
    "request_reason": "Missed Trash Pick-Up",
    "date_created": "2024-12-04T15:46:28.000",
    "date_modified": "2024-12-04T15:55:04.000",
    "case_close_date": "2024-12-04T09:55:04.000",
    "request_status": "Closed",
    "responsible_agency": "Department of Sanitation",
    "final_address": "7924 Belfast St",
    "address_councildis": "A",
    "status": "Invalid Request",
    "contractor": "IV Waste",
    "contractor_action": "Invalid",
    "rowid": "1153020",
    "final_x": "3665969.26823",
    "final_y": "531959.877507",
    "longitude": "-90.11709623131219",
    "latitude": "29.957167614285577",
    "geocoded_column": {
      "latitude": "29.957167614285577",
      "longitude": "-90.11709623131219"
    }
  },
  {
    "service_request": "2024-1153019",
    "request_type": "Property Maintenance",
    "request_reason": "Property Maintenance",
    "date_created": "2024-12-04T15:46:20.000",
    "date_modified": "2024-12-04T15:46:21.000",
    "request_status": "Pending",
    "responsible_agency": "Department of Code Enforcement",
    "final_address": "4343 Sybil St",
    "address_councildis": "D",
    "status": "Pending",
    "rowid": "1153019",
    "final_x": "3679172.35637",
    "final_y": "548453.046802",
    "longitude": "-90.0748329263614",
    "latitude": "30.002126163591562",
    "geocoded_column": {
      "latitude": "30.002126163591562",
      "longitude": "-90.0748329263614"
    }
  },
  {
    "service_request": "2024-1153018",
    "request_type": "Trash/Recycling",
    "request_reason": "Request a Large Item Pick Up",
    "date_created": "2024-12-04T15:45:42.000",
    "date_modified": "2024-12-04T15:45:43.000",
    "request_status": "Pending",
    "responsible_agency": "Department of Sanitation",
    "final_address": "6126 Baccich St",
    "address_councildis": "D",
    "status": "Assigned to Contractor",
    "contractor": "IV Waste",
    "rowid": "1153018",
    "final_x": "3687382.04188",
    "final_y": "555867.707737",
    "longitude": "-90.04863501906766",
    "latitude": "30.02226327293727",
    "geocoded_column": {
      "latitude": "30.02226327293727",
      "longitude": "-90.04863501906766"
    }
  },
  {
    "service_request": "2024-1153017",
    "request_type": "Trash/Recycling",
    "request_reason": "Request a Large Item Pick Up",
    "date_created": "2024-12-04T15:44:22.000",
    "date_modified": "2024-12-04T15:44:23.000",
    "request_status": "Pending",
    "responsible_agency": "Department of Sanitation",
    "final_address": "1018 Elmira Ave",
    "address_councildis": "C",
    "status": "Assigned to Contractor",
    "contractor": "Richards Disposal",
    "rowid": "1153017",
    "final_x": "3688157.76815",
    "final_y": "527763.996991",
    "longitude": "-90.04718066841649",
    "latitude": "29.944964136475722",
    "geocoded_column": {
      "latitude": "29.944964136475722",
      "longitude": "-90.04718066841649"
    }
  },
  {
    "service_request": "2024-1153016",
    "request_type": "Trash/Recycling",
    "request_reason": "Request a Large Item Pick Up",
    "date_created": "2024-12-04T15:42:02.000",
    "date_modified": "2024-12-04T15:42:03.000",
    "request_status": "Pending",
    "responsible_agency": "Department of Sanitation",
    "final_address": "1776 N Gayoso St",
    "address_councildis": "D",
    "status": "Assigned to Contractor",
    "contractor": "IV Waste",
    "rowid": "1153016",
    "final_x": "3679119.03855",
    "final_y": "541910.573196",
    "longitude": "-90.07522829794448",
    "latitude": "29.984138275029693",
    "geocoded_column": {
      "latitude": "29.984138275029693",
      "longitude": "-90.07522829794448"
    }
  },
  {
    "service_request": "2024-1153015",
    "request_type": "Trash/Recycling",
    "request_reason": "Request a Large Item Pick Up",
    "date_created": "2024-12-04T15:41:57.000",
    "date_modified": "2024-12-04T15:41:59.000",
    "request_status": "Pending",
    "responsible_agency": "Department of Sanitation",
    "final_address": "6821 Coventry St",
    "address_councildis": "E",
    "status": "Assigned to Contractor",
    "contractor": "Waste Pro",
    "rowid": "1153015",
    "final_x": "3698574.20733",
    "final_y": "559769.355805",
    "longitude": "-90.01312870056826",
    "latitude": "30.032641523371392",
    "geocoded_column": {
      "latitude": "30.032641523371392",
      "longitude": "-90.01312870056826"
    }
  },
  {
    "service_request": "2024-1153014",
    "request_type": "Trash/Recycling",
    "request_reason": "Order Trash Cart",
    "date_created": "2024-12-04T15:38:50.000",
    "date_modified": "2024-12-04T15:38:51.000",
    "request_status": "Pending",
    "responsible_agency": "Department of Sanitation",
    "final_address": "2707 St Thomas St",
    "address_councildis": "B",
    "status": "Assigned to Contractor",
    "contractor": "IV Waste",
    "rowid": "1153014",
    "final_x": "3678223.86702",
    "final_y": "519449.327799",
    "longitude": "-90.07883246608122",
    "latitude": "29.922404384390756",
    "geocoded_column": {
      "latitude": "29.922404384390756",
      "longitude": "-90.07883246608122"
    }
  },
  {
    "service_request": "2024-1153013",
    "request_type": "Trash/Recycling",
    "request_reason": "Request a Large Item Pick Up",
    "date_created": "2024-12-04T15:37:07.000",
    "date_modified": "2024-12-04T15:37:08.000",
    "request_status": "Pending",
    "responsible_agency": "Department of Sanitation",
    "final_address": "1020 Burdette St",
    "address_councildis": "A",
    "status": "Assigned to Contractor",
    "contractor": "IV Waste",
    "rowid": "1153013",
    "final_x": "3662401.05869",
    "final_y": "527244.157183",
    "longitude": "-90.12852016919376",
    "latitude": "29.94430455966254",
    "geocoded_column": {
      "latitude": "29.94430455966254",
      "longitude": "-90.12852016919376"
    }
  },
  {
    "service_request": "2024-1153012",
    "request_type": "Roads and Streets",
    "request_reason": "Pothole",
    "date_created": "2024-12-04T15:36:24.000",
    "date_modified": "2024-12-04T15:36:25.000",
    "request_status": "Pending",
    "responsible_agency": "Department of Public Works",
    "final_address": "2959 Memorial Park Dr",
    "address_councildis": "C",
    "status": "Pending",
    "rowid": "1153012",
    "final_x": "3693988.04029",
    "final_y": "519962.903288",
    "longitude": "-90.0290531558216",
    "latitude": "29.923332562844777",
    "geocoded_column": {
      "latitude": "29.923332562844777",
      "longitude": "-90.0290531558216"
    }
  },
  {
    "service_request": "2024-1153011",
    "request_type": "Trash/Recycling",
    "request_reason": "Return Trash Cart",
    "date_created": "2024-12-04T15:32:16.000",
    "date_modified": "2024-12-04T15:32:17.000",
    "request_status": "Pending",
    "responsible_agency": "Department of Sanitation",
    "final_address": "5520 Hurst St",
    "address_councildis": "A",
    "status": "Assigned to Contractor",
    "contractor": "IV Waste",
    "rowid": "1153011",
    "final_x": "3666829.24845",
    "final_y": "521348.366073",
    "longitude": "-90.11473702327498",
    "latitude": "29.927964249219436",
    "geocoded_column": {
      "latitude": "29.927964249219436",
      "longitude": "-90.11473702327498"
    }
  },
  {
    "service_request": "2024-1153010",
    "request_type": "Trash/Recycling",
    "request_reason": "Illegal Dumping",
    "date_created": "2024-12-04T15:29:07.000",
    "date_modified": "2024-12-04T15:29:07.000",
    "request_status": "Pending",
    "responsible_agency": "Department of Sanitation",
    "final_address": "2800 BLK N Claiborne Ave",
    "address_councildis": "C",
    "status": "Pending",
    "rowid": "1153010",
    "final_x": "3688306.27394",
    "final_y": "538124.696176",
    "longitude": "-90.04634437708508",
    "latitude": "29.973447887249492",
    "geocoded_column": {
      "latitude": "29.973447887249492",
      "longitude": "-90.04634437708508"
    }
  },
  {
    "service_request": "2024-1153009",
    "request_type": "Abandoned Vehicles",
    "request_reason": "Abandoned/Junk Vehicles",
    "date_created": "2024-12-04T15:27:40.000",
    "date_modified": "2024-12-04T15:27:40.000",
    "request_status": "Pending",
    "responsible_agency": "Department of Public Works",
    "final_address": "533 S Alexander St",
    "address_councildis": "A",
    "status": "Pending",
    "rowid": "1153009",
    "final_x": "3668765.90202",
    "final_y": "537680.406408",
    "longitude": "-90.10807213627888",
    "latitude": "29.97281524928413",
    "geocoded_column": {
      "latitude": "29.97281524928413",
      "longitude": "-90.10807213627888"
    }
  },
  {
    "service_request": "2024-1153008",
    "request_type": "Trash/Recycling",
    "request_reason": "Illegal Dumping",
    "date_created": "2024-12-04T15:26:26.000",
    "date_modified": "2024-12-04T15:26:27.000",
    "request_status": "Pending",
    "responsible_agency": "Department of Sanitation",
    "final_address": "2800 BLK N Viller St",
    "address_councildis": "C",
    "status": "Pending",
    "rowid": "1153008",
    "final_x": "3688152.92123",
    "final_y": "537388.297714",
    "longitude": "-90.0468548070071",
    "latitude": "29.971427785384126",
    "geocoded_column": {
      "latitude": "29.971427785384126",
      "longitude": "-90.0468548070071"
    }
  },
  {
    "service_request": "2024-1153007",
    "request_type": "Street and Traffic Signs",
    "request_reason": "Additional Signage Request",
    "date_created": "2024-12-04T15:25:58.000",
    "date_modified": "2024-12-04T15:25:58.000",
    "request_status": "Pending",
    "responsible_agency": "Department of Public Works",
    "final_address": "3400 BLK Prytania St",
    "address_councildis": "B",
    "status": "Pending",
    "rowid": "1153007",
    "final_x": "3674009.10109",
    "final_y": "520867.59552",
    "longitude": "-90.09208829180798",
    "latitude": "29.926430374498853",
    "geocoded_column": {
      "latitude": "29.926430374498853",
      "longitude": "-90.09208829180798"
    }
  },
  {
    "service_request": "2024-1153006",
    "request_type": "Abandoned Vehicles",
    "request_reason": "Abandoned/Junk Vehicles",
    "date_created": "2024-12-04T15:25:42.000",
    "date_modified": "2024-12-04T15:25:42.000",
    "request_status": "Pending",
    "responsible_agency": "Department of Public Works",
    "final_address": "533 S Alexander St",
    "address_councildis": "A",
    "status": "Pending",
    "rowid": "1153006",
    "final_x": "3668765.90202",
    "final_y": "537680.406408",
    "longitude": "-90.10807213627888",
    "latitude": "29.97281524928413",
    "geocoded_column": {
      "latitude": "29.97281524928413",
      "longitude": "-90.10807213627888"
    }
  },
  {
    "service_request": "2024-1153005",
    "request_type": "Abandoned Vehicles",
    "request_reason": "Abandoned/Junk Vehicles",
    "date_created": "2024-12-04T15:24:07.000",
    "date_modified": "2024-12-04T15:24:07.000",
    "request_status": "Pending",
    "responsible_agency": "Department of Public Works",
    "final_address": "800 Tchoupitoulas St",
    "address_councildis": "B",
    "status": "Pending",
    "rowid": "1153005",
    "final_x": "3681778.39247",
    "final_y": "527634.649919",
    "longitude": "-90.06732681058045",
    "latitude": "29.944803824928933",
    "geocoded_column": {
      "latitude": "29.944803824928933",
      "longitude": "-90.06732681058045"
    }
  },
  {
    "service_request": "2024-1153004",
    "request_type": "Abandoned Vehicles",
    "request_reason": "Abandoned/Junk Vehicles",
    "date_created": "2024-12-04T15:23:15.000",
    "date_modified": "2024-12-04T15:23:15.000",
    "request_status": "Pending",
    "responsible_agency": "Department of Public Works",
    "final_address": "533 S Alexander St",
    "address_councildis": "A",
    "status": "Pending",
    "rowid": "1153004",
    "final_x": "3668765.90202",
    "final_y": "537680.406408",
    "longitude": "-90.10807213627888",
    "latitude": "29.97281524928413",
    "geocoded_column": {
      "latitude": "29.97281524928413",
      "longitude": "-90.10807213627888"
    }
  },
  {
    "service_request": "2024-1153003",
    "request_type": "Trash/Recycling",
    "request_reason": "Order Second Trash Cart",
    "date_created": "2024-12-04T15:22:09.000",
    "date_modified": "2024-12-04T15:22:10.000",
    "request_status": "Pending",
    "responsible_agency": "Department of Sanitation",
    "final_address": "3401 Nashville Ave",
    "address_councildis": "A",
    "status": "Assigned to Contractor",
    "contractor": "IV Waste",
    "rowid": "1153003",
    "final_x": "3668139.885",
    "final_y": "528165.210496",
    "longitude": "-90.11036995667988",
    "latitude": "29.946669989740364",
    "geocoded_column": {
      "latitude": "29.946669989740364",
      "longitude": "-90.11036995667988"
    }
  },
  {
    "service_request": "2024-1153002",
    "request_type": "Trash/Recycling",
    "request_reason": "Replace Trash Cart",
    "date_created": "2024-12-04T15:21:45.000",
    "date_modified": "2024-12-04T15:21:46.000",
    "request_status": "Pending",
    "responsible_agency": "Department of Sanitation",
    "final_address": "3401 Nashville Ave",
    "address_councildis": "A",
    "status": "Assigned to Contractor",
    "contractor": "IV Waste",
    "rowid": "1153002",
    "final_x": "3668139.885",
    "final_y": "528165.210496",
    "longitude": "-90.11036995667988",
    "latitude": "29.946669989740364",
    "geocoded_column": {
      "latitude": "29.946669989740364",
      "longitude": "-90.11036995667988"
    }
  },
  {
    "service_request": "2024-1153001",
    "request_type": "Trash/Recycling",
    "request_reason": "Request a Large Item Pick Up",
    "date_created": "2024-12-04T15:18:24.000",
    "date_modified": "2024-12-04T15:18:25.000",
    "request_status": "Pending",
    "responsible_agency": "Department of Sanitation",
    "final_address": "1522 Riviera Ave",
    "address_councildis": "D",
    "status": "Assigned to Contractor",
    "contractor": "IV Waste",
    "rowid": "1153001",
    "final_x": "3678793.38485",
    "final_y": "550854.695189",
    "longitude": "-90.07594688471883",
    "latitude": "30.00874127869809",
    "geocoded_column": {
      "latitude": "30.00874127869809",
      "longitude": "-90.07594688471883"
    }
  },
  {
    "service_request": "2024-1153000",
    "request_type": "Trash/Recycling",
    "request_reason": "Request a Large Item Pick Up",
    "date_created": "2024-12-04T15:17:06.000",
    "date_modified": "2024-12-04T15:17:07.000",
    "request_status": "Pending",
    "responsible_agency": "Department of Sanitation",
    "final_address": "6040 Eastover Dr",
    "address_councildis": "E",
    "status": "Assigned to Contractor",
    "contractor": "Waste Pro",
    "rowid": "1153000",
    "final_x": "3718522.2014",
    "final_y": "565757.006243",
    "longitude": "-89.94986372042268",
    "latitude": "30.048458077764",
    "geocoded_column": {
      "latitude": "30.048458077764",
      "longitude": "-89.94986372042268"
    }
  },
  {
    "service_request": "2024-1152999",
    "request_type": "Trash/Recycling",
    "request_reason": "Order Recycling Cart",
    "date_created": "2024-12-04T15:16:07.000",
    "date_modified": "2024-12-04T15:16:07.000",
    "request_status": "Pending",
    "responsible_agency": "Department of Sanitation",
    "final_address": "4761 Western St",
    "address_councildis": "D",
    "status": "Pending",
    "rowid": "1152999",
    "final_x": "3684160.89301",
    "final_y": "550567.185684",
    "longitude": "-90.05899930649875",
    "latitude": "30.00778768513581",
    "geocoded_column": {
      "latitude": "30.00778768513581",
      "longitude": "-90.05899930649875"
    }
  },
  {
    "service_request": "2024-1152998",
    "request_type": "Trash/Recycling",
    "request_reason": "Repair Trash Cart",
    "date_created": "2024-12-04T15:12:22.000",
    "date_modified": "2024-12-04T15:12:23.000",
    "request_status": "Pending",
    "responsible_agency": "Department of Sanitation",
    "final_address": "5174 Lakeview Ct",
    "address_councildis": "E",
    "status": "Assigned to Contractor",
    "contractor": "Waste Pro",
    "rowid": "1152998",
    "final_x": "3698896.66564",
    "final_y": "556560.558106",
    "longitude": "-90.0122266223776",
    "latitude": "30.023808342569858",
    "geocoded_column": {
      "latitude": "30.023808342569858",
      "longitude": "-90.0122266223776"
    }
  },
  {
    "service_request": "2024-1152997",
    "request_type": "Streetlights",
    "request_reason": "Streetlight Outage/Malfunction",
    "date_created": "2024-12-04T15:05:11.000",
    "date_modified": "2024-12-04T15:06:20.000",
    "case_close_date": "2024-12-04T09:06:20.000",
    "request_status": "Closed",
    "responsible_agency": "Department of Public Works",
    "final_address": "4609 Arts St",
    "address_councildis": "D",
    "status": "Resolved",
    "contractor": "Legacy Professional Services",
    "rowid": "1152997",
    "final_x": "3686071.86479",
    "final_y": "549689.374356",
    "longitude": "-90.0529929827977",
    "latitude": "30.00531544753519",
    "geocoded_column": {
      "latitude": "30.00531544753519",
      "longitude": "-90.0529929827977"
    }
  },
  {
    "service_request": "2024-1152996",
    "request_type": "Tax and Revenue",
    "request_reason": "General Tax Question",
    "date_created": "2024-12-04T15:03:08.000",
    "date_modified": "2024-12-04T15:03:09.000",
    "request_status": "Pending",
    "responsible_agency": "Bureau of Revenue",
    "final_address": "1300 Perdido St",
    "address_councildis": "B",
    "status": "Pending",
    "rowid": "1152996",
    "final_x": "3678683.48347",
    "final_y": "530227.987073",
    "longitude": "-90.07700859883013",
    "latitude": "29.952028297123956",
    "geocoded_column": {
      "latitude": "29.952028297123956",
      "longitude": "-90.07700859883013"
    }
  },
  {
    "service_request": "2024-1152995",
    "request_type": "Trash/Recycling",
    "request_reason": "Request a Large Item Pick Up",
    "date_created": "2024-12-04T14:57:25.000",
    "date_modified": "2024-12-04T14:57:26.000",
    "request_status": "Pending",
    "responsible_agency": "Department of Sanitation",
    "final_address": "8340 Curran Rd",
    "address_councildis": "E",
    "status": "Assigned to Contractor",
    "contractor": "Waste Pro",
    "rowid": "1152995",
    "final_x": "3703227.45956",
    "final_y": "562037.290463",
    "longitude": "-89.99834064939546",
    "latitude": "30.038729218664777",
    "geocoded_column": {
      "latitude": "30.038729218664777",
      "longitude": "-89.99834064939546"
    }
  },
  {
    "service_request": "2024-1152994",
    "request_type": "Trash/Recycling",
    "request_reason": "Request a Large Item Pick Up",
    "date_created": "2024-12-04T14:56:28.000",
    "date_modified": "2024-12-04T14:56:29.000",
    "request_status": "Pending",
    "responsible_agency": "Department of Sanitation",
    "final_address": "7800 Briarwood Dr",
    "address_councildis": "E",
    "status": "Assigned to Contractor",
    "contractor": "Waste Pro",
    "rowid": "1152994",
    "final_x": "3716879.1422",
    "final_y": "571676.94052",
    "longitude": "-89.95483159004776",
    "latitude": "30.064789895814403",
    "geocoded_column": {
      "latitude": "30.064789895814403",
      "longitude": "-89.95483159004776"
    }
  },
  {
    "service_request": "2024-1152993",
    "request_type": "Utility Poles",
    "request_reason": "Wires Sagging/Hanging Low",
    "date_created": "2024-12-04T14:55:52.000",
    "date_modified": "2024-12-04T14:55:59.000",
    "request_status": "Pending",
    "responsible_agency": "Utility Company Collective",
    "final_address": "1231 Marais St",
    "address_councildis": "C",
    "status": "Pending",
    "rowid": "1152993",
    "final_x": "3681866.75228",
    "final_y": "535712.781191",
    "longitude": "-90.06676590891318",
    "latitude": "29.967013258197582",
    "geocoded_column": {
      "latitude": "29.967013258197582",
      "longitude": "-90.06676590891318"
    }
  },
  {
    "service_request": "2024-1152992",
    "request_type": "Trash/Recycling",
    "request_reason": "Request a Large Item Pick Up",
    "date_created": "2024-12-04T14:55:06.000",
    "date_modified": "2024-12-04T14:55:07.000",
    "request_status": "Pending",
    "responsible_agency": "Department of Sanitation",
    "final_address": "4901 Michoud Blvd",
    "address_councildis": "E",
    "status": "Assigned to Contractor",
    "contractor": "Waste Pro",
    "rowid": "1152992",
    "final_x": "3725089.9056",
    "final_y": "561155.121182",
    "longitude": "-89.92928446490467",
    "latitude": "30.035585125654556",
    "geocoded_column": {
      "latitude": "30.035585125654556",
      "longitude": "-89.92928446490467"
    }
  },
  {
    "service_request": "2024-1152991",
    "request_type": "Trash/Recycling",
    "request_reason": "Request a Large Item Pick Up",
    "date_created": "2024-12-04T14:54:06.000",
    "date_modified": "2024-12-04T14:54:07.000",
    "request_status": "Pending",
    "responsible_agency": "Department of Sanitation",
    "final_address": "627 Lamanche St",
    "address_councildis": "E",
    "status": "Assigned to Contractor",
    "contractor": "Waste Pro",
    "rowid": "1152991",
    "final_x": "3697955.37079",
    "final_y": "532019.711939",
    "longitude": "-90.01609234676556",
    "latitude": "29.95635983119958",
    "geocoded_column": {
      "latitude": "29.95635983119958",
      "longitude": "-90.01609234676556"
    }
  },
  {
    "service_request": "2024-1152990",
    "request_type": "Trash/Recycling",
    "request_reason": "Request a Large Item Pick Up",
    "date_created": "2024-12-04T14:52:31.000",
    "date_modified": "2024-12-04T14:52:47.000",
    "request_status": "Pending",
    "responsible_agency": "Department of Sanitation",
    "final_address": "5980 Winchester Park Dr",
    "address_councildis": "E",
    "status": "Assigned to Contractor",
    "contractor": "Waste Pro",
    "rowid": "1152990",
    "final_x": "3714378.23051",
    "final_y": "563173.030112",
    "longitude": "-89.96305860799644",
    "latitude": "30.04149011308765",
    "geocoded_column": {
      "latitude": "30.04149011308765",
      "longitude": "-89.96305860799644"
    }
  },
  {
    "service_request": "2024-1152989",
    "request_type": "Trash/Recycling",
    "request_reason": "Request a Large Item Pick Up",
    "date_created": "2024-12-04T14:47:59.000",
    "date_modified": "2024-12-04T14:48:00.000",
    "request_status": "Pending",
    "responsible_agency": "Department of Sanitation",
    "final_address": "7807 S Coronet Ct",
    "address_councildis": "E",
    "status": "Assigned to Contractor",
    "contractor": "Waste Pro",
    "rowid": "1152989",
    "final_x": "3702996.09316",
    "final_y": "557376.583899",
    "longitude": "-89.99924331475277",
    "latitude": "30.025921500873885",
    "geocoded_column": {
      "latitude": "30.025921500873885",
      "longitude": "-89.99924331475277"
    }
  },
  {
    "service_request": "2024-1152988",
    "request_type": "Abandoned Vehicles",
    "request_reason": "Abandoned/Junk Vehicles",
    "date_created": "2024-12-04T14:42:43.000",
    "date_modified": "2024-12-04T14:42:43.000",
    "request_status": "Pending",
    "responsible_agency": "Department of Public Works",
    "final_address": "601 Seguin St",
    "address_councildis": "C",
    "status": "Pending",
    "rowid": "1152988",
    "final_x": "3686638.85916",
    "final_y": "529608.322177",
    "longitude": "-90.0519111979024",
    "latitude": "29.95008219471011",
    "geocoded_column": {
      "latitude": "29.95008219471011",
      "longitude": "-90.0519111979024"
    }
  },
  {
    "service_request": "2024-1152987",
    "request_type": "Trash/Recycling",
    "request_reason": "Request a Large Item Pick Up",
    "date_created": "2024-12-04T14:42:02.000",
    "date_modified": "2024-12-04T14:42:03.000",
    "request_status": "Pending",
    "responsible_agency": "Department of Sanitation",
    "final_address": "7815 S Coronet Ct",
    "address_councildis": "E",
    "status": "Assigned to Contractor",
    "contractor": "Waste Pro",
    "rowid": "1152987",
    "final_x": "3703073.73777",
    "final_y": "557395.857563",
    "longitude": "-89.99899726051139",
    "latitude": "30.025972010082555",
    "geocoded_column": {
      "latitude": "30.025972010082555",
      "longitude": "-89.99899726051139"
    }
  },
  {
    "service_request": "2024-1152986",
    "request_type": "Roads and Streets",
    "request_reason": "Debris in Driving Lanes",
    "date_created": "2024-12-04T14:38:13.000",
    "date_modified": "2024-12-04T14:38:13.000",
    "request_status": "Pending",
    "responsible_agency": "Department of Public Works",
    "final_address": "1549 Verna St",
    "address_councildis": "A",
    "status": "Pending",
    "rowid": "1152986",
    "final_x": "3675937.4436",
    "final_y": "541789.369228",
    "longitude": "-90.08528169306148",
    "latitude": "29.983900676384817",
    "geocoded_column": {
      "latitude": "29.983900676384817",
      "longitude": "-90.08528169306148"
    }
  },
  {
    "service_request": "2024-1152985",
    "request_type": "Trash/Recycling",
    "request_reason": "Request a Large Item Pick Up",
    "date_created": "2024-12-04T14:34:56.000",
    "date_modified": "2024-12-04T14:34:57.000",
    "request_status": "Pending",
    "responsible_agency": "Department of Sanitation",
    "final_address": "1422 Urania St",
    "address_councildis": "B",
    "status": "Assigned to Contractor",
    "contractor": "IV Waste",
    "rowid": "1152985",
    "final_x": "3679170.02408",
    "final_y": "524012.449404",
    "longitude": "-90.07568773937474",
    "latitude": "29.93492295866107",
    "geocoded_column": {
      "latitude": "29.93492295866107",
      "longitude": "-90.07568773937474"
    }
  },
  {
    "service_request": "2024-1152984",
    "request_type": "Abandoned Vehicles",
    "request_reason": "Abandoned/Junk Vehicles",
    "date_created": "2024-12-04T14:33:06.000",
    "date_modified": "2024-12-04T14:36:17.000",
    "request_status": "Pending",
    "responsible_agency": "Department of Public Works",
    "final_address": "2316 N Rampart St",
    "address_councildis": "C",
    "status": "Pending",
    "rowid": "1152984",
    "final_x": "3685608.90818",
    "final_y": "535950.773959",
    "longitude": "-90.05493980203096",
    "latitude": "29.967553387352744",
    "geocoded_column": {
      "latitude": "29.967553387352744",
      "longitude": "-90.05493980203096"
    }
  },
  {
    "service_request": "2024-1152983",
    "request_type": "Roads and Streets",
    "request_reason": "Pothole",
    "date_created": "2024-12-04T14:32:40.000",
    "date_modified": "2024-12-04T14:32:40.000",
    "request_status": "Pending",
    "responsible_agency": "Department of Public Works",
    "final_address": "EUNICE DR & HAMMOND ST",
    "address_councildis": "E",
    "status": "Pending",
    "rowid": "1152983",
    "final_x": "3710507.8",
    "final_y": "556193.18",
    "longitude": "-89.97555184305692",
    "latitude": "30.02242498857672",
    "geocoded_column": {
      "latitude": "30.02242498857672",
      "longitude": "-89.97555184305692"
    }
  },
  {
    "service_request": "2024-1152982",
    "request_type": "Trash/Recycling",
    "request_reason": "Request a Large Item Pick Up",
    "date_created": "2024-12-04T14:31:28.000",
    "date_modified": "2024-12-04T14:31:29.000",
    "request_status": "Pending",
    "responsible_agency": "Department of Sanitation",
    "final_address": "1731 Congress St",
    "address_councildis": "D",
    "status": "Assigned to Contractor",
    "contractor": "IV Waste",
    "rowid": "1152982",
    "final_x": "3691373.68771",
    "final_y": "538040.786249",
    "longitude": "-90.03665988137627",
    "latitude": "29.973122075232343",
    "geocoded_column": {
      "latitude": "29.973122075232343",
      "longitude": "-90.03665988137627"
    }
  },
  {
    "service_request": "2024-1152981",
    "request_type": "Roads and Streets",
    "request_reason": "Street Subsidence (Sinking)",
    "date_created": "2024-12-04T14:30:43.000",
    "date_modified": "2024-12-04T14:30:44.000",
    "request_status": "Pending",
    "responsible_agency": "Department of Public Works",
    "final_address": "DWYER RD & READ BLVD",
    "address_councildis": "E",
    "status": "Pending",
    "rowid": "1152981",
    "final_x": "3712559.5",
    "final_y": "557858.48",
    "longitude": "-89.96900638108654",
    "latitude": "30.026936898070552",
    "geocoded_column": {
      "latitude": "30.026936898070552",
      "longitude": "-89.96900638108654"
    }
  },
  {
    "service_request": "2024-1152980",
    "request_type": "Trash/Recycling",
    "request_reason": "Request a Large Item Pick Up",
    "date_created": "2024-12-04T14:23:11.000",
    "date_modified": "2024-12-04T14:23:12.000",
    "request_status": "Pending",
    "responsible_agency": "Department of Sanitation",
    "final_address": "2030 Burgundy St",
    "address_councildis": "C",
    "status": "Assigned to Contractor",
    "contractor": "IV Waste",
    "rowid": "1152980",
    "final_x": "3684554.94524",
    "final_y": "535514.623814",
    "longitude": "-90.05828356108412",
    "latitude": "29.966386416183127",
    "geocoded_column": {
      "latitude": "29.966386416183127",
      "longitude": "-90.05828356108412"
    }
  },
  {
    "service_request": "2024-1152979",
    "request_type": "Streetlights",
    "request_reason": "New Streetlight Request",
    "date_created": "2024-12-04T14:20:44.000",
    "date_modified": "2024-12-04T14:20:45.000",
    "request_status": "Pending",
    "responsible_agency": "Department of Public Works",
    "final_address": "GENERAL DE GAULLE DR & ILLINOIS ST",
    "address_councildis": "C",
    "status": "Pending",
    "contractor": "Legacy Professional Services",
    "rowid": "1152979",
    "final_x": "3693913.8",
    "final_y": "521673.58",
    "longitude": "-90.02922604523738",
    "latitude": "29.928038668033448",
    "geocoded_column": {
      "latitude": "29.928038668033448",
      "longitude": "-90.02922604523738"
    }
  },
  {
    "service_request": "2024-1152978",
    "request_type": "Trash/Recycling",
    "request_reason": "Illegal Dumping",
    "date_created": "2024-12-04T14:19:23.000",
    "date_modified": "2024-12-04T14:19:24.000",
    "request_status": "Pending",
    "responsible_agency": "Department of Sanitation",
    "final_address": "URQUHART ST & PRESS ST",
    "address_councildis": "C",
    "status": "Pending",
    "rowid": "1152978",
    "final_x": "3688210.3",
    "final_y": "536974.28",
    "longitude": "-90.04668827907773",
    "latitude": "29.970287610391416",
    "geocoded_column": {
      "latitude": "29.970287610391416",
      "longitude": "-90.04668827907773"
    }
  },
  {
    "service_request": "2024-1152977",
    "request_type": "Streetlights",
    "request_reason": "Streetlight Outage/Malfunction",
    "date_created": "2024-12-04T14:14:04.000",
    "date_modified": "2024-12-04T14:14:05.000",
    "request_status": "Pending",
    "responsible_agency": "Department of Public Works",
    "final_address": "3934 S Inwood Ave",
    "address_councildis": "C",
    "status": "Pending",
    "contractor": "Legacy Professional Services",
    "rowid": "1152977",
    "final_x": "3705258.40817",
    "final_y": "513596.79685",
    "longitude": "-89.99371208436443",
    "latitude": "29.905470403512556",
    "geocoded_column": {
      "latitude": "29.905470403512556",
      "longitude": "-89.99371208436443"
    }
  },
  {
    "service_request": "2024-1152976",
    "request_type": "Abandoned Vehicles",
    "request_reason": "Abandoned/Junk Vehicles",
    "date_created": "2024-12-04T14:10:36.000",
    "date_modified": "2024-12-04T14:10:36.000",
    "request_status": "Pending",
    "responsible_agency": "Department of Public Works",
    "final_address": "2240 Magazine St",
    "address_councildis": "B",
    "status": "Pending",
    "rowid": "1152976",
    "final_x": "3678602.17992",
    "final_y": "521837.538234",
    "longitude": "-90.07755566696517",
    "latitude": "29.9289597911944",
    "geocoded_column": {
      "latitude": "29.9289597911944",
      "longitude": "-90.07755566696517"
    }
  },
  {
    "service_request": "2024-1152975",
    "request_type": "Trash/Recycling",
    "request_reason": "Replace Trash Cart",
    "date_created": "2024-12-04T14:08:24.000",
    "date_modified": "2024-12-04T14:08:25.000",
    "request_status": "Pending",
    "responsible_agency": "Department of Sanitation",
    "final_address": "2512 Burdette St",
    "address_councildis": "A",
    "status": "Assigned to Contractor",
    "contractor": "IV Waste",
    "rowid": "1152975",
    "final_x": "3666002.25024",
    "final_y": "531264.099906",
    "longitude": "-90.11701540574242",
    "latitude": "29.95525349049732",
    "geocoded_column": {
      "latitude": "29.95525349049732",
      "longitude": "-90.11701540574242"
    }
  },
  {
    "service_request": "2024-1152974",
    "request_type": "General Services",
    "request_reason": "General Service Request",
    "date_created": "2024-12-04T14:06:34.000",
    "date_modified": "2024-12-04T14:09:57.000",
    "case_close_date": "2024-12-04T08:09:57.000",
    "request_status": "Closed",
    "responsible_agency": "Orleans Parish Communication District",
    "final_address": "219 Loyola Ave",
    "address_councildis": "B",
    "status": "Question Answered.",
    "rowid": "1152974",
    "final_x": "3679187.08405",
    "final_y": "531134.900674",
    "longitude": "-90.07538702704547",
    "latitude": "29.95450681241384",
    "geocoded_column": {
      "latitude": "29.95450681241384",
      "longitude": "-90.07538702704547"
    }
  },
  {
    "service_request": "2024-1152973",
    "request_type": "Trash/Recycling",
    "request_reason": "Illegal Dumping",
    "date_created": "2024-12-04T14:04:27.000",
    "date_modified": "2024-12-04T14:04:27.000",
    "request_status": "Pending",
    "responsible_agency": "Department of Sanitation",
    "final_address": "1320 S Salcedo St",
    "address_councildis": "B",
    "status": "Pending",
    "rowid": "1152973",
    "final_x": "3670795.69691",
    "final_y": "531360.199682",
    "longitude": "-90.10187616464172",
    "latitude": "29.955376951971164",
    "geocoded_column": {
      "latitude": "29.955376951971164",
      "longitude": "-90.10187616464172"
    }
  },
  {
    "service_request": "2024-1152972",
    "request_type": "Trash/Recycling",
    "request_reason": "Request a Large Item Pick Up",
    "date_created": "2024-12-04T14:03:38.000",
    "date_modified": "2024-12-04T14:03:39.000",
    "request_status": "Pending",
    "responsible_agency": "Department of Sanitation",
    "final_address": "266 West Robert E Lee Blvd",
    "address_councildis": "A",
    "status": "Assigned to Contractor",
    "contractor": "IV Waste",
    "rowid": "1152972",
    "final_x": "3665662.0098",
    "final_y": "554865.55868",
    "longitude": "-90.11729886213386",
    "latitude": "30.02015942744671",
    "geocoded_column": {
      "latitude": "30.02015942744671",
      "longitude": "-90.11729886213386"
    }
  },
  {
    "service_request": "2024-1152971",
    "request_type": "Property Maintenance",
    "request_reason": "Property Maintenance",
    "date_created": "2024-12-04T14:03:17.000",
    "date_modified": "2024-12-04T14:03:18.000",
    "request_status": "Pending",
    "responsible_agency": "Department of Code Enforcement",
    "final_address": "5201 Canal Blvd",
    "address_councildis": "A",
    "status": "Pending",
    "rowid": "1152971",
    "final_x": "3668099.38842",
    "final_y": "542064.352268",
    "longitude": "-90.1100293050557",
    "latitude": "29.98488920224858",
    "geocoded_column": {
      "latitude": "29.98488920224858",
      "longitude": "-90.1100293050557"
    }
  },
  {
    "service_request": "2024-1152970",
    "request_type": "Trash/Recycling",
    "request_reason": "Request a Large Item Pick Up",
    "date_created": "2024-12-04T14:02:49.000",
    "date_modified": "2024-12-04T14:02:50.000",
    "request_status": "Pending",
    "responsible_agency": "Department of Sanitation",
    "final_address": "8 Leeward Ct",
    "address_councildis": "C",
    "status": "Assigned to Contractor",
    "contractor": "Richards Disposal",
    "rowid": "1152970",
    "final_x": "3704170.71185",
    "final_y": "522505.234554",
    "longitude": "-89.99681694921206",
    "latitude": "29.930000457453744",
    "geocoded_column": {
      "latitude": "29.930000457453744",
      "longitude": "-89.99681694921206"
    }
  },
  {
    "service_request": "2024-1152969",
    "request_type": "Safety & Permits",
    "request_reason": "Zoning Enforcement",
    "date_created": "2024-12-04T14:01:12.000",
    "date_modified": "2024-12-04T14:01:12.000",
    "request_status": "Pending",
    "responsible_agency": "Safety and Permits",
    "final_address": "7706 Burthe St",
    "address_councildis": "A",
    "status": "Pending",
    "rowid": "1152969",
    "final_x": "3662251.59872",
    "final_y": "526633.522686",
    "longitude": "-90.12901232289202",
    "latitude": "29.9426298297996",
    "geocoded_column": {
      "latitude": "29.9426298297996",
      "longitude": "-90.12901232289202"
    }
  },
  {
    "service_request": "2024-1152968",
    "request_type": "Trash/Recycling",
    "request_reason": "Illegal Dumping",
    "date_created": "2024-12-04T13:56:35.000",
    "date_modified": "2024-12-04T14:00:14.000",
    "request_status": "Pending",
    "responsible_agency": "Department of Sanitation",
    "final_address": "8850 Bunker Hill Rd",
    "address_councildis": "E",
    "status": "Pending",
    "rowid": "1152968",
    "final_x": "3706456.82481",
    "final_y": "559964.514461",
    "longitude": "-89.98821194961384",
    "latitude": "30.032926052780727",
    "geocoded_column": {
      "latitude": "30.032926052780727",
      "longitude": "-89.98821194961384"
    }
  },
  {
    "service_request": "2024-1152967",
    "request_type": "Trash/Recycling",
    "request_reason": "Illegal Dumping",
    "date_created": "2024-12-04T13:55:31.000",
    "date_modified": "2024-12-04T13:55:31.000",
    "request_status": "Pending",
    "responsible_agency": "Department of Sanitation",
    "final_address": "2101 First St",
    "address_councildis": "B",
    "status": "Pending",
    "rowid": "1152967",
    "final_x": "3675973.13173",
    "final_y": "524748.955068",
    "longitude": "-90.08575498758977",
    "latitude": "29.937044202364483",
    "geocoded_column": {
      "latitude": "29.937044202364483",
      "longitude": "-90.08575498758977"
    }
  },
  {
    "service_request": "2024-1152966",
    "request_type": "Abandoned Vehicles",
    "request_reason": "Abandoned/Junk Vehicles",
    "date_created": "2024-12-04T13:52:26.000",
    "date_modified": "2024-12-04T13:53:28.000",
    "request_status": "Pending",
    "responsible_agency": "Department of Public Works",
    "final_address": "1801 Willow St",
    "address_councildis": "B",
    "status": "Pending",
    "rowid": "1152966",
    "final_x": "3675238.57883",
    "final_y": "527763.826495",
    "longitude": "-90.08797056689869",
    "latitude": "29.945356079094662",
    "geocoded_column": {
      "latitude": "29.945356079094662",
      "longitude": "-90.08797056689869"
    }
  },
  {
    "service_request": "2024-1152965",
    "request_type": "Trash/Recycling",
    "request_reason": "Request a Large Item Pick Up",
    "date_created": "2024-12-04T13:47:57.000",
    "date_modified": "2024-12-04T13:47:58.000",
    "request_status": "Pending",
    "responsible_agency": "Department of Sanitation",
    "final_address": "1400 BLK Saint Bernard Ave",
    "address_councildis": "C",
    "status": "Assigned to Contractor",
    "contractor": "IV Waste",
    "rowid": "1152965",
    "final_x": "3682465.59501",
    "final_y": "537326.035372",
    "longitude": "-90.06481836183438",
    "latitude": "29.971430935654976",
    "geocoded_column": {
      "latitude": "29.971430935654976",
      "longitude": "-90.06481836183438"
    }
  },
  {
    "service_request": "2024-1152964",
    "request_type": "Trash/Recycling",
    "request_reason": "Request a Large Item Pick Up",
    "date_created": "2024-12-04T13:46:48.000",
    "date_modified": "2024-12-04T13:46:50.000",
    "request_status": "Pending",
    "responsible_agency": "Department of Sanitation",
    "final_address": "4621 Babylon St",
    "address_councildis": "D",
    "status": "Assigned to Contractor",
    "contractor": "Waste Pro",
    "rowid": "1152964",
    "final_x": "3696733.41347",
    "final_y": "553701.447063",
    "longitude": "-90.01916564941867",
    "latitude": "30.01601527168705",
    "geocoded_column": {
      "latitude": "30.01601527168705",
      "longitude": "-90.01916564941867"
    }
  },
  {
    "service_request": "2024-1152963",
    "request_type": "Abandoned Vehicles",
    "request_reason": "Abandoned/Junk Vehicles",
    "date_created": "2024-12-04T13:45:50.000",
    "date_modified": "2024-12-04T13:45:50.000",
    "request_status": "Pending",
    "responsible_agency": "Department of Public Works",
    "final_address": "601 Seguin St",
    "address_councildis": "C",
    "status": "Pending",
    "rowid": "1152963",
    "final_x": "3686638.85916",
    "final_y": "529608.322177",
    "longitude": "-90.0519111979024",
    "latitude": "29.95008219471011",
    "geocoded_column": {
      "latitude": "29.95008219471011",
      "longitude": "-90.0519111979024"
    }
  },
  {
    "service_request": "2024-1152962",
    "request_type": "Property Maintenance",
    "request_reason": "Property Maintenance",
    "date_created": "2024-12-04T13:45:43.000",
    "date_modified": "2024-12-04T13:56:38.000",
    "case_close_date": "2024-12-04T07:56:38.000",
    "request_status": "Closed",
    "responsible_agency": "Department of Code Enforcement",
    "final_address": "7706 Burthe St",
    "address_councildis": "A",
    "status": "Referred to Property Owner",
    "rowid": "1152962",
    "final_x": "3662251.59872",
    "final_y": "526633.522686",
    "longitude": "-90.12901232289202",
    "latitude": "29.9426298297996",
    "geocoded_column": {
      "latitude": "29.9426298297996",
      "longitude": "-90.12901232289202"
    }
  },
  {
    "service_request": "2024-1152961",
    "request_type": "Abandoned Vehicles",
    "request_reason": "Abandoned/Junk Vehicles",
    "date_created": "2024-12-04T13:44:09.000",
    "date_modified": "2024-12-04T13:44:09.000",
    "request_status": "Pending",
    "responsible_agency": "Department of Public Works",
    "final_address": "601 Seguin St",
    "address_councildis": "C",
    "status": "Pending",
    "rowid": "1152961",
    "final_x": "3686638.85916",
    "final_y": "529608.322177",
    "longitude": "-90.0519111979024",
    "latitude": "29.95008219471011",
    "geocoded_column": {
      "latitude": "29.95008219471011",
      "longitude": "-90.0519111979024"
    }
  },
  {
    "service_request": "2024-1152960",
    "request_type": "Trash/Recycling",
    "request_reason": "Request a Large Item Pick Up",
    "date_created": "2024-12-04T13:41:59.000",
    "date_modified": "2024-12-04T13:42:00.000",
    "request_status": "Pending",
    "responsible_agency": "Department of Sanitation",
    "final_address": "4856 Tchoupitoulas St",
    "address_councildis": "B",
    "status": "Assigned to Contractor",
    "contractor": "IV Waste",
    "rowid": "1152960",
    "final_x": "3669223.33018",
    "final_y": "517212.147509",
    "longitude": "-90.1073191445732",
    "latitude": "29.916520731579396",
    "geocoded_column": {
      "latitude": "29.916520731579396",
      "longitude": "-90.1073191445732"
    }
  },
  {
    "service_request": "2024-1152959",
    "request_type": "Street and Traffic Signs",
    "request_reason": "Street Name Sign Damaged or Missing",
    "date_created": "2024-12-04T13:41:33.000",
    "date_modified": "2024-12-04T13:41:33.000",
    "request_status": "Pending",
    "responsible_agency": "Department of Public Works",
    "final_address": "ESPLANADE AVE & PONCE DE LEON ST & MYSTERY ST",
    "address_councildis": "A",
    "status": "Pending",
    "rowid": "1152959",
    "final_x": "3676100.0",
    "final_y": "540544.18",
    "longitude": "-90.08481110610744",
    "latitude": "29.98047196629952",
    "geocoded_column": {
      "latitude": "29.98047196629952",
      "longitude": "-90.08481110610744"
    }
  },
  {
    "service_request": "2024-1152958",
    "request_type": "Street and Traffic Signs",
    "request_reason": "Street Name Sign Damaged or Missing",
    "date_created": "2024-12-04T13:41:14.000",
    "date_modified": "2024-12-04T13:41:14.000",
    "request_status": "Pending",
    "responsible_agency": "Department of Public Works",
    "final_address": "SAUVAGE ST & PONCE DE LEON ST",
    "address_councildis": "A",
    "status": "Pending",
    "rowid": "1152958",
    "final_x": "3677156.4",
    "final_y": "540516.58",
    "longitude": "-90.08147549057344",
    "latitude": "29.980364383186924",
    "geocoded_column": {
      "latitude": "29.980364383186924",
      "longitude": "-90.08147549057344"
    }
  },
  {
    "service_request": "2024-1152957",
    "request_type": "Abandoned Vehicles",
    "request_reason": "Abandoned/Junk Vehicles",
    "date_created": "2024-12-04T13:40:42.000",
    "date_modified": "2024-12-04T13:40:42.000",
    "request_status": "Pending",
    "responsible_agency": "Department of Public Works",
    "final_address": "601 Seguin St",
    "address_councildis": "C",
    "status": "Pending",
    "rowid": "1152957",
    "final_x": "3686638.85916",
    "final_y": "529608.322177",
    "longitude": "-90.0519111979024",
    "latitude": "29.95008219471011",
    "geocoded_column": {
      "latitude": "29.95008219471011",
      "longitude": "-90.0519111979024"
    }
  },
  {
    "service_request": "2024-1152956",
    "request_type": "Street and Traffic Signs",
    "request_reason": "Street Name Sign Damaged or Missing",
    "date_created": "2024-12-04T13:40:38.000",
    "date_modified": "2024-12-04T13:40:38.000",
    "request_status": "Pending",
    "responsible_agency": "Department of Public Works",
    "final_address": "N LOPEZ ST & PONCE DE LEON ST",
    "address_councildis": "A",
    "status": "Pending",
    "rowid": "1152956",
    "final_x": "3676598.4",
    "final_y": "540534.98",
    "longitude": "-90.08323726018276",
    "latitude": "29.980431727707824",
    "geocoded_column": {
      "latitude": "29.980431727707824",
      "longitude": "-90.08323726018276"
    }
  },
  {
    "service_request": "2024-1152955",
    "request_type": "Street and Traffic Signs",
    "request_reason": "Street Name Sign Damaged or Missing",
    "date_created": "2024-12-04T13:40:05.000",
    "date_modified": "2024-12-04T13:40:05.000",
    "request_status": "Pending",
    "responsible_agency": "Department of Public Works",
    "final_address": "PONCE DE LEON ST & N WHITE ST",
    "address_councildis": "A",
    "status": "Pending",
    "rowid": "1152955",
    "final_x": "3677716.8",
    "final_y": "540498.28",
    "longitude": "-90.07970613966465",
    "latitude": "29.980297217850588",
    "geocoded_column": {
      "latitude": "29.980297217850588",
      "longitude": "-90.07970613966465"
    }
  },
  {
    "service_request": "2024-1152954",
    "request_type": "Street and Traffic Signs",
    "request_reason": "Street Name Sign Damaged or Missing",
    "date_created": "2024-12-04T13:39:22.000",
    "date_modified": "2024-12-04T13:39:23.000",
    "request_status": "Pending",
    "responsible_agency": "Department of Public Works",
    "final_address": "PONCE DE LEON ST & CRETE ST",
    "address_councildis": "A",
    "status": "Pending",
    "rowid": "1152954",
    "final_x": "3678192.0",
    "final_y": "540486.88",
    "longitude": "-90.07820565012001",
    "latitude": "29.980251567761584",
    "geocoded_column": {
      "latitude": "29.980251567761584",
      "longitude": "-90.07820565012001"
    }
  },
  {
    "service_request": "2024-1152953",
    "request_type": "Roads and Streets",
    "request_reason": "Street Subsidence (Sinking)",
    "date_created": "2024-12-04T13:38:51.000",
    "date_modified": "2024-12-04T13:38:51.000",
    "request_status": "Pending",
    "responsible_agency": "Department of Public Works",
    "final_address": "1738 Mazant St",
    "address_councildis": "D",
    "status": "Pending",
    "rowid": "1152953",
    "final_x": "3692716.35606",
    "final_y": "537820.280328",
    "longitude": "-90.03242739332197",
    "latitude": "29.97247391547857",
    "geocoded_column": {
      "latitude": "29.97247391547857",
      "longitude": "-90.03242739332197"
    }
  },
  {
    "service_request": "2024-1152952",
    "request_type": "Abandoned Vehicles",
    "request_reason": "Abandoned/Junk Vehicles",
    "date_created": "2024-12-04T13:37:15.000",
    "date_modified": "2024-12-04T13:40:04.000",
    "request_status": "Pending",
    "responsible_agency": "Department of Public Works",
    "final_address": "7600 Burthe St",
    "address_councildis": "A",
    "status": "Pending",
    "rowid": "1152952",
    "final_x": "3662531.17575",
    "final_y": "526388.092158",
    "longitude": "-90.12813777896403",
    "latitude": "29.94194689128216",
    "geocoded_column": {
      "latitude": "29.94194689128216",
      "longitude": "-90.12813777896403"
    }
  },
  {
    "service_request": "2024-1152951",
    "request_type": "Trash/Recycling",
    "request_reason": "Request a Large Item Pick Up",
    "date_created": "2024-12-04T13:32:34.000",
    "date_modified": "2024-12-04T13:32:35.000",
    "request_status": "Pending",
    "responsible_agency": "Department of Sanitation",
    "final_address": "2130 Jena St",
    "address_councildis": "B",
    "status": "Assigned to Contractor",
    "contractor": "IV Waste",
    "rowid": "1152951",
    "final_x": "3670167.08935",
    "final_y": "522868.022971",
    "longitude": "-90.10414874068704",
    "latitude": "29.932044789644326",
    "geocoded_column": {
      "latitude": "29.932044789644326",
      "longitude": "-90.10414874068704"
    }
  },
  {
    "service_request": "2024-1152950",
    "request_type": "Trash/Recycling",
    "request_reason": "Order Trash Cart",
    "date_created": "2024-12-04T13:32:00.000",
    "date_modified": "2024-12-04T13:32:01.000",
    "request_status": "Pending",
    "responsible_agency": "Department of Sanitation",
    "final_address": "635 S Hennessey St",
    "address_councildis": "A",
    "status": "Assigned to Contractor",
    "contractor": "IV Waste",
    "rowid": "1152950",
    "final_x": "3668892.99502",
    "final_y": "537169.210824",
    "longitude": "-90.10768802041291",
    "latitude": "29.971405895313218",
    "geocoded_column": {
      "latitude": "29.971405895313218",
      "longitude": "-90.10768802041291"
    }
  },
  {
    "service_request": "2024-1152949",
    "request_type": "Trash/Recycling",
    "request_reason": "Repair Trash Cart",
    "date_created": "2024-12-04T13:29:43.000",
    "date_modified": "2024-12-04T14:09:29.000",
    "case_close_date": "2024-12-04T08:09:29.000",
    "request_status": "Closed",
    "responsible_agency": "Department of Sanitation",
    "final_address": "2616 Bell St",
    "address_councildis": "A",
    "status": "Assigned to Contractor",
    "contractor": "IV Waste",
    "contractor_action": "Completed",
    "rowid": "1152949",
    "final_x": "3677913.95957",
    "final_y": "539012.665994",
    "longitude": "-90.07913478499135",
    "latitude": "29.976206359277953",
    "geocoded_column": {
      "latitude": "29.976206359277953",
      "longitude": "-90.07913478499135"
    }
  },
  {
    "service_request": "2024-1152948",
    "request_type": "Abandoned Vehicles",
    "request_reason": "Vehicle Blocking Your Driveway",
    "date_created": "2024-12-04T13:27:59.000",
    "date_modified": "2024-12-04T13:28:00.000",
    "request_status": "Pending",
    "responsible_agency": "Department of Public Works",
    "final_address": "1800 BLK Willow St",
    "address_councildis": "B",
    "status": "Pending",
    "rowid": "1152948",
    "final_x": "3675255.72819",
    "final_y": "527730.88199",
    "longitude": "-90.0879175513877",
    "latitude": "29.945264980060646",
    "geocoded_column": {
      "latitude": "29.945264980060646",
      "longitude": "-90.0879175513877"
    }
  },
  {
    "service_request": "2024-1152947",
    "request_type": "Streetlights",
    "request_reason": "Streetlight Outage/Malfunction",
    "date_created": "2024-12-04T13:26:39.000",
    "date_modified": "2024-12-04T13:26:40.000",
    "request_status": "Pending",
    "responsible_agency": "Department of Public Works",
    "final_address": "3309 Fourth St",
    "address_councildis": "B",
    "status": "Pending",
    "contractor": "Legacy Professional Services",
    "rowid": "1152947",
    "final_x": "3672813.54606",
    "final_y": "527856.685439",
    "longitude": "-90.09562401696475",
    "latitude": "29.945683659831385",
    "geocoded_column": {
      "latitude": "29.945683659831385",
      "longitude": "-90.09562401696475"
    }
  },
  {
    "service_request": "2024-1152946",
    "request_type": "Abandoned Vehicles",
    "request_reason": "Abandoned/Junk Vehicles",
    "date_created": "2024-12-04T13:21:48.000",
    "date_modified": "2024-12-04T13:21:49.000",
    "request_status": "Pending",
    "responsible_agency": "Department of Public Works",
    "final_address": "416 Wagner St",
    "address_councildis": "C",
    "status": "Pending",
    "rowid": "1152946",
    "final_x": "3690649.12841",
    "final_y": "530038.661889",
    "longitude": "-90.03923359710004",
    "latitude": "29.95114155477548",
    "geocoded_column": {
      "latitude": "29.95114155477548",
      "longitude": "-90.03923359710004"
    }
  },
  {
    "service_request": "2024-1152945",
    "request_type": "Trash/Recycling",
    "request_reason": "Request a Large Item Pick Up",
    "date_created": "2024-12-04T13:21:46.000",
    "date_modified": "2024-12-04T13:21:47.000",
    "request_status": "Pending",
    "responsible_agency": "Department of Sanitation",
    "final_address": "5125 Sandhurst Dr",
    "address_councildis": "E",
    "status": "Assigned to Contractor",
    "contractor": "Waste Pro",
    "rowid": "1152945",
    "final_x": "3705175.14308",
    "final_y": "556874.180762",
    "longitude": "-89.99237643508313",
    "latitude": "30.024470148016814",
    "geocoded_column": {
      "latitude": "30.024470148016814",
      "longitude": "-89.99237643508313"
    }
  },
  {
    "service_request": "2024-1152944",
    "request_type": "Property Maintenance",
    "request_reason": "Property Maintenance",
    "date_created": "2024-12-04T13:18:36.000",
    "date_modified": "2024-12-04T14:11:34.000",
    "case_close_date": "2024-12-04T08:11:34.000",
    "request_status": "Closed",
    "responsible_agency": "Department of Code Enforcement",
    "final_address": "2716 St Anthony St",
    "address_councildis": "D",
    "status": "Referred to Code Enforcement",
    "rowid": "1152944",
    "final_x": "3682939.93167",
    "final_y": "542272.329613",
    "longitude": "-90.06314717704981",
    "latitude": "29.985017069967963",
    "geocoded_column": {
      "latitude": "29.985017069967963",
      "longitude": "-90.06314717704981"
    }
  },
  {
    "service_request": "2024-1152943",
    "request_type": "Abandoned Vehicles",
    "request_reason": "Abandoned/Junk Vehicles",
    "date_created": "2024-12-04T13:15:54.000",
    "date_modified": "2024-12-04T13:15:55.000",
    "request_status": "Pending",
    "responsible_agency": "Department of Public Works",
    "final_address": "8812 Spruce St",
    "address_councildis": "A",
    "status": "Pending",
    "rowid": "1152943",
    "final_x": "3661928.84013",
    "final_y": "532158.946371",
    "longitude": "-90.12984812508651",
    "latitude": "29.957832294466144",
    "geocoded_column": {
      "latitude": "29.957832294466144",
      "longitude": "-90.12984812508651"
    }
  },