[
  {
    "service_request": "2025-1177447",
    "request_type": "Abandoned Vehicles",
    "request_reason": "Abandoned/Junk Vehicles",
    "date_created": "2025-03-20T23:19:33.000",
    "date_modified": "2025-03-20T23:19:35.000",
    "request_status": "Pending",
    "responsible_agency": "Department of Public Works",
    "final_address": "2602 Peace Ct",
    "address_councildis": "D",
    "status": "Pending",
    "rowid": "1177447",
    "final_x": "3686524.15023",
    "final_y": "541005.535883",
    "longitude": "-90.05187093026889",
    "latitude": "29.98142410070626",
    "geocoded_column": {
      "latitude": "29.98142410070626",
      "longitude": "-90.05187093026889"
    }
  },
  {
    "service_request": "2025-1177446",
    "request_type": "General Services",
    "request_reason": "General Service Request",
    "date_created": "2025-03-20T23:02:00.000",
    "date_modified": "2025-03-20T23:02:02.000",
    "request_status": "Pending",
    "responsible_agency": "Orleans Parish Communication District",
    "final_address": "1924 Sumpter St, New Orleans, Louisiana, 70122",
    "address_councildis": "D",
    "status": "Pending",
    "rowid": "1177446",
    "final_x": "3681929.25538",
    "final_y": "549367.596051",
    "longitude": "-90.06609161699242",
    "latitude": "30.004557299764997",
    "geocoded_column": {
      "latitude": "30.004557299764997",
      "longitude": "-90.06609161699242"
    }
  },
  {
    "service_request": "2025-1177445",
    "request_type": "Mosquito, Termite & Rodent Control",
    "request_reason": "Mosquito Complaint",
    "date_created": "2025-03-20T22:56:11.000",
    "date_modified": "2025-03-20T22:56:13.000",
    "request_status": "Pending",
    "responsible_agency": "Mosquito, Termite & Rodent Control Board",
    "final_address": "0 BLK Agriculture Pl",
    "address_councildis": "D",
    "status": "Pending",
    "rowid": "1177445",
    "final_x": "3689891.40135",
    "final_y": "543419.290574",
    "longitude": "-90.04114966127275",
    "latitude": "29.987957086684915",
    "geocoded_column": {
      "latitude": "29.987957086684915",
      "longitude": "-90.04114966127275"
    }
  },
  {
    "service_request": "2025-1177444",
    "request_type": "Property Maintenance",
    "request_reason": "Property Maintenance",
    "date_created": "2025-03-20T22:24:46.000",
    "date_modified": "2025-03-20T22:24:48.000",
    "request_status": "Pending",
    "responsible_agency": "Department of Code Enforcement",
    "final_address": "2127 Annunciation St",
    "address_councildis": "B",
    "status": "Pending",
    "rowid": "1177444",
    "final_x": "3679643.62824",
    "final_y": "521341.881913",
    "longitude": "-90.0742852155902",
    "latitude": "29.927565473579246",
    "geocoded_column": {
      "latitude": "29.927565473579246",
      "longitude": "-90.0742852155902"
    }
  },
  {
    "service_request": "2025-1177443",
    "request_type": "Trash/Recycling",
    "request_reason": "Dead Animal Pick Up",
    "date_created": "2025-03-20T22:20:42.000",
    "date_modified": "2025-03-20T22:20:44.000",
    "request_status": "Pending",
    "responsible_agency": "Department of Sanitation",
    "final_address": "6921 Edgefield Dr",
    "address_councildis": "E",
    "status": "Assigned to Contractor",
    "contractor": "Waste Pro",
    "rowid": "1177443",
    "final_x": "3719269.06341",
    "final_y": "568610.285861",
    "longitude": "-89.94739415419683",
    "latitude": "30.056278601659184",
    "geocoded_column": {
      "latitude": "30.056278601659184",
      "longitude": "-89.94739415419683"
    }
  },
  {
    "service_request": "2025-1177442",
    "request_type": "Abandoned Vehicles",
    "request_reason": "Abandoned/Junk Vehicles",
    "date_created": "2025-03-20T21:24:29.000",
    "date_modified": "2025-03-20T21:24:31.000",
    "request_status": "Pending",
    "responsible_agency": "Department of Public Works",
    "final_address": "3315 Baronne St",
    "address_councildis": "B",
    "status": "Pending",
    "rowid": "1177442",
    "final_x": "3674129.23764",
    "final_y": "522368.906106",
    "longitude": "-90.09165769775515",
    "latitude": "29.93055491483466",
    "geocoded_column": {
      "latitude": "29.93055491483466",
      "longitude": "-90.09165769775515"
    }
  },
  {
    "service_request": "2025-1177441",
    "request_type": "Trash/Recycling",
    "request_reason": "Repair Recycling Cart",
    "date_created": "2025-03-20T21:17:17.000",
    "date_modified": "2025-03-20T21:17:19.000",
    "request_status": "Pending",
    "responsible_agency": "Department of Sanitation",
    "final_address": "3424 Cleveland Ave",
    "address_councildis": "B",
    "status": "Pending",
    "rowid": "1177441",
    "final_x": "3672665.69787",
    "final_y": "536561.657415",
    "longitude": "-90.09579398331907",
    "latitude": "29.969623827765364",
    "geocoded_column": {
      "latitude": "29.969623827765364",
      "longitude": "-90.09579398331907"
    }
  },
  {
    "service_request": "2025-1177440",
    "request_type": "Trash/Recycling",
    "request_reason": "Missed Trash Pick-Up",
    "date_created": "2025-03-20T20:37:28.000",
    "date_modified": "2025-03-20T20:37:30.000",
    "request_status": "Pending",
    "responsible_agency": "Department of Sanitation",
    "final_address": "3403 Jefferson Ave",
    "address_councildis": "B",
    "status": "Assigned to Contractor",
    "contractor": "IV Waste",
    "rowid": "1177440",
    "final_x": "3668817.22042",
    "final_y": "527675.150783",
    "longitude": "-90.10824790088743",
    "latitude": "29.94530258939474",
    "geocoded_column": {
      "latitude": "29.94530258939474",
      "longitude": "-90.10824790088743"
    }
  },
  {
    "service_request": "2025-1177439",
    "request_type": "Trash/Recycling",
    "request_reason": "Replace Recycling Cart",
    "date_created": "2025-03-20T20:18:16.000",
    "date_modified": "2025-03-20T20:18:18.000",
    "request_status": "Pending",
    "responsible_agency": "Department of Sanitation",
    "final_address": "2315 Jena St",
    "address_councildis": "B",
    "status": "Pending",
    "rowid": "1177439",
    "final_x": "3670227.85159",
    "final_y": "523448.255163",
    "longitude": "-90.1039372669037",
    "latitude": "29.93363844930391",
    "geocoded_column": {
      "latitude": "29.93363844930391",
      "longitude": "-90.1039372669037"
    }
  },
  {
    "service_request": "2025-1177438",
    "request_type": "Trash/Recycling",
    "request_reason": "Request a Large Item Pick Up",
    "date_created": "2025-03-20T19:29:20.000",
    "date_modified": "2025-03-20T19:29:22.000",
    "request_status": "Pending",
    "responsible_agency": "Department of Sanitation",
    "final_address": "844 Taft Pl, New Orleans, Louisiana, 70119",
    "address_councildis": "A",
    "status": "Assigned to Contractor",
    "contractor": "IV Waste",
    "rowid": "1177438",
    "final_x": "3673847.3515",
    "final_y": "539714.952458",
    "longitude": "-90.09195432536946",
    "latitude": "29.978259172620614",
    "geocoded_column": {
      "latitude": "29.978259172620614",
      "longitude": "-90.09195432536946"
    }
  },
  {
    "service_request": "2025-1177437",
    "request_type": "Safety & Permits",
    "request_reason": "Licenses & Permits",
    "date_created": "2025-03-20T19:09:36.000",
    "date_modified": "2025-03-20T19:09:39.000",
    "request_status": "Pending",
    "responsible_agency": "Safety and Permits",
    "final_address": "1943 N Rampart St",
    "address_councildis": "C",
    "status": "Pending",
    "rowid": "1177437",
    "final_x": "3684229.0758",
    "final_y": "535901.470151",
    "longitude": "-90.05929906686211",
    "latitude": "29.967460076499936",
    "geocoded_column": {
      "latitude": "29.967460076499936",
      "longitude": "-90.05929906686211"
    }
  },
  {
    "service_request": "2025-1177436",
    "request_type": "Trash/Recycling",
    "request_reason": "Replace Recycling Cart",
    "date_created": "2025-03-20T19:05:06.000",
    "date_modified": "2025-03-20T19:05:08.000",
    "request_status": "Pending",
    "responsible_agency": "Department of Sanitation",
    "final_address": "3121 Annunciation St",
    "address_councildis": "B",
    "status": "Pending",
    "rowid": "1177436",
    "final_x": "3676546.61473",
    "final_y": "519211.558199",
    "longitude": "-90.08413505594008",
    "latitude": "29.921800980631584",
    "geocoded_column": {
      "latitude": "29.921800980631584",
      "longitude": "-90.08413505594008"
    }
  },
  {
    "service_request": "2025-1177435",
    "request_type": "Trash/Recycling",
    "request_reason": "Return Trash Cart",
    "date_created": "2025-03-20T19:00:45.000",
    "date_modified": "2025-03-20T19:00:47.000",
    "request_status": "Pending",
    "responsible_agency": "Department of Sanitation",
    "final_address": "3121 Annunciation St",
    "address_councildis": "B",
    "status": "Assigned to Contractor",
    "contractor": "IV Waste",
    "rowid": "1177435",
    "final_x": "3676546.61473",
    "final_y": "519211.558199",
    "longitude": "-90.08413505594008",
    "latitude": "29.921800980631584",
    "geocoded_column": {
      "latitude": "29.921800980631584",
      "longitude": "-90.08413505594008"
    }
  },
  {
    "service_request": "2025-1177434",
    "request_type": "Trash/Recycling",
    "request_reason": "Request a Large Item Pick Up",
    "date_created": "2025-03-20T18:54:16.000",
    "date_modified": "2025-03-20T18:54:18.000",
    "request_status": "Pending",
    "responsible_agency": "Department of Sanitation",
    "final_address": "2513 Clara St",
    "address_councildis": "B",
    "status": "Assigned to Contractor",
    "contractor": "IV Waste",
    "rowid": "1177434",
    "final_x": "3674218.71182",
    "final_y": "526554.076542",
    "longitude": "-90.09123202179877",
    "latitude": "29.942060103469576",
    "geocoded_column": {
      "latitude": "29.942060103469576",
      "longitude": "-90.09123202179877"
    }
  },
  {
    "service_request": "2025-1177433",
    "request_type": "Trash/Recycling",
    "request_reason": "Replace Trash Cart",
    "date_created": "2025-03-20T18:53:03.000",
    "date_modified": "2025-03-20T18:53:04.000",
    "request_status": "Pending",
    "responsible_agency": "Department of Sanitation",
    "final_address": "44 Lakewood Pl",
    "address_councildis": "C",
    "status": "Assigned to Contractor",
    "contractor": "Richards Disposal",
    "rowid": "1177433",
    "final_x": "3701002.85073",
    "final_y": "512543.204785",
    "longitude": "-90.00718126344867",
    "latitude": "29.902709497818012",
    "geocoded_column": {
      "latitude": "29.902709497818012",
      "longitude": "-90.00718126344867"
    }
  },
  {
    "service_request": "2025-1177432",
    "request_type": "Abandoned Vehicles",
    "request_reason": "Abandoned/Junk Vehicles",
    "date_created": "2025-03-20T18:52:02.000",
    "date_modified": "2025-03-20T18:52:04.000",
    "request_status": "Pending",
    "responsible_agency": "Department of Public Works",
    "final_address": "4725 Crowder Blvd",
    "address_councildis": "E",
    "status": "Pending",
    "rowid": "1177432",
    "final_x": "3706512.90871",
    "final_y": "555631.709401",
    "longitude": "-89.98819545579224",
    "latitude": "30.021010719294235",
    "geocoded_column": {
      "latitude": "30.021010719294235",
      "longitude": "-89.98819545579224"
    }
  },
  {
    "service_request": "2025-1177430",
    "request_type": "Trash/Recycling",
    "request_reason": "Repair Trash Cart",
    "date_created": "2025-03-20T18:41:48.000",
    "date_modified": "2025-03-20T18:41:50.000",
    "request_status": "Pending",
    "responsible_agency": "Department of Sanitation",
    "final_address": "4400 Elba St",
    "address_councildis": "B",
    "status": "Assigned to Contractor",
    "contractor": "IV Waste",
    "rowid": "1177430",
    "final_x": "3669750.1467",
    "final_y": "530370.129026",
    "longitude": "-90.10521114893392",
    "latitude": "29.95268543907863",
    "geocoded_column": {
      "latitude": "29.95268543907863",
      "longitude": "-90.10521114893392"
    }
  },
  {
    "service_request": "2025-1177429",
    "request_type": "Trash/Recycling",
    "request_reason": "Repair Trash Cart",
    "date_created": "2025-03-20T18:41:47.000",
    "date_modified": "2025-03-20T18:41:50.000",
    "request_status": "Pending",
    "responsible_agency": "Department of Sanitation",
    "final_address": "4400 Elba St",
    "address_councildis": "B",
    "status": "Assigned to Contractor",
    "contractor": "IV Waste",
    "rowid": "1177429",
    "final_x": "3669750.1467",
    "final_y": "530370.129026",
    "longitude": "-90.10521114893392",
    "latitude": "29.95268543907863",
    "geocoded_column": {
      "latitude": "29.95268543907863",
      "longitude": "-90.10521114893392"
    }
  },
  {
    "service_request": "2025-1177428",
    "request_type": "Abandoned Vehicles",
    "request_reason": "Abandoned/Junk Vehicles",
    "date_created": "2025-03-20T18:37:09.000",
    "date_modified": "2025-03-20T18:37:11.000",
    "request_status": "Pending",
    "responsible_agency": "Department of Public Works",
    "final_address": "4725 Crowder Blvd",
    "address_councildis": "E",
    "status": "Pending",
    "rowid": "1177428",
    "final_x": "3706512.90871",
    "final_y": "555631.709401",
    "longitude": "-89.98819545579224",
    "latitude": "30.021010719294235",
    "geocoded_column": {
      "latitude": "30.021010719294235",
      "longitude": "-89.98819545579224"
    }
  },
  {
    "service_request": "2025-1177427",
    "request_type": "Abandoned Vehicles",
    "request_reason": "Abandoned/Junk Vehicles",
    "date_created": "2025-03-20T18:29:28.000",
    "date_modified": "2025-03-20T18:29:30.000",
    "request_status": "Pending",
    "responsible_agency": "Department of Public Works",
    "final_address": "1100 BLK Mardi Gras Blvd",
    "address_councildis": "C",
    "status": "Pending",
    "rowid": "1177427",
    "final_x": "3688897.74356",
    "final_y": "525350.231568",
    "longitude": "-90.04493003776719",
    "latitude": "29.938304243342834",
    "geocoded_column": {
      "latitude": "29.938304243342834",
      "longitude": "-90.04493003776719"
    }
  },
  {
    "service_request": "2025-1177426",
    "request_type": "Trash/Recycling",
    "request_reason": "Repair Trash Cart",
    "date_created": "2025-03-20T18:22:41.000",
    "date_modified": "2025-03-20T18:22:43.000",
    "request_status": "Pending",
    "responsible_agency": "Department of Sanitation",
    "final_address": "2036 Prytania St",
    "address_councildis": "B",
    "status": "Assigned to Contractor",
    "contractor": "IV Waste",
    "rowid": "1177426",
    "final_x": "3678325.67426",
    "final_y": "523535.877179",
    "longitude": "-90.07836982142187",
    "latitude": "29.933637996808077",
    "geocoded_column": {
      "latitude": "29.933637996808077",
      "longitude": "-90.07836982142187"
    }
  },
  {
    "service_request": "2025-1177425",
    "request_type": "Trash/Recycling",
    "request_reason": "Request a Large Item Pick Up",
    "date_created": "2025-03-20T18:15:15.000",
    "date_modified": "2025-03-20T19:33:39.000",
    "case_close_date": "2025-03-20T14:33:38.000",
    "request_status": "Closed",
    "responsible_agency": "Department of Sanitation",
    "final_address": "7145 Downman Rd",
    "address_councildis": "D",
    "status": "Duplicate Request",
    "contractor": "Waste Pro",
    "contractor_action": "Duplicate",
    "rowid": "1177425",
    "final_x": "3695294.48867",
    "final_y": "556839.897242",
    "longitude": "-90.02359864589498",
    "latitude": "30.024690123887616",
    "geocoded_column": {
      "latitude": "30.024690123887616",
      "longitude": "-90.02359864589498"
    }
  },
  {
    "service_request": "2025-1177424",
    "request_type": "Abandoned Vehicles",
    "request_reason": "Abandoned/Junk Vehicles",
    "date_created": "2025-03-20T18:09:05.000",
    "date_modified": "2025-03-20T18:09:07.000",
    "request_status": "Pending",
    "responsible_agency": "Department of Public Works",
    "final_address": "1711 Jackson Ave",
    "address_councildis": "B",
    "status": "Pending",
    "rowid": "1177424",
    "final_x": "3677361.20814",
    "final_y": "524111.228284",
    "longitude": "-90.08139474755691",
    "latitude": "29.935249033756754",
    "geocoded_column": {
      "latitude": "29.935249033756754",
      "longitude": "-90.08139474755691"
    }
  },
  {
    "service_request": "2025-1177423",
    "request_type": "Abandoned Vehicles",
    "request_reason": "Abandoned/Junk Vehicles",
    "date_created": "2025-03-20T18:08:46.000",
    "date_modified": "2025-03-20T18:08:48.000",
    "request_status": "Pending",
    "responsible_agency": "Department of Public Works",
    "final_address": "1711 Jackson Ave",
    "address_councildis": "B",
    "status": "Pending",
    "rowid": "1177423",
    "final_x": "3677361.20814",
    "final_y": "524111.228284",
    "longitude": "-90.08139474755691",
    "latitude": "29.935249033756754",
    "geocoded_column": {
      "latitude": "29.935249033756754",
      "longitude": "-90.08139474755691"
    }
  },
  {
    "service_request": "2025-1177422",
    "request_type": "Abandoned Vehicles",
    "request_reason": "Abandoned/Junk Vehicles",
    "date_created": "2025-03-20T18:08:34.000",
    "date_modified": "2025-03-20T18:08:36.000",
    "request_status": "Pending",
    "responsible_agency": "Department of Public Works",
    "final_address": "1711 Jackson Ave",
    "address_councildis": "B",
    "status": "Pending",
    "rowid": "1177422",
    "final_x": "3677361.20814",
    "final_y": "524111.228284",
    "longitude": "-90.08139474755691",
    "latitude": "29.935249033756754",
    "geocoded_column": {
      "latitude": "29.935249033756754",
      "longitude": "-90.08139474755691"
    }
  },
  {
    "service_request": "2025-1177421",
    "request_type": "Trash/Recycling",
    "request_reason": "Return Trash Cart",
    "date_created": "2025-03-20T18:05:57.000",
    "date_modified": "2025-03-20T18:05:58.000",
    "request_status": "Pending",
    "responsible_agency": "Department of Sanitation",
    "final_address": "3621 Post Oak Ave",
    "address_councildis": "C",
    "status": "Assigned to Contractor",
    "contractor": "Richards Disposal",
    "rowid": "1177421",
    "final_x": "3703697.36842",
    "final_y": "514525.611379",
    "longitude": "-89.99860463235599",
    "latitude": "29.90807441751999",
    "geocoded_column": {
      "latitude": "29.90807441751999",
      "longitude": "-89.99860463235599"
    }
  },
  {
    "service_request": "2025-1177420",
    "request_type": "Abandoned Vehicles",
    "request_reason": "Abandoned/Junk Vehicles",
    "date_created": "2025-03-20T18:05:36.000",
    "date_modified": "2025-03-20T18:05:38.000",
    "request_status": "Pending",
    "responsible_agency": "Department of Public Works",
    "final_address": "4600 Stephen Girard Ave",
    "address_councildis": "D",
    "status": "Pending",
    "rowid": "1177420",
    "final_x": "3691162.41852",
    "final_y": "550353.79394",
    "longitude": "-90.0368871284233",
    "latitude": "30.00698497284341",
    "geocoded_column": {
      "latitude": "30.00698497284341",
      "longitude": "-90.0368871284233"
    }
  },
  {
    "service_request": "2025-1177419",
    "request_type": "Property Maintenance",
    "request_reason": "Property Maintenance",
    "date_created": "2025-03-20T18:01:38.000",
    "date_modified": "2025-03-20T18:01:40.000",
    "request_status": "Pending",
    "responsible_agency": "Department of Code Enforcement",
    "final_address": "4600 Stephen Girard Ave",
    "address_councildis": "D",
    "status": "Pending",
    "rowid": "1177419",
    "final_x": "3691162.41852",
    "final_y": "550353.79394",
    "longitude": "-90.0368871284233",
    "latitude": "30.00698497284341",
    "geocoded_column": {
      "latitude": "30.00698497284341",
      "longitude": "-90.0368871284233"
    }
  },
  {
    "service_request": "2025-1177418",
    "request_type": "Drainage",
    "request_reason": "Street Flooding",
    "date_created": "2025-03-20T17:57:36.000",
    "date_modified": "2025-03-20T17:57:38.000",
    "request_status": "Pending",
    "responsible_agency": "Sewerage & Water Board ",
    "final_address": "4600 Stephen Girard Ave",
    "address_councildis": "D",
    "status": "Pending",
    "rowid": "1177418",
    "final_x": "3691162.41852",
    "final_y": "550353.79394",
    "longitude": "-90.0368871284233",
    "latitude": "30.00698497284341",
    "geocoded_column": {
      "latitude": "30.00698497284341",
      "longitude": "-90.0368871284233"
    }
  },
  {
    "service_request": "2025-1177417",
    "request_type": "Trash/Recycling",
    "request_reason": "Order Trash Cart",
    "date_created": "2025-03-20T17:54:09.000",
    "date_modified": "2025-03-20T17:54:10.000",
    "request_status": "Pending",
    "responsible_agency": "Department of Sanitation",
    "final_address": "925 Port St",
    "address_councildis": "C",
    "status": "Assigned to Contractor",
    "contractor": "IV Waste",
    "rowid": "1177417",
    "final_x": "3687296.19542",
    "final_y": "535795.797767",
    "longitude": "-90.04961680896284",
    "latitude": "29.96707538735209",
    "geocoded_column": {
      "latitude": "29.96707538735209",
      "longitude": "-90.04961680896284"
    }
  },
  {
    "service_request": "2025-1177416",
    "request_type": "Trash/Recycling",
    "request_reason": "Request a Large Item Pick Up",
    "date_created": "2025-03-20T17:45:36.000",
    "date_modified": "2025-03-20T17:45:38.000",
    "request_status": "Pending",
    "responsible_agency": "Department of Sanitation",
    "final_address": "8140 Aberdeen Rd",
    "address_councildis": "E",
    "status": "Assigned to Contractor",
    "contractor": "Waste Pro",
    "rowid": "1177416",
    "final_x": "3702882.73751",
    "final_y": "561294.199774",
    "longitude": "-89.99945739546129",
    "latitude": "30.03669704917998",
    "geocoded_column": {
      "latitude": "30.03669704917998",
      "longitude": "-89.99945739546129"
    }
  },
  {
    "service_request": "2025-1177415",
    "request_type": "Trash/Recycling",
    "request_reason": "Order Trash Cart",
    "date_created": "2025-03-20T17:40:11.000",
    "date_modified": "2025-03-20T17:40:13.000",
    "request_status": "Pending",
    "responsible_agency": "Department of Sanitation",
    "final_address": "2334 Constance St",
    "address_councildis": "B",
    "status": "Assigned to Contractor",
    "contractor": "IV Waste",
    "rowid": "1177415",
    "final_x": "3678556.13467",
    "final_y": "521348.579193",
    "longitude": "-90.0777179368875",
    "latitude": "29.927616700971438",
    "geocoded_column": {
      "latitude": "29.927616700971438",
      "longitude": "-90.0777179368875"
    }
  },
  {
    "service_request": "2025-1177414",
    "request_type": "Trash/Recycling",
    "request_reason": "MIssed Recycling Pick-Up",
    "date_created": "2025-03-20T17:39:34.000",
    "date_modified": "2025-03-20T17:39:35.000",
    "request_status": "Pending",
    "responsible_agency": "Department of Sanitation",
    "final_address": "2120 Peniston St",
    "address_councildis": "B",
    "status": "Assigned to Contractor",
    "contractor": "IV Waste",
    "rowid": "1177414",
    "final_x": "3672372.56244",
    "final_y": "523013.234043",
    "longitude": "-90.09718132721434",
    "latitude": "29.93237883469038",
    "geocoded_column": {
      "latitude": "29.93237883469038",
      "longitude": "-90.09718132721434"
    }
  },
  {
    "service_request": "2025-1177413",
    "request_type": "Parks & Parkways",
    "request_reason": "Request Tree Service (Right of Way/Public Property)",
    "date_created": "2025-03-20T17:30:56.000",
    "date_modified": "2025-03-20T17:30:58.000",
    "request_status": "Pending",
    "responsible_agency": "Department of Parks & Parkway",
    "final_address": "4600 Stephen Girard Ave",
    "address_councildis": "D",
    "status": "Pending",
    "rowid": "1177413",
    "final_x": "3691162.41852",
    "final_y": "550353.79394",
    "longitude": "-90.0368871284233",
    "latitude": "30.00698497284341",
    "geocoded_column": {
      "latitude": "30.00698497284341",
      "longitude": "-90.0368871284233"
    }
  },
  {
    "service_request": "2025-1177412",
    "request_type": "Streetlights",
    "request_reason": "Streetlight Knocked Down/Leaning",
    "date_created": "2025-03-20T17:16:40.000",
    "date_modified": "2025-03-20T17:16:43.000",
    "request_status": "Pending",
    "responsible_agency": "Department of Public Works",
    "final_address": "5010 Alcee Fortier Blvd",
    "address_councildis": "E",
    "status": "Pending",
    "contractor": "Legacy Professional Services",
    "rowid": "1177412",
    "final_x": "3729825.50637",
    "final_y": "563585.353632",
    "longitude": "-89.9142242620895",
    "latitude": "30.042106848472713",
    "geocoded_column": {
      "latitude": "30.042106848472713",
      "longitude": "-89.9142242620895"
    }
  },
  {
    "service_request": "2025-1177411",
    "request_type": "Streetlights",
    "request_reason": "Streetlight Knocked Down/Leaning",
    "date_created": "2025-03-20T17:13:47.000",
    "date_modified": "2025-03-20T17:13:49.000",
    "request_status": "Pending",
    "responsible_agency": "Department of Public Works",
    "final_address": "5010 Alcee Fortier Blvd",
    "address_councildis": "E",
    "status": "Pending",
    "contractor": "Legacy Professional Services",
    "rowid": "1177411",
    "final_x": "3729825.50637",
    "final_y": "563585.353632",
    "longitude": "-89.9142242620895",
    "latitude": "30.042106848472713",
    "geocoded_column": {
      "latitude": "30.042106848472713",
      "longitude": "-89.9142242620895"
    }
  },
  {
    "service_request": "2025-1177410",
    "request_type": "Roads and Streets",
    "request_reason": "Abandoned Service Cut",
    "date_created": "2025-03-20T17:04:07.000",
    "date_modified": "2025-03-20T17:04:09.000",
    "request_status": "Pending",
    "responsible_agency": "Department of Public Works",
    "final_address": "NASHVILLE AVE & HURST ST",
    "address_councildis": "A",
    "status": "Pending",
    "rowid": "1177410",
    "final_x": "3666111.3",
    "final_y": "521664.78",
    "longitude": "-90.11699282649371",
    "latitude": "29.928855262627696",
    "geocoded_column": {
      "latitude": "29.928855262627696",
      "longitude": "-90.11699282649371"
    }
  },
  {
    "service_request": "2025-1177409",
    "request_type": "Trash/Recycling",
    "request_reason": "Order Second Trash Cart",
    "date_created": "2025-03-20T17:04:02.000",
    "date_modified": "2025-03-20T17:04:04.000",
    "request_status": "Pending",
    "responsible_agency": "Department of Sanitation",
    "final_address": "11330 S Parkwood Ct",
    "address_councildis": "E",
    "status": "Assigned to Contractor",
    "contractor": "Waste Pro",
    "rowid": "1177409",
    "final_x": "3717073.06591",
    "final_y": "559177.78422",
    "longitude": "-89.95469396818683",
    "latitude": "30.030415913606127",
    "geocoded_column": {
      "latitude": "30.030415913606127",
      "longitude": "-89.95469396818683"
    }
  },
  {
    "service_request": "2025-1177408",
    "request_type": "Street and Traffic Signs",
    "request_reason": "Additional Signage Request",
    "date_created": "2025-03-20T17:00:53.000",
    "date_modified": "2025-03-20T17:00:54.000",
    "request_status": "Pending",
    "responsible_agency": "Department of Public Works",
    "final_address": "3438 Livingston St",
    "address_councildis": "A",
    "status": "Pending",
    "rowid": "1177408",
    "final_x": "3663771.71866",
    "final_y": "537755.746184",
    "longitude": "-90.12384226702244",
    "latitude": "29.973168304768866",
    "geocoded_column": {
      "latitude": "29.973168304768866",
      "longitude": "-90.12384226702244"
    }
  },
  {
    "service_request": "2025-1177407",
    "request_type": "Trash/Recycling",
    "request_reason": "Order Second Trash Cart",
    "date_created": "2025-03-20T16:59:20.000",
    "date_modified": "2025-03-20T16:59:22.000",
    "request_status": "Pending",
    "responsible_agency": "Department of Sanitation",
    "final_address": "4626 Deanne St",
    "address_councildis": "D",
    "status": "Assigned to Contractor",
    "contractor": "Waste Pro",
    "rowid": "1177407",
    "final_x": "3696305.25232",
    "final_y": "553693.601879",
    "longitude": "-90.02051872537477",
    "latitude": "30.01600719576318",
    "geocoded_column": {
      "latitude": "30.01600719576318",
      "longitude": "-90.02051872537477"
    }
  },
  {
    "service_request": "2025-1177406",
    "request_type": "Drainage",
    "request_reason": "Catch Basin Damaged",
    "date_created": "2025-03-20T16:56:13.000",
    "date_modified": "2025-03-20T16:56:14.000",
    "request_status": "Pending",
    "responsible_agency": "Sewerage & Water Board ",
    "final_address": "1819 N Claiborne Ave",
    "address_councildis": "D",
    "status": "Pending",
    "rowid": "1177406",
    "final_x": "3683527.1549",
    "final_y": "538071.264329",
    "longitude": "-90.06143968254224",
    "latitude": "29.973447699437646",
    "geocoded_column": {
      "latitude": "29.973447699437646",
      "longitude": "-90.06143968254224"
    }
  },
  {
    "service_request": "2025-1177405",
    "request_type": "Trash/Recycling",
    "request_reason": "Request a Large Item Pick Up",
    "date_created": "2025-03-20T16:44:23.000",
    "date_modified": "2025-03-20T16:44:51.000",
    "request_status": "Pending",
    "responsible_agency": "Department of Sanitation",
    "final_address": "2318 N Villere St",
    "address_councildis": "C",
    "status": "Assigned to Contractor",
    "contractor": "IV Waste",
    "rowid": "1177405",
    "final_x": "3685862.44297",
    "final_y": "537454.113928",
    "longitude": "-90.05408613212556",
    "latitude": "29.971679268504797",
    "geocoded_column": {
      "latitude": "29.971679268504797",
      "longitude": "-90.05408613212556"
    }
  },
  {
    "service_request": "2025-1177404",
    "request_type": "Trash/Recycling",
    "request_reason": "Replace Trash Cart",
    "date_created": "2025-03-20T16:41:21.000",
    "date_modified": "2025-03-20T16:41:23.000",
    "request_status": "Pending",
    "responsible_agency": "Department of Sanitation",
    "final_address": "3400 London Ave",
    "address_councildis": "D",
    "status": "Assigned to Contractor",
    "contractor": "IV Waste",
    "rowid": "1177404",
    "final_x": "3681204.90888",
    "final_y": "544977.877775",
    "longitude": "-90.0685330432659",
    "latitude": "29.992509145001247",
    "geocoded_column": {
      "latitude": "29.992509145001247",
      "longitude": "-90.0685330432659"
    }
  },
  {
    "service_request": "2025-1177403",
    "request_type": "Trash/Recycling",
    "request_reason": "Illegal Dumping",
    "date_created": "2025-03-20T16:40:13.000",
    "date_modified": "2025-03-20T16:40:14.000",
    "request_status": "Pending",
    "responsible_agency": "Department of Sanitation",
    "final_address": "FORSTALL ST & DOUGLASS ST",
    "address_councildis": "E",
    "status": "Pending",
    "rowid": "1177403",
    "final_x": "3695652.2",
    "final_y": "532063.88",
    "longitude": "-90.02336336233903",
    "latitude": "29.95655387928843",
    "geocoded_column": {
      "latitude": "29.95655387928843",
      "longitude": "-90.02336336233903"
    }
  },
  {
    "service_request": "2025-1177402",
    "request_type": "Streetlights",
    "request_reason": "Streetlight Outage/Malfunction",
    "date_created": "2025-03-20T16:29:42.000",
    "date_modified": "2025-03-20T16:29:44.000",
    "request_status": "Pending",
    "responsible_agency": "Department of Public Works",
    "final_address": "6258 Marshal Foch St",
    "address_councildis": "A",
    "status": "Pending",
    "contractor": "Legacy Professional Services",
    "rowid": "1177402",
    "final_x": "3669894.74119",
    "final_y": "548933.368211",
    "longitude": "-90.10412579327652",
    "latitude": "30.003723800700943",
    "geocoded_column": {
      "latitude": "30.003723800700943",
      "longitude": "-90.10412579327652"
    }
  },
  {
    "service_request": "2025-1177401",
    "request_type": "Roads and Streets",
    "request_reason": "Pothole",
    "date_created": "2025-03-20T16:28:13.000",
    "date_modified": "2025-03-20T16:28:15.000",
    "request_status": "Pending",
    "responsible_agency": "Department of Public Works",
    "final_address": "215 Pine St",
    "address_councildis": "A",
    "status": "Pending",
    "rowid": "1177401",
    "final_x": "3661329.46963",
    "final_y": "522749.723898",
    "longitude": "-90.13205226828195",
    "latitude": "29.93197722706858",
    "geocoded_column": {
      "latitude": "29.93197722706858",
      "longitude": "-90.13205226828195"
    }
  },
  {
    "service_request": "2025-1177400",
    "request_type": "Trash/Recycling",
    "request_reason": "Replace Trash Cart",
    "date_created": "2025-03-20T16:26:31.000",
    "date_modified": "2025-03-20T16:26:34.000",
    "request_status": "Pending",
    "responsible_agency": "Department of Sanitation",
    "final_address": "1023 Adams St",
    "address_councildis": "A",
    "status": "Assigned to Contractor",
    "contractor": "IV Waste",
    "rowid": "1177400",
    "final_x": "3662758.29875",
    "final_y": "527006.877822",
    "longitude": "-90.1274001392045",
    "latitude": "29.9436417838913",
    "geocoded_column": {
      "latitude": "29.9436417838913",
      "longitude": "-90.1274001392045"
    }
  },
  {
    "service_request": "2025-1177399",
    "request_type": "Trash/Recycling",
    "request_reason": "Request a Large Item Pick Up",
    "date_created": "2025-03-20T16:25:51.000",
    "date_modified": "2025-03-20T16:25:52.000",
    "request_status": "Pending",
    "responsible_agency": "Department of Sanitation",
    "final_address": "4430 Burgundy St",
    "address_councildis": "C",
    "status": "Assigned to Contractor",
    "contractor": "IV Waste",
    "rowid": "1177399",
    "final_x": "3693066.58006",
    "final_y": "534123.279877",
    "longitude": "-90.03145398612445",
    "latitude": "29.962297533399788",
    "geocoded_column": {
      "latitude": "29.962297533399788",
      "longitude": "-90.03145398612445"
    }
  },
  {
    "service_request": "2025-1177398",
    "request_type": "Roads and Streets",
    "request_reason": "Pothole",
    "date_created": "2025-03-20T16:23:19.000",
    "date_modified": "2025-03-20T16:23:20.000",
    "request_status": "Pending",
    "responsible_agency": "Department of Public Works",
    "final_address": "101 W Robert E Lee Blvd, New Orleans, Louisiana, 70124",
    "status": "Pending",
    "rowid": "1177398",
    "longitude": "0.0",
    "latitude": "0.0",
    "geocoded_column": {
      "latitude": "0.0",
      "longitude": "0.0"
    }
  },
  {
    "service_request": "2025-1177397",
    "request_type": "Trash/Recycling",
    "request_reason": "Request a Large Item Pick Up",
    "date_created": "2025-03-20T16:21:05.000",
    "date_modified": "2025-03-20T16:21:06.000",
    "request_status": "Pending",
    "responsible_agency": "Department of Sanitation",
    "final_address": "1504 Annette St",
    "address_councildis": "C",
    "status": "Assigned to Contractor",
    "contractor": "IV Waste",
    "rowid": "1177397",
    "final_x": "3682993.17218",
    "final_y": "537698.245064",
    "longitude": "-90.0631391683503",
    "latitude": "29.97243831306167",
    "geocoded_column": {
      "latitude": "29.97243831306167",
      "longitude": "-90.0631391683503"
    }
  },
  {
    "service_request": "2025-1177396",
    "request_type": "Trash/Recycling",
    "request_reason": "Repair Trash Cart",
    "date_created": "2025-03-20T16:20:34.000",
    "date_modified": "2025-03-20T16:20:36.000",
    "request_status": "Pending",
    "responsible_agency": "Department of Sanitation",
    "final_address": "8721 Olive St",
    "address_councildis": "A",
    "status": "Assigned to Contractor",
    "contractor": "IV Waste",
    "rowid": "1177396",
    "final_x": "3665555.58074",
    "final_y": "535764.213127",
    "longitude": "-90.11827514846185",
    "latitude": "29.96764035422668",
    "geocoded_column": {
      "latitude": "29.96764035422668",
      "longitude": "-90.11827514846185"
    }
  },
  {
    "service_request": "2025-1177395",
    "request_type": "Property Maintenance",
    "request_reason": "Property Maintenance",
    "date_created": "2025-03-20T16:19:39.000",
    "date_modified": "2025-03-20T16:19:41.000",
    "request_status": "Pending",
    "responsible_agency": "Department of Code Enforcement",
    "final_address": "5017 Henri Dr",
    "address_councildis": "E",
    "status": "Pending",
    "rowid": "1177395",
    "final_x": "3730849.96935",
    "final_y": "563638.690401",
    "longitude": "-89.91098452849734",
    "latitude": "30.04221857577643",
    "geocoded_column": {
      "latitude": "30.04221857577643",
      "longitude": "-89.91098452849734"
    }
  },
  {
    "service_request": "2025-1177394",
    "request_type": "Street and Traffic Signs",
    "request_reason": "Stop Sign Missing or Damaged",
    "date_created": "2025-03-20T16:13:27.000",
    "date_modified": "2025-03-20T16:13:29.000",
    "request_status": "Pending",
    "responsible_agency": "Department of Public Works",
    "final_address": "2537 Onzaga St",
    "address_councildis": "D",
    "status": "Pending",
    "rowid": "1177394",
    "final_x": "3679554.60911",
    "final_y": "540318.782859",
    "longitude": "-90.07390778958512",
    "latitude": "29.979748248076536",
    "geocoded_column": {
      "latitude": "29.979748248076536",
      "longitude": "-90.07390778958512"
    }
  },
  {
    "service_request": "2025-1177393",
    "request_type": "Street and Traffic Signs",
    "request_reason": "Stop Sign Missing or Damaged",
    "date_created": "2025-03-20T16:10:59.000",
    "date_modified": "2025-03-20T16:11:00.000",
    "request_status": "Pending",
    "responsible_agency": "Department of Public Works",
    "final_address": "2537 Onzaga St",
    "address_councildis": "D",
    "status": "Pending",
    "rowid": "1177393",
    "final_x": "3679554.60911",
    "final_y": "540318.782859",
    "longitude": "-90.07390778958512",
    "latitude": "29.979748248076536",
    "geocoded_column": {
      "latitude": "29.979748248076536",
      "longitude": "-90.07390778958512"
    }
  },
  {
    "service_request": "2025-1177392",
    "request_type": "Trash/Recycling",
    "request_reason": "Illegal Dumping",
    "date_created": "2025-03-20T16:08:19.000",
    "date_modified": "2025-03-20T16:08:21.000",
    "request_status": "Pending",
    "responsible_agency": "Department of Sanitation",
    "final_address": "1218 Simon Bolivar Ave",
    "address_councildis": "B",
    "status": "Pending",
    "rowid": "1177392",
    "final_x": "3677804.02286",
    "final_y": "527372.725631",
    "longitude": "-90.07988414596656",
    "latitude": "29.94420376415752",
    "geocoded_column": {
      "latitude": "29.94420376415752",
      "longitude": "-90.07988414596656"
    }
  },
  {
    "service_request": "2025-1177391",
    "request_type": "Trash/Recycling",
    "request_reason": "Repair Recycling Cart",
    "date_created": "2025-03-20T16:08:10.000",
    "date_modified": "2025-03-20T16:08:13.000",
    "request_status": "Pending",
    "responsible_agency": "Department of Sanitation",
    "final_address": "915 Henry Clay Ave",
    "address_councildis": "A",
    "status": "Pending",
    "rowid": "1177391",
    "final_x": "3664094.1906",
    "final_y": "519966.47884",
    "longitude": "-90.12341707037682",
    "latitude": "29.924244190294008",
    "geocoded_column": {
      "latitude": "29.924244190294008",
      "longitude": "-90.12341707037682"
    }
  },
  {
    "service_request": "2025-1177390",
    "request_type": "Trash/Recycling",
    "request_reason": "Illegal Dumping",
    "date_created": "2025-03-20T16:05:34.000",
    "date_modified": "2025-03-20T16:05:36.000",
    "request_status": "Pending",
    "responsible_agency": "Department of Sanitation",
    "final_address": "1234 Simon Bolivar Ave",
    "address_councildis": "B",
    "status": "Pending",
    "rowid": "1177390",
    "final_x": "3677747.10862",
    "final_y": "527280.282431",
    "longitude": "-90.08006703271779",
    "latitude": "29.943951287813185",
    "geocoded_column": {
      "latitude": "29.943951287813185",
      "longitude": "-90.08006703271779"
    }
  },
  {
    "service_request": "2025-1177389",
    "request_type": "Abandoned Vehicles",
    "request_reason": "Abandoned/Junk Vehicles",
    "date_created": "2025-03-20T15:49:28.000",
    "date_modified": "2025-03-20T15:50:26.000",
    "request_status": "Pending",
    "responsible_agency": "Department of Public Works",
    "final_address": "1112 Constantinople St",
    "address_councildis": "B",
    "status": "Pending",
    "rowid": "1177389",
    "final_x": "3672348.95259",
    "final_y": "519796.384952",
    "longitude": "-90.09736540233975",
    "latitude": "29.923534233550217",
    "geocoded_column": {
      "latitude": "29.923534233550217",
      "longitude": "-90.09736540233975"
    }
  },
  {
    "service_request": "2025-1177388",
    "request_type": "Trash/Recycling",
    "request_reason": "Request a Large Item Pick Up",
    "date_created": "2025-03-20T15:48:05.000",
    "date_modified": "2025-03-20T15:48:07.000",
    "request_status": "Pending",
    "responsible_agency": "Department of Sanitation",
    "final_address": "4811 Lynhuber Dr",
    "address_councildis": "D",
    "status": "Assigned to Contractor",
    "contractor": "Waste Pro",
    "rowid": "1177388",
    "final_x": "3698060.2504",
    "final_y": "554680.27068",
    "longitude": "-90.01493787468135",
    "latitude": "30.01866475674183",
    "geocoded_column": {
      "latitude": "30.01866475674183",
      "longitude": "-90.01493787468135"
    }
  },
  {
    "service_request": "2025-1177387",
    "request_type": "Trash/Recycling",
    "request_reason": "Repair Trash Cart",
    "date_created": "2025-03-20T15:46:00.000",
    "date_modified": "2025-03-20T15:46:02.000",
    "request_status": "Pending",
    "responsible_agency": "Department of Sanitation",
    "final_address": "7550 Berg Rd",
    "address_councildis": "E",
    "status": "Assigned to Contractor",
    "contractor": "Waste Pro",
    "rowid": "1177387",
    "final_x": "3712228.4211",
    "final_y": "566258.065571",
    "longitude": "-89.96973668912577",
    "latitude": "30.05004322901541",
    "geocoded_column": {
      "latitude": "30.05004322901541",
      "longitude": "-89.96973668912577"
    }
  },
  {
    "service_request": "2025-1177386",
    "request_type": "Abandoned Vehicles",
    "request_reason": "Abandoned/Junk Vehicles",
    "date_created": "2025-03-20T15:44:06.000",
    "date_modified": "2025-03-20T15:44:08.000",
    "request_status": "Pending",
    "responsible_agency": "Department of Public Works",
    "final_address": "4108 Erato St",
    "address_councildis": "B",
    "status": "Pending",
    "rowid": "1177386",
    "final_x": "3671318.14785",
    "final_y": "531177.744258",
    "longitude": "-90.10023265079792",
    "latitude": "29.95485981047291",
    "geocoded_column": {
      "latitude": "29.95485981047291",
      "longitude": "-90.10023265079792"
    }
  },
  {
    "service_request": "2025-1177385",
    "request_type": "Traffic Signals",
    "request_reason": "Traffic Signal Malfunctioning or Damaged",
    "date_created": "2025-03-20T15:43:09.000",
    "date_modified": "2025-03-20T15:43:11.000",
    "request_status": "Pending",
    "responsible_agency": "Department of Public Works",
    "final_address": "CHEF MENTEUR HWY & CROWDER BLVD",
    "address_councildis": "E",
    "status": "Pending",
    "rowid": "1177385",
    "final_x": "3706634.1",
    "final_y": "553211.78",
    "longitude": "-89.98790231067488",
    "latitude": "30.01435293570407",
    "geocoded_column": {
      "latitude": "30.01435293570407",
      "longitude": "-89.98790231067488"
    }
  },
  {
    "service_request": "2025-1177384",
    "request_type": "Trash/Recycling",
    "request_reason": "Request a Large Item Pick Up",
    "date_created": "2025-03-20T15:40:28.000",
    "date_modified": "2025-03-20T15:40:30.000",
    "request_status": "Pending",
    "responsible_agency": "Department of Sanitation",
    "final_address": "4728 Crowder Blvd",
    "address_councildis": "E",
    "status": "Assigned to Contractor",
    "contractor": "Waste Pro",
    "rowid": "1177384",
    "final_x": "3706331.30417",
    "final_y": "555623.428249",
    "longitude": "-89.9887695764069",
    "latitude": "30.02099381005084",
    "geocoded_column": {
      "latitude": "30.02099381005084",
      "longitude": "-89.9887695764069"
    }
  },
  {
    "service_request": "2025-1177383",
    "request_type": "Parks & Parkways",
    "request_reason": "Request Tree Service (Right of Way/Public Property)",
    "date_created": "2025-03-20T15:40:15.000",
    "date_modified": "2025-03-20T15:40:18.000",
    "request_status": "Pending",
    "responsible_agency": "Department of Parks & Parkway",
    "final_address": "3316 Dryades St",
    "address_councildis": "B",
    "status": "Pending",
    "rowid": "1177383",
    "final_x": "3674001.60635",
    "final_y": "522612.055994",
    "longitude": "-90.09205229611209",
    "latitude": "29.931227300668",
    "geocoded_column": {
      "latitude": "29.931227300668",
      "longitude": "-90.09205229611209"
    }
  },
  {
    "service_request": "2025-1177382",
    "request_type": "Streetlights",
    "request_reason": "Streetlight Outage/Malfunction",
    "date_created": "2025-03-20T15:37:33.000",
    "date_modified": "2025-03-20T15:37:35.000",
    "request_status": "Pending",
    "responsible_agency": "Department of Public Works",
    "final_address": "2223 General Collins Ave",
    "address_councildis": "C",
    "status": "Pending",
    "contractor": "Legacy Professional Services",
    "rowid": "1177382",
    "final_x": "3698396.36522",
    "final_y": "522813.961787",
    "longitude": "-90.01503427845216",
    "latitude": "29.93103328469736",
    "geocoded_column": {
      "latitude": "29.93103328469736",
      "longitude": "-90.01503427845216"
    }
  },
  {
    "service_request": "2025-1177381",
    "request_type": "Trash/Recycling",
    "request_reason": "Request a Large Item Pick Up",
    "date_created": "2025-03-20T15:36:36.000",
    "date_modified": "2025-03-20T15:36:38.000",
    "request_status": "Pending",
    "responsible_agency": "Department of Sanitation",
    "final_address": "11 Caddo Pl",
    "address_councildis": "E",
    "status": "Assigned to Contractor",
    "contractor": "Waste Pro",
    "rowid": "1177381",
    "final_x": "3726021.58848",
    "final_y": "564469.256161",
    "longitude": "-89.92621161364927",
    "latitude": "30.04466620166058",
    "geocoded_column": {
      "latitude": "30.04466620166058",
      "longitude": "-89.92621161364927"
    }
  },
  {
    "service_request": "2025-1177380",
    "request_type": "Trash/Recycling",
    "request_reason": "Replace Trash Cart",
    "date_created": "2025-03-20T15:35:18.000",
    "date_modified": "2025-03-20T15:35:20.000",
    "request_status": "Pending",
    "responsible_agency": "Department of Sanitation",
    "final_address": "2222 General Collins Ave",
    "address_councildis": "C",
    "status": "Assigned to Contractor",
    "contractor": "Richards Disposal",
    "rowid": "1177380",
    "final_x": "3698498.9864",
    "final_y": "522798.808059",
    "longitude": "-90.01471086958401",
    "latitude": "29.93098837033078",
    "geocoded_column": {
      "latitude": "29.93098837033078",
      "longitude": "-90.01471086958401"
    }
  },
  {
    "service_request": "2025-1177379",
    "request_type": "Trash/Recycling",
    "request_reason": "Order Recycling Cart",
    "date_created": "2025-03-20T15:33:50.000",
    "date_modified": "2025-03-20T15:33:53.000",
    "request_status": "Pending",
    "responsible_agency": "Department of Sanitation",
    "final_address": "1435 Dauphine St",
    "address_councildis": "C",
    "status": "Pending",
    "rowid": "1177379",
    "final_x": "3683642.08866",
    "final_y": "535131.157382",
    "longitude": "-90.06117978890099",
    "latitude": "29.965359915026934",
    "geocoded_column": {
      "latitude": "29.965359915026934",
      "longitude": "-90.06117978890099"
    }
  },
  {
    "service_request": "2025-1177378",
    "request_type": "Safety & Permits",
    "request_reason": "Construction permit",
    "date_created": "2025-03-20T15:31:28.000",
    "date_modified": "2025-03-20T15:31:29.000",
    "request_status": "Pending",
    "responsible_agency": "Safety and Permits",
    "final_address": "4501 N Miro St",
    "address_councildis": "D",
    "status": "Pending",
    "rowid": "1177378",
    "final_x": "3694066.78941",
    "final_y": "539475.945994",
    "longitude": "-90.02810294276237",
    "latitude": "29.97698417812349",
    "geocoded_column": {
      "latitude": "29.97698417812349",
      "longitude": "-90.02810294276237"
    }
  },
  {
    "service_request": "2025-1177377",
    "request_type": "Abandoned Vehicles",
    "request_reason": "Abandoned/Junk Vehicles",
    "date_created": "2025-03-20T15:31:03.000",
    "date_modified": "2025-03-20T15:31:05.000",
    "request_status": "Pending",
    "responsible_agency": "Department of Public Works",
    "final_address": "2413 Barracks St",
    "address_councildis": "D",
    "status": "Pending",
    "rowid": "1177377",
    "final_x": "3679050.32527",
    "final_y": "537983.570441",
    "longitude": "-90.0755814825625",
    "latitude": "29.9733424512013",
    "geocoded_column": {
      "latitude": "29.9733424512013",
      "longitude": "-90.0755814825625"
    }
  },
  {
    "service_request": "2025-1177376",
    "request_type": "Trash/Recycling",
    "request_reason": "Order Trash Cart",
    "date_created": "2025-03-20T15:30:17.000",
    "date_modified": "2025-03-20T15:30:18.000",
    "request_status": "Pending",
    "responsible_agency": "Department of Sanitation",
    "final_address": "1806 Hastings Pl",
    "address_councildis": "B",
    "status": "Assigned to Contractor",
    "contractor": "IV Waste",
    "rowid": "1177376",
    "final_x": "3680012.91445",
    "final_y": "522934.704251",
    "longitude": "-90.07306416642145",
    "latitude": "29.931934049616547",
    "geocoded_column": {
      "latitude": "29.931934049616547",
      "longitude": "-90.07306416642145"
    }
  },
  {
    "service_request": "2025-1177375",
    "request_type": "Trash/Recycling",
    "request_reason": "Replace Trash Cart",
    "date_created": "2025-03-20T15:30:05.000",
    "date_modified": "2025-03-20T15:30:07.000",
    "request_status": "Pending",
    "responsible_agency": "Department of Sanitation",
    "final_address": "3918 Baronne St",
    "address_councildis": "B",
    "status": "Assigned to Contractor",
    "contractor": "IV Waste",
    "rowid": "1177375",
    "final_x": "3672306.50791",
    "final_y": "521717.000314",
    "longitude": "-90.09743399294057",
    "latitude": "29.92881656885458",
    "geocoded_column": {
      "latitude": "29.92881656885458",
      "longitude": "-90.09743399294057"
    }
  },
  {
    "service_request": "2025-1177374",
    "request_type": "Trash/Recycling",
    "request_reason": "Repair Trash Cart",
    "date_created": "2025-03-20T15:30:04.000",
    "date_modified": "2025-03-20T15:30:05.000",
    "request_status": "Pending",
    "responsible_agency": "Department of Sanitation",
    "final_address": "2411 Orleans Ave",
    "address_councildis": "D",
    "status": "Assigned to Contractor",
    "contractor": "IV Waste",
    "rowid": "1177374",
    "final_x": "3677827.86658",
    "final_y": "536308.060999",
    "longitude": "-90.0795001621989",
    "latitude": "29.968772213139705",
    "geocoded_column": {
      "latitude": "29.968772213139705",
      "longitude": "-90.0795001621989"
    }
  },
  {
    "service_request": "2025-1177373",
    "request_type": "Trash/Recycling",
    "request_reason": "Request a Large Item Pick Up",
    "date_created": "2025-03-20T15:29:28.000",
    "date_modified": "2025-03-20T15:29:29.000",
    "request_status": "Pending",
    "responsible_agency": "Department of Sanitation",
    "final_address": "10820 Roger Dr Apt B",
    "address_councildis": "E",
    "status": "Assigned to Contractor",
    "contractor": "Waste Pro",
    "rowid": "1177373",
    "final_x": "3711785.08466",
    "final_y": "563071.116768",
    "longitude": "-89.97125763518179",
    "latitude": "30.0412949046567",
    "geocoded_column": {
      "latitude": "30.0412949046567",
      "longitude": "-89.97125763518179"
    }
  },
  {
    "service_request": "2025-1177372",
    "request_type": "Trash/Recycling",
    "request_reason": "Order Trash Cart",
    "date_created": "2025-03-20T15:29:03.000",
    "date_modified": "2025-03-20T15:29:06.000",
    "request_status": "Pending",
    "responsible_agency": "Department of Sanitation",
    "final_address": "1808 Hastings Pl",
    "address_councildis": "B",
    "status": "Assigned to Contractor",
    "contractor": "IV Waste",
    "rowid": "1177372",
    "final_x": "3680008.42504",
    "final_y": "522912.772667",
    "longitude": "-90.07307910050173",
    "latitude": "29.931873880747595",
    "geocoded_column": {
      "latitude": "29.931873880747595",
      "longitude": "-90.07307910050173"
    }
  },
  {
    "service_request": "2025-1177371",
    "request_type": "Property Maintenance",
    "request_reason": "Property Maintenance",
    "date_created": "2025-03-20T15:28:33.000",
    "date_modified": "2025-03-20T15:28:35.000",
    "request_status": "Pending",
    "responsible_agency": "Department of Code Enforcement",
    "final_address": "2216 Charbonnet St",
    "address_councildis": "E",
    "status": "Pending",
    "rowid": "1177371",
    "final_x": "3699692.13732",
    "final_y": "537909.387209",
    "longitude": "-90.0103935308622",
    "latitude": "29.97249931620015",
    "geocoded_column": {
      "latitude": "29.97249931620015",
      "longitude": "-90.0103935308622"
    }
  },
  {
    "service_request": "2025-1177370",
    "request_type": "Abandoned Vehicles",
    "request_reason": "Abandoned/Junk Vehicles",
    "date_created": "2025-03-20T15:28:04.000",
    "date_modified": "2025-03-20T15:28:05.000",
    "request_status": "Pending",
    "responsible_agency": "Department of Public Works",
    "final_address": "2425 Barracks St",
    "address_councildis": "D",
    "status": "Pending",
    "rowid": "1177370",
    "final_x": "3679001.94363",
    "final_y": "538029.510025",
    "longitude": "-90.07573268931729",
    "latitude": "29.973470229424095",
    "geocoded_column": {
      "latitude": "29.973470229424095",
      "longitude": "-90.07573268931729"
    }
  },
  {
    "service_request": "2025-1177369",
    "request_type": "Streetlights",
    "request_reason": "Streetlight Outage/Malfunction",
    "date_created": "2025-03-20T15:25:09.000",
    "date_modified": "2025-03-20T15:25:10.000",
    "request_status": "Pending",
    "responsible_agency": "Department of Public Works",
    "final_address": "5419 LaSalle St",
    "address_councildis": "A",
    "status": "Pending",
    "contractor": "Legacy Professional Services",
    "rowid": "1177369",
    "final_x": "3667686.65549",
    "final_y": "523773.549371",
    "longitude": "-90.11194877314418",
    "latitude": "29.934607629670356",
    "geocoded_column": {
      "latitude": "29.934607629670356",
      "longitude": "-90.11194877314418"
    }
  },
  {
    "service_request": "2025-1177368",
    "request_type": "Roads and Streets",
    "request_reason": "Pothole",
    "date_created": "2025-03-20T15:24:20.000",
    "date_modified": "2025-03-20T15:24:22.000",
    "request_status": "Pending",
    "responsible_agency": "Department of Public Works",
    "final_address": "1 Dunleith Ct",
    "address_councildis": "A",
    "status": "Pending",
    "rowid": "1177368",
    "final_x": "3663526.98522",
    "final_y": "525087.857021",
    "longitude": "-90.12503707225515",
    "latitude": "29.93834282146667",
    "geocoded_column": {
      "latitude": "29.93834282146667",
      "longitude": "-90.12503707225515"
    }
  },
  {
    "service_request": "2025-1177367",
    "request_type": "Trash/Recycling",
    "request_reason": "Request a Large Item Pick Up",
    "date_created": "2025-03-20T15:20:25.000",
    "date_modified": "2025-03-20T15:20:26.000",
    "request_status": "Pending",
    "responsible_agency": "Department of Sanitation",
    "final_address": "136 N Telemachus St",
    "address_councildis": "B",
    "status": "Assigned to Contractor",
    "contractor": "IV Waste",
    "rowid": "1177367",
    "final_x": "3672549.19841",
    "final_y": "537623.048968",
    "longitude": "-90.09612570699423",
    "latitude": "29.972545755229927",
    "geocoded_column": {
      "latitude": "29.972545755229927",
      "longitude": "-90.09612570699423"
    }
  },
  {
    "service_request": "2025-1177366",
    "request_type": "Trash/Recycling",
    "request_reason": "Order Trash Cart",
    "date_created": "2025-03-20T15:18:57.000",
    "date_modified": "2025-03-20T15:18:59.000",
    "request_status": "Pending",
    "responsible_agency": "Department of Sanitation",
    "final_address": "12 Heritage Ln Unit 45",
    "address_councildis": "C",
    "status": "Assigned to Contractor",
    "contractor": "Richards Disposal",
    "rowid": "1177366",
    "final_x": "3695826.46698",
    "final_y": "520210.038264",
    "longitude": "-90.02324104708181",
    "latitude": "29.923954431617027",
    "geocoded_column": {
      "latitude": "29.923954431617027",
      "longitude": "-90.02324104708181"
    }
  },
  {
    "service_request": "2025-1177365",
    "request_type": "Street and Traffic Signs",
    "request_reason": "Street Name Sign Damaged or Missing",
    "date_created": "2025-03-20T15:15:17.000",
    "date_modified": "2025-03-20T15:15:19.000",
    "request_status": "Pending",
    "responsible_agency": "Department of Public Works",
    "final_address": "PARC BRITTANY BLVD & S CORONET CT",
    "address_councildis": "E",
    "status": "Pending",
    "rowid": "1177365",
    "final_x": "3702900.8",
    "final_y": "557278.08",
    "longitude": "-89.99954804963379",
    "latitude": "30.025653703559268",
    "geocoded_column": {
      "latitude": "30.025653703559268",
      "longitude": "-89.99954804963379"
    }
  },
  {
    "service_request": "2025-1177364",
    "request_type": "Trash/Recycling",
    "request_reason": "Request a Large Item Pick Up",
    "date_created": "2025-03-20T15:12:03.000",
    "date_modified": "2025-03-20T15:12:05.000",
    "request_status": "Pending",
    "responsible_agency": "Department of Sanitation",
    "final_address": "2932 Johnny Jackson Jr Blvd",
    "address_councildis": "D",
    "status": "Assigned to Contractor",
    "contractor": "IV Waste",
    "rowid": "1177364",
    "final_x": "3691364.04259",
    "final_y": "543294.616142",
    "longitude": "-90.03650255181947",
    "latitude": "29.987568530717983",
    "geocoded_column": {
      "latitude": "29.987568530717983",
      "longitude": "-90.03650255181947"
    }
  },
  {
    "service_request": "2025-1177363",
    "request_type": "Trash/Recycling",
    "request_reason": "Request a Large Item Pick Up",
    "date_created": "2025-03-20T15:11:37.000",
    "date_modified": "2025-03-20T15:11:39.000",
    "request_status": "Pending",
    "responsible_agency": "Department of Sanitation",
    "final_address": "3938 Banks St",
    "address_councildis": "B",
    "status": "Assigned to Contractor",
    "contractor": "IV Waste",
    "rowid": "1177363",
    "final_x": "3670765.38305",
    "final_y": "537008.172744",
    "longitude": "-90.10178020181792",
    "latitude": "29.97090789186671",
    "geocoded_column": {
      "latitude": "29.97090789186671",
      "longitude": "-90.10178020181792"
    }
  },
  {
    "service_request": "2025-1177362",
    "request_type": "Roads and Streets",
    "request_reason": "Sidewalk Damaged or Missing",
    "date_created": "2025-03-20T15:10:04.000",
    "date_modified": "2025-03-20T15:10:06.000",
    "request_status": "Pending",
    "responsible_agency": "Department of Public Works",
    "final_address": "200 Maumus Ave",
    "address_councildis": "C",
    "status": "Pending",
    "rowid": "1177362",
    "final_x": "3706022.50481",
    "final_y": "516840.612085",
    "longitude": "-89.99118065527809",
    "latitude": "29.91436519534517",
    "geocoded_column": {
      "latitude": "29.91436519534517",
      "longitude": "-89.99118065527809"
    }
  },
  {
    "service_request": "2025-1177361",
    "request_type": "Trash/Recycling",
    "request_reason": "Return Trash Cart",
    "date_created": "2025-03-20T15:06:07.000",
    "date_modified": "2025-03-20T15:06:10.000",
    "request_status": "Pending",
    "responsible_agency": "Department of Sanitation",
    "final_address": "4626 Bienville Ave",
    "address_councildis": "A",
    "status": "Assigned to Contractor",
    "contractor": "IV Waste",
    "rowid": "1177361",
    "final_x": "3669680.85511",
    "final_y": "540331.699083",
    "longitude": "-90.1050927798792",
    "latitude": "29.980078475640102",
    "geocoded_column": {
      "latitude": "29.980078475640102",
      "longitude": "-90.1050927798792"
    }
  },
  {
    "service_request": "2025-1177360",
    "request_type": "Trash/Recycling",
    "request_reason": "Return Trash Cart",
    "date_created": "2025-03-20T15:04:17.000",
    "date_modified": "2025-03-20T15:04:19.000",
    "request_status": "Pending",
    "responsible_agency": "Department of Sanitation",
    "final_address": "5531 Coliseum St",
    "address_councildis": "A",
    "status": "Assigned to Contractor",
    "contractor": "IV Waste",
    "rowid": "1177360",
    "final_x": "3666424.61319",
    "final_y": "519978.471928",
    "longitude": "-90.1160603085296",
    "latitude": "29.924209299363984",
    "geocoded_column": {
      "latitude": "29.924209299363984",
      "longitude": "-90.1160603085296"
    }
  },
  {
    "service_request": "2025-1177359",
    "request_type": "Trash/Recycling",
    "request_reason": "Request a Large Item Pick Up",
    "date_created": "2025-03-20T14:58:25.000",
    "date_modified": "2025-03-20T14:58:27.000",
    "request_status": "Pending",
    "responsible_agency": "Department of Sanitation",
    "final_address": "3401 River Oaks Dr",
    "address_councildis": "C",
    "status": "Assigned to Contractor",
    "contractor": "Richards Disposal",
    "rowid": "1177359",
    "final_x": "3701359.94935",
    "final_y": "518663.246647",
    "longitude": "-90.00583051068091",
    "latitude": "29.919526163552817",
    "geocoded_column": {
      "latitude": "29.919526163552817",
      "longitude": "-90.00583051068091"
    }
  },
  {
    "service_request": "2025-1177358",
    "request_type": "Property Maintenance",
    "request_reason": "Property Maintenance",
    "date_created": "2025-03-20T14:58:15.000",
    "date_modified": "2025-03-20T14:58:16.000",
    "request_status": "Pending",
    "responsible_agency": "Department of Code Enforcement",
    "final_address": "3834 General Meyer Ave",
    "address_councildis": "C",
    "status": "Pending",
    "rowid": "1177358",
    "final_x": "3698256.8449",
    "final_y": "525219.862461",
    "longitude": "-90.01538736405965",
    "latitude": "29.9376530933818",
    "geocoded_column": {
      "latitude": "29.9376530933818",
      "longitude": "-90.01538736405965"
    }
  },
  {
    "service_request": "2025-1177357",
    "request_type": "Trash/Recycling",
    "request_reason": "Order Trash Cart",
    "date_created": "2025-03-20T14:58:01.000",
    "date_modified": "2025-03-20T14:58:02.000",
    "request_status": "Pending",
    "responsible_agency": "Department of Sanitation",
    "final_address": "7667 Avalon Way",
    "address_councildis": "E",
    "status": "Assigned to Contractor",
    "contractor": "Waste Pro",
    "rowid": "1177357",
    "final_x": "3708889.39448",
    "final_y": "564900.86077",
    "longitude": "-89.98034068409923",
    "latitude": "30.04642029666581",
    "geocoded_column": {
      "latitude": "30.04642029666581",
      "longitude": "-89.98034068409923"
    }
  },
  {
    "service_request": "2025-1177356",
    "request_type": "Trash/Recycling",
    "request_reason": "Request a Large Item Pick Up",
    "date_created": "2025-03-20T14:57:40.000",
    "date_modified": "2025-03-20T14:57:42.000",
    "request_status": "Pending",
    "responsible_agency": "Department of Sanitation",
    "final_address": "4783 Hickerson Dr",
    "address_councildis": "E",
    "status": "Assigned to Contractor",
    "contractor": "Waste Pro",
    "rowid": "1177356",
    "final_x": "3710346.06206",
    "final_y": "556055.075161",
    "longitude": "-89.97606805991322",
    "latitude": "30.022050523122193",
    "geocoded_column": {
      "latitude": "30.022050523122193",
      "longitude": "-89.97606805991322"
    }
  },
  {
    "service_request": "2025-1177355",
    "request_type": "Trash/Recycling",
    "request_reason": "Request a Large Item Pick Up",
    "date_created": "2025-03-20T14:56:38.000",
    "date_modified": "2025-03-20T14:56:41.000",
    "request_status": "Pending",
    "responsible_agency": "Department of Sanitation",
    "final_address": "1910 Flood St",
    "address_councildis": "E",
    "status": "Assigned to Contractor",
    "contractor": "Waste Pro",
    "rowid": "1177355",
    "final_x": "3698498.16016",
    "final_y": "536937.017096",
    "longitude": "-90.01419965419728",
    "latitude": "29.969863498549323",
    "geocoded_column": {
      "latitude": "29.969863498549323",
      "longitude": "-90.01419965419728"
    }
  },
  {
    "service_request": "2025-1177354",
    "request_type": "Trash/Recycling",
    "request_reason": "Order Trash Cart",
    "date_created": "2025-03-20T14:56:04.000",
    "date_modified": "2025-03-20T14:56:06.000",
    "request_status": "Pending",
    "responsible_agency": "Department of Sanitation",
    "final_address": "1836 N Rocheblave St",
    "address_councildis": "D",
    "status": "Assigned to Contractor",
    "contractor": "IV Waste",
    "rowid": "1177354",
    "final_x": "3681087.28104",
    "final_y": "540772.631563",
    "longitude": "-90.06905117379992",
    "latitude": "29.98094976408566",
    "geocoded_column": {
      "latitude": "29.98094976408566",
      "longitude": "-90.06905117379992"
    }
  },
  {
    "service_request": "2025-1177353",
    "request_type": "Trash/Recycling",
    "request_reason": "Request a Large Item Pick Up",
    "date_created": "2025-03-20T14:55:34.000",
    "date_modified": "2025-03-20T14:55:36.000",
    "request_status": "Pending",
    "responsible_agency": "Department of Sanitation",
    "final_address": "8419 Beechwood Ct",
    "address_councildis": "E",
    "status": "Assigned to Contractor",
    "contractor": "Waste Pro",
    "rowid": "1177353",
    "final_x": "3704155.51671",
    "final_y": "560668.513054",
    "longitude": "-89.99545826237454",
    "latitude": "30.03493585494704",
    "geocoded_column": {
      "latitude": "30.03493585494704",
      "longitude": "-89.99545826237454"
    }
  },
  {
    "service_request": "2025-1177352",
    "request_type": "Property Maintenance",
    "request_reason": "Property Maintenance",
    "date_created": "2025-03-20T14:54:34.000",
    "date_modified": "2025-03-20T14:54:35.000",
    "request_status": "Pending",
    "responsible_agency": "Department of Code Enforcement",
    "final_address": "8022 Leeds St",
    "address_councildis": "E",
    "status": "Pending",
    "rowid": "1177352",
    "final_x": "3704979.28433",
    "final_y": "554921.651032",
    "longitude": "-89.99306747417604",
    "latitude": "30.01910774705283",
    "geocoded_column": {
      "latitude": "30.01910774705283",
      "longitude": "-89.99306747417604"
    }
  },
  {
    "service_request": "2025-1177351",
    "request_type": "Trash/Recycling",
    "request_reason": "Order Second Trash Cart",
    "date_created": "2025-03-20T14:52:59.000",
    "date_modified": "2025-03-20T14:53:01.000",
    "request_status": "Pending",
    "responsible_agency": "Department of Sanitation",
    "final_address": "2512 Tricou St",
    "address_councildis": "E",
    "status": "Assigned to Contractor",
    "contractor": "Waste Pro",
    "rowid": "1177351",
    "final_x": "3702190.77489",
    "final_y": "538213.318729",
    "longitude": "-90.00249129669743",
    "latitude": "29.973255458251522",
    "geocoded_column": {
      "latitude": "29.973255458251522",
      "longitude": "-90.00249129669743"
    }
  },
  {
    "service_request": "2025-1177350",
    "request_type": "Trash/Recycling",
    "request_reason": "Order Trash Cart",
    "date_created": "2025-03-20T14:52:29.000",
    "date_modified": "2025-03-20T14:52:31.000",
    "request_status": "Pending",
    "responsible_agency": "Department of Sanitation",
    "final_address": "1836 N Rocheblave St",
    "address_councildis": "D",
    "status": "Assigned to Contractor",
    "contractor": "IV Waste",
    "rowid": "1177350",
    "final_x": "3681087.28104",
    "final_y": "540772.631563",
    "longitude": "-90.06905117379992",
    "latitude": "29.98094976408566",
    "geocoded_column": {
      "latitude": "29.98094976408566",
      "longitude": "-90.06905117379992"
    }
  },
  {
    "service_request": "2025-1177349",
    "request_type": "Trash/Recycling",
    "request_reason": "Request a Large Item Pick Up",
    "date_created": "2025-03-20T14:51:21.000",
    "date_modified": "2025-03-20T14:51:41.000",
    "request_status": "Pending",
    "responsible_agency": "Department of Sanitation",
    "final_address": "2512 Tricou St",
    "address_councildis": "E",
    "status": "Assigned to Contractor",
    "contractor": "Waste Pro",
    "rowid": "1177349",
    "final_x": "3702190.77489",
    "final_y": "538213.318729",
    "longitude": "-90.00249129669743",
    "latitude": "29.973255458251522",
    "geocoded_column": {
      "latitude": "29.973255458251522",
      "longitude": "-90.00249129669743"
    }
  },
  {
    "service_request": "2025-1177348",
    "request_type": "Roads and Streets",
    "request_reason": "Pothole",
    "date_created": "2025-03-20T14:51:07.000",
    "date_modified": "2025-03-20T14:51:08.000",
    "request_status": "Pending",
    "responsible_agency": "Department of Public Works",
    "final_address": "1534 General Collins Ave",
    "address_councildis": "C",
    "status": "Pending",
    "rowid": "1177348",
    "final_x": "3698619.38442",
    "final_y": "525432.733181",
    "longitude": "-90.01423506967855",
    "latitude": "29.938226943086566",
    "geocoded_column": {
      "latitude": "29.938226943086566",
      "longitude": "-90.01423506967855"
    }
  },
  {
    "service_request": "2025-1177347",
    "request_type": "Trash/Recycling",
    "request_reason": "Request a Large Item Pick Up",
    "date_created": "2025-03-20T14:50:19.000",
    "date_modified": "2025-03-20T14:50:21.000",
    "request_status": "Pending",
    "responsible_agency": "Department of Sanitation",
    "final_address": "7524 Kingsport Blvd",
    "address_councildis": "E",
    "status": "Assigned to Contractor",
    "contractor": "Waste Pro",
    "rowid": "1177347",
    "final_x": "3720451.71609",
    "final_y": "572605.497321",
    "longitude": "-89.94350286579446",
    "latitude": "30.067224374749635",
    "geocoded_column": {
      "latitude": "30.067224374749635",
      "longitude": "-89.94350286579446"
    }
  },
  {
    "service_request": "2025-1177346",
    "request_type": "General Services",
    "request_reason": "General Service Request",
    "date_created": "2025-03-20T14:49:46.000",
    "date_modified": "2025-03-20T14:59:06.000",
    "case_close_date": "2025-03-20T09:59:05.000",
    "request_status": "Closed",
    "responsible_agency": "Orleans Parish Communication District",
    "final_address": "439 Belleville St",
    "address_councildis": "C",
    "status": "Question Answered.",
    "rowid": "1177346",
    "final_x": "3687824.47491",
    "final_y": "530012.658817",
    "longitude": "-90.04815334395397",
    "latitude": "29.95115747082882",
    "geocoded_column": {
      "latitude": "29.95115747082882",
      "longitude": "-90.04815334395397"
    }
  },
  {
    "service_request": "2025-1177345",
    "request_type": "Abandoned Vehicles",
    "request_reason": "Abandoned/Junk Vehicles",
    "date_created": "2025-03-20T14:47:44.000",
    "date_modified": "2025-03-20T14:50:41.000",
    "request_status": "Pending",
    "responsible_agency": "Department of Public Works",
    "final_address": "937 Burdette St",
    "address_councildis": "A",
    "status": "Pending",
    "rowid": "1177345",
    "final_x": "3662325.79219",
    "final_y": "527038.988478",
    "longitude": "-90.12876461801767",
    "latitude": "29.94374258707137",
    "geocoded_column": {
      "latitude": "29.94374258707137",
      "longitude": "-90.12876461801767"
    }
  },
  {
    "service_request": "2025-1177344",
    "request_type": "Trash/Recycling",
    "request_reason": "Repair Trash Cart",
    "date_created": "2025-03-20T14:44:57.000",
    "date_modified": "2025-03-20T14:44:59.000",
    "request_status": "Pending",
    "responsible_agency": "Department of Sanitation",
    "final_address": "2020 St Anthony St",
    "address_councildis": "D",
    "status": "Assigned to Contractor",
    "contractor": "IV Waste",
    "rowid": "1177344",
    "final_x": "3683189.24796",
    "final_y": "539654.679434",
    "longitude": "-90.06245139698788",
    "latitude": "29.97781184840818",
    "geocoded_column": {
      "latitude": "29.97781184840818",
      "longitude": "-90.06245139698788"
    }
  },
  {
    "service_request": "2025-1177343",
    "request_type": "Trash/Recycling",
    "request_reason": "Order Trash Cart",
    "date_created": "2025-03-20T14:44:07.000",
    "date_modified": "2025-03-20T14:44:08.000",
    "request_status": "Pending",
    "responsible_agency": "Department of Sanitation",
    "final_address": "510 N St Patrick St",
    "address_councildis": "A",
    "status": "Assigned to Contractor",
    "contractor": "IV Waste",
    "rowid": "1177343",
    "final_x": "3670125.46132",
    "final_y": "541113.800076",
    "longitude": "-90.10366201457815",
    "latitude": "29.982215875843906",
    "geocoded_column": {
      "latitude": "29.982215875843906",
      "longitude": "-90.10366201457815"
    }
  },
  {
    "service_request": "2025-1177342",
    "request_type": "Street and Traffic Signs",
    "request_reason": "Additional Signage Request",
    "date_created": "2025-03-20T14:43:55.000",
    "date_modified": "2025-03-20T14:43:57.000",
    "request_status": "Pending",
    "responsible_agency": "Department of Public Works",
    "final_address": "4227 Canal St",
    "address_councildis": "A",
    "status": "Pending",
    "rowid": "1177342",
    "final_x": "3670516.98324",
    "final_y": "538994.401482",
    "longitude": "-90.10249730148217",
    "latitude": "29.976376690047978",
    "geocoded_column": {
      "latitude": "29.976376690047978",
      "longitude": "-90.10249730148217"
    }
  },
  {
    "service_request": "2025-1177341",
    "request_type": "Trash/Recycling",
    "request_reason": "Request a Large Item Pick Up",
    "date_created": "2025-03-20T14:40:08.000",
    "date_modified": "2025-03-20T14:40:11.000",
    "request_status": "Pending",
    "responsible_agency": "Department of Sanitation",
    "final_address": "6601 Dorchester St",
    "address_councildis": "E",
    "status": "Assigned to Contractor",
    "contractor": "Waste Pro",
    "rowid": "1177341",
    "final_x": "3697666.19856",
    "final_y": "558935.165404",
    "longitude": "-90.01602837278277",
    "latitude": "30.030376555312035",
    "geocoded_column": {
      "latitude": "30.030376555312035",
      "longitude": "-90.01602837278277"
    }
  },
  {
    "service_request": "2025-1177340",
    "request_type": "Abandoned Vehicles",
    "request_reason": "Abandoned/Junk Vehicles",
    "date_created": "2025-03-20T14:37:51.000",
    "date_modified": "2025-03-20T14:37:53.000",
    "request_status": "Pending",
    "responsible_agency": "Department of Public Works",
    "final_address": "4531 Eastview Dr",
    "address_councildis": "E",
    "status": "Pending",
    "rowid": "1177340",
    "final_x": "3705284.54155",
    "final_y": "554009.393304",
    "longitude": "-89.99213671324007",
    "latitude": "30.01658956847073",
    "geocoded_column": {
      "latitude": "30.01658956847073",
      "longitude": "-89.99213671324007"
    }
  },
  {
    "service_request": "2025-1177339",
    "request_type": "Safety & Permits",
    "request_reason": "Licenses & Permits",
    "date_created": "2025-03-20T14:37:44.000",
    "date_modified": "2025-03-20T15:15:59.000",
    "case_close_date": "2025-03-20T10:15:48.000",
    "request_status": "Closed",
    "responsible_agency": "Safety and Permits",
    "final_address": "4124 Tchoupitoulas St",
    "address_councildis": "B",
    "status": "Resolved",
    "rowid": "1177339",
    "final_x": "3672082.01716",
    "final_y": "517483.401334",
    "longitude": "-90.09828671677545",
    "latitude": "29.917182179437685",
    "geocoded_column": {
      "latitude": "29.917182179437685",
      "longitude": "-90.09828671677545"
    }
  },
  {
    "service_request": "2025-1177338",
    "request_type": "Trash/Recycling",
    "request_reason": "Request a Large Item Pick Up",
    "date_created": "2025-03-20T14:37:05.000",
    "date_modified": "2025-03-20T14:37:07.000",
    "request_status": "Pending",
    "responsible_agency": "Department of Sanitation",
    "final_address": "6019 Bienvenue St",
    "address_councildis": "E",
    "status": "Assigned to Contractor",
    "contractor": "Waste Pro",
    "rowid": "1177338",
    "final_x": "3698426.3041",
    "final_y": "531032.661698",
    "longitude": "-90.01464117432313",
    "latitude": "29.953630897373515",
    "geocoded_column": {
      "latitude": "29.953630897373515",
      "longitude": "-90.01464117432313"
    }
  },
  {
    "service_request": "2025-1177337",
    "request_type": "Trash/Recycling",
    "request_reason": "Request a Large Item Pick Up",
    "date_created": "2025-03-20T14:25:42.000",
    "date_modified": "2025-03-20T14:25:43.000",
    "request_status": "Pending",
    "responsible_agency": "Department of Sanitation",
    "final_address": "933 Toulouse St",
    "address_councildis": "C",
    "status": "Assigned to Contractor",
    "contractor": "IV Waste",
    "rowid": "1177337",
    "final_x": "3681547.13282",
    "final_y": "532771.2585",
    "longitude": "-90.06787785845185",
    "latitude": "29.958934787370296",
    "geocoded_column": {
      "latitude": "29.958934787370296",
      "longitude": "-90.06787785845185"
    }
  },
  {
    "service_request": "2025-1177336",
    "request_type": "Trash/Recycling",
    "request_reason": "Request a Large Item Pick Up",
    "date_created": "2025-03-20T14:15:48.000",
    "date_modified": "2025-03-20T14:15:51.000",
    "request_status": "Pending",
    "responsible_agency": "Department of Sanitation",
    "final_address": "7435 Hampson St",
    "address_councildis": "A",
    "status": "Assigned to Contractor",
    "contractor": "IV Waste",
    "rowid": "1177336",
    "final_x": "3662497.89005",
    "final_y": "525599.907261",
    "longitude": "-90.12826904036308",
    "latitude": "29.939780596109916",
    "geocoded_column": {
      "latitude": "29.939780596109916",
      "longitude": "-90.12826904036308"
    }
  },
  {
    "service_request": "2025-1177335",
    "request_type": "Trash/Recycling",
    "request_reason": "Missed Trash Pick-Up",
    "date_created": "2025-03-20T14:06:49.000",
    "date_modified": "2025-03-20T15:49:01.000",
    "case_close_date": "2025-03-20T10:49:00.000",
    "request_status": "Closed",
    "responsible_agency": "Department of Sanitation",
    "final_address": "2610 N Rocheblave St",
    "address_councildis": "D",
    "status": "Invalid Request",
    "contractor": "IV Waste",
    "contractor_action": "Invalid",
    "rowid": "1177335",
    "final_x": "3686576.65302",
    "final_y": "541215.622092",
    "longitude": "-90.05169768078719",
    "latitude": "29.982000148856983",
    "geocoded_column": {
      "latitude": "29.982000148856983",
      "longitude": "-90.05169768078719"
    }
  },
  {
    "service_request": "2025-1177334",
    "request_type": "Trash/Recycling",
    "request_reason": "Order Trash Cart",
    "date_created": "2025-03-20T14:05:57.000",
    "date_modified": "2025-03-20T14:05:59.000",
    "request_status": "Pending",
    "responsible_agency": "Department of Sanitation",
    "final_address": "4015 Downman Rd",
    "address_councildis": "D",
    "status": "Assigned to Contractor",
    "contractor": "Waste Pro",
    "rowid": "1177334",
    "final_x": "3696235.30986",
    "final_y": "552308.114198",
    "longitude": "-90.0207898551395",
    "latitude": "30.012199828197314",
    "geocoded_column": {
      "latitude": "30.012199828197314",
      "longitude": "-90.0207898551395"
    }
  },
  {
    "service_request": "2025-1177333",
    "request_type": "Trash/Recycling",
    "request_reason": "Request a Large Item Pick Up",
    "date_created": "2025-03-20T14:05:16.000",
    "date_modified": "2025-03-20T14:05:19.000",
    "request_status": "Pending",
    "responsible_agency": "Department of Sanitation",
    "final_address": "6741 Lake Willow Dr",
    "address_councildis": "E",
    "status": "Assigned to Contractor",
    "contractor": "Waste Pro",
    "rowid": "1177333",
    "final_x": "3703708.9514",
    "final_y": "559450.941085",
    "longitude": "-89.99691434405338",
    "latitude": "30.031602336722692",
    "geocoded_column": {
      "latitude": "30.031602336722692",
      "longitude": "-89.99691434405338"
    }
  },
  {
    "service_request": "2025-1177332",
    "request_type": "Trash/Recycling",
    "request_reason": "Request a Large Item Pick Up",
    "date_created": "2025-03-20T14:04:01.000",
    "date_modified": "2025-03-20T14:04:03.000",
    "request_status": "Pending",
    "responsible_agency": "Department of Sanitation",
    "final_address": "7831 Dorsett Dr",
    "address_councildis": "E",
    "status": "Assigned to Contractor",
    "contractor": "Waste Pro",
    "rowid": "1177332",
    "final_x": "3712407.22603",
    "final_y": "568089.683045",
    "longitude": "-89.96910263393491",
    "latitude": "30.055073579333097",
    "geocoded_column": {
      "latitude": "30.055073579333097",
      "longitude": "-89.96910263393491"
    }
  },
  {
    "service_request": "2025-1177331",
    "request_type": "Trash/Recycling",
    "request_reason": "Request a Large Item Pick Up",
    "date_created": "2025-03-20T14:03:19.000",
    "date_modified": "2025-03-20T14:03:21.000",
    "request_status": "Pending",
    "responsible_agency": "Department of Sanitation",
    "final_address": "3025 Octavia St",
    "address_councildis": "A",
    "status": "Assigned to Contractor",
    "contractor": "IV Waste",
    "rowid": "1177331",
    "final_x": "3668242.18567",
    "final_y": "526776.792894",
    "longitude": "-90.11009375403259",
    "latitude": "29.942849288675287",
    "geocoded_column": {
      "latitude": "29.942849288675287",
      "longitude": "-90.11009375403259"
    }
  },
  {
    "service_request": "2025-1177330",
    "request_type": "Trash/Recycling",
    "request_reason": "Request a Large Item Pick Up",
    "date_created": "2025-03-20T14:02:07.000",
    "date_modified": "2025-03-20T14:02:10.000",
    "request_status": "Pending",
    "responsible_agency": "Department of Sanitation",
    "final_address": "6040 Oxford Pl",
    "address_councildis": "C",
    "status": "Assigned to Contractor",
    "contractor": "Richards Disposal",
    "rowid": "1177330",
    "final_x": "3706346.87179",
    "final_y": "519858.208568",
    "longitude": "-89.99004519414213",
    "latitude": "29.92265208779472",
    "geocoded_column": {
      "latitude": "29.92265208779472",
      "longitude": "-89.99004519414213"
    }
  },
  {
    "service_request": "2025-1177329",
    "request_type": "Trash/Recycling",
    "request_reason": "Request a Large Item Pick Up",
    "date_created": "2025-03-20T14:01:59.000",
    "date_modified": "2025-03-20T14:02:51.000",
    "request_status": "Pending",
    "responsible_agency": "Department of Sanitation",
    "final_address": "7824 Dorsett Dr",
    "address_councildis": "E",
    "status": "Assigned to Contractor",
    "contractor": "Waste Pro",
    "rowid": "1177329",
    "final_x": "3712371.97093",
    "final_y": "568004.264357",
    "longitude": "-89.96921728108391",
    "latitude": "30.054839866901386",
    "geocoded_column": {
      "latitude": "30.054839866901386",
      "longitude": "-89.96921728108391"
    }
  },
  {
    "service_request": "2025-1177328",
    "request_type": "Trash/Recycling",
    "request_reason": "Request a Large Item Pick Up",
    "date_created": "2025-03-20T14:01:24.000",
    "date_modified": "2025-03-20T14:01:29.000",
    "request_status": "Pending",
    "responsible_agency": "Department of Sanitation",
    "final_address": "7730 Dorsett Dr",
    "address_councildis": "E",
    "status": "Assigned to Contractor",
    "contractor": "Waste Pro",
    "rowid": "1177328",
    "final_x": "3712522.90571",
    "final_y": "567777.842148",
    "longitude": "-89.96874873643291",
    "latitude": "30.054212356691284",
    "geocoded_column": {
      "latitude": "30.054212356691284",
      "longitude": "-89.96874873643291"
    }
  },
  {
    "service_request": "2025-1177327",
    "request_type": "Trash/Recycling",
    "request_reason": "Request a Large Item Pick Up",
    "date_created": "2025-03-20T14:00:38.000",
    "date_modified": "2025-03-20T14:00:41.000",
    "request_status": "Pending",
    "responsible_agency": "Department of Sanitation",
    "final_address": "7733 Dorsett Dr",
    "address_councildis": "E",
    "status": "Assigned to Contractor",
    "contractor": "Waste Pro",
    "rowid": "1177327",
    "final_x": "3712574.18827",
    "final_y": "567831.636644",
    "longitude": "-89.96858462079211",
    "latitude": "30.054358590243694",
    "geocoded_column": {
      "latitude": "30.054358590243694",
      "longitude": "-89.96858462079211"
    }
  },
  {
    "service_request": "2025-1177326",
    "request_type": "Trash/Recycling",
    "request_reason": "Repair Recycling Cart",
    "date_created": "2025-03-20T13:59:16.000",
    "date_modified": "2025-03-20T13:59:19.000",
    "request_status": "Pending",
    "responsible_agency": "Department of Sanitation",
    "final_address": "78 Fontainebleau Dr",
    "address_councildis": "A",
    "status": "Pending",
    "rowid": "1177326",
    "final_x": "3666799.39393",
    "final_y": "530730.96077",
    "longitude": "-90.11451621658368",
    "latitude": "29.95376424097828",
    "geocoded_column": {
      "latitude": "29.95376424097828",
      "longitude": "-90.11451621658368"
    }
  },
  {
    "service_request": "2025-1177325",
    "request_type": "Streetlights",
    "request_reason": "Streetlight Outage/Malfunction",
    "date_created": "2025-03-20T13:55:42.000",
    "date_modified": "2025-03-20T13:55:44.000",
    "request_status": "Pending",
    "responsible_agency": "Department of Public Works",
    "final_address": "401 Leboeuf St",
    "address_councildis": "C",
    "status": "Pending",
    "contractor": "Legacy Professional Services",
    "rowid": "1177325",
    "final_x": "3689798.36489",
    "final_y": "530218.994113",
    "longitude": "-90.04191345859718",
    "latitude": "29.95166379876886",
    "geocoded_column": {
      "latitude": "29.95166379876886",
      "longitude": "-90.04191345859718"
    }
  },
  {
    "service_request": "2025-1177324",
    "request_type": "Trash/Recycling",
    "request_reason": "Request a Large Item Pick Up",
    "date_created": "2025-03-20T13:55:30.000",
    "date_modified": "2025-03-20T13:55:33.000",
    "request_status": "Pending",
    "responsible_agency": "Department of Sanitation",
    "final_address": "7854 Bass St",
    "address_councildis": "E",
    "status": "Assigned to Contractor",
    "contractor": "Waste Pro",
    "rowid": "1177324",
    "final_x": "3719711.78053",
    "final_y": "574002.49489",
    "longitude": "-89.94578842757578",
    "latitude": "30.071090185762966",
    "geocoded_column": {
      "latitude": "30.071090185762966",
      "longitude": "-89.94578842757578"
    }
  },
  {
    "service_request": "2025-1177323",
    "request_type": "Abandoned Vehicles",
    "request_reason": "Abandoned/Junk Vehicles",
    "date_created": "2025-03-20T13:52:14.000",
    "date_modified": "2025-03-20T13:52:16.000",
    "request_status": "Pending",
    "responsible_agency": "Department of Public Works",
    "final_address": "1430 Gallier St",
    "address_councildis": "C",
    "status": "Pending",
    "rowid": "1177323",
    "final_x": "3690766.56355",
    "final_y": "536993.680392",
    "longitude": "-90.03861465906134",
    "latitude": "29.970261781345872",
    "geocoded_column": {
      "latitude": "29.970261781345872",
      "longitude": "-90.03861465906134"
    }
  },
  {
    "service_request": "2025-1177322",
    "request_type": "Safety & Permits",
    "request_reason": "Construction permit",
    "date_created": "2025-03-20T13:51:17.000",
    "date_modified": "2025-03-20T15:18:28.000",
    "case_close_date": "2025-03-20T10:18:27.000",
    "request_status": "Closed",
    "responsible_agency": "Safety and Permits",
    "final_address": "1430 Gallier St",
    "address_councildis": "C",
    "status": "Resolved",
    "rowid": "1177322",
    "final_x": "3690766.56355",
    "final_y": "536993.680392",
    "longitude": "-90.03861465906134",
    "latitude": "29.970261781345872",
    "geocoded_column": {
      "latitude": "29.970261781345872",
      "longitude": "-90.03861465906134"
    }
  },
  {
    "service_request": "2025-1177321",
    "request_type": "Trash/Recycling",
    "request_reason": "Request a Large Item Pick Up",
    "date_created": "2025-03-20T13:50:25.000",
    "date_modified": "2025-03-20T13:50:27.000",
    "request_status": "Pending",
    "responsible_agency": "Department of Sanitation",
    "final_address": "2763 Frankfort St",
    "address_councildis": "D",
    "status": "Assigned to Contractor",
    "contractor": "IV Waste",
    "rowid": "1177321",
    "final_x": "3687527.32124",
    "final_y": "557260.703707",
    "longitude": "-90.04812660452048",
    "latitude": "30.026089013459366",
    "geocoded_column": {
      "latitude": "30.026089013459366",
      "longitude": "-90.04812660452048"
    }
  },
  {
    "service_request": "2025-1177320",
    "request_type": "Trash/Recycling",
    "request_reason": "Replace Recycling Cart",
    "date_created": "2025-03-20T13:49:34.000",
    "date_modified": "2025-03-20T13:49:35.000",
    "request_status": "Pending",
    "responsible_agency": "Department of Sanitation",
    "final_address": "4135 Piedmont Dr",
    "address_councildis": "D",
    "status": "Pending",
    "rowid": "1177320",
    "final_x": "3685029.07241",
    "final_y": "547943.41077",
    "longitude": "-90.05634885621893",
    "latitude": "30.000546675786154",
    "geocoded_column": {
      "latitude": "30.000546675786154",
      "longitude": "-90.05634885621893"
    }
  },
  {
    "service_request": "2025-1177319",
    "request_type": "Abandoned Vehicles",
    "request_reason": "Abandoned/Junk Vehicles",
    "date_created": "2025-03-20T13:47:42.000",
    "date_modified": "2025-03-20T13:48:54.000",
    "request_status": "Pending",
    "responsible_agency": "Department of Public Works",
    "final_address": "3300 Delachaise St",
    "address_councildis": "B",
    "status": "Pending",
    "rowid": "1177319",
    "final_x": "3671516.77089",
    "final_y": "527092.598271",
    "longitude": "-90.09974434510853",
    "latitude": "29.943621121920764",
    "geocoded_column": {
      "latitude": "29.943621121920764",
      "longitude": "-90.09974434510853"
    }
  },
  {
    "service_request": "2025-1177318",
    "request_type": "Parks & Parkways",
    "request_reason": "Request Tree Service (Right of Way/Public Property)",
    "date_created": "2025-03-20T13:47:06.000",
    "date_modified": "2025-03-20T13:47:09.000",
    "request_status": "Pending",
    "responsible_agency": "Department of Parks & Parkway",
    "final_address": "5438 Elysian Fields Ave",
    "address_councildis": "D",
    "status": "Pending",
    "rowid": "1177318",
    "final_x": "3683566.89026",
    "final_y": "552868.072983",
    "longitude": "-90.0607952046587",
    "latitude": "30.014132440253682",
    "geocoded_column": {
      "latitude": "30.014132440253682",
      "longitude": "-90.0607952046587"
    }
  },
  {
    "service_request": "2025-1177317",
    "request_type": "Street and Traffic Signs",
    "request_reason": "Stop Sign Missing or Damaged",
    "date_created": "2025-03-20T13:45:27.000",
    "date_modified": "2025-03-20T13:45:29.000",
    "request_status": "Pending",
    "responsible_agency": "Department of Public Works",
    "final_address": "11041 Roger Dr",
    "address_councildis": "E",
    "status": "Pending",
    "rowid": "1177317",
    "final_x": "3712354.47717",
    "final_y": "563639.978657",
    "longitude": "-89.96943677113094",
    "latitude": "30.042840423090727",
    "geocoded_column": {
      "latitude": "30.042840423090727",
      "longitude": "-89.96943677113094"
    }
  },
  {
    "service_request": "2025-1177316",
    "request_type": "Trash/Recycling",
    "request_reason": "Repair Recycling Cart",
    "date_created": "2025-03-20T13:37:31.000",
    "date_modified": "2025-03-20T13:37:33.000",
    "request_status": "Pending",
    "responsible_agency": "Department of Sanitation",
    "final_address": "3402 Calhoun St",
    "address_councildis": "A",
    "status": "Pending",
    "rowid": "1177316",
    "final_x": "3667538.84404",
    "final_y": "529155.332096",
    "longitude": "-90.11223435135308",
    "latitude": "29.949410127883695",
    "geocoded_column": {
      "latitude": "29.949410127883695",
      "longitude": "-90.11223435135308"
    }
  },
  {
    "service_request": "2025-1177315",
    "request_type": "Trash/Recycling",
    "request_reason": "Return Trash Cart",
    "date_created": "2025-03-20T13:28:24.000",
    "date_modified": "2025-03-20T13:28:26.000",
    "request_status": "Pending",
    "responsible_agency": "Department of Sanitation",
    "final_address": "2133 Burdette St",
    "address_councildis": "A",
    "status": "Assigned to Contractor",
    "contractor": "IV Waste",
    "rowid": "1177315",
    "final_x": "3665142.11047",
    "final_y": "530110.484673",
    "longitude": "-90.11977000210122",
    "latitude": "29.952106501164785",
    "geocoded_column": {
      "latitude": "29.952106501164785",
      "longitude": "-90.11977000210122"
    }
  },
  {
    "service_request": "2025-1177314",
    "request_type": "Property Maintenance",
    "request_reason": "Property Maintenance",
    "date_created": "2025-03-20T13:28:02.000",
    "date_modified": "2025-03-20T13:28:03.000",
    "request_status": "Pending",
    "responsible_agency": "Department of Code Enforcement",
    "final_address": "4940 N Galvez St",
    "address_councildis": "E",
    "status": "Pending",
    "rowid": "1177314",
    "final_x": "3696924.27498",
    "final_y": "537986.559369",
    "longitude": "-90.01913208957562",
    "latitude": "29.972799091098278",
    "geocoded_column": {
      "latitude": "29.972799091098278",
      "longitude": "-90.01913208957562"
    }
  },
  {
    "service_request": "2025-1177313",
    "request_type": "Trash/Recycling",
    "request_reason": "Return Trash Cart",
    "date_created": "2025-03-20T13:24:01.000",
    "date_modified": "2025-03-20T13:24:04.000",
    "request_status": "Pending",
    "responsible_agency": "Department of Sanitation",
    "final_address": "10228 Airwood St",
    "address_councildis": "E",
    "status": "Assigned to Contractor",
    "contractor": "Waste Pro",
    "rowid": "1177313",
    "final_x": "3713397.63653",
    "final_y": "556143.855322",
    "longitude": "-89.96642261379837",
    "latitude": "30.022194891555827",
    "geocoded_column": {
      "latitude": "30.022194891555827",
      "longitude": "-89.96642261379837"
    }
  },
  {
    "service_request": "2025-1177312",
    "request_type": "Tax and Revenue",
    "request_reason": "Occupational License Tax",
    "date_created": "2025-03-20T13:23:19.000",
    "date_modified": "2025-03-20T13:23:21.000",
    "request_status": "Pending",
    "responsible_agency": "Bureau of Revenue",
    "final_address": "4433 Ulloa St",
    "address_councildis": "A",
    "status": "Pending",
    "rowid": "1177312",
    "final_x": "3668400.56321",
    "final_y": "537540.669512",
    "longitude": "-90.10923066323244",
    "latitude": "29.97244175642467",
    "geocoded_column": {
      "latitude": "29.97244175642467",
      "longitude": "-90.10923066323244"
    }
  },
  {
    "service_request": "2025-1177311",
    "request_type": "Streetlights",
    "request_reason": "Streetlight Outage/Malfunction",
    "date_created": "2025-03-20T13:19:58.000",
    "date_modified": "2025-03-20T13:20:00.000",
    "request_status": "Pending",
    "responsible_agency": "Department of Public Works",
    "final_address": "2019 Pelopidas St",
    "address_councildis": "D",
    "status": "Pending",
    "contractor": "Legacy Professional Services",
    "rowid": "1177311",
    "final_x": "3682757.31637",
    "final_y": "548093.556882",
    "longitude": "-90.06352021936252",
    "latitude": "30.001028942643444",
    "geocoded_column": {
      "latitude": "30.001028942643444",
      "longitude": "-90.06352021936252"
    }
  },
  {
    "service_request": "2025-1177310",
    "request_type": "Trash/Recycling",
    "request_reason": "Request a Large Item Pick Up",
    "date_created": "2025-03-20T13:07:18.000",
    "date_modified": "2025-03-20T13:07:20.000",
    "request_status": "Pending",
    "responsible_agency": "Department of Sanitation",
    "final_address": "7721 Alabama St",
    "address_councildis": "D",
    "status": "Assigned to Contractor",
    "contractor": "Waste Pro",
    "rowid": "1177310",
    "final_x": "3694833.8689",
    "final_y": "558921.358492",
    "longitude": "-90.02497902065419",
    "latitude": "30.030427819723226",
    "geocoded_column": {
      "latitude": "30.030427819723226",
      "longitude": "-90.02497902065419"
    }
  },
  {
    "service_request": "2025-1177309",
    "request_type": "Trash/Recycling",
    "request_reason": "Replace Trash Cart",
    "date_created": "2025-03-20T13:07:10.000",
    "date_modified": "2025-03-20T13:50:12.000",
    "request_status": "Pending",
    "responsible_agency": "Department of Sanitation",
    "final_address": "4715 Camp St",
    "address_councildis": "B",
    "status": "Assigned to Contractor",
    "contractor": "IV Waste",
    "rowid": "1177309",
    "final_x": "3669764.03585",
    "final_y": "519064.178615",
    "longitude": "-90.10554981430343",
    "latitude": "29.921597312842795",
    "geocoded_column": {
      "latitude": "29.921597312842795",
      "longitude": "-90.10554981430343"
    }
  },