[
  {
    "service_request": "2026-1274124",
    "request_type": "Streetlights",
    "request_reason": "Streetlight Outage/Malfunction",
    "date_created": "2026-04-15T23:27:46.000",
    "date_modified": "2026-04-15T23:27:50.000",
    "request_status": "Pending",
    "responsible_agency": "Department of Public Works",
    "final_address": "4877 Laurel St",
    "address_councildis": "B",
    "status": "Pending",
    "rowid": "1274124",
    "final_x": "3669019.95425",
    "final_y": "517892.334326",
    "longitude": "-90.10793812367308",
    "latitude": "29.91839701307734",
    "geocoded_column": {
      "latitude": "29.91839701307734",
      "longitude": "-90.10793812367308"
    }
  },
  {
    "service_request": "2026-1274123",
    "request_type": "Trash/Recycling",
    "request_reason": "Request a Large Item Pick Up",
    "date_created": "2026-04-15T23:05:38.000",
    "date_modified": "2026-04-15T23:05:40.000",
    "request_status": "Pending",
    "responsible_agency": "Department of Sanitation",
    "final_address": "3202 General Taylor St",
    "address_councildis": "B",
    "status": "Assigned to Contractor",
    "contractor": "IV Waste",
    "rowid": "1274123",
    "final_x": "3671237.95047",
    "final_y": "526711.396158",
    "longitude": "-90.10063760481563",
    "latitude": "29.94258119115884",
    "geocoded_column": {
      "latitude": "29.94258119115884",
      "longitude": "-90.10063760481563"
    }
  },
  {
    "service_request": "2026-1274122",
    "request_type": "Trash/Recycling",
    "request_reason": "Request a Large Item Pick Up",
    "date_created": "2026-04-15T22:30:40.000",
    "date_modified": "2026-04-15T22:30:42.000",
    "request_status": "Pending",
    "responsible_agency": "Department of Sanitation",
    "final_address": "3726 Dauphine St",
    "address_councildis": "C",
    "status": "Assigned to Contractor",
    "contractor": "IV Waste",
    "rowid": "1274122",
    "final_x": "3690847.88419",
    "final_y": "534237.754949",
    "longitude": "-90.03845619608303",
    "latitude": "29.96268142759709",
    "geocoded_column": {
      "latitude": "29.96268142759709",
      "longitude": "-90.03845619608303"
    }
  },
  {
    "service_request": "2026-1274121",
    "request_type": "Health Related Request",
    "request_reason": "Noise Ordinance Complaint",
    "date_created": "2026-04-15T22:29:52.000",
    "date_modified": "2026-04-15T22:29:54.000",
    "request_status": "Pending",
    "responsible_agency": "Health Department",
    "final_address": "800 Bourbon St, New Orleans, Louisiana, 70116",
    "address_councildis": "C",
    "status": "Pending",
    "rowid": "1274121",
    "final_x": "3682553.51528",
    "final_y": "533013.631428",
    "longitude": "-90.06469148499534",
    "latitude": "29.95957063099051",
    "geocoded_column": {
      "latitude": "29.95957063099051",
      "longitude": "-90.06469148499534"
    }
  },
  {
    "service_request": "2026-1274120",
    "request_type": "Health Related Request",
    "request_reason": "Noise Ordinance Complaint",
    "date_created": "2026-04-15T22:29:24.000",
    "date_modified": "2026-04-15T22:29:27.000",
    "request_status": "Pending",
    "responsible_agency": "Health Department",
    "final_address": "801 Bourbon St, New Orleans, Louisiana, 70116",
    "address_councildis": "C",
    "status": "Pending",
    "rowid": "1274120",
    "final_x": "3682490.98735",
    "final_y": "533018.672772",
    "longitude": "-90.06488875731978",
    "latitude": "29.959586396383013",
    "geocoded_column": {
      "latitude": "29.959586396383013",
      "longitude": "-90.06488875731978"
    }
  },
  {
    "service_request": "2026-1274119",
    "request_type": "Trash/Recycling",
    "request_reason": "Repair Trash Cart",
    "date_created": "2026-04-15T21:48:26.000",
    "date_modified": "2026-04-15T21:48:29.000",
    "request_status": "Pending",
    "responsible_agency": "Department of Sanitation",
    "final_address": "6650 Avenue A",
    "address_councildis": "A",
    "status": "Assigned to Contractor",
    "contractor": "IV Waste",
    "rowid": "1274119",
    "final_x": "3665992.13556",
    "final_y": "552395.712278",
    "longitude": "-90.11633864947274",
    "latitude": "30.013358580266235",
    "geocoded_column": {
      "latitude": "30.013358580266235",
      "longitude": "-90.11633864947274"
    }
  },
  {
    "service_request": "2026-1274118",
    "request_type": "Property Maintenance",
    "request_reason": "Property Maintenance",
    "date_created": "2026-04-15T21:05:10.000",
    "date_modified": "2026-04-15T21:05:12.000",
    "request_status": "Pending",
    "responsible_agency": "Department of Code Enforcement",
    "final_address": "3211 Fern St",
    "address_councildis": "B",
    "status": "Pending",
    "rowid": "1274118",
    "final_x": "3667443.02657",
    "final_y": "533195.16026",
    "longitude": "-90.11240097616165",
    "latitude": "29.960521140348277",
    "geocoded_column": {
      "latitude": "29.960521140348277",
      "longitude": "-90.11240097616165"
    }
  },
  {
    "service_request": "2026-1274117",
    "request_type": "Property Maintenance",
    "request_reason": "Property Maintenance",
    "date_created": "2026-04-15T21:02:04.000",
    "date_modified": "2026-04-15T21:02:07.000",
    "request_status": "Pending",
    "responsible_agency": "Department of Code Enforcement",
    "final_address": "3211 Fern St",
    "address_councildis": "B",
    "status": "Pending",
    "rowid": "1274117",
    "final_x": "3667443.02657",
    "final_y": "533195.16026",
    "longitude": "-90.11240097616165",
    "latitude": "29.960521140348277",
    "geocoded_column": {
      "latitude": "29.960521140348277",
      "longitude": "-90.11240097616165"
    }
  },
  {
    "service_request": "2026-1274116",
    "request_type": "Streetlights",
    "request_reason": "Streetlight Outage/Malfunction",
    "date_created": "2026-04-15T20:31:30.000",
    "date_modified": "2026-04-15T20:31:31.000",
    "request_status": "Pending",
    "responsible_agency": "Department of Public Works",
    "final_address": "7000 BLK E Renaissance Ct",
    "address_councildis": "E",
    "status": "Pending",
    "rowid": "1274116",
    "final_x": "3717368.7647",
    "final_y": "567144.907821",
    "longitude": "-89.95345638477856",
    "latitude": "30.05231247892867",
    "geocoded_column": {
      "latitude": "30.05231247892867",
      "longitude": "-89.95345638477856"
    }
  },
  {
    "service_request": "2026-1274115",
    "request_type": "Streetlights",
    "request_reason": "Streetlight Knocked Down/Leaning",
    "date_created": "2026-04-15T20:18:46.000",
    "date_modified": "2026-04-15T20:18:47.000",
    "request_status": "Pending",
    "responsible_agency": "Department of Public Works",
    "final_address": "12900 BLK Ashland Dr",
    "address_councildis": "E",
    "status": "Pending",
    "rowid": "1274115",
    "final_x": "3717191.62365",
    "final_y": "567343.093776",
    "longitude": "-89.95400872839744",
    "latitude": "30.052863273080007",
    "geocoded_column": {
      "latitude": "30.052863273080007",
      "longitude": "-89.95400872839744"
    }
  },
  {
    "service_request": "2026-1274114",
    "request_type": "Trash/Recycling",
    "request_reason": "Order Trash Cart",
    "date_created": "2026-04-15T20:17:51.000",
    "date_modified": "2026-04-15T20:17:54.000",
    "request_status": "Pending",
    "responsible_agency": "Department of Sanitation",
    "final_address": "1931 Napoleon Ave",
    "address_councildis": "B",
    "status": "Assigned to Contractor",
    "contractor": "IV Waste",
    "rowid": "1274114",
    "final_x": "3670803.03867",
    "final_y": "522221.378874",
    "longitude": "-90.10216304257698",
    "latitude": "29.930247952303038",
    "geocoded_column": {
      "latitude": "29.930247952303038",
      "longitude": "-90.10216304257698"
    }
  },
  {
    "service_request": "2026-1274113",
    "request_type": "Trash/Recycling",
    "request_reason": "Request a Large Item Pick Up",
    "date_created": "2026-04-15T20:01:48.000",
    "date_modified": "2026-04-15T20:01:50.000",
    "request_status": "Pending",
    "responsible_agency": "Department of Sanitation",
    "final_address": "3321 St Philip St",
    "address_councildis": "A",
    "status": "Assigned to Contractor",
    "contractor": "IV Waste",
    "rowid": "1274113",
    "final_x": "3675242.58945",
    "final_y": "539561.114378",
    "longitude": "-90.08755293845847",
    "latitude": "29.977794533865882",
    "geocoded_column": {
      "latitude": "29.977794533865882",
      "longitude": "-90.08755293845847"
    }
  },
  {
    "service_request": "2026-1274112",
    "request_type": "Streetlights",
    "request_reason": "Streetlight Outage/Malfunction",
    "date_created": "2026-04-15T19:56:27.000",
    "date_modified": "2026-04-15T19:56:30.000",
    "request_status": "Pending",
    "responsible_agency": "Department of Public Works",
    "final_address": "3002 De Soto St",
    "address_councildis": "A",
    "status": "Pending",
    "rowid": "1274112",
    "final_x": "3676695.7307",
    "final_y": "539667.516106",
    "longitude": "-90.0829597455688",
    "latitude": "29.97804358065186",
    "geocoded_column": {
      "latitude": "29.97804358065186",
      "longitude": "-90.0829597455688"
    }
  },
  {
    "service_request": "2026-1274111",
    "request_type": "Property Maintenance",
    "request_reason": "Property Maintenance",
    "date_created": "2026-04-15T19:48:45.000",
    "date_modified": "2026-04-15T19:48:47.000",
    "request_status": "Pending",
    "responsible_agency": "Department of Code Enforcement",
    "final_address": "7920 Pompano St",
    "address_councildis": "E",
    "status": "Pending",
    "rowid": "1274111",
    "final_x": "3700124.51837",
    "final_y": "561565.625183",
    "longitude": "-90.0081639740403",
    "latitude": "30.037531361232844",
    "geocoded_column": {
      "latitude": "30.037531361232844",
      "longitude": "-90.0081639740403"
    }
  },
  {
    "service_request": "2026-1274110",
    "request_type": "Trash/Recycling",
    "request_reason": "Request a Large Item Pick Up",
    "date_created": "2026-04-15T19:45:51.000",
    "date_modified": "2026-04-15T19:45:53.000",
    "request_status": "Pending",
    "responsible_agency": "Department of Sanitation",
    "final_address": "6247 Rhodes Ave",
    "address_councildis": "C",
    "status": "Assigned to Contractor",
    "contractor": "Richards Disposal",
    "rowid": "1274110",
    "final_x": "3707336.3683",
    "final_y": "519335.205623",
    "longitude": "-89.98694117451318",
    "latitude": "29.921182078900046",
    "geocoded_column": {
      "latitude": "29.921182078900046",
      "longitude": "-89.98694117451318"
    }
  },
  {
    "service_request": "2026-1274109",
    "request_type": "Trash/Recycling",
    "request_reason": "Order Second Trash Cart",
    "date_created": "2026-04-15T19:40:34.000",
    "date_modified": "2026-04-15T19:40:36.000",
    "request_status": "Pending",
    "responsible_agency": "Department of Sanitation",
    "final_address": "25 Versailles Blvd",
    "address_councildis": "A",
    "status": "Assigned to Contractor",
    "contractor": "IV Waste",
    "rowid": "1274109",
    "final_x": "3667279.42369",
    "final_y": "529186.634816",
    "longitude": "-90.11305240778498",
    "latitude": "29.949503799343685",
    "geocoded_column": {
      "latitude": "29.949503799343685",
      "longitude": "-90.11305240778498"
    }
  },
  {
    "service_request": "2026-1274108",
    "request_type": "Trash/Recycling",
    "request_reason": "Request a Large Item Pick Up",
    "date_created": "2026-04-15T19:33:19.000",
    "date_modified": "2026-04-15T19:33:23.000",
    "request_status": "Pending",
    "responsible_agency": "Department of Sanitation",
    "final_address": "4825 Virgilian St",
    "address_councildis": "D",
    "status": "Assigned to Contractor",
    "contractor": "Waste Pro",
    "rowid": "1274108",
    "final_x": "3697515.57591",
    "final_y": "554228.126296",
    "longitude": "-90.01667525600568",
    "latitude": "30.01743875142518",
    "geocoded_column": {
      "latitude": "30.01743875142518",
      "longitude": "-90.01667525600568"
    }
  },
  {
    "service_request": "2026-1274107",
    "request_type": "Mosquito, Termite & Rodent Control",
    "request_reason": "Mosquito Complaint",
    "date_created": "2026-04-15T19:26:34.000",
    "date_modified": "2026-04-15T19:26:36.000",
    "request_status": "Pending",
    "responsible_agency": "Mosquito, Termite & Rodent Control Board",
    "final_address": "11288 Winrock Dr",
    "address_councildis": "E",
    "status": "Pending",
    "rowid": "1274107",
    "final_x": "3716861.07717",
    "final_y": "561639.891039",
    "longitude": "-89.95527027670514",
    "latitude": "30.03719272749549",
    "geocoded_column": {
      "latitude": "30.03719272749549",
      "longitude": "-89.95527027670514"
    }
  },
  {
    "service_request": "2026-1274106",
    "request_type": "Trash/Recycling",
    "request_reason": "Missed Trash Pick-Up",
    "date_created": "2026-04-15T19:19:46.000",
    "date_modified": "2026-04-15T19:19:48.000",
    "request_status": "Pending",
    "responsible_agency": "Department of Sanitation",
    "final_address": "2111 S Carrollton Ave Apt 1B",
    "address_councildis": "A",
    "status": "Assigned to Contractor",
    "contractor": "IV Waste",
    "rowid": "1274106",
    "final_x": "3664339.57082",
    "final_y": "530708.06925",
    "longitude": "-90.122284115672",
    "latitude": "29.953773012116006",
    "geocoded_column": {
      "latitude": "29.953773012116006",
      "longitude": "-90.122284115672"
    }
  },
  {
    "service_request": "2026-1274105",
    "request_type": "Property Maintenance",
    "request_reason": "Property Maintenance",
    "date_created": "2026-04-15T19:15:45.000",
    "date_modified": "2026-04-15T19:15:46.000",
    "request_status": "Pending",
    "responsible_agency": "Department of Code Enforcement",
    "final_address": "1920 Lamanche St",
    "address_councildis": "E",
    "status": "Pending",
    "rowid": "1274105",
    "final_x": "3699172.51908",
    "final_y": "536862.031624",
    "longitude": "-90.01207270878668",
    "latitude": "29.96963595141268",
    "geocoded_column": {
      "latitude": "29.96963595141268",
      "longitude": "-90.01207270878668"
    }
  },
  {
    "service_request": "2026-1274104",
    "request_type": "Trash/Recycling",
    "request_reason": "Repair Trash Cart",
    "date_created": "2026-04-15T19:14:47.000",
    "date_modified": "2026-04-15T19:14:49.000",
    "request_status": "Pending",
    "responsible_agency": "Department of Sanitation",
    "final_address": "624 Eighth St",
    "address_councildis": "B",
    "status": "Assigned to Contractor",
    "contractor": "IV Waste",
    "rowid": "1274104",
    "final_x": "3676972.22997",
    "final_y": "518849.757559",
    "longitude": "-90.08280403291334",
    "latitude": "29.92079338007952",
    "geocoded_column": {
      "latitude": "29.92079338007952",
      "longitude": "-90.08280403291334"
    }
  },
  {
    "service_request": "2026-1274103",
    "request_type": "Property Maintenance",
    "request_reason": "Property Maintenance",
    "date_created": "2026-04-15T19:12:11.000",
    "date_modified": "2026-04-15T19:12:12.000",
    "request_status": "Pending",
    "responsible_agency": "Department of Code Enforcement",
    "final_address": "3245 Feliciana St",
    "address_councildis": "D",
    "status": "Pending",
    "rowid": "1274103",
    "final_x": "3690978.26576",
    "final_y": "544681.475471",
    "longitude": "-90.03767154954456",
    "latitude": "29.99139389337335",
    "geocoded_column": {
      "latitude": "29.99139389337335",
      "longitude": "-90.03767154954456"
    }
  },
  {
    "service_request": "2026-1274102",
    "request_type": "Roads and Streets",
    "request_reason": "Debris in Driving Lanes",
    "date_created": "2026-04-15T19:10:21.000",
    "date_modified": "2026-04-15T19:10:23.000",
    "request_status": "Pending",
    "responsible_agency": "Department of Public Works",
    "final_address": "2417 Josephine St",
    "address_councildis": "B",
    "status": "Pending",
    "rowid": "1274102",
    "final_x": "3676088.95374",
    "final_y": "526378.134846",
    "longitude": "-90.0853333108126",
    "latitude": "29.94152044359696",
    "geocoded_column": {
      "latitude": "29.94152044359696",
      "longitude": "-90.0853333108126"
    }
  },
  {
    "service_request": "2026-1274101",
    "request_type": "Trash/Recycling",
    "request_reason": "Return Trash Cart",
    "date_created": "2026-04-15T19:05:46.000",
    "date_modified": "2026-04-15T19:05:48.000",
    "request_status": "Pending",
    "responsible_agency": "Department of Sanitation",
    "final_address": "502 Whitney Ave",
    "address_councildis": "C",
    "status": "Assigned to Contractor",
    "contractor": "Richards Disposal",
    "rowid": "1274101",
    "final_x": "3690319.91036",
    "final_y": "529723.107265",
    "longitude": "-90.04028434393486",
    "latitude": "29.95028410789239",
    "geocoded_column": {
      "latitude": "29.95028410789239",
      "longitude": "-90.04028434393486"
    }
  },
  {
    "service_request": "2026-1274100",
    "request_type": "Trash/Recycling",
    "request_reason": "Illegal Dumping",
    "date_created": "2026-04-15T18:53:24.000",
    "date_modified": "2026-04-15T18:53:26.000",
    "request_status": "Pending",
    "responsible_agency": "Department of Sanitation",
    "final_address": "723 Verret St",
    "address_councildis": "C",
    "status": "Pending",
    "rowid": "1274100",
    "final_x": "3687065.77769",
    "final_y": "528887.350656",
    "longitude": "-90.05058870358219",
    "latitude": "29.948086634393928",
    "geocoded_column": {
      "latitude": "29.948086634393928",
      "longitude": "-90.05058870358219"
    }
  },
  {
    "service_request": "2026-1274099",
    "request_type": "Trash/Recycling",
    "request_reason": "Missed Trash Pick-Up",
    "date_created": "2026-04-15T18:43:11.000",
    "date_modified": "2026-04-15T18:43:14.000",
    "request_status": "Pending",
    "responsible_agency": "Department of Sanitation",
    "final_address": "3116 Cleveland Ave, New Orleans, Louisiana, 70119",
    "address_councildis": "B",
    "status": "Assigned to Contractor",
    "contractor": "IV Waste",
    "rowid": "1274099",
    "final_x": "3673658.29896",
    "final_y": "535817.562951",
    "longitude": "-90.09268470100287",
    "latitude": "29.967548304559806",
    "geocoded_column": {
      "latitude": "29.967548304559806",
      "longitude": "-90.09268470100287"
    }
  },
  {
    "service_request": "2026-1274098",
    "request_type": "Abandoned Vehicles",
    "request_reason": "Abandoned/Junk Vehicles",
    "date_created": "2026-04-15T18:42:12.000",
    "date_modified": "2026-04-15T18:42:13.000",
    "request_status": "Pending",
    "responsible_agency": "Department of Public Works",
    "final_address": "4767 Arthur Dr",
    "address_councildis": "E",
    "status": "Pending",
    "rowid": "1274098",
    "final_x": "3707740.41726",
    "final_y": "555702.755929",
    "longitude": "-89.98431427136232",
    "latitude": "30.02116639007406",
    "geocoded_column": {
      "latitude": "30.02116639007406",
      "longitude": "-89.98431427136232"
    }
  },
  {
    "service_request": "2026-1274097",
    "request_type": "Property Maintenance",
    "request_reason": "Property Maintenance",
    "date_created": "2026-04-15T17:53:19.000",
    "date_modified": "2026-04-15T17:53:21.000",
    "request_status": "Pending",
    "responsible_agency": "Department of Code Enforcement",
    "final_address": "1931 Montegut St",
    "address_councildis": "D",
    "status": "Pending",
    "rowid": "1274097",
    "final_x": "3689331.9526",
    "final_y": "539372.078666",
    "longitude": "-90.04306071998771",
    "latitude": "29.976846031723262",
    "geocoded_column": {
      "latitude": "29.976846031723262",
      "longitude": "-90.04306071998771"
    }
  },
  {
    "service_request": "2026-1274096",
    "request_type": "Street and Traffic Signs",
    "request_reason": "Additional Signage Request",
    "date_created": "2026-04-15T17:48:12.000",
    "date_modified": "2026-04-15T17:48:13.000",
    "request_status": "Pending",
    "responsible_agency": "Department of Public Works",
    "final_address": "3452 Somerset Dr",
    "address_councildis": "C",
    "status": "Pending",
    "rowid": "1274096",
    "final_x": "3702575.36074",
    "final_y": "518270.385718",
    "longitude": "-90.00200849785575",
    "latitude": "29.91840715689195",
    "geocoded_column": {
      "latitude": "29.91840715689195",
      "longitude": "-90.00200849785575"
    }
  },
  {
    "service_request": "2026-1274095",
    "request_type": "Drainage",
    "request_reason": "Catch Basin Not Draining",
    "date_created": "2026-04-15T17:47:48.000",
    "date_modified": "2026-04-15T17:47:50.000",
    "request_status": "Pending",
    "responsible_agency": "Sewerage & Water Board",
    "final_address": "5857 Marshal Foch St",
    "address_councildis": "A",
    "status": "Pending",
    "rowid": "1274095",
    "final_x": "3669831.93908",
    "final_y": "546291.087568",
    "longitude": "-90.1044137225855",
    "latitude": "29.996460299137073",
    "geocoded_column": {
      "latitude": "29.996460299137073",
      "longitude": "-90.1044137225855"
    }
  },
  {
    "service_request": "2026-1274094",
    "request_type": "Trash/Recycling",
    "request_reason": "Request a Large Item Pick Up",
    "date_created": "2026-04-15T17:35:18.000",
    "date_modified": "2026-04-15T17:35:20.000",
    "request_status": "Pending",
    "responsible_agency": "Department of Sanitation",
    "final_address": "4702 Camelia St",
    "address_councildis": "E",
    "status": "Assigned to Contractor",
    "contractor": "Waste Pro",
    "rowid": "1274094",
    "final_x": "3701488.64497",
    "final_y": "553965.531672",
    "longitude": "-90.00413165443346",
    "latitude": "30.01659058737048",
    "geocoded_column": {
      "latitude": "30.01659058737048",
      "longitude": "-90.00413165443346"
    }
  },
  {
    "service_request": "2026-1274093",
    "request_type": "Trash/Recycling",
    "request_reason": "Order Trash Cart",
    "date_created": "2026-04-15T17:30:13.000",
    "date_modified": "2026-04-15T17:30:15.000",
    "request_status": "Pending",
    "responsible_agency": "Department of Sanitation",
    "final_address": "5159 Bayouview Ct",
    "address_councildis": "E",
    "status": "Assigned to Contractor",
    "contractor": "Waste Pro",
    "rowid": "1274093",
    "final_x": "3699221.30941",
    "final_y": "556390.795034",
    "longitude": "-90.01120700787143",
    "latitude": "30.02333126314036",
    "geocoded_column": {
      "latitude": "30.02333126314036",
      "longitude": "-90.01120700787143"
    }
  },
  {
    "service_request": "2026-1274092",
    "request_type": "General Services",
    "request_reason": "General Service Request",
    "date_created": "2026-04-15T17:30:12.000",
    "date_modified": "2026-04-15T17:30:14.000",
    "request_status": "Pending",
    "responsible_agency": "Orleans Parish Communication District",
    "final_address": "505 Broadway St",
    "address_councildis": "A",
    "status": "Pending",
    "rowid": "1274092",
    "final_x": "3662505.7209",
    "final_y": "523922.175484",
    "longitude": "-90.12830002189544",
    "latitude": "29.93516713877491",
    "geocoded_column": {
      "latitude": "29.93516713877491",
      "longitude": "-90.12830002189544"
    }
  },
  {
    "service_request": "2026-1274091",
    "request_type": "Trash/Recycling",
    "request_reason": "Replace Trash Cart",
    "date_created": "2026-04-15T17:28:17.000",
    "date_modified": "2026-04-15T17:28:19.000",
    "request_status": "Pending",
    "responsible_agency": "Department of Sanitation",
    "final_address": "1313 Flood St",
    "address_councildis": "E",
    "status": "Assigned to Contractor",
    "contractor": "Waste Pro",
    "rowid": "1274091",
    "final_x": "3697968.16343",
    "final_y": "534686.686662",
    "longitude": "-90.01595513083926",
    "latitude": "29.963692660820882",
    "geocoded_column": {
      "latitude": "29.963692660820882",
      "longitude": "-90.01595513083926"
    }
  },
  {
    "service_request": "2026-1274090",
    "request_type": "Property Maintenance",
    "request_reason": "Property Maintenance",
    "date_created": "2026-04-15T17:22:27.000",
    "date_modified": "2026-04-15T17:22:28.000",
    "request_status": "Pending",
    "responsible_agency": "Department of Code Enforcement",
    "final_address": "2307 Columbus St",
    "address_councildis": "D",
    "status": "Pending",
    "rowid": "1274090",
    "final_x": "3679765.93787",
    "final_y": "538813.071049",
    "longitude": "-90.07329262359588",
    "latitude": "29.97560167357066",
    "geocoded_column": {
      "latitude": "29.97560167357066",
      "longitude": "-90.07329262359588"
    }
  },
  {
    "service_request": "2026-1274089",
    "request_type": "Trash/Recycling",
    "request_reason": "Repair Trash Cart",
    "date_created": "2026-04-15T17:18:24.000",
    "date_modified": "2026-04-15T17:18:25.000",
    "request_status": "Pending",
    "responsible_agency": "Department of Sanitation",
    "final_address": "72 Neron Pl",
    "address_councildis": "A",
    "status": "Assigned to Contractor",
    "contractor": "IV Waste",
    "rowid": "1274089",
    "final_x": "3665897.68436",
    "final_y": "529930.817601",
    "longitude": "-90.11739026354586",
    "latitude": "29.951590449771775",
    "geocoded_column": {
      "latitude": "29.951590449771775",
      "longitude": "-90.11739026354586"
    }
  },
  {
    "service_request": "2026-1274088",
    "request_type": "General Services",
    "request_reason": "General Service Request",
    "date_created": "2026-04-15T17:18:08.000",
    "date_modified": "2026-04-15T17:18:10.000",
    "request_status": "Pending",
    "responsible_agency": "Orleans Parish Communication District",
    "final_address": "3433 Calhoun St",
    "address_councildis": "A",
    "status": "Pending",
    "rowid": "1274088",
    "final_x": "3667728.50132",
    "final_y": "529304.157953",
    "longitude": "-90.11163050621042",
    "latitude": "29.949813791720153",
    "geocoded_column": {
      "latitude": "29.949813791720153",
      "longitude": "-90.11163050621042"
    }
  },
  {
    "service_request": "2026-1274087",
    "request_type": "Trash/Recycling",
    "request_reason": "Request a Large Item Pick Up",
    "date_created": "2026-04-15T17:17:34.000",
    "date_modified": "2026-04-15T17:17:36.000",
    "request_status": "Pending",
    "responsible_agency": "Department of Sanitation",
    "final_address": "4936 Papania Dr",
    "address_councildis": "E",
    "status": "Assigned to Contractor",
    "contractor": "Waste Pro",
    "rowid": "1274087",
    "final_x": "3715450.79653",
    "final_y": "557712.746459",
    "longitude": "-89.95987579204414",
    "latitude": "30.026441213300707",
    "geocoded_column": {
      "latitude": "30.026441213300707",
      "longitude": "-89.95987579204414"
    }
  },
  {
    "service_request": "2026-1274086",
    "request_type": "General Services",
    "request_reason": "General Service Request",
    "date_created": "2026-04-15T17:16:18.000",
    "date_modified": "2026-04-15T17:16:21.000",
    "request_status": "Pending",
    "responsible_agency": "Orleans Parish Communication District",
    "final_address": "5906 Beechcraft St",
    "address_councildis": "D",
    "status": "Pending",
    "rowid": "1274086",
    "final_x": "3696322.32432",
    "final_y": "553259.396567",
    "longitude": "-90.02048050426829",
    "latitude": "30.0148127566708",
    "geocoded_column": {
      "latitude": "30.0148127566708",
      "longitude": "-90.02048050426829"
    }
  },
  {
    "service_request": "2026-1274085",
    "request_type": "Streetlights",
    "request_reason": "Streetlight Outage/Malfunction",
    "date_created": "2026-04-15T17:14:57.000",
    "date_modified": "2026-04-15T17:14:59.000",
    "request_status": "Pending",
    "responsible_agency": "Department of Public Works",
    "final_address": "4507 Washington Ave",
    "address_councildis": "B",
    "status": "Pending",
    "rowid": "1274085",
    "final_x": "3670610.73716",
    "final_y": "531907.078467",
    "longitude": "-90.10244165150868",
    "latitude": "29.956886152459578",
    "geocoded_column": {
      "latitude": "29.956886152459578",
      "longitude": "-90.10244165150868"
    }
  },
  {
    "service_request": "2026-1274084",
    "request_type": "Streetlights",
    "request_reason": "Streetlight Outage/Malfunction",
    "date_created": "2026-04-15T17:07:46.000",
    "date_modified": "2026-04-15T17:07:48.000",
    "request_status": "Pending",
    "responsible_agency": "Department of Public Works",
    "final_address": "WOODLAND BRIDGE & WOODLAND DR & GENERAL DE GAULLE DR",
    "address_councildis": "C",
    "status": "Pending",
    "rowid": "1274084",
    "final_x": "3705400.4",
    "final_y": "514865.29",
    "longitude": "-89.99321713157924",
    "latitude": "29.9089537603216",
    "geocoded_column": {
      "latitude": "29.9089537603216",
      "longitude": "-89.99321713157924"
    }
  },
  {
    "service_request": "2026-1274083",
    "request_type": "Abandoned Vehicles",
    "request_reason": "Abandoned/Junk Vehicles",
    "date_created": "2026-04-15T17:06:26.000",
    "date_modified": "2026-04-15T17:06:29.000",
    "request_status": "Pending",
    "responsible_agency": "Department of Public Works",
    "final_address": "3225 Lowerline St",
    "address_councildis": "B",
    "status": "Pending",
    "rowid": "1274083",
    "final_x": "3667849.58004",
    "final_y": "532970.36986",
    "longitude": "-90.1111247292378",
    "latitude": "29.95989112313784",
    "geocoded_column": {
      "latitude": "29.95989112313784",
      "longitude": "-90.1111247292378"
    }
  },
  {
    "service_request": "2026-1274082",
    "request_type": "Trash/Recycling",
    "request_reason": "Damaged Caused By Contractor",
    "date_created": "2026-04-15T16:58:18.000",
    "date_modified": "2026-04-15T16:58:20.000",
    "request_status": "Pending",
    "responsible_agency": "Department of Sanitation",
    "final_address": "716 Eleonore St",
    "address_councildis": "A",
    "status": "Assigned to Contractor",
    "contractor": "IV Waste",
    "rowid": "1274082",
    "final_x": "3665144.32269",
    "final_y": "518892.620023",
    "longitude": "-90.12013804622762",
    "latitude": "29.92126088355238",
    "geocoded_column": {
      "latitude": "29.92126088355238",
      "longitude": "-90.12013804622762"
    }
  },
  {
    "service_request": "2026-1274081",
    "request_type": "Trash/Recycling",
    "request_reason": "Request a Large Item Pick Up",
    "date_created": "2026-04-15T16:57:34.000",
    "date_modified": "2026-04-15T16:57:35.000",
    "request_status": "Pending",
    "responsible_agency": "Department of Sanitation",
    "final_address": "3811 Octavia St",
    "address_councildis": "B",
    "status": "Assigned to Contractor",
    "contractor": "IV Waste",
    "rowid": "1274081",
    "final_x": "3668839.58324",
    "final_y": "529449.934337",
    "longitude": "-90.10811737680194",
    "latitude": "29.950182008653197",
    "geocoded_column": {
      "latitude": "29.950182008653197",
      "longitude": "-90.10811737680194"
    }
  },
  {
    "service_request": "2026-1274080",
    "request_type": "Abandoned Vehicles",
    "request_reason": "Abandoned/Junk Vehicles",
    "date_created": "2026-04-15T16:54:42.000",
    "date_modified": "2026-04-15T16:54:44.000",
    "request_status": "Pending",
    "responsible_agency": "Department of Public Works",
    "final_address": "824 Roosevelt Pl",
    "address_councildis": "A",
    "status": "Pending",
    "rowid": "1274080",
    "final_x": "3673594.88673",
    "final_y": "539814.058634",
    "longitude": "-90.092748312479",
    "latitude": "29.978539199059547",
    "geocoded_column": {
      "latitude": "29.978539199059547",
      "longitude": "-90.092748312479"
    }
  },
  {
    "service_request": "2026-1274079",
    "request_type": "Trash/Recycling",
    "request_reason": "Illegal Dumping",
    "date_created": "2026-04-15T16:53:35.000",
    "date_modified": "2026-04-15T16:53:38.000",
    "request_status": "Pending",
    "responsible_agency": "Department of Sanitation",
    "final_address": "Morrison Road & Paris Road",
    "address_councildis": "E",
    "status": "Pending",
    "rowid": "1274079",
    "final_x": "3721511.81074",
    "final_y": "572974.860073",
    "longitude": "-89.94013756528196",
    "latitude": "30.068204568480486",
    "geocoded_column": {
      "latitude": "30.068204568480486",
      "longitude": "-89.94013756528196"
    }
  },
  {
    "service_request": "2026-1274078",
    "request_type": "Trash/Recycling",
    "request_reason": "Order Recycling Cart",
    "date_created": "2026-04-15T16:52:16.000",
    "date_modified": "2026-04-15T16:52:18.000",
    "request_status": "Pending",
    "responsible_agency": "Department of Sanitation",
    "final_address": "1319 Valence St",
    "address_councildis": "B",
    "status": "Pending",
    "rowid": "1274078",
    "final_x": "3669859.64942",
    "final_y": "520110.493624",
    "longitude": "-90.10521260344122",
    "latitude": "29.924471529496646",
    "geocoded_column": {
      "latitude": "29.924471529496646",
      "longitude": "-90.10521260344122"
    }
  },
  {
    "service_request": "2026-1274077",
    "request_type": "Trash/Recycling",
    "request_reason": "Repair Trash Cart",
    "date_created": "2026-04-15T16:50:38.000",
    "date_modified": "2026-04-15T16:50:40.000",
    "request_status": "Pending",
    "responsible_agency": "Department of Sanitation",
    "final_address": "7532 Morrison Rd",
    "address_councildis": "E",
    "status": "Assigned to Contractor",
    "contractor": "Waste Pro",
    "rowid": "1274077",
    "final_x": "3701131.69604",
    "final_y": "559542.336477",
    "longitude": "-90.0050551958964",
    "latitude": "30.031936038019854",
    "geocoded_column": {
      "latitude": "30.031936038019854",
      "longitude": "-90.0050551958964"
    }
  },
  {
    "service_request": "2026-1274076",
    "request_type": "Trash/Recycling",
    "request_reason": "Request a Large Item Pick Up",
    "date_created": "2026-04-15T16:48:38.000",
    "date_modified": "2026-04-15T16:48:40.000",
    "request_status": "Pending",
    "responsible_agency": "Department of Sanitation",
    "final_address": "4429 N Rampart St",
    "address_councildis": "C",
    "status": "Assigned to Contractor",
    "contractor": "IV Waste",
    "rowid": "1274076",
    "final_x": "3693169.27881",
    "final_y": "534549.447685",
    "longitude": "-90.03111438535741",
    "latitude": "29.963466136116033",
    "geocoded_column": {
      "latitude": "29.963466136116033",
      "longitude": "-90.03111438535741"
    }
  },
  {
    "service_request": "2026-1274075",
    "request_type": "Trash/Recycling",
    "request_reason": "Repair Recycling Cart",
    "date_created": "2026-04-15T16:47:51.000",
    "date_modified": "2026-04-15T17:48:22.000",
    "request_status": "Pending",
    "responsible_agency": "Department of Sanitation",
    "final_address": "1212 N Gayoso St",
    "address_councildis": "A",
    "status": "Pending",
    "rowid": "1274075",
    "final_x": "3676763.55048",
    "final_y": "539421.960906",
    "longitude": "-90.08275401098841",
    "latitude": "29.977366353180507",
    "geocoded_column": {
      "latitude": "29.977366353180507",
      "longitude": "-90.08275401098841"
    }
  },
  {
    "service_request": "2026-1274074",
    "request_type": "Trash/Recycling",
    "request_reason": "Request a Large Item Pick Up",
    "date_created": "2026-04-15T16:44:13.000",
    "date_modified": "2026-04-15T16:44:15.000",
    "request_status": "Pending",
    "responsible_agency": "Department of Sanitation",
    "final_address": "3624 General Pershing St",
    "address_councildis": "B",
    "status": "Assigned to Contractor",
    "contractor": "IV Waste",
    "rowid": "1274074",
    "final_x": "3670489.73057",
    "final_y": "528044.123967",
    "longitude": "-90.10295473254325",
    "latitude": "29.946267870274813",
    "geocoded_column": {
      "latitude": "29.946267870274813",
      "longitude": "-90.10295473254325"
    }
  },
  {
    "service_request": "2026-1274073",
    "request_type": "Trash/Recycling",
    "request_reason": "Request a Large Item Pick Up",
    "date_created": "2026-04-15T16:43:39.000",
    "date_modified": "2026-04-15T16:43:40.000",
    "request_status": "Pending",
    "responsible_agency": "Department of Sanitation",
    "final_address": "11 Caddo Pl",
    "address_councildis": "E",
    "status": "Assigned to Contractor",
    "contractor": "Waste Pro",
    "rowid": "1274073",
    "final_x": "3726021.58848",
    "final_y": "564469.256161",
    "longitude": "-89.92621161364927",
    "latitude": "30.04466620166058",
    "geocoded_column": {
      "latitude": "30.04466620166058",
      "longitude": "-89.92621161364927"
    }
  },
  {
    "service_request": "2026-1274072",
    "request_type": "Trash/Recycling",
    "request_reason": "Request a Large Item Pick Up",
    "date_created": "2026-04-15T16:43:07.000",
    "date_modified": "2026-04-15T16:43:09.000",
    "request_status": "Pending",
    "responsible_agency": "Department of Sanitation",
    "final_address": "6025 Chartres St",
    "address_councildis": "E",
    "status": "Assigned to Contractor",
    "contractor": "Waste Pro",
    "rowid": "1274072",
    "final_x": "3698646.99178",
    "final_y": "531644.308739",
    "longitude": "-90.01392210056378",
    "latitude": "29.95530572522395",
    "geocoded_column": {
      "latitude": "29.95530572522395",
      "longitude": "-90.01392210056378"
    }
  },
  {
    "service_request": "2026-1274071",
    "request_type": "Abandoned Vehicles",
    "request_reason": "Abandoned/Junk Vehicles",
    "date_created": "2026-04-15T16:43:05.000",
    "date_modified": "2026-04-15T16:43:06.000",
    "request_status": "Pending",
    "responsible_agency": "Department of Public Works",
    "final_address": "2634 Cleveland Ave",
    "address_councildis": "B",
    "status": "Pending",
    "rowid": "1274071",
    "final_x": "3675254.89128",
    "final_y": "534538.239941",
    "longitude": "-90.08768654280928",
    "latitude": "29.963982968674113",
    "geocoded_column": {
      "latitude": "29.963982968674113",
      "longitude": "-90.08768654280928"
    }
  },
  {
    "service_request": "2026-1274070",
    "request_type": "Trash/Recycling",
    "request_reason": "Request a Large Item Pick Up",
    "date_created": "2026-04-15T16:40:23.000",
    "date_modified": "2026-04-15T16:40:25.000",
    "request_status": "Pending",
    "responsible_agency": "Department of Sanitation",
    "final_address": "10 Caddo Pl",
    "address_councildis": "E",
    "status": "Assigned to Contractor",
    "contractor": "Waste Pro",
    "rowid": "1274070",
    "final_x": "3725849.40665",
    "final_y": "564437.220897",
    "longitude": "-89.92675702280515",
    "latitude": "30.044583930763164",
    "geocoded_column": {
      "latitude": "30.044583930763164",
      "longitude": "-89.92675702280515"
    }
  },
  {
    "service_request": "2026-1274069",
    "request_type": "Trash/Recycling",
    "request_reason": "Missed Trash Pick-Up",
    "date_created": "2026-04-15T16:37:32.000",
    "date_modified": "2026-04-15T17:06:30.000",
    "case_close_date": "2026-04-15T12:06:29.000",
    "request_status": "Closed",
    "responsible_agency": "Department of Sanitation",
    "final_address": "427 Lowerline St",
    "address_councildis": "A",
    "status": "Invalid Request",
    "contractor": "IV Waste",
    "contractor_action": "Invalid Request",
    "rowid": "1274069",
    "final_x": "3661905.48512",
    "final_y": "524024.569212",
    "longitude": "-90.1301915798136",
    "latitude": "29.935466032709975",
    "geocoded_column": {
      "latitude": "29.935466032709975",
      "longitude": "-90.1301915798136"
    }
  },
  {
    "service_request": "2026-1274068",
    "request_type": "Trash/Recycling",
    "request_reason": "Request a Large Item Pick Up",
    "date_created": "2026-04-15T16:37:10.000",
    "date_modified": "2026-04-15T16:37:12.000",
    "request_status": "Pending",
    "responsible_agency": "Department of Sanitation",
    "final_address": "1334 Webster St",
    "address_councildis": "A",
    "status": "Assigned to Contractor",
    "contractor": "IV Waste",
    "rowid": "1274068",
    "final_x": "3664767.56442",
    "final_y": "521309.891897",
    "longitude": "-90.12124659621084",
    "latitude": "29.927918585551943",
    "geocoded_column": {
      "latitude": "29.927918585551943",
      "longitude": "-90.12124659621084"
    }
  },
  {
    "service_request": "2026-1274065",
    "request_type": "Traffic Signals",
    "request_reason": "Traffic Signal Malfunctioning or Damaged",
    "date_created": "2026-04-15T16:20:29.000",
    "date_modified": "2026-04-15T16:20:31.000",
    "request_status": "Pending",
    "responsible_agency": "Department of Public Works",
    "final_address": "S CARROLLTON AVE & ULLOA ST",
    "address_councildis": "A",
    "status": "Pending",
    "rowid": "1274065",
    "final_x": "3669560.4",
    "final_y": "536554.38",
    "longitude": "-90.10560105868353",
    "latitude": "29.969695670207965",
    "geocoded_column": {
      "latitude": "29.969695670207965",
      "longitude": "-90.10560105868353"
    }
  },
  {
    "service_request": "2026-1274064",
    "request_type": "Trash/Recycling",
    "request_reason": "Request a Large Item Pick Up",
    "date_created": "2026-04-15T16:10:53.000",
    "date_modified": "2026-04-15T16:10:55.000",
    "request_status": "Pending",
    "responsible_agency": "Department of Sanitation",
    "final_address": "14735 Beekman Rd",
    "address_councildis": "E",
    "status": "Assigned to Contractor",
    "contractor": "Waste Pro",
    "rowid": "1274064",
    "final_x": "3721192.30354",
    "final_y": "573828.27825",
    "longitude": "-89.94111480208996",
    "latitude": "30.070561785144317",
    "geocoded_column": {
      "latitude": "30.070561785144317",
      "longitude": "-89.94111480208996"
    }
  },
  {
    "service_request": "2026-1274063",
    "request_type": "Streetlights",
    "request_reason": "Streetlight Outage/Malfunction",
    "date_created": "2026-04-15T16:07:22.000",
    "date_modified": "2026-04-15T16:07:24.000",
    "request_status": "Pending",
    "responsible_agency": "Department of Public Works",
    "final_address": "5200 BLK N Prieur St",
    "address_councildis": "E",
    "status": "Pending",
    "rowid": "1274063",
    "final_x": "3697502.64269",
    "final_y": "537078.574909",
    "longitude": "-90.01733844032988",
    "latitude": "29.970284207353615",
    "geocoded_column": {
      "latitude": "29.970284207353615",
      "longitude": "-90.01733844032988"
    }
  },
  {
    "service_request": "2026-1274062",
    "request_type": "Streetlights",
    "request_reason": "Streetlight Outage/Malfunction",
    "date_created": "2026-04-15T16:05:29.000",
    "date_modified": "2026-04-15T16:05:30.000",
    "request_status": "Pending",
    "responsible_agency": "Department of Public Works",
    "final_address": "6080 Curran Rd",
    "address_councildis": "E",
    "status": "Pending",
    "rowid": "1274062",
    "final_x": "3695592.06928",
    "final_y": "558891.586908",
    "longitude": "-90.02258418619877",
    "latitude": "30.03032213294897",
    "geocoded_column": {
      "latitude": "30.03032213294897",
      "longitude": "-90.02258418619877"
    }
  },
  {
    "service_request": "2026-1274061",
    "request_type": "Abandoned Vehicles",
    "request_reason": "Abandoned/Junk Vehicles",
    "date_created": "2026-04-15T16:03:20.000",
    "date_modified": "2026-04-15T16:03:38.000",
    "request_status": "Pending",
    "responsible_agency": "Department of Public Works",
    "final_address": "8801 Belfast St",
    "address_councildis": "A",
    "status": "Pending",
    "rowid": "1274061",
    "final_x": "3663759.67104",
    "final_y": "534079.999813",
    "longitude": "-90.1240028358639",
    "latitude": "29.96306156295618",
    "geocoded_column": {
      "latitude": "29.96306156295618",
      "longitude": "-90.1240028358639"
    }
  },
  {
    "service_request": "2026-1274060",
    "request_type": "Trash/Recycling",
    "request_reason": "Request a Large Item Pick Up",
    "date_created": "2026-04-15T16:01:24.000",
    "date_modified": "2026-04-15T16:01:26.000",
    "request_status": "Pending",
    "responsible_agency": "Department of Sanitation",
    "final_address": "2437 First St",
    "address_councildis": "B",
    "status": "Assigned to Contractor",
    "contractor": "IV Waste",
    "rowid": "1274060",
    "final_x": "3675221.9595",
    "final_y": "525899.855357",
    "longitude": "-90.08808699661715",
    "latitude": "29.940231268501517",
    "geocoded_column": {
      "latitude": "29.940231268501517",
      "longitude": "-90.08808699661715"
    }
  },
  {
    "service_request": "2026-1274059",
    "request_type": "Utility Poles",
    "request_reason": "Utility Pole Leaning",
    "date_created": "2026-04-15T15:58:46.000",
    "date_modified": "2026-04-15T15:58:53.000",
    "request_status": "Pending",
    "responsible_agency": "Utility Company Collective",
    "final_address": "7724 Dominican St",
    "address_councildis": "A",
    "status": "Pending",
    "rowid": "1274059",
    "final_x": "3660956.46266",
    "final_y": "525441.609085",
    "longitude": "-90.13314080767398",
    "latitude": "29.939389811085764",
    "geocoded_column": {
      "latitude": "29.939389811085764",
      "longitude": "-90.13314080767398"
    }
  },
  {
    "service_request": "2026-1274058",
    "request_type": "Safety & Permits",
    "request_reason": "Licenses & Permits",
    "date_created": "2026-04-15T15:58:17.000",
    "date_modified": "2026-04-15T16:01:10.000",
    "request_status": "Pending",
    "responsible_agency": "Safety and Permits",
    "final_address": "900 BLK Andry St",
    "address_councildis": "E",
    "status": "Pending",
    "rowid": "1274058",
    "final_x": "3696998.23195",
    "final_y": "533363.789031",
    "longitude": "-90.01906597622047",
    "latitude": "29.960085788377306",
    "geocoded_column": {
      "latitude": "29.960085788377306",
      "longitude": "-90.01906597622047"
    }
  },
  {
    "service_request": "2026-1274057",
    "request_type": "Trash/Recycling",
    "request_reason": "Request a Large Item Pick Up",
    "date_created": "2026-04-15T15:56:27.000",
    "date_modified": "2026-04-15T15:56:29.000",
    "request_status": "Pending",
    "responsible_agency": "Department of Sanitation",
    "final_address": "516 S Pierce St",
    "address_councildis": "B",
    "status": "Assigned to Contractor",
    "contractor": "IV Waste",
    "rowid": "1274057",
    "final_x": "3670434.43131",
    "final_y": "536625.965383",
    "longitude": "-90.10283835478126",
    "latitude": "29.969866726558074",
    "geocoded_column": {
      "latitude": "29.969866726558074",
      "longitude": "-90.10283835478126"
    }
  },
  {
    "service_request": "2026-1274056",
    "request_type": "Streetlights",
    "request_reason": "Streetlight Outage/Malfunction",
    "date_created": "2026-04-15T15:48:57.000",
    "date_modified": "2026-04-15T15:48:58.000",
    "request_status": "Pending",
    "responsible_agency": "Department of Public Works",
    "final_address": "1300 Perdido St",
    "address_councildis": "B",
    "status": "Pending",
    "rowid": "1274056",
    "final_x": "3678683.48347",
    "final_y": "530227.987073",
    "longitude": "-90.07700859883013",
    "latitude": "29.952028297123956",
    "geocoded_column": {
      "latitude": "29.952028297123956",
      "longitude": "-90.07700859883013"
    }
  },
  {
    "service_request": "2026-1274055",
    "request_type": "Trash/Recycling",
    "request_reason": "Request a Large Item Pick Up",
    "date_created": "2026-04-15T15:48:20.000",
    "date_modified": "2026-04-15T15:48:22.000",
    "request_status": "Pending",
    "responsible_agency": "Department of Sanitation",
    "final_address": "6552 Virgilian St",
    "address_councildis": "D",
    "status": "Assigned to Contractor",
    "contractor": "Waste Pro",
    "rowid": "1274055",
    "final_x": "3697192.93136",
    "final_y": "555436.854617",
    "longitude": "-90.01765082661952",
    "latitude": "30.020772486847964",
    "geocoded_column": {
      "latitude": "30.020772486847964",
      "longitude": "-90.01765082661952"
    }
  },
  {
    "service_request": "2026-1274054",
    "request_type": "Trash/Recycling",
    "request_reason": "Request a Large Item Pick Up",
    "date_created": "2026-04-15T15:42:33.000",
    "date_modified": "2026-04-15T15:42:36.000",
    "request_status": "Pending",
    "responsible_agency": "Department of Sanitation",
    "final_address": "1131 Lamanche St",
    "address_councildis": "E",
    "status": "Assigned to Contractor",
    "contractor": "Waste Pro",
    "rowid": "1274054",
    "final_x": "3698521.46954",
    "final_y": "533950.197701",
    "longitude": "-90.01423463054492",
    "latitude": "29.961650075447622",
    "geocoded_column": {
      "latitude": "29.961650075447622",
      "longitude": "-90.01423463054492"
    }
  },
  {
    "service_request": "2026-1274053",
    "request_type": "Trash/Recycling",
    "request_reason": "Request a Large Item Pick Up",
    "date_created": "2026-04-15T15:41:55.000",
    "date_modified": "2026-04-15T15:41:57.000",
    "request_status": "Pending",
    "responsible_agency": "Department of Sanitation",
    "final_address": "4151 De Ment St",
    "address_councildis": "D",
    "status": "Assigned to Contractor",
    "contractor": "IV Waste",
    "rowid": "1274053",
    "final_x": "3689596.48495",
    "final_y": "550072.327124",
    "longitude": "-90.04184434208247",
    "latitude": "30.006259666211065",
    "geocoded_column": {
      "latitude": "30.006259666211065",
      "longitude": "-90.04184434208247"
    }
  },
  {
    "service_request": "2026-1274052",
    "request_type": "Trash/Recycling",
    "request_reason": "Request a Large Item Pick Up",
    "date_created": "2026-04-15T15:35:00.000",
    "date_modified": "2026-04-15T15:35:03.000",
    "request_status": "Pending",
    "responsible_agency": "Department of Sanitation",
    "final_address": "2436 Robert St",
    "address_councildis": "B",
    "status": "Assigned to Contractor",
    "contractor": "IV Waste",
    "rowid": "1274052",
    "final_x": "3668788.71374",
    "final_y": "524569.91302",
    "longitude": "-90.10844271194001",
    "latitude": "29.936765027068432",
    "geocoded_column": {
      "latitude": "29.936765027068432",
      "longitude": "-90.10844271194001"
    }
  },
  {
    "service_request": "2026-1274051",
    "request_type": "Roads and Streets",
    "request_reason": "Sidewalk Damaged or Missing",
    "date_created": "2026-04-15T15:33:45.000",
    "date_modified": "2026-04-15T15:33:47.000",
    "request_status": "Pending",
    "responsible_agency": "Department of Public Works",
    "final_address": "337 Chartres St",
    "address_councildis": "C",
    "status": "Pending",
    "rowid": "1274051",
    "final_x": "3682109.89596",
    "final_y": "531337.255682",
    "longitude": "-90.06615087290187",
    "latitude": "29.954974665970713",
    "geocoded_column": {
      "latitude": "29.954974665970713",
      "longitude": "-90.06615087290187"
    }
  },
  {
    "service_request": "2026-1274050",
    "request_type": "Trash/Recycling",
    "request_reason": "Order Trash Cart",
    "date_created": "2026-04-15T15:29:43.000",
    "date_modified": "2026-04-15T15:29:45.000",
    "request_status": "Pending",
    "responsible_agency": "Department of Sanitation",
    "final_address": "2401 S Saratoga St",
    "address_councildis": "B",
    "status": "Assigned to Contractor",
    "contractor": "IV Waste",
    "rowid": "1274050",
    "final_x": "3675921.26408",
    "final_y": "524712.5255",
    "longitude": "-90.08591998888994",
    "latitude": "29.93694558570061",
    "geocoded_column": {
      "latitude": "29.93694558570061",
      "longitude": "-90.08591998888994"
    }
  },
  {
    "service_request": "2026-1274049",
    "request_type": "Street and Traffic Signs",
    "request_reason": "Stop Sign Missing or Damaged",
    "date_created": "2026-04-15T15:29:31.000",
    "date_modified": "2026-04-15T15:29:33.000",
    "request_status": "Pending",
    "responsible_agency": "Department of Public Works",
    "final_address": "MAYO RD & WALES ST",
    "address_councildis": "E",
    "status": "Pending",
    "rowid": "1274049",
    "final_x": "3700534.14",
    "final_y": "561542.54",
    "longitude": "-90.00687032543836",
    "latitude": "30.037454853848566",
    "geocoded_column": {
      "latitude": "30.037454853848566",
      "longitude": "-90.00687032543836"
    }
  },
  {
    "service_request": "2026-1274048",
    "request_type": "Trash/Recycling",
    "request_reason": "Replace Recycling Cart",
    "date_created": "2026-04-15T15:26:37.000",
    "date_modified": "2026-04-15T15:26:40.000",
    "request_status": "Pending",
    "responsible_agency": "Department of Sanitation",
    "final_address": "4716 Chestnut St",
    "address_councildis": "B",
    "status": "Pending",
    "rowid": "1274048",
    "final_x": "3669719.85287",
    "final_y": "519346.583351",
    "longitude": "-90.10567973047834",
    "latitude": "29.92237513803953",
    "geocoded_column": {
      "latitude": "29.92237513803953",
      "longitude": "-90.10567973047834"
    }
  },
  {
    "service_request": "2026-1274047",
    "request_type": "Roads and Streets",
    "request_reason": "Abandoned Service Cut",
    "date_created": "2026-04-15T15:26:31.000",
    "date_modified": "2026-04-15T15:26:33.000",
    "request_status": "Pending",
    "responsible_agency": "Department of Public Works",
    "final_address": "1239 N Johnson St",
    "address_councildis": "C",
    "status": "Pending",
    "rowid": "1274047",
    "final_x": "3679913.42984",
    "final_y": "537205.315016",
    "longitude": "-90.0728826595838",
    "latitude": "29.971176438212357",
    "geocoded_column": {
      "latitude": "29.971176438212357",
      "longitude": "-90.0728826595838"
    }
  },
  {
    "service_request": "2026-1274046",
    "request_type": "Trash/Recycling",
    "request_reason": "Request a Large Item Pick Up",
    "date_created": "2026-04-15T15:26:29.000",
    "date_modified": "2026-04-15T15:27:17.000",
    "request_status": "Pending",
    "responsible_agency": "Department of Sanitation",
    "final_address": "6930 Queensway Dr",
    "address_councildis": "E",
    "status": "Assigned to Contractor",
    "contractor": "Waste Pro",
    "rowid": "1274046",
    "final_x": "3719546.04044",
    "final_y": "568891.027685",
    "longitude": "-89.9465079475778",
    "latitude": "30.05704131050695",
    "geocoded_column": {
      "latitude": "30.05704131050695",
      "longitude": "-89.9465079475778"
    }
  },
  {
    "service_request": "2026-1274045",
    "request_type": "Health Related Request",
    "request_reason": "Homeless Encampment Complaint",
    "date_created": "2026-04-15T15:21:43.000",
    "date_modified": "2026-04-15T15:21:45.000",
    "request_status": "Pending",
    "responsible_agency": "Office Of Homeless Services And Strategy",
    "final_address": "FILMORE ST & WILDAIR DR",
    "address_councildis": "D",
    "status": "Pending",
    "rowid": "1274045",
    "final_x": "3681695.3",
    "final_y": "552131.18",
    "longitude": "-90.06673421853587",
    "latitude": "30.012163271271028",
    "geocoded_column": {
      "latitude": "30.012163271271028",
      "longitude": "-90.06673421853587"
    }
  },
  {
    "service_request": "2026-1274044",
    "request_type": "Trash/Recycling",
    "request_reason": "Repair Trash Cart",
    "date_created": "2026-04-15T15:19:34.000",
    "date_modified": "2026-04-15T15:19:36.000",
    "request_status": "Pending",
    "responsible_agency": "Department of Sanitation",
    "final_address": "235 Broadway St",
    "address_councildis": "A",
    "status": "Assigned to Contractor",
    "contractor": "IV Waste",
    "rowid": "1274044",
    "final_x": "3661293.95226",
    "final_y": "522113.635962",
    "longitude": "-90.13218544343941",
    "latitude": "29.930229208482242",
    "geocoded_column": {
      "latitude": "29.930229208482242",
      "longitude": "-90.13218544343941"
    }
  },
  {
    "service_request": "2026-1274043",
    "request_type": "Tree Service",
    "request_reason": "Dead or Dying Tree",
    "date_created": "2026-04-15T15:18:00.000",
    "date_modified": "2026-04-15T15:47:59.000",
    "request_status": "Pending",
    "responsible_agency": "Department of Parks & Parkways",
    "final_address": "726 Jefferson Ave",
    "address_councildis": "A",
    "status": "Pending",
    "rowid": "1274043",
    "final_x": "3666509.28212",
    "final_y": "518128.005366",
    "longitude": "-90.11585510210767",
    "latitude": "29.919118624382826",
    "geocoded_column": {
      "latitude": "29.919118624382826",
      "longitude": "-90.11585510210767"
    }
  },
  {
    "service_request": "2026-1274042",
    "request_type": "Trash/Recycling",
    "request_reason": "Replace Trash Cart",
    "date_created": "2026-04-15T15:15:04.000",
    "date_modified": "2026-04-15T15:15:06.000",
    "request_status": "Pending",
    "responsible_agency": "Department of Sanitation",
    "final_address": "734 Eleonore St",
    "address_councildis": "A",
    "status": "Assigned to Contractor",
    "contractor": "IV Waste",
    "rowid": "1274042",
    "final_x": "3665171.46196",
    "final_y": "519022.209399",
    "longitude": "-90.12004804787526",
    "latitude": "29.921616423620176",
    "geocoded_column": {
      "latitude": "29.921616423620176",
      "longitude": "-90.12004804787526"
    }
  },
  {
    "service_request": "2026-1274041",
    "request_type": "Drainage",
    "request_reason": "Catch Basin Frame and Cover Missing or Damaged",
    "date_created": "2026-04-15T15:14:52.000",
    "date_modified": "2026-04-15T15:22:00.000",
    "request_status": "Pending",
    "responsible_agency": "Sewerage & Water Board",
    "final_address": "1860 Filmore Ave",
    "address_councildis": "D",
    "status": "Pending",
    "rowid": "1274041",
    "final_x": "3681369.83682",
    "final_y": "551930.424214",
    "longitude": "-90.06776950275017",
    "latitude": "30.011621153696414",
    "geocoded_column": {
      "latitude": "30.011621153696414",
      "longitude": "-90.06776950275017"
    }
  },
  {
    "service_request": "2026-1274040",
    "request_type": "Roads and Streets",
    "request_reason": "Pothole",
    "date_created": "2026-04-15T15:14:33.000",
    "date_modified": "2026-04-15T15:14:35.000",
    "request_status": "Pending",
    "responsible_agency": "Department of Public Works",
    "final_address": "11120 Winchester Park Dr",
    "address_councildis": "E",
    "status": "Pending",
    "rowid": "1274040",
    "final_x": "3715044.51826",
    "final_y": "561186.714142",
    "longitude": "-89.96102810195885",
    "latitude": "30.0360066194624",
    "geocoded_column": {
      "latitude": "30.0360066194624",
      "longitude": "-89.96102810195885"
    }
  },
  {
    "service_request": "2026-1274039",
    "request_type": "Healthy Homes",
    "request_reason": "Healthy Homes",
    "date_created": "2026-04-15T15:11:29.000",
    "date_modified": "2026-04-15T15:11:31.000",
    "request_status": "Pending",
    "responsible_agency": "Department of Code Enforcement",
    "final_address": "2651 Poydras St",
    "address_councildis": "B",
    "status": "Pending",
    "rowid": "1274039",
    "final_x": "3674295.989",
    "final_y": "532545.829892",
    "longitude": "-90.09078290182993",
    "latitude": "29.958533137496314",
    "geocoded_column": {
      "latitude": "29.958533137496314",
      "longitude": "-90.09078290182993"
    }
  },
  {
    "service_request": "2026-1274038",
    "request_type": "Trash/Recycling",
    "request_reason": "Request a Large Item Pick Up",
    "date_created": "2026-04-15T15:09:21.000",
    "date_modified": "2026-04-15T15:09:22.000",
    "request_status": "Pending",
    "responsible_agency": "Department of Sanitation",
    "final_address": "7820 Tulsa St",
    "address_councildis": "E",
    "status": "Assigned to Contractor",
    "contractor": "Waste Pro",
    "rowid": "1274038",
    "final_x": "3704028.67678",
    "final_y": "553400.935959",
    "longitude": "-89.99612711566834",
    "latitude": "30.01495690309417",
    "geocoded_column": {
      "latitude": "30.01495690309417",
      "longitude": "-89.99612711566834"
    }
  },
  {
    "service_request": "2026-1274037",
    "request_type": "Trash/Recycling",
    "request_reason": "Damaged Caused By Contractor",
    "date_created": "2026-04-15T15:07:26.000",
    "date_modified": "2026-04-15T15:07:28.000",
    "request_status": "Pending",
    "responsible_agency": "Department of Sanitation",
    "final_address": "2900 Danbury Dr",
    "address_councildis": "C",
    "status": "Assigned to Contractor",
    "contractor": "Richards Disposal",
    "rowid": "1274037",
    "final_x": "3703638.1354",
    "final_y": "520125.836024",
    "longitude": "-89.99858568847128",
    "latitude": "29.92347500839246",
    "geocoded_column": {
      "latitude": "29.92347500839246",
      "longitude": "-89.99858568847128"
    }
  },
  {
    "service_request": "2026-1274036",
    "request_type": "Abandoned Vehicles",
    "request_reason": "Abandoned/Junk Vehicles",
    "date_created": "2026-04-15T15:04:45.000",
    "date_modified": "2026-04-15T15:05:41.000",
    "request_status": "Pending",
    "responsible_agency": "Department of Public Works",
    "final_address": "DELACHAISE ST & CONSTANCE ST",
    "address_councildis": "B",
    "status": "Pending",
    "rowid": "1274036",
    "final_x": "3674819.5",
    "final_y": "519129.48",
    "longitude": "-90.08958964103097",
    "latitude": "29.921626952752",
    "geocoded_column": {
      "latitude": "29.921626952752",
      "longitude": "-90.08958964103097"
    }
  },
  {
    "service_request": "2026-1274035",
    "request_type": "Trash/Recycling",
    "request_reason": "Dead Animal Pick Up",
    "date_created": "2026-04-15T15:03:41.000",
    "date_modified": "2026-04-15T15:03:42.000",
    "request_status": "Pending",
    "responsible_agency": "Department of Sanitation",
    "final_address": "ABUNDANCE ST & ALVAR ST & ALVAR ST OVERPASS",
    "address_councildis": "D",
    "status": "Assigned to Contractor",
    "contractor": "IV Waste",
    "rowid": "1274035",
    "final_x": "3693313.09",
    "final_y": "542940.18",
    "longitude": "-90.03035894079659",
    "latitude": "29.98653316167305",
    "geocoded_column": {
      "latitude": "29.98653316167305",
      "longitude": "-90.03035894079659"
    }
  },
  {
    "service_request": "2026-1274034",
    "request_type": "Trash/Recycling",
    "request_reason": "Replace Trash Cart",
    "date_created": "2026-04-15T15:01:54.000",
    "date_modified": "2026-04-15T15:01:55.000",
    "request_status": "Pending",
    "responsible_agency": "Department of Sanitation",
    "final_address": "6733 Louisville St",
    "address_councildis": "A",
    "status": "Assigned to Contractor",
    "contractor": "IV Waste",
    "rowid": "1274034",
    "final_x": "3668256.64557",
    "final_y": "552363.021782",
    "longitude": "-90.10918507394004",
    "latitude": "30.01320236599021",
    "geocoded_column": {
      "latitude": "30.01320236599021",
      "longitude": "-90.10918507394004"
    }
  },
  {
    "service_request": "2026-1274033",
    "request_type": "Trash/Recycling",
    "request_reason": "Request a Large Item Pick Up",
    "date_created": "2026-04-15T15:01:45.000",
    "date_modified": "2026-04-15T15:01:49.000",
    "request_status": "Pending",
    "responsible_agency": "Department of Sanitation",
    "final_address": "5972 Dreux Ave",
    "address_councildis": "D",
    "status": "Assigned to Contractor",
    "contractor": "Waste Pro",
    "rowid": "1274033",
    "final_x": "3696616.15101",
    "final_y": "553780.819543",
    "longitude": "-90.01953326931434",
    "latitude": "30.016237213525365",
    "geocoded_column": {
      "latitude": "30.016237213525365",
      "longitude": "-90.01953326931434"
    }
  },
  {
    "service_request": "2026-1274032",
    "request_type": "Trash/Recycling",
    "request_reason": "Request a Large Item Pick Up",
    "date_created": "2026-04-15T15:00:55.000",
    "date_modified": "2026-04-15T15:00:58.000",
    "request_status": "Pending",
    "responsible_agency": "Department of Sanitation",
    "final_address": "6127 N Rampart St",
    "address_councildis": "E",
    "status": "Assigned to Contractor",
    "contractor": "Waste Pro",
    "rowid": "1274032",
    "final_x": "3699514.97271",
    "final_y": "532848.374468",
    "longitude": "-90.01113748032549",
    "latitude": "29.958588968160676",
    "geocoded_column": {
      "latitude": "29.958588968160676",
      "longitude": "-90.01113748032549"
    }
  },
  {
    "service_request": "2026-1274031",
    "request_type": "Trash/Recycling",
    "request_reason": "Order Second Trash Cart",
    "date_created": "2026-04-15T14:58:08.000",
    "date_modified": "2026-04-15T14:58:10.000",
    "request_status": "Pending",
    "responsible_agency": "Department of Sanitation",
    "final_address": "4907 Pentland Dr",
    "address_councildis": "E",
    "status": "Assigned to Contractor",
    "contractor": "Waste Pro",
    "rowid": "1274031",
    "final_x": "3718772.39935",
    "final_y": "557936.496091",
    "longitude": "-89.94937149737024",
    "latitude": "30.02694654250996",
    "geocoded_column": {
      "latitude": "30.02694654250996",
      "longitude": "-89.94937149737024"
    }
  },
  {
    "service_request": "2026-1274030",
    "request_type": "Trash/Recycling",
    "request_reason": "Illegal Dumping",
    "date_created": "2026-04-15T14:54:50.000",
    "date_modified": "2026-04-15T14:54:51.000",
    "request_status": "Pending",
    "responsible_agency": "Department of Sanitation",
    "final_address": "Morrison Road & Paris Road",
    "address_councildis": "E",
    "status": "Pending",
    "rowid": "1274030",
    "final_x": "3721511.81074",
    "final_y": "572974.860073",
    "longitude": "-89.94013756528196",
    "latitude": "30.068204568480486",
    "geocoded_column": {
      "latitude": "30.068204568480486",
      "longitude": "-89.94013756528196"
    }
  },
  {
    "service_request": "2026-1274029",
    "request_type": "Streetlights",
    "request_reason": "Streetlight Outage/Malfunction",
    "date_created": "2026-04-15T14:54:22.000",
    "date_modified": "2026-04-15T14:54:24.000",
    "request_status": "Pending",
    "responsible_agency": "Department of Public Works",
    "final_address": "827 Voisin St",
    "address_councildis": "A",
    "status": "Pending",
    "rowid": "1274029",
    "final_x": "3668834.90068",
    "final_y": "543273.418574",
    "longitude": "-90.10766528095428",
    "latitude": "29.988192110591555",
    "geocoded_column": {
      "latitude": "29.988192110591555",
      "longitude": "-90.10766528095428"
    }
  },
  {
    "service_request": "2026-1274028",
    "request_type": "Safety & Permits",
    "request_reason": "Zoning Enforcement",
    "date_created": "2026-04-15T14:50:41.000",
    "date_modified": "2026-04-15T14:50:42.000",
    "request_status": "Pending",
    "responsible_agency": "Safety and Permits",
    "final_address": "4527 Flake Ave",
    "address_councildis": "E",
    "status": "Pending",
    "rowid": "1274028",
    "final_x": "3706334.75326",
    "final_y": "554066.552664",
    "longitude": "-89.98881640051985",
    "latitude": "30.01671289264686",
    "geocoded_column": {
      "latitude": "30.01671289264686",
      "longitude": "-89.98881640051985"
    }
  },
  {
    "service_request": "2026-1274027",
    "request_type": "Trash/Recycling",
    "request_reason": "Request a Large Item Pick Up",
    "date_created": "2026-04-15T14:49:41.000",
    "date_modified": "2026-04-15T14:49:43.000",
    "request_status": "Pending",
    "responsible_agency": "Department of Sanitation",
    "final_address": "4817 Burgundy St",
    "address_councildis": "E",
    "status": "Assigned to Contractor",
    "contractor": "Waste Pro",
    "rowid": "1274027",
    "final_x": "3694995.01706",
    "final_y": "533715.599685",
    "longitude": "-90.0253789864425",
    "latitude": "29.961116169554206",
    "geocoded_column": {
      "latitude": "29.961116169554206",
      "longitude": "-90.0253789864425"
    }
  },
  {
    "service_request": "2026-1274026",
    "request_type": "Trash/Recycling",
    "request_reason": "Request a Large Item Pick Up",
    "date_created": "2026-04-15T14:47:30.000",
    "date_modified": "2026-04-15T14:47:31.000",
    "request_status": "Pending",
    "responsible_agency": "Department of Sanitation",
    "final_address": "7555 Berg Rd",
    "address_councildis": "E",
    "status": "Assigned to Contractor",
    "contractor": "Waste Pro",
    "rowid": "1274026",
    "final_x": "3712270.40299",
    "final_y": "566322.394851",
    "longitude": "-89.96960158126966",
    "latitude": "30.05021873464588",
    "geocoded_column": {
      "latitude": "30.05021873464588",
      "longitude": "-89.96960158126966"
    }
  },
  {
    "service_request": "2026-1274025",
    "request_type": "Trash/Recycling",
    "request_reason": "Request a Large Item Pick Up",
    "date_created": "2026-04-15T14:46:42.000",
    "date_modified": "2026-04-15T14:47:38.000",
    "request_status": "Pending",
    "responsible_agency": "Department of Sanitation",
    "final_address": "5622 Durbridge Dr",
    "address_councildis": "C",
    "status": "Assigned to Contractor",
    "contractor": "Richards Disposal",
    "rowid": "1274025",
    "final_x": "3704593.70481",
    "final_y": "521854.951674",
    "longitude": "-89.9955056093174",
    "latitude": "29.92819883343641",
    "geocoded_column": {
      "latitude": "29.92819883343641",
      "longitude": "-89.9955056093174"
    }
  },
  {
    "service_request": "2026-1274024",
    "request_type": "Abandoned Vehicles",
    "request_reason": "Abandoned/Junk Vehicles",
    "date_created": "2026-04-15T14:45:14.000",
    "date_modified": "2026-04-15T14:46:38.000",
    "request_status": "Pending",
    "responsible_agency": "Department of Public Works",
    "final_address": "AGRICULTURE ST & HAVANA ST",
    "address_councildis": "D",
    "status": "Pending",
    "rowid": "1274024",
    "final_x": "3681034.3",
    "final_y": "543026.18",
    "longitude": "-90.06913998252561",
    "latitude": "29.987147840864534",
    "geocoded_column": {
      "latitude": "29.987147840864534",
      "longitude": "-90.06913998252561"
    }
  },
  {
    "service_request": "2026-1274023",
    "request_type": "Trash/Recycling",
    "request_reason": "Request a Large Item Pick Up",
    "date_created": "2026-04-15T14:39:27.000",
    "date_modified": "2026-04-15T14:39:29.000",
    "request_status": "Pending",
    "responsible_agency": "Department of Sanitation",
    "final_address": "8731 Hammond St",
    "address_councildis": "E",
    "status": "Assigned to Contractor",
    "contractor": "Waste Pro",
    "rowid": "1274023",
    "final_x": "3707709.52836",
    "final_y": "555983.907289",
    "longitude": "-89.98440141262707",
    "latitude": "30.02194044686609",
    "geocoded_column": {
      "latitude": "30.02194044686609",
      "longitude": "-89.98440141262707"
    }
  },
  {
    "service_request": "2026-1274022",
    "request_type": "Trash/Recycling",
    "request_reason": "Request a Large Item Pick Up",
    "date_created": "2026-04-15T14:35:58.000",
    "date_modified": "2026-04-15T14:36:00.000",
    "request_status": "Pending",
    "responsible_agency": "Department of Sanitation",
    "final_address": "827 Poland Ave",
    "address_councildis": "C",
    "status": "Assigned to Contractor",
    "contractor": "IV Waste",
    "rowid": "1274022",
    "final_x": "3692863.02985",
    "final_y": "534058.086277",
    "longitude": "-90.03209910340858",
    "latitude": "29.962124631446876",
    "geocoded_column": {
      "latitude": "29.962124631446876",
      "longitude": "-90.03209910340858"
    }
  },
  {
    "service_request": "2026-1274021",
    "request_type": "Abandoned Vehicles",
    "request_reason": "Abandoned/Junk Vehicles",
    "date_created": "2026-04-15T14:34:18.000",
    "date_modified": "2026-04-15T14:35:28.000",
    "request_status": "Pending",
    "responsible_agency": "Department of Public Works",
    "final_address": "1326 Congress St",
    "address_councildis": "C",
    "status": "Pending",
    "rowid": "1274021",
    "final_x": "3690918.03312",
    "final_y": "536531.344071",
    "longitude": "-90.03815280769298",
    "latitude": "29.968985812562767",
    "geocoded_column": {
      "latitude": "29.968985812562767",
      "longitude": "-90.03815280769298"
    }
  },
  {
    "service_request": "2026-1274020",
    "request_type": "Trash/Recycling",
    "request_reason": "Request a Large Item Pick Up",
    "date_created": "2026-04-15T14:34:04.000",
    "date_modified": "2026-04-15T14:34:07.000",
    "request_status": "Pending",
    "responsible_agency": "Department of Sanitation",
    "final_address": "6301 Curran Rd",
    "address_councildis": "E",
    "status": "Assigned to Contractor",
    "contractor": "Waste Pro",
    "rowid": "1274020",
    "final_x": "3696295.47786",
    "final_y": "559258.092444",
    "longitude": "-90.02034814931196",
    "latitude": "30.031307739382076",
    "geocoded_column": {
      "latitude": "30.031307739382076",
      "longitude": "-90.02034814931196"
    }
  },
  {
    "service_request": "2026-1274019",
    "request_type": "Trash/Recycling",
    "request_reason": "Request a Large Item Pick Up",
    "date_created": "2026-04-15T14:31:17.000",
    "date_modified": "2026-04-15T14:31:18.000",
    "request_status": "Pending",
    "responsible_agency": "Department of Sanitation",
    "final_address": "1231 Frenchmen St",
    "address_councildis": "C",
    "status": "Assigned to Contractor",
    "contractor": "IV Waste",
    "rowid": "1274019",
    "final_x": "3684573.69263",
    "final_y": "536899.145224",
    "longitude": "-90.05817569978443",
    "latitude": "29.970192796504566",
    "geocoded_column": {
      "latitude": "29.970192796504566",
      "longitude": "-90.05817569978443"
    }
  },
  {
    "service_request": "2026-1274018",
    "request_type": "Trash/Recycling",
    "request_reason": "Request a Large Item Pick Up",
    "date_created": "2026-04-15T14:28:04.000",
    "date_modified": "2026-04-15T14:28:05.000",
    "request_status": "Pending",
    "responsible_agency": "Department of Sanitation",
    "final_address": "2917 Pittari Pl",
    "address_councildis": "C",
    "status": "Assigned to Contractor",
    "contractor": "Richards Disposal",
    "rowid": "1274018",
    "final_x": "3709747.52408",
    "final_y": "519758.406904",
    "longitude": "-89.97931451719906",
    "latitude": "29.922267610920592",
    "geocoded_column": {
      "latitude": "29.922267610920592",
      "longitude": "-89.97931451719906"
    }
  },
  {
    "service_request": "2026-1274016",
    "request_type": "Trash/Recycling",
    "request_reason": "Repair Trash Cart",
    "date_created": "2026-04-15T14:24:36.000",
    "date_modified": "2026-04-15T14:24:38.000",
    "request_status": "Pending",
    "responsible_agency": "Department of Sanitation",
    "final_address": "4757 Tulip St",
    "address_councildis": "E",
    "status": "Assigned to Contractor",
    "contractor": "Waste Pro",
    "rowid": "1274016",
    "final_x": "3702121.11786",
    "final_y": "554458.106584",
    "longitude": "-90.00211524257892",
    "latitude": "30.017924791426633",
    "geocoded_column": {
      "latitude": "30.017924791426633",
      "longitude": "-90.00211524257892"
    }
  },
  {
    "service_request": "2026-1274015",
    "request_type": "Trash/Recycling",
    "request_reason": "Return Trash Cart",
    "date_created": "2026-04-15T14:16:58.000",
    "date_modified": "2026-04-15T14:44:24.000",
    "request_status": "Pending",
    "responsible_agency": "Department of Sanitation",
    "final_address": "414 Warrington Dr",
    "address_councildis": "D",
    "status": "Assigned to Contractor",
    "contractor": "IV Waste",
    "rowid": "1274015",
    "final_x": "3681488.56239",
    "final_y": "548201.365906",
    "longitude": "-90.06752455118277",
    "latitude": "30.00136397858688",
    "geocoded_column": {
      "latitude": "30.00136397858688",
      "longitude": "-90.06752455118277"
    }
  },
  {
    "service_request": "2026-1274014",
    "request_type": "Trash/Recycling",
    "request_reason": "Request a Large Item Pick Up",
    "date_created": "2026-04-15T14:16:28.000",
    "date_modified": "2026-04-15T14:16:29.000",
    "request_status": "Pending",
    "responsible_agency": "Department of Sanitation",
    "final_address": "717 St Maurice Ave",
    "address_councildis": "E",
    "status": "Assigned to Contractor",
    "contractor": "Waste Pro",
    "rowid": "1274014",
    "final_x": "3699356.2202",
    "final_y": "531884.845891",
    "longitude": "-90.01167387017749",
    "latitude": "29.955944642692252",
    "geocoded_column": {
      "latitude": "29.955944642692252",
      "longitude": "-90.01167387017749"
    }
  },
  {
    "service_request": "2026-1274013",
    "request_type": "Trash/Recycling",
    "request_reason": "Request a Large Item Pick Up",
    "date_created": "2026-04-15T14:15:24.000",
    "date_modified": "2026-04-15T14:15:31.000",
    "request_status": "Pending",
    "responsible_agency": "Department of Sanitation",
    "final_address": "4534 Dodt Ave",
    "address_councildis": "E",
    "status": "Assigned to Contractor",
    "contractor": "Waste Pro",
    "rowid": "1274013",
    "final_x": "3705479.3178",
    "final_y": "554051.656024",
    "longitude": "-89.9915197445933",
    "latitude": "30.01669950453427",
    "geocoded_column": {
      "latitude": "30.01669950453427",
      "longitude": "-89.9915197445933"
    }
  },
  {
    "service_request": "2026-1274012",
    "request_type": "Property Maintenance",
    "request_reason": "Property Maintenance",
    "date_created": "2026-04-15T14:14:42.000",
    "date_modified": "2026-04-15T14:14:43.000",
    "request_status": "Pending",
    "responsible_agency": "Department of Code Enforcement",
    "final_address": "8606 Pritchard Pl",
    "address_councildis": "A",
    "status": "Pending",
    "rowid": "1274012",
    "final_x": "3664668.2265",
    "final_y": "534104.064261",
    "longitude": "-90.12113291104326",
    "latitude": "29.96310133454698",
    "geocoded_column": {
      "latitude": "29.96310133454698",
      "longitude": "-90.12113291104326"
    }
  },
  {
    "service_request": "2026-1274011",
    "request_type": "Property Maintenance",
    "request_reason": "Property Maintenance",
    "date_created": "2026-04-15T14:13:01.000",
    "date_modified": "2026-04-15T14:13:03.000",
    "request_status": "Pending",
    "responsible_agency": "Department of Code Enforcement",
    "final_address": "140 Carondelet St",
    "address_councildis": "B",
    "status": "Pending",
    "rowid": "1274011",
    "final_x": "3680700.41762",
    "final_y": "530552.083586",
    "longitude": "-90.07062879409261",
    "latitude": "29.952858492745115",
    "geocoded_column": {
      "latitude": "29.952858492745115",
      "longitude": "-90.07062879409261"
    }
  },
  {
    "service_request": "2026-1274010",
    "request_type": "Abandoned Vehicles",
    "request_reason": "Abandoned/Junk Vehicles",
    "date_created": "2026-04-15T14:11:04.000",
    "date_modified": "2026-04-15T14:11:06.000",
    "request_status": "Pending",
    "responsible_agency": "Department of Public Works",
    "final_address": "1200 BLK Seventh St",
    "address_councildis": "B",
    "status": "Pending",
    "rowid": "1274010",
    "final_x": "3676064.77349",
    "final_y": "520838.047022",
    "longitude": "-90.08560011814286",
    "latitude": "29.926287735028627",
    "geocoded_column": {
      "latitude": "29.926287735028627",
      "longitude": "-90.08560011814286"
    }
  },
  {
    "service_request": "2026-1274009",
    "request_type": "Trash/Recycling",
    "request_reason": "Illegal Dumping",
    "date_created": "2026-04-15T14:09:09.000",
    "date_modified": "2026-04-15T14:09:10.000",
    "request_status": "Pending",
    "responsible_agency": "Department of Sanitation",
    "final_address": "1710 Benefit St",
    "address_councildis": "D",
    "status": "Pending",
    "rowid": "1274009",
    "final_x": "3680690.38811",
    "final_y": "544069.27035",
    "longitude": "-90.07018995607068",
    "latitude": "29.990026401260412",
    "geocoded_column": {
      "latitude": "29.990026401260412",
      "longitude": "-90.07018995607068"
    }
  },
  {
    "service_request": "2026-1274008",
    "request_type": "Trash/Recycling",
    "request_reason": "Request a Large Item Pick Up",
    "date_created": "2026-04-15T14:04:27.000",
    "date_modified": "2026-04-15T14:04:28.000",
    "request_status": "Pending",
    "responsible_agency": "Department of Sanitation",
    "final_address": "2524 General Pershing St",
    "address_councildis": "B",
    "status": "Assigned to Contractor",
    "contractor": "IV Waste",
    "rowid": "1274008",
    "final_x": "3670859.52564",
    "final_y": "524299.492796",
    "longitude": "-90.10191421929157",
    "latitude": "29.935960427586075",
    "geocoded_column": {
      "latitude": "29.935960427586075",
      "longitude": "-90.10191421929157"
    }
  },
  {
    "service_request": "2026-1274007",
    "request_type": "Trash/Recycling",
    "request_reason": "Request a Large Item Pick Up",
    "date_created": "2026-04-15T14:03:50.000",
    "date_modified": "2026-04-15T14:03:52.000",
    "request_status": "Pending",
    "responsible_agency": "Department of Sanitation",
    "final_address": "4317 Dryades St",
    "address_councildis": "B",
    "status": "Assigned to Contractor",
    "contractor": "IV Waste",
    "rowid": "1274007",
    "final_x": "3670978.82286",
    "final_y": "522038.916154",
    "longitude": "-90.101614310199",
    "latitude": "29.929741043765045",
    "geocoded_column": {
      "latitude": "29.929741043765045",
      "longitude": "-90.101614310199"
    }
  },
  {
    "service_request": "2026-1274006",
    "request_type": "Abandoned Vehicles",
    "request_reason": "Abandoned/Junk Vehicles",
    "date_created": "2026-04-15T14:02:07.000",
    "date_modified": "2026-04-15T14:02:09.000",
    "request_status": "Pending",
    "responsible_agency": "Department of Public Works",
    "final_address": "3061 St Claude Ave",
    "address_councildis": "C",
    "status": "Pending",
    "rowid": "1274006",
    "final_x": "3688964.74409",
    "final_y": "536114.866887",
    "longitude": "-90.04433620235012",
    "latitude": "29.967901210365614",
    "geocoded_column": {
      "latitude": "29.967901210365614",
      "longitude": "-90.04433620235012"
    }
  },
  {
    "service_request": "2026-1274005",
    "request_type": "Trash/Recycling",
    "request_reason": "Request a Large Item Pick Up",
    "date_created": "2026-04-15T14:01:48.000",
    "date_modified": "2026-04-15T14:01:50.000",
    "request_status": "Pending",
    "responsible_agency": "Department of Sanitation",
    "final_address": "7041 Curran Rd",
    "address_councildis": "E",
    "status": "Assigned to Contractor",
    "contractor": "Waste Pro",
    "rowid": "1274005",
    "final_x": "3699096.3048",
    "final_y": "560428.18979",
    "longitude": "-90.01145482131082",
    "latitude": "30.034436511520337",
    "geocoded_column": {
      "latitude": "30.034436511520337",
      "longitude": "-90.01145482131082"
    }
  },
  {
    "service_request": "2026-1274004",
    "request_type": "Trash/Recycling",
    "request_reason": "Request a Large Item Pick Up",
    "date_created": "2026-04-15T13:58:39.000",
    "date_modified": "2026-04-15T13:58:40.000",
    "request_status": "Pending",
    "responsible_agency": "Department of Sanitation",
    "final_address": "2028 Bienville Ave",
    "address_councildis": "B",
    "status": "Assigned to Contractor",
    "contractor": "IV Waste",
    "rowid": "1274004",
    "final_x": "3677781.86184",
    "final_y": "534161.742149",
    "longitude": "-90.07971960535554",
    "latitude": "29.962871950137785",
    "geocoded_column": {
      "latitude": "29.962871950137785",
      "longitude": "-90.07971960535554"
    }
  },
  {
    "service_request": "2026-1274003",
    "request_type": "Road Striping",
    "request_reason": "Crosswalks",
    "date_created": "2026-04-15T13:57:45.000",
    "date_modified": "2026-04-15T13:57:47.000",
    "request_status": "Pending",
    "responsible_agency": "Department of Public Works",
    "final_address": "JOSEPHINE ST & MAGAZINE ST",
    "address_councildis": "B",
    "status": "Pending",
    "rowid": "1274003",
    "final_x": "3679163.8",
    "final_y": "522315.78",
    "longitude": "-90.0757661751913",
    "latitude": "29.93025786312479",
    "geocoded_column": {
      "latitude": "29.93025786312479",
      "longitude": "-90.0757661751913"
    }
  },
  {
    "service_request": "2026-1274002",
    "request_type": "Tree Service",
    "request_reason": "Tree Trim",
    "date_created": "2026-04-15T13:57:24.000",
    "date_modified": "2026-04-15T13:57:27.000",
    "request_status": "Pending",
    "responsible_agency": "Department of Parks & Parkways",
    "final_address": "5026 Pratt Dr",
    "address_councildis": "D",
    "status": "Pending",
    "rowid": "1274002",
    "final_x": "3680404.23791",
    "final_y": "550971.459989",
    "longitude": "-90.07085361283414",
    "latitude": "30.009013637011435",
    "geocoded_column": {
      "latitude": "30.009013637011435",
      "longitude": "-90.07085361283414"
    }
  },
  {
    "service_request": "2026-1274001",
    "request_type": "Trash/Recycling",
    "request_reason": "Request a Large Item Pick Up",
    "date_created": "2026-04-15T13:54:20.000",
    "date_modified": "2026-04-15T13:54:23.000",
    "request_status": "Pending",
    "responsible_agency": "Department of Sanitation",
    "final_address": "1016 Bordeaux St",
    "address_councildis": "B",
    "status": "Assigned to Contractor",
    "contractor": "IV Waste",
    "rowid": "1274001",
    "final_x": "3669483.77806",
    "final_y": "519153.703415",
    "longitude": "-90.10643144372524",
    "latitude": "29.921851731996213",
    "geocoded_column": {
      "latitude": "29.921851731996213",
      "longitude": "-90.10643144372524"
    }
  },
  {
    "service_request": "2026-1274000",
    "request_type": "Trash/Recycling",
    "request_reason": "Request a Large Item Pick Up",
    "date_created": "2026-04-15T13:52:18.000",
    "date_modified": "2026-04-15T13:52:20.000",
    "request_status": "Pending",
    "responsible_agency": "Department of Sanitation",
    "final_address": "3325 Clermont Dr",
    "address_councildis": "D",
    "status": "Assigned to Contractor",
    "contractor": "IV Waste",
    "rowid": "1274000",
    "final_x": "3686317.59062",
    "final_y": "545141.267855",
    "longitude": "-90.05237731072599",
    "latitude": "29.992802242917286",
    "geocoded_column": {
      "latitude": "29.992802242917286",
      "longitude": "-90.05237731072599"
    }
  },
  {
    "service_request": "2026-1273999",
    "request_type": "Trash/Recycling",
    "request_reason": "Damaged Caused By Contractor",
    "date_created": "2026-04-15T13:49:45.000",
    "date_modified": "2026-04-15T15:24:30.000",
    "case_close_date": "2026-04-15T09:04:37.000",
    "request_status": "Closed",
    "responsible_agency": "Department of Sanitation",
    "final_address": "0 BLK Audubon Blvd",
    "address_councildis": "A",
    "status": "Invalid Request",
    "contractor": "IV Waste",
    "contractor_action": "Invalid Request",
    "rowid": "1273999",
    "final_x": "3665769.80622",
    "final_y": "527561.184495",
    "longitude": "-90.1178734101763",
    "latitude": "29.945078455935082",
    "geocoded_column": {
      "latitude": "29.945078455935082",
      "longitude": "-90.1178734101763"
    }
  },
  {
    "service_request": "2026-1273998",
    "request_type": "Trash/Recycling",
    "request_reason": "Request a Large Item Pick Up",
    "date_created": "2026-04-15T13:46:39.000",
    "date_modified": "2026-04-15T13:46:41.000",
    "request_status": "Pending",
    "responsible_agency": "Department of Sanitation",
    "final_address": "1019 Henriette Delille St",
    "address_councildis": "C",
    "status": "Assigned to Contractor",
    "contractor": "IV Waste",
    "rowid": "1273998",
    "final_x": "3681808.08354",
    "final_y": "534645.103622",
    "longitude": "-90.06698844814188",
    "latitude": "29.96407929437273",
    "geocoded_column": {
      "latitude": "29.96407929437273",
      "longitude": "-90.06698844814188"
    }
  },
  {
    "service_request": "2026-1273997",
    "request_type": "Trash/Recycling",
    "request_reason": "Replace Recycling Cart",
    "date_created": "2026-04-15T13:42:03.000",
    "date_modified": "2026-04-15T13:42:05.000",
    "request_status": "Pending",
    "responsible_agency": "Department of Sanitation",
    "final_address": "737 Henry Clay Ave",
    "address_councildis": "A",
    "status": "Pending",
    "rowid": "1273997",
    "final_x": "3663819.66938",
    "final_y": "519511.581751",
    "longitude": "-90.12429879359725",
    "latitude": "29.923001333316105",
    "geocoded_column": {
      "latitude": "29.923001333316105",
      "longitude": "-90.12429879359725"
    }
  },
  {
    "service_request": "2026-1273996",
    "request_type": "Trash/Recycling",
    "request_reason": "Illegal Dumping",
    "date_created": "2026-04-15T13:37:56.000",
    "date_modified": "2026-04-15T13:37:57.000",
    "request_status": "Pending",
    "responsible_agency": "Department of Sanitation",
    "final_address": "1300 Elmira Ave",
    "address_councildis": "C",
    "status": "Pending",
    "rowid": "1273996",
    "final_x": "3688112.10422",
    "final_y": "526748.308542",
    "longitude": "-90.04736083326922",
    "latitude": "29.942172748004257",
    "geocoded_column": {
      "latitude": "29.942172748004257",
      "longitude": "-90.04736083326922"
    }
  },
  {
    "service_request": "2026-1273995",
    "request_type": "Trash/Recycling",
    "request_reason": "Request a Large Item Pick Up",
    "date_created": "2026-04-15T13:22:48.000",
    "date_modified": "2026-04-15T13:47:32.000",
    "request_status": "Pending",
    "responsible_agency": "Department of Sanitation",
    "final_address": "1018 Mandeville St",
    "address_councildis": "C",
    "status": "Assigned to Contractor",
    "contractor": "IV Waste",
    "rowid": "1273995",
    "final_x": "3685764.32194",
    "final_y": "536169.431879",
    "longitude": "-90.05444129594571",
    "latitude": "29.968149852047752",
    "geocoded_column": {
      "latitude": "29.968149852047752",
      "longitude": "-90.05444129594571"
    }
  },
  {
    "service_request": "2026-1273994",
    "request_type": "Trash/Recycling",
    "request_reason": "Order Trash Cart",
    "date_created": "2026-04-15T13:18:59.000",
    "date_modified": "2026-04-15T13:19:01.000",
    "request_status": "Pending",
    "responsible_agency": "Department of Sanitation",
    "final_address": "4767 Longfellow Dr",
    "address_councildis": "E",
    "status": "Assigned to Contractor",
    "contractor": "Waste Pro",
    "rowid": "1273994",
    "final_x": "3709667.01688",
    "final_y": "556046.050841",
    "longitude": "-89.97821398767468",
    "latitude": "30.02204780861513",
    "geocoded_column": {
      "latitude": "30.02204780861513",
      "longitude": "-89.97821398767468"
    }
  },
  {
    "service_request": "2026-1273992",
    "request_type": "Trash/Recycling",
    "request_reason": "Request a Large Item Pick Up",
    "date_created": "2026-04-15T13:15:20.000",
    "date_modified": "2026-04-15T13:15:22.000",
    "request_status": "Pending",
    "responsible_agency": "Department of Sanitation",
    "final_address": "3118 Annette St",
    "address_councildis": "D",
    "status": "Assigned to Contractor",
    "contractor": "IV Waste",
    "rowid": "1273992",
    "final_x": "3682479.88584",
    "final_y": "544029.392782",
    "longitude": "-90.06453881117886",
    "latitude": "29.98986238854112",
    "geocoded_column": {
      "latitude": "29.98986238854112",
      "longitude": "-90.06453881117886"
    }
  },
  {
    "service_request": "2026-1273991",
    "request_type": "Trash/Recycling",
    "request_reason": "Order Second Trash Cart",
    "date_created": "2026-04-15T13:12:34.000",
    "date_modified": "2026-04-15T13:12:36.000",
    "request_status": "Pending",
    "responsible_agency": "Department of Sanitation",
    "final_address": "6579 Colbert St",
    "address_councildis": "A",
    "status": "Assigned to Contractor",
    "contractor": "IV Waste",
    "rowid": "1273991",
    "final_x": "3667876.94586",
    "final_y": "551393.304213",
    "longitude": "-90.11041742547111",
    "latitude": "30.01054713128694",
    "geocoded_column": {
      "latitude": "30.01054713128694",
      "longitude": "-90.11041742547111"
    }
  },
  {
    "service_request": "2026-1273989",
    "request_type": "Trash/Recycling",
    "request_reason": "Request a Large Item Pick Up",
    "date_created": "2026-04-15T13:10:09.000",
    "date_modified": "2026-04-15T13:10:11.000",
    "request_status": "Pending",
    "responsible_agency": "Department of Sanitation",
    "final_address": "5851 Waterford Blvd",
    "address_councildis": "E",
    "status": "Assigned to Contractor",
    "contractor": "Waste Pro",
    "rowid": "1273989",
    "final_x": "3713670.03135",
    "final_y": "561398.799326",
    "longitude": "-89.9653636920753",
    "latitude": "30.03663495969328",
    "geocoded_column": {
      "latitude": "30.03663495969328",
      "longitude": "-89.9653636920753"
    }
  },
  {
    "service_request": "2026-1273988",
    "request_type": "Trash/Recycling",
    "request_reason": "Replace Trash Cart",
    "date_created": "2026-04-15T13:07:32.000",
    "date_modified": "2026-04-15T13:07:33.000",
    "request_status": "Pending",
    "responsible_agency": "Department of Sanitation",
    "final_address": "2564 Lavender St",
    "address_councildis": "D",
    "status": "Assigned to Contractor",
    "contractor": "IV Waste",
    "rowid": "1273988",
    "final_x": "3686887.14959",
    "final_y": "546884.435345",
    "longitude": "-90.05051653435127",
    "latitude": "29.997577807002003",
    "geocoded_column": {
      "latitude": "29.997577807002003",
      "longitude": "-90.05051653435127"
    }
  },
  {
    "service_request": "2026-1273987",
    "request_type": "Property Maintenance",
    "request_reason": "Property Maintenance",
    "date_created": "2026-04-15T13:05:30.000",
    "date_modified": "2026-04-15T13:05:32.000",
    "request_status": "Pending",
    "responsible_agency": "Department of Code Enforcement",
    "final_address": "2209 Magazine St",
    "address_councildis": "B",
    "status": "Pending",
    "rowid": "1273987",
    "final_x": "3678723.79714",
    "final_y": "522034.642874",
    "longitude": "-90.07716492429981",
    "latitude": "29.929498099021224",
    "geocoded_column": {
      "latitude": "29.929498099021224",
      "longitude": "-90.07716492429981"
    }
  },
  {
    "service_request": "2026-1273986",
    "request_type": "Property Maintenance",
    "request_reason": "Property Maintenance",
    "date_created": "2026-04-15T13:01:31.000",
    "date_modified": "2026-04-15T13:01:33.000",
    "request_status": "Pending",
    "responsible_agency": "Department of Code Enforcement",
    "final_address": "3625 Napoleon Ave",
    "address_councildis": "B",
    "status": "Pending",
    "rowid": "1273986",
    "final_x": "3670233.44257",
    "final_y": "528023.318143",
    "longitude": "-90.1037646300207",
    "latitude": "29.94621822555074",
    "geocoded_column": {
      "latitude": "29.94621822555074",
      "longitude": "-90.1037646300207"
    }
  },
  {
    "service_request": "2026-1273985",
    "request_type": "Trash/Recycling",
    "request_reason": "Illegal Dumping",
    "date_created": "2026-04-15T13:00:42.000",
    "date_modified": "2026-04-15T13:03:28.000",
    "request_status": "Pending",
    "responsible_agency": "Department of Sanitation",
    "final_address": "4352 America St",
    "address_councildis": "E",
    "status": "Pending",
    "rowid": "1273985",
    "final_x": "3699871.69815",
    "final_y": "553011.202711",
    "longitude": "-90.00927532754427",
    "latitude": "30.01401802029087",
    "geocoded_column": {
      "latitude": "30.01401802029087",
      "longitude": "-90.00927532754427"
    }
  },
  {
    "service_request": "2026-1273984",
    "request_type": "Trash/Recycling",
    "request_reason": "Repair Trash Cart",
    "date_created": "2026-04-15T12:58:55.000",
    "date_modified": "2026-04-15T12:58:57.000",
    "request_status": "Pending",
    "responsible_agency": "Department of Sanitation",
    "final_address": "4811 Bundy Rd",
    "address_councildis": "E",
    "status": "Assigned to Contractor",
    "contractor": "Waste Pro",
    "rowid": "1273984",
    "final_x": "3709422.20894",
    "final_y": "556201.901914",
    "longitude": "-89.97898169089837",
    "latitude": "30.02248429661904",
    "geocoded_column": {
      "latitude": "30.02248429661904",
      "longitude": "-89.97898169089837"
    }
  },
  {
    "service_request": "2026-1273983",
    "request_type": "Trash/Recycling",
    "request_reason": "Request a Large Item Pick Up",
    "date_created": "2026-04-15T12:58:49.000",
    "date_modified": "2026-04-15T12:58:50.000",
    "request_status": "Pending",
    "responsible_agency": "Department of Sanitation",
    "final_address": "450 S Rendon St",
    "address_councildis": "B",
    "status": "Assigned to Contractor",
    "contractor": "IV Waste",
    "rowid": "1273983",
    "final_x": "3672661.92315",
    "final_y": "535174.546374",
    "longitude": "-90.09585321388079",
    "latitude": "29.965809851280625",
    "geocoded_column": {
      "latitude": "29.965809851280625",
      "longitude": "-90.09585321388079"
    }
  },
  {
    "service_request": "2026-1273982",
    "request_type": "Roads and Streets",
    "request_reason": "Debris in Driving Lanes",
    "date_created": "2026-04-15T12:54:17.000",
    "date_modified": "2026-04-15T13:12:08.000",
    "request_status": "Pending",
    "responsible_agency": "Department of Public Works",
    "final_address": "700 BLK Chartres St",
    "address_councildis": "C",
    "status": "Pending",
    "rowid": "1273982",
    "final_x": "3683021.38425",
    "final_y": "532484.893807",
    "longitude": "-90.06323257158184",
    "latitude": "29.95810253132929",
    "geocoded_column": {
      "latitude": "29.95810253132929",
      "longitude": "-90.06323257158184"
    }
  },
  {
    "service_request": "2026-1273981",
    "request_type": "Trash/Recycling",
    "request_reason": "Replace Trash Cart",
    "date_created": "2026-04-15T12:52:25.000",
    "date_modified": "2026-04-15T12:52:27.000",
    "request_status": "Pending",
    "responsible_agency": "Department of Sanitation",
    "final_address": "1910 Clouet St",
    "address_councildis": "D",
    "status": "Assigned to Contractor",
    "contractor": "IV Waste",
    "rowid": "1273981",
    "final_x": "3689743.5407",
    "final_y": "539110.645066",
    "longitude": "-90.04177010603574",
    "latitude": "29.97611443175756",
    "geocoded_column": {
      "latitude": "29.97611443175756",
      "longitude": "-90.04177010603574"
    }
  },