[
  {
    "service_request": "2022-937540",
    "request_type": "Trash/Recycling",
    "request_reason": "Order Recycling Cart",
    "date_created": "2022-11-04T01:52:09.000",
    "date_modified": "2022-11-04T01:52:09.000",
    "request_status": "Pending",
    "responsible_agency": "Department of Sanitation",
    "final_address": "4114 Stephen Girard Ave",
    "address_councildis": "D",
    "status": "Pending",
    "rowid": "937540",
    "final_x": "3689644.22723",
    "final_y": "549630.75074",
    "longitude": "-90.0417092382855",
    "latitude": "30.005044013193324",
    "geocoded_column": {
      "latitude": "30.005044013193324",
      "longitude": "-90.0417092382855"
    }
  },
  {
    "service_request": "2022-937538",
    "request_type": "Trash/Recycling",
    "request_reason": "Order Recycling Cart",
    "date_created": "2022-11-04T00:26:06.000",
    "date_modified": "2022-11-04T00:26:06.000",
    "request_status": "Pending",
    "responsible_agency": "Department of Sanitation",
    "final_address": "5421 Burgundy St",
    "address_councildis": "E",
    "status": "Pending",
    "rowid": "937538",
    "final_x": "3697127.63664",
    "final_y": "533190.50394",
    "longitude": "-90.01866362448332",
    "latitude": "29.95960523390024",
    "geocoded_column": {
      "latitude": "29.95960523390024",
      "longitude": "-90.01866362448332"
    }
  },
  {
    "service_request": "2022-937537",
    "request_type": "Trash/Recycling",
    "request_reason": "Order Recycling Cart",
    "date_created": "2022-11-04T00:09:28.000",
    "date_modified": "2022-11-04T00:09:28.000",
    "request_status": "Pending",
    "responsible_agency": "Department of Sanitation",
    "final_address": "7640 Morel St",
    "address_councildis": "E",
    "status": "Pending",
    "rowid": "937537",
    "final_x": "3718686.19794",
    "final_y": "571905.313704",
    "longitude": "-89.9491106535273",
    "latitude": "30.065357926843898",
    "geocoded_column": {
      "latitude": "30.065357926843898",
      "longitude": "-89.9491106535273"
    }
  },
  {
    "service_request": "2022-937536",
    "request_type": "Trash/Recycling",
    "request_reason": "Order Recycling Cart",
    "date_created": "2022-11-03T23:16:56.000",
    "date_modified": "2022-11-03T23:16:56.000",
    "request_status": "Pending",
    "responsible_agency": "Department of Sanitation",
    "final_address": "4337 Hollygrove St",
    "address_councildis": "A",
    "status": "Pending",
    "rowid": "937536",
    "final_x": "3667290.9017",
    "final_y": "538815.104329",
    "longitude": "-90.11269230582357",
    "latitude": "29.975978574836663",
    "geocoded_column": {
      "latitude": "29.975978574836663",
      "longitude": "-90.11269230582357"
    }
  },
  {
    "service_request": "2022-937535",
    "request_type": "Trash/Recycling",
    "request_reason": "Order Trash Cart",
    "date_created": "2022-11-03T23:12:12.000",
    "date_modified": "2022-11-03T23:12:12.000",
    "request_status": "Pending",
    "responsible_agency": "Department of Sanitation",
    "final_address": "6429 Catina St",
    "address_councildis": "A",
    "status": "Assigned to Contractor",
    "contractor": "Metro Disposal",
    "rowid": "937535",
    "final_x": "3667085.91316",
    "final_y": "550594.368404",
    "longitude": "-90.11294349329032",
    "latitude": "30.00837352667312",
    "geocoded_column": {
      "latitude": "30.00837352667312",
      "longitude": "-90.11294349329032"
    }
  },
  {
    "service_request": "2022-937534",
    "request_type": "Trash/Recycling",
    "request_reason": "Order Recycling Cart",
    "date_created": "2022-11-03T22:57:17.000",
    "date_modified": "2022-11-03T22:57:17.000",
    "request_status": "Pending",
    "responsible_agency": "Department of Sanitation",
    "final_address": "1740 General Pershing St",
    "address_councildis": "B",
    "status": "Pending",
    "rowid": "937534",
    "final_x": "3671124.22542",
    "final_y": "521582.196985",
    "longitude": "-90.10117080262839",
    "latitude": "29.928480913970734",
    "geocoded_column": {
      "latitude": "29.928480913970734",
      "longitude": "-90.10117080262839"
    }
  },
  {
    "service_request": "2022-937533",
    "request_type": "Trash/Recycling",
    "request_reason": "Order Recycling Cart",
    "date_created": "2022-11-03T22:55:02.000",
    "date_modified": "2022-11-03T22:55:02.000",
    "request_status": "Pending",
    "responsible_agency": "Department of Sanitation",
    "final_address": "13065 Cherbourg St",
    "address_councildis": "E",
    "status": "Pending",
    "rowid": "937533",
    "final_x": "3724234.02105",
    "final_y": "561136.632862",
    "longitude": "-89.9319898863234",
    "latitude": "30.03556309926911",
    "geocoded_column": {
      "latitude": "30.03556309926911",
      "longitude": "-89.9319898863234"
    }
  },
  {
    "service_request": "2022-937532",
    "request_type": "Trash/Recycling",
    "request_reason": "Order Recycling Cart",
    "date_created": "2022-11-03T22:46:45.000",
    "date_modified": "2022-11-03T22:46:45.000",
    "request_status": "Pending",
    "responsible_agency": "Department of Sanitation",
    "final_address": "8420 Lomond Rd",
    "address_councildis": "E",
    "status": "Pending",
    "rowid": "937532",
    "final_x": "3703682.45866",
    "final_y": "561974.582687",
    "longitude": "-89.99690504913869",
    "latitude": "30.03854221307962",
    "geocoded_column": {
      "latitude": "30.03854221307962",
      "longitude": "-89.99690504913869"
    }
  },
  {
    "service_request": "2022-937531",
    "request_type": "Trash/Recycling",
    "request_reason": "Order Recycling Cart",
    "date_created": "2022-11-03T22:40:52.000",
    "date_modified": "2022-11-03T22:40:52.000",
    "request_status": "Pending",
    "responsible_agency": "Department of Sanitation",
    "final_address": "4635 Mendez St",
    "address_councildis": "D",
    "status": "Pending",
    "rowid": "937531",
    "final_x": "3690908.89539",
    "final_y": "554084.468056",
    "longitude": "-90.03755478887165",
    "latitude": "30.017250830677483",
    "geocoded_column": {
      "latitude": "30.017250830677483",
      "longitude": "-90.03755478887165"
    }
  },
  {
    "service_request": "2022-937530",
    "request_type": "Traffic Signals/Signs/Striping/Streetlights",
    "request_reason": "Street Light Outage/Malfunction",
    "date_created": "2022-11-03T22:34:11.000",
    "date_modified": "2022-11-03T22:34:11.000",
    "request_status": "Pending",
    "responsible_agency": "Department of Public Works",
    "final_address": "2550 St Ann St",
    "address_councildis": "D",
    "status": "Pending",
    "contractor": "Legacy Professional Services",
    "rowid": "937530",
    "final_x": "3677383.75349",
    "final_y": "536818.436744",
    "longitude": "-90.08088508119663",
    "latitude": "29.970188927381336",
    "geocoded_column": {
      "latitude": "29.970188927381336",
      "longitude": "-90.08088508119663"
    }
  },
  {
    "service_request": "2022-937529",
    "request_type": "Trash/Recycling",
    "request_reason": "Replace Recycling Cart",
    "date_created": "2022-11-03T22:31:54.000",
    "date_modified": "2022-11-03T22:31:54.000",
    "request_status": "Pending",
    "responsible_agency": "Department of Sanitation",
    "final_address": "4824 Bancroft Dr",
    "address_councildis": "D",
    "status": "Pending",
    "rowid": "937529",
    "final_x": "3676359.55246",
    "final_y": "550006.10882",
    "longitude": "-90.08366539912207",
    "latitude": "30.00648118008683",
    "geocoded_column": {
      "latitude": "30.00648118008683",
      "longitude": "-90.08366539912207"
    }
  },
  {
    "service_request": "2022-937528",
    "request_type": "Trash/Recycling",
    "request_reason": "Order Recycling Cart",
    "date_created": "2022-11-03T22:28:35.000",
    "date_modified": "2022-11-03T22:28:35.000",
    "request_status": "Pending",
    "responsible_agency": "Department of Sanitation",
    "final_address": "6142 Memphis St",
    "address_councildis": "A",
    "status": "Pending",
    "rowid": "937528",
    "final_x": "3669185.34548",
    "final_y": "548205.672786",
    "longitude": "-90.10639151553698",
    "latitude": "30.001743797470894",
    "geocoded_column": {
      "latitude": "30.001743797470894",
      "longitude": "-90.10639151553698"
    }
  },
  {
    "service_request": "2022-937527",
    "request_type": "Trash/Recycling",
    "request_reason": "Replace Recycling Cart",
    "date_created": "2022-11-03T22:09:10.000",
    "date_modified": "2022-11-03T22:09:10.000",
    "request_status": "Pending",
    "responsible_agency": "Department of Sanitation",
    "final_address": "3043 N Rampart St",
    "address_councildis": "C",
    "status": "Pending",
    "rowid": "937527",
    "final_x": "3688704.7846",
    "final_y": "535651.655302",
    "longitude": "-90.04517360574992",
    "latitude": "29.96663557897953",
    "geocoded_column": {
      "latitude": "29.96663557897953",
      "longitude": "-90.04517360574992"
    }
  },
  {
    "service_request": "2022-937526",
    "request_type": "Trash/Recycling",
    "request_reason": "Order Trash Cart",
    "date_created": "2022-11-03T21:58:40.000",
    "date_modified": "2022-11-03T21:58:40.000",
    "request_status": "Pending",
    "responsible_agency": "Department of Sanitation",
    "final_address": "13880 Hayne Blvd",
    "address_councildis": "E",
    "status": "Assigned to Contractor",
    "contractor": "Metro Disposal",
    "rowid": "937526",
    "final_x": "3717312.07608",
    "final_y": "572737.358441",
    "longitude": "-89.95342269019115",
    "latitude": "30.06769127361587",
    "geocoded_column": {
      "latitude": "30.06769127361587",
      "longitude": "-89.95342269019115"
    }
  },
  {
    "service_request": "2022-937525",
    "request_type": "Trash/Recycling",
    "request_reason": "Replace Trash Cart",
    "date_created": "2022-11-03T21:43:49.000",
    "date_modified": "2022-11-03T21:43:50.000",
    "request_status": "Pending",
    "responsible_agency": "Department of Sanitation",
    "final_address": "6026 Canal Blvd",
    "address_councildis": "A",
    "status": "Assigned to Contractor",
    "contractor": "Metro Disposal",
    "rowid": "937525",
    "final_x": "3668356.16647",
    "final_y": "547488.367954",
    "longitude": "-90.10903519872798",
    "latitude": "29.999795844869386",
    "geocoded_column": {
      "latitude": "29.999795844869386",
      "longitude": "-90.10903519872798"
    }
  },
  {
    "service_request": "2022-937524",
    "request_type": "Trash/Recycling",
    "request_reason": "Order Recycling Cart",
    "date_created": "2022-11-03T21:41:49.000",
    "date_modified": "2022-11-03T21:41:49.000",
    "request_status": "Pending",
    "responsible_agency": "Department of Sanitation",
    "final_address": "3050 Fortin St",
    "address_councildis": "A",
    "status": "Pending",
    "rowid": "937524",
    "final_x": "3676764.70049",
    "final_y": "540911.561291",
    "longitude": "-90.0826990296514",
    "latitude": "29.98146220648807",
    "geocoded_column": {
      "latitude": "29.98146220648807",
      "longitude": "-90.0826990296514"
    }
  },
  {
    "service_request": "2022-937523",
    "request_type": "Trash/Recycling",
    "request_reason": "Order Recycling Cart",
    "date_created": "2022-11-03T21:37:42.000",
    "date_modified": "2022-11-03T21:37:42.000",
    "request_status": "Pending",
    "responsible_agency": "Department of Sanitation",
    "final_address": "6935 Catina St",
    "address_councildis": "A",
    "status": "Pending",
    "rowid": "937523",
    "final_x": "3667230.00244",
    "final_y": "553927.067608",
    "longitude": "-90.11237607540906",
    "latitude": "30.017533060037824",
    "geocoded_column": {
      "latitude": "30.017533060037824",
      "longitude": "-90.11237607540906"
    }
  },
  {
    "service_request": "2022-937522",
    "request_type": "Trash/Recycling",
    "request_reason": "Order Recycling Cart",
    "date_created": "2022-11-03T21:31:20.000",
    "date_modified": "2022-11-03T21:31:20.000",
    "request_status": "Pending",
    "responsible_agency": "Department of Sanitation",
    "final_address": "4347 Van Ave",
    "address_councildis": "D",
    "status": "Pending",
    "rowid": "937522",
    "final_x": "3680049.74139",
    "final_y": "548510.427346",
    "longitude": "-90.07205917065069",
    "latitude": "30.002257413491915",
    "geocoded_column": {
      "latitude": "30.002257413491915",
      "longitude": "-90.07205917065069"
    }
  },
  {
    "service_request": "2022-937521",
    "request_type": "Trash/Recycling",
    "request_reason": "Order Recycling Cart",
    "date_created": "2022-11-03T21:30:13.000",
    "date_modified": "2022-11-03T21:30:13.000",
    "request_status": "Pending",
    "responsible_agency": "Department of Sanitation",
    "final_address": "300 12Th St",
    "address_councildis": "A",
    "status": "Pending",
    "rowid": "937521",
    "final_x": "3665079.53524",
    "final_y": "547774.162322",
    "longitude": "-90.1193766935877",
    "latitude": "30.000677539091292",
    "geocoded_column": {
      "latitude": "30.000677539091292",
      "longitude": "-90.1193766935877"
    }
  },
  {
    "service_request": "2022-937520",
    "request_type": "Trash/Recycling",
    "request_reason": "Order Recycling Cart",
    "date_created": "2022-11-03T21:27:07.000",
    "date_modified": "2022-11-03T21:27:07.000",
    "request_status": "Pending",
    "responsible_agency": "Department of Sanitation",
    "final_address": "3154 N Derbigny St",
    "address_councildis": "D",
    "status": "Pending",
    "rowid": "937520",
    "final_x": "3689950.96176",
    "final_y": "538058.202121",
    "longitude": "-90.04115249614212",
    "latitude": "29.973214155625307",
    "geocoded_column": {
      "latitude": "29.973214155625307",
      "longitude": "-90.04115249614212"
    }
  },
  {
    "service_request": "2022-937519",
    "request_type": "Trash/Recycling",
    "request_reason": "Order Recycling Cart",
    "date_created": "2022-11-03T21:26:45.000",
    "date_modified": "2022-11-03T21:26:45.000",
    "request_status": "Pending",
    "responsible_agency": "Department of Sanitation",
    "final_address": "1775 Pleasure St",
    "address_councildis": "D",
    "status": "Pending",
    "rowid": "937519",
    "final_x": "3681134.52002",
    "final_y": "544945.193231",
    "longitude": "-90.0687565277038",
    "latitude": "29.992421410253424",
    "geocoded_column": {
      "latitude": "29.992421410253424",
      "longitude": "-90.0687565277038"
    }
  },
  {
    "service_request": "2022-937518",
    "request_type": "Trash/Recycling",
    "request_reason": "Repair Recycling Cart",
    "date_created": "2022-11-03T21:25:57.000",
    "date_modified": "2022-11-03T21:25:57.000",
    "request_status": "Pending",
    "responsible_agency": "Department of Sanitation",
    "final_address": "618 Constantinople St",
    "address_councildis": "B",
    "status": "Pending",
    "rowid": "937518",
    "final_x": "3672566.27374",
    "final_y": "518059.791926",
    "longitude": "-90.09673855832494",
    "latitude": "29.91875270930808",
    "geocoded_column": {
      "latitude": "29.91875270930808",
      "longitude": "-90.09673855832494"
    }
  },
  {
    "service_request": "2022-937517",
    "request_type": "Trash/Recycling",
    "request_reason": "Order Recycling Cart",
    "date_created": "2022-11-03T21:19:40.000",
    "date_modified": "2022-11-03T21:19:40.000",
    "request_status": "Pending",
    "responsible_agency": "Department of Sanitation",
    "final_address": "2329 Dauphine St",
    "address_councildis": "C",
    "status": "Pending",
    "rowid": "937517",
    "final_x": "3685749.61967",
    "final_y": "535365.659142",
    "longitude": "-90.05451605545984",
    "latitude": "29.965940207237647",
    "geocoded_column": {
      "latitude": "29.965940207237647",
      "longitude": "-90.05451605545984"
    }
  },
  {
    "service_request": "2022-937516",
    "request_type": "Trash/Recycling",
    "request_reason": "Order Recycling Cart",
    "date_created": "2022-11-03T21:12:14.000",
    "date_modified": "2022-11-03T21:12:14.000",
    "request_status": "Pending",
    "responsible_agency": "Department of Sanitation",
    "final_address": "1850 Sumpter St",
    "address_councildis": "D",
    "status": "Pending",
    "rowid": "937516",
    "final_x": "3681505.29173",
    "final_y": "549266.250195",
    "longitude": "-90.06743453624506",
    "latitude": "30.004291520804696",
    "geocoded_column": {
      "latitude": "30.004291520804696",
      "longitude": "-90.06743453624506"
    }
  },
  {
    "service_request": "2022-937515",
    "request_type": "Trash/Recycling",
    "request_reason": "Order Trash Cart",
    "date_created": "2022-11-03T21:11:46.000",
    "date_modified": "2022-11-03T21:11:47.000",
    "request_status": "Pending",
    "responsible_agency": "Department of Sanitation",
    "final_address": "1773 Pleasure St",
    "address_councildis": "D",
    "status": "Assigned to Contractor",
    "contractor": "Metro Disposal",
    "rowid": "937515",
    "final_x": "3681113.66811",
    "final_y": "544943.319119",
    "longitude": "-90.06882246019121",
    "latitude": "29.992416889858582",
    "geocoded_column": {
      "latitude": "29.992416889858582",
      "longitude": "-90.06882246019121"
    }
  },
  {
    "service_request": "2022-937514",
    "request_type": "Property Maintenance",
    "request_reason": "Property Maintenance",
    "date_created": "2022-11-03T21:06:47.000",
    "date_modified": "2022-11-03T21:06:47.000",
    "request_status": "Pending",
    "responsible_agency": "Department of Code Enforcement",
    "final_address": "4945 Robin Hood Dr",
    "address_councildis": "E",
    "status": "Pending",
    "rowid": "937514",
    "final_x": "3717473.74303",
    "final_y": "557964.210523",
    "longitude": "-89.9534740200135",
    "latitude": "30.027065810950596",
    "geocoded_column": {
      "latitude": "30.027065810950596",
      "longitude": "-89.9534740200135"
    }
  },
  {
    "service_request": "2022-937513",
    "request_type": "Trash/Recycling",
    "request_reason": "Order Recycling Cart",
    "date_created": "2022-11-03T21:04:48.000",
    "date_modified": "2022-11-03T21:04:48.000",
    "request_status": "Pending",
    "responsible_agency": "Department of Sanitation",
    "final_address": "4936 Robin Hood Dr",
    "address_councildis": "E",
    "status": "Pending",
    "rowid": "937513",
    "final_x": "3717324.09682",
    "final_y": "557902.183963",
    "longitude": "-89.9539492417141",
    "latitude": "30.02690021693735",
    "geocoded_column": {
      "latitude": "30.02690021693735",
      "longitude": "-89.9539492417141"
    }
  },
  {
    "service_request": "2022-937512",
    "request_type": "Trash/Recycling",
    "request_reason": "Order Recycling Cart",
    "date_created": "2022-11-03T20:59:18.000",
    "date_modified": "2022-11-03T20:59:18.000",
    "request_status": "Pending",
    "responsible_agency": "Department of Sanitation",
    "final_address": "6346 Colbert St",
    "address_councildis": "A",
    "status": "Pending",
    "rowid": "937512",
    "final_x": "3667567.64941",
    "final_y": "549838.963924",
    "longitude": "-90.11144698148043",
    "latitude": "30.00628231106051",
    "geocoded_column": {
      "latitude": "30.00628231106051",
      "longitude": "-90.11144698148043"
    }
  },
  {
    "service_request": "2022-937511",
    "request_type": "Trash/Recycling",
    "request_reason": "Missed Trash Pick-Up",
    "date_created": "2022-11-03T20:58:53.000",
    "date_modified": "2022-11-03T20:58:53.000",
    "request_status": "Pending",
    "responsible_agency": "Department of Sanitation",
    "final_address": "1431 Constance St, New Orleans, Louisiana, 70130",
    "address_councildis": "B",
    "status": "Assigned to Contractor",
    "contractor": "Richards Disposal",
    "rowid": "937511",
    "final_x": "3680635.16514",
    "final_y": "524194.270716",
    "longitude": "-90.07105598366722",
    "latitude": "29.935378608323525",
    "geocoded_column": {
      "latitude": "29.935378608323525",
      "longitude": "-90.07105598366722"
    }
  },
  {
    "service_request": "2022-937510",
    "request_type": "Trash/Recycling",
    "request_reason": "Order Recycling Cart",
    "date_created": "2022-11-03T20:55:25.000",
    "date_modified": "2022-11-03T20:55:25.000",
    "request_status": "Pending",
    "responsible_agency": "Department of Sanitation",
    "final_address": "2120 N Dorgenois St",
    "address_councildis": "D",
    "status": "Pending",
    "rowid": "937510",
    "final_x": "3683661.7606",
    "final_y": "541356.925324",
    "longitude": "-90.06089933797665",
    "latitude": "29.982478009066",
    "geocoded_column": {
      "latitude": "29.982478009066",
      "longitude": "-90.06089933797665"
    }
  },
  {
    "service_request": "2022-937509",
    "request_type": "Trash/Recycling",
    "request_reason": "Order Recycling Cart",
    "date_created": "2022-11-03T20:54:28.000",
    "date_modified": "2022-11-03T20:54:28.000",
    "request_status": "Pending",
    "responsible_agency": "Department of Sanitation",
    "final_address": "2037 Independence St",
    "address_councildis": "D",
    "status": "Pending",
    "rowid": "937509",
    "final_x": "3691908.97942",
    "final_y": "539184.17697",
    "longitude": "-90.03492841245694",
    "latitude": "29.976249326323657",
    "geocoded_column": {
      "latitude": "29.976249326323657",
      "longitude": "-90.03492841245694"
    }
  },
  {
    "service_request": "2022-937507",
    "request_type": "Trash/Recycling",
    "request_reason": "Order Recycling Cart",
    "date_created": "2022-11-03T20:53:06.000",
    "date_modified": "2022-11-03T20:53:06.000",
    "request_status": "Pending",
    "responsible_agency": "Department of Sanitation",
    "final_address": "1815 Desire St",
    "address_councildis": "D",
    "status": "Pending",
    "rowid": "937507",
    "final_x": "3690905.53788",
    "final_y": "538458.496585",
    "longitude": "-90.03812347398859",
    "latitude": "29.974285189380026",
    "geocoded_column": {
      "latitude": "29.974285189380026",
      "longitude": "-90.03812347398859"
    }
  },
  {
    "service_request": "2022-937506",
    "request_type": "Trash/Recycling",
    "request_reason": "MIssed Recycling Pick-Up",
    "date_created": "2022-11-03T20:42:54.000",
    "date_modified": "2022-11-03T20:42:55.000",
    "request_status": "Pending",
    "responsible_agency": "Department of Sanitation",
    "final_address": "5826 Clara St",
    "address_councildis": "A",
    "status": "Assigned to Contractor",
    "contractor": "Richards Disposal",
    "rowid": "937506",
    "final_x": "3666914.57978",
    "final_y": "525225.735933",
    "longitude": "-90.11433743670578",
    "latitude": "29.938623284611396",
    "geocoded_column": {
      "latitude": "29.938623284611396",
      "longitude": "-90.11433743670578"
    }
  },
  {
    "service_request": "2022-937505",
    "request_type": "Trash/Recycling",
    "request_reason": "Order Recycling Cart",
    "date_created": "2022-11-03T20:41:37.000",
    "date_modified": "2022-11-03T20:41:37.000",
    "request_status": "Pending",
    "responsible_agency": "Department of Sanitation",
    "final_address": "5400 Florida Ave",
    "address_councildis": "E",
    "status": "Pending",
    "rowid": "937505",
    "final_x": "3698848.46781",
    "final_y": "539927.26881",
    "longitude": "-90.01298453931555",
    "latitude": "29.97807451721998",
    "geocoded_column": {
      "latitude": "29.97807451721998",
      "longitude": "-90.01298453931555"
    }
  },
  {
    "service_request": "2022-937502",
    "request_type": "Trash/Recycling",
    "request_reason": "Order Recycling Cart",
    "date_created": "2022-11-03T20:36:57.000",
    "date_modified": "2022-11-03T20:36:57.000",
    "request_status": "Pending",
    "responsible_agency": "Department of Sanitation",
    "final_address": "1773 Pleasure St",
    "address_councildis": "D",
    "status": "Pending",
    "rowid": "937502",
    "final_x": "3681113.66811",
    "final_y": "544943.319119",
    "longitude": "-90.06882246019121",
    "latitude": "29.992416889858582",
    "geocoded_column": {
      "latitude": "29.992416889858582",
      "longitude": "-90.06882246019121"
    }
  },
  {
    "service_request": "2022-937501",
    "request_type": "Trash/Recycling",
    "request_reason": "MIssed Recycling Pick-Up",
    "date_created": "2022-11-03T20:28:15.000",
    "date_modified": "2022-11-03T20:28:15.000",
    "request_status": "Pending",
    "responsible_agency": "Department of Sanitation",
    "final_address": "1122 Toledano St",
    "address_councildis": "B",
    "status": "Assigned to Contractor",
    "contractor": "Richards Disposal",
    "rowid": "937501",
    "final_x": "3675276.40289",
    "final_y": "519954.859512",
    "longitude": "-90.08811908080055",
    "latitude": "29.923882836088683",
    "geocoded_column": {
      "latitude": "29.923882836088683",
      "longitude": "-90.08811908080055"
    }
  },
  {
    "service_request": "2022-937500",
    "request_type": "Trash/Recycling",
    "request_reason": "Missed Trash Pick-Up",
    "date_created": "2022-11-03T20:27:06.000",
    "date_modified": "2022-11-03T20:27:07.000",
    "request_status": "Pending",
    "responsible_agency": "Department of Sanitation",
    "final_address": "1122 Toledano St",
    "address_councildis": "B",
    "status": "Assigned to Contractor",
    "contractor": "Richards Disposal",
    "rowid": "937500",
    "final_x": "3675276.40289",
    "final_y": "519954.859512",
    "longitude": "-90.08811908080055",
    "latitude": "29.923882836088683",
    "geocoded_column": {
      "latitude": "29.923882836088683",
      "longitude": "-90.08811908080055"
    }
  },
  {
    "service_request": "2022-937499",
    "request_type": "Trash/Recycling",
    "request_reason": "Missed Trash Pick-Up",
    "date_created": "2022-11-03T20:25:53.000",
    "date_modified": "2022-11-03T20:25:54.000",
    "request_status": "Pending",
    "responsible_agency": "Department of Sanitation",
    "final_address": "719 Pleasant St",
    "address_councildis": "B",
    "status": "Assigned to Contractor",
    "contractor": "Richards Disposal",
    "rowid": "937499",
    "final_x": "3676201.89768",
    "final_y": "518677.276343",
    "longitude": "-90.08524155183638",
    "latitude": "29.92034220665593",
    "geocoded_column": {
      "latitude": "29.92034220665593",
      "longitude": "-90.08524155183638"
    }
  },
  {
    "service_request": "2022-937498",
    "request_type": "Property Maintenance",
    "request_reason": "Property Maintenance",
    "date_created": "2022-11-03T20:25:07.000",
    "date_modified": "2022-11-03T20:25:07.000",
    "request_status": "Pending",
    "responsible_agency": "Department of Code Enforcement",
    "final_address": "2500 Somerset Dr",
    "address_councildis": "C",
    "status": "Pending",
    "rowid": "937498",
    "final_x": "3702942.2465",
    "final_y": "521850.830522",
    "longitude": "-90.00071900676056",
    "latitude": "29.928240416428302",
    "geocoded_column": {
      "latitude": "29.928240416428302",
      "longitude": "-90.00071900676056"
    }
  },
  {
    "service_request": "2022-937497",
    "request_type": "Trash/Recycling",
    "request_reason": "MIssed Recycling Pick-Up",
    "date_created": "2022-11-03T20:24:16.000",
    "date_modified": "2022-11-03T20:24:16.000",
    "request_status": "Pending",
    "responsible_agency": "Department of Sanitation",
    "final_address": "719 Pleasant St",
    "address_councildis": "B",
    "status": "Assigned to Contractor",
    "contractor": "Richards Disposal",
    "rowid": "937497",
    "final_x": "3676201.89768",
    "final_y": "518677.276343",
    "longitude": "-90.08524155183638",
    "latitude": "29.92034220665593",
    "geocoded_column": {
      "latitude": "29.92034220665593",
      "longitude": "-90.08524155183638"
    }
  },
  {
    "service_request": "2022-937496",
    "request_type": "Trash/Recycling",
    "request_reason": "Missed Trash Pick-Up",
    "date_created": "2022-11-03T20:18:18.000",
    "date_modified": "2022-11-03T20:18:18.000",
    "request_status": "Pending",
    "responsible_agency": "Department of Sanitation",
    "final_address": "1015 Louisiana Ave",
    "address_councildis": "B",
    "status": "Assigned to Contractor",
    "contractor": "Richards Disposal",
    "rowid": "937496",
    "final_x": "3675199.70267",
    "final_y": "519448.536567",
    "longitude": "-90.08837856136961",
    "latitude": "29.922492902670886",
    "geocoded_column": {
      "latitude": "29.922492902670886",
      "longitude": "-90.08837856136961"
    }
  },
  {
    "service_request": "2022-937495",
    "request_type": "Trash/Recycling",
    "request_reason": "Order Recycling Cart",
    "date_created": "2022-11-03T20:14:28.000",
    "date_modified": "2022-11-03T20:14:28.000",
    "request_status": "Pending",
    "responsible_agency": "Department of Sanitation",
    "final_address": "719 Clouet St",
    "address_councildis": "C",
    "status": "Pending",
    "rowid": "937495",
    "final_x": "3688699.28092",
    "final_y": "534655.627718",
    "longitude": "-90.0452263460801",
    "latitude": "29.963897020810506",
    "geocoded_column": {
      "latitude": "29.963897020810506",
      "longitude": "-90.0452263460801"
    }
  },
  {
    "service_request": "2022-937494",
    "request_type": "Trash/Recycling",
    "request_reason": "Order Recycling Cart",
    "date_created": "2022-11-03T20:10:29.000",
    "date_modified": "2022-11-03T20:10:29.000",
    "request_status": "Pending",
    "responsible_agency": "Department of Sanitation",
    "final_address": "12 Christopher Ct",
    "address_councildis": "E",
    "status": "Pending",
    "rowid": "937494",
    "final_x": "3716668.85125",
    "final_y": "570517.047143",
    "longitude": "-89.9555404206866",
    "latitude": "30.061607626131252",
    "geocoded_column": {
      "latitude": "30.061607626131252",
      "longitude": "-89.9555404206866"
    }
  },
  {
    "service_request": "2022-937493",
    "request_type": "Trash/Recycling",
    "request_reason": "Order Recycling Cart",
    "date_created": "2022-11-03T20:10:05.000",
    "date_modified": "2022-11-03T20:10:05.000",
    "request_status": "Pending",
    "responsible_agency": "Department of Sanitation",
    "final_address": "2341 Odin St",
    "address_councildis": "D",
    "status": "Pending",
    "rowid": "937493",
    "final_x": "3684833.60489",
    "final_y": "553167.163095",
    "longitude": "-90.05678250360289",
    "latitude": "30.014916086492324",
    "geocoded_column": {
      "latitude": "30.014916086492324",
      "longitude": "-90.05678250360289"
    }
  },
  {
    "service_request": "2022-937492",
    "request_type": "Trash/Recycling",
    "request_reason": "Order Recycling Cart",
    "date_created": "2022-11-03T20:03:44.000",
    "date_modified": "2022-11-03T20:03:44.000",
    "request_status": "Pending",
    "responsible_agency": "Department of Sanitation",
    "final_address": "1524 Mithra St",
    "address_councildis": "D",
    "status": "Pending",
    "rowid": "937492",
    "final_x": "3678883.20955",
    "final_y": "552114.30223",
    "longitude": "-90.07561941876223",
    "latitude": "30.012202034962918",
    "geocoded_column": {
      "latitude": "30.012202034962918",
      "longitude": "-90.07561941876223"
    }
  },
  {
    "service_request": "2022-937491",
    "request_type": "Trash/Recycling",
    "request_reason": "Order Recycling Cart",
    "date_created": "2022-11-03T19:55:21.000",
    "date_modified": "2022-11-03T19:55:21.000",
    "request_status": "Pending",
    "responsible_agency": "Department of Sanitation",
    "final_address": "4722 Arts St",
    "address_councildis": "D",
    "status": "Pending",
    "rowid": "937491",
    "final_x": "3685847.97212",
    "final_y": "550418.29058",
    "longitude": "-90.05367458951524",
    "latitude": "30.00732657929893",
    "geocoded_column": {
      "latitude": "30.00732657929893",
      "longitude": "-90.05367458951524"
    }
  },
  {
    "service_request": "2022-937490",
    "request_type": "Trash/Recycling",
    "request_reason": "Order Recycling Cart",
    "date_created": "2022-11-03T19:55:15.000",
    "date_modified": "2022-11-03T19:55:15.000",
    "request_status": "Pending",
    "responsible_agency": "Department of Sanitation",
    "final_address": "2948 Fortin St",
    "address_councildis": "A",
    "status": "Pending",
    "rowid": "937490",
    "final_x": "3677368.84827",
    "final_y": "540894.044235",
    "longitude": "-90.08079145574301",
    "latitude": "29.981395895579354",
    "geocoded_column": {
      "latitude": "29.981395895579354",
      "longitude": "-90.08079145574301"
    }
  },
  {
    "service_request": "2022-937489",
    "request_type": "Trash/Recycling",
    "request_reason": "Missed Trash Pick-Up",
    "date_created": "2022-11-03T19:53:59.000",
    "date_modified": "2022-11-03T19:53:59.000",
    "request_status": "Pending",
    "responsible_agency": "Department of Sanitation",
    "final_address": "5419 Vicksburg St",
    "address_councildis": "A",
    "status": "Assigned to Contractor",
    "contractor": "Metro Disposal",
    "rowid": "937489",
    "final_x": "3668659.00935",
    "final_y": "543021.937677",
    "longitude": "-90.10822935917776",
    "latitude": "29.987505796133103",
    "geocoded_column": {
      "latitude": "29.987505796133103",
      "longitude": "-90.10822935917776"
    }
  },
  {
    "service_request": "2022-937488",
    "request_type": "Trash/Recycling",
    "request_reason": "Missed Trash Pick-Up",
    "date_created": "2022-11-03T19:50:00.000",
    "date_modified": "2022-11-03T19:50:01.000",
    "request_status": "Pending",
    "responsible_agency": "Department of Sanitation",
    "final_address": "1525 Dufossat St",
    "address_councildis": "B",
    "status": "Assigned to Contractor",
    "contractor": "Richards Disposal",
    "rowid": "937488",
    "final_x": "3668161.69364",
    "final_y": "520678.110521",
    "longitude": "-90.11055336688219",
    "latitude": "29.926082227758133",
    "geocoded_column": {
      "latitude": "29.926082227758133",
      "longitude": "-90.11055336688219"
    }
  },
  {
    "service_request": "2022-937487",
    "request_type": "Trash/Recycling",
    "request_reason": "Missed Trash Pick-Up",
    "date_created": "2022-11-03T19:49:55.000",
    "date_modified": "2022-11-03T19:49:56.000",
    "request_status": "Pending",
    "responsible_agency": "Department of Sanitation",
    "final_address": "1525 Dufossat St",
    "address_councildis": "B",
    "status": "Assigned to Contractor",
    "contractor": "Richards Disposal",
    "rowid": "937487",
    "final_x": "3668161.69364",
    "final_y": "520678.110521",
    "longitude": "-90.11055336688219",
    "latitude": "29.926082227758133",
    "geocoded_column": {
      "latitude": "29.926082227758133",
      "longitude": "-90.11055336688219"
    }
  },
  {
    "service_request": "2022-937486",
    "request_type": "Trash/Recycling",
    "request_reason": "Order Recycling Cart",
    "date_created": "2022-11-03T19:48:49.000",
    "date_modified": "2022-11-03T19:48:49.000",
    "request_status": "Pending",
    "responsible_agency": "Department of Sanitation",
    "final_address": "841 Jewel St",
    "address_councildis": "D",
    "status": "Pending",
    "rowid": "937486",
    "final_x": "3670692.45083",
    "final_y": "556123.127834",
    "longitude": "-90.1013614789603",
    "latitude": "30.02346954143981",
    "geocoded_column": {
      "latitude": "30.02346954143981",
      "longitude": "-90.1013614789603"
    }
  },
  {
    "service_request": "2022-937485",
    "request_type": "Trash/Recycling",
    "request_reason": "Request a Large Item Pick Up",
    "date_created": "2022-11-03T19:46:10.000",
    "date_modified": "2022-11-03T19:46:11.000",
    "request_status": "Pending",
    "responsible_agency": "Department of Sanitation",
    "final_address": "8824 Olive St",
    "address_councildis": "A",
    "status": "Assigned to Contractor",
    "contractor": "Richards Disposal",
    "rowid": "937485",
    "final_x": "3665224.5689",
    "final_y": "535969.578503",
    "longitude": "-90.11931362482004",
    "latitude": "29.96821468849254",
    "geocoded_column": {
      "latitude": "29.96821468849254",
      "longitude": "-90.11931362482004"
    }
  },
  {
    "service_request": "2022-937484",
    "request_type": "Trash/Recycling",
    "request_reason": "Order Recycling Cart",
    "date_created": "2022-11-03T19:45:28.000",
    "date_modified": "2022-11-03T19:45:28.000",
    "request_status": "Pending",
    "responsible_agency": "Department of Sanitation",
    "final_address": "995 Chapelle St",
    "address_councildis": "A",
    "status": "Pending",
    "rowid": "937484",
    "final_x": "3671278.09966",
    "final_y": "552522.399766",
    "longitude": "-90.09963344553836",
    "latitude": "30.013551496041316",
    "geocoded_column": {
      "latitude": "30.013551496041316",
      "longitude": "-90.09963344553836"
    }
  },
  {
    "service_request": "2022-937483",
    "request_type": "Trash/Recycling",
    "request_reason": "Order Recycling Cart",
    "date_created": "2022-11-03T19:44:37.000",
    "date_modified": "2022-11-03T19:44:37.000",
    "request_status": "Pending",
    "responsible_agency": "Department of Sanitation",
    "final_address": "155 Portland St",
    "address_councildis": "A",
    "status": "Pending",
    "rowid": "937483",
    "final_x": "3665800.51879",
    "final_y": "551708.716181",
    "longitude": "-90.11696710111217",
    "latitude": "30.01147517557785",
    "geocoded_column": {
      "latitude": "30.01147517557785",
      "longitude": "-90.11696710111217"
    }
  },
  {
    "service_request": "2022-937482",
    "request_type": "Trash/Recycling",
    "request_reason": "Order Recycling Cart",
    "date_created": "2022-11-03T19:44:19.000",
    "date_modified": "2022-11-03T19:44:19.000",
    "request_status": "Pending",
    "responsible_agency": "Department of Sanitation",
    "final_address": "1455 Mithra St",
    "address_councildis": "D",
    "status": "Pending",
    "rowid": "937482",
    "final_x": "3677891.10894",
    "final_y": "552211.109334",
    "longitude": "-90.0787505487566",
    "latitude": "30.01249812499569",
    "geocoded_column": {
      "latitude": "30.01249812499569",
      "longitude": "-90.0787505487566"
    }
  },
  {
    "service_request": "2022-937481",
    "request_type": "Trash/Recycling",
    "request_reason": "Missed Trash Pick-Up",
    "date_created": "2022-11-03T19:40:26.000",
    "date_modified": "2022-11-03T19:40:27.000",
    "request_status": "Pending",
    "responsible_agency": "Department of Sanitation",
    "final_address": "7320 Hurst St",
    "address_councildis": "A",
    "status": "Assigned to Contractor",
    "contractor": "Richards Disposal",
    "rowid": "937481",
    "final_x": "3661819.1513",
    "final_y": "523847.623483",
    "longitude": "-90.13047000182155",
    "latitude": "29.934981980100186",
    "geocoded_column": {
      "latitude": "29.934981980100186",
      "longitude": "-90.13047000182155"
    }
  },
  {
    "service_request": "2022-937480",
    "request_type": "Trash/Recycling",
    "request_reason": "Order Recycling Cart",
    "date_created": "2022-11-03T19:35:41.000",
    "date_modified": "2022-11-03T19:35:41.000",
    "request_status": "Pending",
    "responsible_agency": "Department of Sanitation",
    "final_address": "5118 Gallier Dr",
    "address_councildis": "D",
    "status": "Pending",
    "rowid": "937480",
    "final_x": "3691643.69091",
    "final_y": "552712.621206",
    "longitude": "-90.03528224396796",
    "latitude": "30.013455893884068",
    "geocoded_column": {
      "latitude": "30.013455893884068",
      "longitude": "-90.03528224396796"
    }
  },
  {
    "service_request": "2022-937479",
    "request_type": "Trash/Recycling",
    "request_reason": "Order Recycling Cart",
    "date_created": "2022-11-03T19:32:51.000",
    "date_modified": "2022-11-03T19:32:51.000",
    "request_status": "Pending",
    "responsible_agency": "Department of Sanitation",
    "final_address": "1309 Allen Toussaint Blvd",
    "address_councildis": "D",
    "status": "Pending",
    "rowid": "937479",
    "final_x": "3677058.47528",
    "final_y": "555342.552793",
    "longitude": "-90.08127310265793",
    "latitude": "30.02113350658267",
    "geocoded_column": {
      "latitude": "30.02113350658267",
      "longitude": "-90.08127310265793"
    }
  },
  {
    "service_request": "2022-937478",
    "request_type": "Trash/Recycling",
    "request_reason": "Order Recycling Cart",
    "date_created": "2022-11-03T19:30:29.000",
    "date_modified": "2022-11-03T19:30:29.000",
    "request_status": "Pending",
    "responsible_agency": "Department of Sanitation",
    "final_address": "2032 Independence St",
    "address_councildis": "D",
    "status": "Pending",
    "rowid": "937478",
    "final_x": "3691829.15875",
    "final_y": "539192.105802",
    "longitude": "-90.03518022513494",
    "latitude": "29.976273614565937",
    "geocoded_column": {
      "latitude": "29.976273614565937",
      "longitude": "-90.03518022513494"
    }
  },
  {
    "service_request": "2022-937477",
    "request_type": "Trash/Recycling",
    "request_reason": "Order Recycling Cart",
    "date_created": "2022-11-03T19:29:56.000",
    "date_modified": "2022-11-03T19:29:56.000",
    "request_status": "Pending",
    "responsible_agency": "Department of Sanitation",
    "final_address": "4643 Virgilian St, New Orleans, Louisiana, 70126",
    "address_councildis": "D",
    "status": "Pending",
    "rowid": "937477",
    "final_x": "3697603.23485",
    "final_y": "553307.837399",
    "longitude": "-90.01643170863808",
    "latitude": "30.014905534593876",
    "geocoded_column": {
      "latitude": "30.014905534593876",
      "longitude": "-90.01643170863808"
    }
  },
  {
    "service_request": "2022-937476",
    "request_type": "Trash/Recycling",
    "request_reason": "Order Recycling Cart",
    "date_created": "2022-11-03T19:29:31.000",
    "date_modified": "2022-11-03T19:29:31.000",
    "request_status": "Pending",
    "responsible_agency": "Department of Sanitation",
    "final_address": "7163 Parkside Ct",
    "address_councildis": "E",
    "status": "Pending",
    "rowid": "937476",
    "final_x": "3704475.22775",
    "final_y": "560478.020702",
    "longitude": "-89.99445496774877",
    "latitude": "30.034401807621112",
    "geocoded_column": {
      "latitude": "30.034401807621112",
      "longitude": "-89.99445496774877"
    }
  },
  {
    "service_request": "2022-937475",
    "request_type": "Trash/Recycling",
    "request_reason": "Order Recycling Cart",
    "date_created": "2022-11-03T19:28:21.000",
    "date_modified": "2022-11-03T19:28:21.000",
    "request_status": "Pending",
    "responsible_agency": "Department of Sanitation",
    "final_address": "283 Fairway Dr",
    "address_councildis": "A",
    "status": "Pending",
    "rowid": "937475",
    "final_x": "3664289.61095",
    "final_y": "541452.094604",
    "longitude": "-90.12208325063804",
    "latitude": "29.983316987165054",
    "geocoded_column": {
      "latitude": "29.983316987165054",
      "longitude": "-90.12208325063804"
    }
  },
  {
    "service_request": "2022-937474",
    "request_type": "Trash/Recycling",
    "request_reason": "Order Recycling Cart",
    "date_created": "2022-11-03T19:17:50.000",
    "date_modified": "2022-11-03T19:17:50.000",
    "request_status": "Pending",
    "responsible_agency": "Department of Sanitation",
    "final_address": "3119 Frenchmen St",
    "address_councildis": "D",
    "status": "Pending",
    "rowid": "937474",
    "final_x": "3684000.71458",
    "final_y": "544171.868046",
    "longitude": "-90.05972993215472",
    "latitude": "29.990207752646228",
    "geocoded_column": {
      "latitude": "29.990207752646228",
      "longitude": "-90.05972993215472"
    }
  },
  {
    "service_request": "2022-937473",
    "request_type": "Trash/Recycling",
    "request_reason": "Order Recycling Cart",
    "date_created": "2022-11-03T19:17:27.000",
    "date_modified": "2022-11-03T19:17:27.000",
    "request_status": "Pending",
    "responsible_agency": "Department of Sanitation",
    "final_address": "6301 Bertha Dr",
    "address_councildis": "D",
    "status": "Pending",
    "rowid": "937473",
    "final_x": "3678456.48501",
    "final_y": "556237.006554",
    "longitude": "-90.07682479312035",
    "latitude": "30.02355085112004",
    "geocoded_column": {
      "latitude": "30.02355085112004",
      "longitude": "-90.07682479312035"
    }
  },
  {
    "service_request": "2022-937471",
    "request_type": "Property Maintenance",
    "request_reason": "Property Maintenance",
    "date_created": "2022-11-03T19:16:47.000",
    "date_modified": "2022-11-03T19:16:47.000",
    "request_status": "Pending",
    "responsible_agency": "Department of Code Enforcement",
    "final_address": "2625 Ursulines Ave",
    "address_councildis": "D",
    "status": "Pending",
    "rowid": "937471",
    "final_x": "3677934.43125",
    "final_y": "538019.394057",
    "longitude": "-90.07910446724452",
    "latitude": "29.97347458667208",
    "geocoded_column": {
      "latitude": "29.97347458667208",
      "longitude": "-90.07910446724452"
    }
  },
  {
    "service_request": "2022-937470",
    "request_type": "Roads/Drainage",
    "request_reason": "Leaking Hydrant",
    "date_created": "2022-11-03T19:16:01.000",
    "date_modified": "2022-11-03T20:37:33.000",
    "case_close_date": "2022-11-03T15:37:33.000",
    "request_status": "Closed",
    "responsible_agency": "Department of Public Works",
    "final_address": "New Orleans,LA",
    "status": "Duplicate Request",
    "rowid": "937470",
    "longitude": "0.0",
    "latitude": "0.0",
    "geocoded_column": {
      "latitude": "0.0",
      "longitude": "0.0"
    }
  },
  {
    "service_request": "2022-937469",
    "request_type": "Trash/Recycling",
    "request_reason": "Order Trash Cart",
    "date_created": "2022-11-03T19:13:51.000",
    "date_modified": "2022-11-03T19:13:51.000",
    "request_status": "Pending",
    "responsible_agency": "Department of Sanitation",
    "final_address": "3353 Plymouth Pl",
    "address_councildis": "C",
    "status": "Assigned to Contractor",
    "contractor": "Richards Disposal",
    "rowid": "937469",
    "final_x": "3702730.05246",
    "final_y": "518723.736631",
    "longitude": "-90.00150358958703",
    "latitude": "29.919648773041402",
    "geocoded_column": {
      "latitude": "29.919648773041402",
      "longitude": "-90.00150358958703"
    }
  },
  {
    "service_request": "2022-937468",
    "request_type": "Taxi Issues",
    "request_reason": "School Bus Complaints",
    "date_created": "2022-11-03T19:13:34.000",
    "date_modified": "2022-11-03T19:13:34.000",
    "request_status": "Pending",
    "responsible_agency": "Department of Public Works",
    "status": "Pending",
    "rowid": "937468",
    "longitude": "0.0",
    "latitude": "0.0",
    "geocoded_column": {
      "latitude": "0.0",
      "longitude": "0.0"
    }
  },
  {
    "service_request": "2022-937467",
    "request_type": "Trash/Recycling",
    "request_reason": "Order Recycling Cart",
    "date_created": "2022-11-03T19:12:10.000",
    "date_modified": "2022-11-03T19:12:10.000",
    "request_status": "Pending",
    "responsible_agency": "Department of Sanitation",
    "final_address": "6965 Marshal Foch St",
    "address_councildis": "A",
    "status": "Pending",
    "rowid": "937467",
    "final_x": "3670501.64987",
    "final_y": "553608.016407",
    "longitude": "-90.10204977037921",
    "latitude": "30.01655952090165",
    "geocoded_column": {
      "latitude": "30.01655952090165",
      "longitude": "-90.10204977037921"
    }
  },
  {
    "service_request": "2022-937466",
    "request_type": "Abandoned Vehicles",
    "request_reason": "Abandoned/Junk Vehicles",
    "date_created": "2022-11-03T19:10:54.000",
    "date_modified": "2022-11-03T19:10:54.000",
    "request_status": "Pending",
    "responsible_agency": "Department of Public Works",
    "final_address": "4116 Duplessis St",
    "address_councildis": "D",
    "status": "Pending",
    "rowid": "937466",
    "final_x": "3678288.56795",
    "final_y": "547426.189073",
    "longitude": "-90.07766046638737",
    "latitude": "29.999329329693282",
    "geocoded_column": {
      "latitude": "29.999329329693282",
      "longitude": "-90.07766046638737"
    }
  },
  {
    "service_request": "2022-937465",
    "request_type": "Trash/Recycling",
    "request_reason": "Order Recycling Cart",
    "date_created": "2022-11-03T19:10:50.000",
    "date_modified": "2022-11-03T19:10:50.000",
    "request_status": "Pending",
    "responsible_agency": "Department of Sanitation",
    "final_address": "1436 Spain St",
    "address_councildis": "C",
    "status": "Pending",
    "rowid": "937465",
    "final_x": "3685991.84655",
    "final_y": "537795.86548",
    "longitude": "-90.05366540320239",
    "latitude": "29.972614992827662",
    "geocoded_column": {
      "latitude": "29.972614992827662",
      "longitude": "-90.05366540320239"
    }
  },
  {
    "service_request": "2022-937464",
    "request_type": "Trash/Recycling",
    "request_reason": "Order Recycling Cart",
    "date_created": "2022-11-03T19:08:03.000",
    "date_modified": "2022-11-03T19:08:03.000",
    "request_status": "Pending",
    "responsible_agency": "Department of Sanitation",
    "final_address": "857 Homedale St",
    "address_councildis": "A",
    "status": "Pending",
    "rowid": "937464",
    "final_x": "3669258.66516",
    "final_y": "544736.782543",
    "longitude": "-90.10627724362176",
    "latitude": "29.992203389253483",
    "geocoded_column": {
      "latitude": "29.992203389253483",
      "longitude": "-90.10627724362176"
    }
  },
  {
    "service_request": "2022-937463",
    "request_type": "Traffic Signals/Signs/Striping/Streetlights",
    "request_reason": "Street Light Outage/Malfunction",
    "date_created": "2022-11-03T19:05:22.000",
    "date_modified": "2022-11-03T19:05:23.000",
    "request_status": "Pending",
    "responsible_agency": "Department of Public Works",
    "final_address": "611 OKeefe Ave",
    "address_councildis": "B",
    "status": "Pending",
    "contractor": "Legacy Professional Services",
    "rowid": "937463",
    "final_x": "3679355.91375",
    "final_y": "529017.045504",
    "longitude": "-90.07492737207814",
    "latitude": "29.948678324365698",
    "geocoded_column": {
      "latitude": "29.948678324365698",
      "longitude": "-90.07492737207814"
    }
  },
  {
    "service_request": "2022-937462",
    "request_type": "Trash/Recycling",
    "request_reason": "Order Recycling Cart",
    "date_created": "2022-11-03T19:05:19.000",
    "date_modified": "2022-11-03T19:05:19.000",
    "request_status": "Pending",
    "responsible_agency": "Department of Sanitation",
    "final_address": "734 Navarre St",
    "address_councildis": "A",
    "status": "Pending",
    "rowid": "937462",
    "final_x": "3668613.30554",
    "final_y": "543768.98683",
    "longitude": "-90.10834849554807",
    "latitude": "29.989561269671583",
    "geocoded_column": {
      "latitude": "29.989561269671583",
      "longitude": "-90.10834849554807"
    }
  },
  {
    "service_request": "2022-937460",
    "request_type": "Trash/Recycling",
    "request_reason": "Order Recycling Cart",
    "date_created": "2022-11-03T19:04:12.000",
    "date_modified": "2022-11-03T19:04:12.000",
    "request_status": "Pending",
    "responsible_agency": "Department of Sanitation",
    "final_address": "2812 Bruxelles St",
    "address_councildis": "D",
    "status": "Pending",
    "rowid": "937460",
    "final_x": "3680272.96898",
    "final_y": "542748.525197",
    "longitude": "-90.07155441117847",
    "latitude": "29.986407461682838",
    "geocoded_column": {
      "latitude": "29.986407461682838",
      "longitude": "-90.07155441117847"
    }
  },
  {
    "service_request": "2022-937459",
    "request_type": "Trash/Recycling",
    "request_reason": "Replace Recycling Cart",
    "date_created": "2022-11-03T18:58:06.000",
    "date_modified": "2022-11-03T18:58:06.000",
    "request_status": "Pending",
    "responsible_agency": "Department of Sanitation",
    "final_address": "418 Chapelle St",
    "address_councildis": "A",
    "status": "Pending",
    "rowid": "937459",
    "final_x": "3667995.38932",
    "final_y": "552713.971286",
    "longitude": "-90.10999866912165",
    "latitude": "30.014175025661768",
    "geocoded_column": {
      "latitude": "30.014175025661768",
      "longitude": "-90.10999866912165"
    }
  },
  {
    "service_request": "2022-937458",
    "request_type": "Abandoned Vehicles",
    "request_reason": "Abandoned/Junk Vehicles",
    "date_created": "2022-11-03T18:57:16.000",
    "date_modified": "2022-11-03T18:57:16.000",
    "request_status": "Pending",
    "responsible_agency": "Department of Public Works",
    "final_address": "200 BLK N dOrgenois St",
    "address_councildis": "B",
    "status": "Pending",
    "rowid": "937458",
    "final_x": "3676158.42685",
    "final_y": "535247.827586",
    "longitude": "-90.08480884133276",
    "latitude": "29.96590705554997",
    "geocoded_column": {
      "latitude": "29.96590705554997",
      "longitude": "-90.08480884133276"
    }
  },
  {
    "service_request": "2022-937457",
    "request_type": "Trash/Recycling",
    "request_reason": "Order Recycling Cart",
    "date_created": "2022-11-03T18:54:03.000",
    "date_modified": "2022-11-03T18:54:03.000",
    "request_status": "Pending",
    "responsible_agency": "Department of Sanitation",
    "final_address": "941 Bartholomew St",
    "address_councildis": "C",
    "status": "Pending",
    "rowid": "937457",
    "final_x": "3691720.00643",
    "final_y": "534830.13063",
    "longitude": "-90.03568097557593",
    "latitude": "29.964283124645387",
    "geocoded_column": {
      "latitude": "29.964283124645387",
      "longitude": "-90.03568097557593"
    }
  },
  {
    "service_request": "2022-937456",
    "request_type": "Traffic Signals/Signs/Striping/Streetlights",
    "request_reason": "Street Light Outage/Malfunction",
    "date_created": "2022-11-03T18:53:36.000",
    "date_modified": "2022-11-03T18:53:37.000",
    "request_status": "Pending",
    "responsible_agency": "Department of Public Works",
    "final_address": "2500 BLK Saint Ann St",
    "address_councildis": "D",
    "status": "Pending",
    "contractor": "Legacy Professional Services",
    "rowid": "937456",
    "final_x": "3677550.2574",
    "final_y": "536741.788509",
    "longitude": "-90.08036189107317",
    "latitude": "29.969973165611165",
    "geocoded_column": {
      "latitude": "29.969973165611165",
      "longitude": "-90.08036189107317"
    }
  },
  {
    "service_request": "2022-937455",
    "request_type": "Trash/Recycling",
    "request_reason": "Order Recycling Cart",
    "date_created": "2022-11-03T18:53:05.000",
    "date_modified": "2022-11-03T18:53:06.000",
    "request_status": "Pending",
    "responsible_agency": "Department of Sanitation",
    "final_address": "2810 Bruxelles St",
    "address_councildis": "D",
    "status": "Pending",
    "contractor": "Metro Disposal",
    "rowid": "937455",
    "final_x": "3680276.03535",
    "final_y": "542693.120973",
    "longitude": "-90.07154665277822",
    "latitude": "29.986255026627674",
    "geocoded_column": {
      "latitude": "29.986255026627674",
      "longitude": "-90.07154665277822"
    }
  },
  {
    "service_request": "2022-937454",
    "request_type": "Trash/Recycling",
    "request_reason": "Order Trash Cart",
    "date_created": "2022-11-03T18:53:04.000",
    "date_modified": "2022-11-03T18:53:05.000",
    "request_status": "Pending",
    "responsible_agency": "Department of Sanitation",
    "final_address": "5107 Venus Street",
    "address_councildis": "D",
    "status": "Assigned to Contractor",
    "contractor": "Metro Disposal",
    "rowid": "937454",
    "final_x": "3686490.19644",
    "final_y": "551663.743317",
    "longitude": "-90.05160161338563",
    "latitude": "30.01073138292729",
    "geocoded_column": {
      "latitude": "30.01073138292729",
      "longitude": "-90.05160161338563"
    }
  },
  {
    "service_request": "2022-937453",
    "request_type": "Trash/Recycling",
    "request_reason": "Repair Trash Cart",
    "date_created": "2022-11-03T18:47:48.000",
    "date_modified": "2022-11-03T18:47:49.000",
    "request_status": "Pending",
    "responsible_agency": "Department of Sanitation",
    "final_address": "4711 Annette St",
    "address_councildis": "D",
    "status": "Assigned to Contractor",
    "contractor": "Metro Disposal",
    "rowid": "937453",
    "final_x": "3682125.55624",
    "final_y": "549889.188564",
    "longitude": "-90.06545323209602",
    "latitude": "30.00598552064449",
    "geocoded_column": {
      "latitude": "30.00598552064449",
      "longitude": "-90.06545323209602"
    }
  },
  {
    "service_request": "2022-937452",
    "request_type": "Trash/Recycling",
    "request_reason": "Order Recycling Cart",
    "date_created": "2022-11-03T18:47:32.000",
    "date_modified": "2022-11-03T18:47:33.000",
    "request_status": "Pending",
    "responsible_agency": "Department of Sanitation",
    "final_address": "4711 Annette St",
    "address_councildis": "D",
    "status": "Pending",
    "rowid": "937452",
    "final_x": "3682125.55624",
    "final_y": "549889.188564",
    "longitude": "-90.06545323209602",
    "latitude": "30.00598552064449",
    "geocoded_column": {
      "latitude": "30.00598552064449",
      "longitude": "-90.06545323209602"
    }
  },
  {
    "service_request": "2022-937451",
    "request_type": "Trash/Recycling",
    "request_reason": "Order Recycling Cart",
    "date_created": "2022-11-03T18:45:43.000",
    "date_modified": "2022-11-03T18:45:43.000",
    "request_status": "Pending",
    "responsible_agency": "Department of Sanitation",
    "final_address": "804 Voisin St",
    "address_councildis": "A",
    "status": "Pending",
    "rowid": "937451",
    "final_x": "3668674.04692",
    "final_y": "543168.225549",
    "longitude": "-90.10817691997994",
    "latitude": "29.98790759576167",
    "geocoded_column": {
      "latitude": "29.98790759576167",
      "longitude": "-90.10817691997994"
    }
  },
  {
    "service_request": "2022-937450",
    "request_type": "Trash/Recycling",
    "request_reason": "Replace Recycling Cart",
    "date_created": "2022-11-03T18:44:55.000",
    "date_modified": "2022-11-03T18:44:55.000",
    "request_status": "Pending",
    "responsible_agency": "Department of Sanitation",
    "final_address": "7060 Edgefield Dr",
    "address_councildis": "E",
    "status": "Pending",
    "rowid": "937450",
    "final_x": "3718651.84965",
    "final_y": "569198.151718",
    "longitude": "-89.94932259509427",
    "latitude": "30.057915501422944",
    "geocoded_column": {
      "latitude": "30.057915501422944",
      "longitude": "-89.94932259509427"
    }
  },
  {
    "service_request": "2022-937448",
    "request_type": "Trash/Recycling",
    "request_reason": "Order Recycling Cart",
    "date_created": "2022-11-03T18:42:44.000",
    "date_modified": "2022-11-03T18:42:45.000",
    "request_status": "Pending",
    "responsible_agency": "Department of Sanitation",
    "final_address": "1038 Desire St",
    "address_councildis": "C",
    "status": "Pending",
    "rowid": "937448",
    "final_x": "3690109.30134",
    "final_y": "535540.245382",
    "longitude": "-90.04074213627851",
    "latitude": "29.9662857499164",
    "geocoded_column": {
      "latitude": "29.9662857499164",
      "longitude": "-90.04074213627851"
    }
  },
  {
    "service_request": "2022-937447",
    "request_type": "Trash/Recycling",
    "request_reason": "Order Recycling Cart",
    "date_created": "2022-11-03T18:40:41.000",
    "date_modified": "2022-11-03T18:40:41.000",
    "request_status": "Pending",
    "responsible_agency": "Department of Sanitation",
    "final_address": "2318 New York St",
    "address_councildis": "D",
    "status": "Pending",
    "rowid": "937447",
    "final_x": "3684333.00137",
    "final_y": "556564.223578",
    "longitude": "-90.05824473106813",
    "latitude": "30.024272078985206",
    "geocoded_column": {
      "latitude": "30.024272078985206",
      "longitude": "-90.05824473106813"
    }
  },
  {
    "service_request": "2022-937445",
    "request_type": "Trash/Recycling",
    "request_reason": "Order Recycling Cart",
    "date_created": "2022-11-03T18:39:36.000",
    "date_modified": "2022-11-03T18:39:36.000",
    "request_status": "Pending",
    "responsible_agency": "Department of Sanitation",
    "final_address": "5371 Chamberlain Dr",
    "address_councildis": "D",
    "status": "Pending",
    "rowid": "937445",
    "final_x": "3679574.91746",
    "final_y": "552138.371222",
    "longitude": "-90.07343317656063",
    "latitude": "30.012247321443443",
    "geocoded_column": {
      "latitude": "30.012247321443443",
      "longitude": "-90.07343317656063"
    }
  },
  {
    "service_request": "2022-937444",
    "request_type": "Trash/Recycling",
    "request_reason": "Order Recycling Cart",
    "date_created": "2022-11-03T18:38:36.000",
    "date_modified": "2022-11-03T18:38:36.000",
    "request_status": "Pending",
    "responsible_agency": "Department of Sanitation",
    "final_address": "3250 Desaix Blvd",
    "address_councildis": "A",
    "status": "Pending",
    "rowid": "937444",
    "final_x": "3677875.25058",
    "final_y": "543479.131662",
    "longitude": "-90.07910263136345",
    "latitude": "29.988488756480038",
    "geocoded_column": {
      "latitude": "29.988488756480038",
      "longitude": "-90.07910263136345"
    }
  },
  {
    "service_request": "2022-937442",
    "request_type": "Trash/Recycling",
    "request_reason": "Order Recycling Cart",
    "date_created": "2022-11-03T18:37:28.000",
    "date_modified": "2022-11-03T18:37:28.000",
    "request_status": "Pending",
    "responsible_agency": "Department of Sanitation",
    "final_address": "7132 Dorian St",
    "address_councildis": "D",
    "status": "Pending",
    "rowid": "937442",
    "final_x": "3696049.15619",
    "final_y": "556895.251866",
    "longitude": "-90.02121203369884",
    "latitude": "30.024818587873774",
    "geocoded_column": {
      "latitude": "30.024818587873774",
      "longitude": "-90.02121203369884"
    }
  },
  {
    "service_request": "2022-937441",
    "request_type": "Trash/Recycling",
    "request_reason": "Order Recycling Cart",
    "date_created": "2022-11-03T18:35:51.000",
    "date_modified": "2022-11-03T18:35:52.000",
    "request_status": "Pending",
    "responsible_agency": "Department of Sanitation",
    "final_address": "7819 Buffalo St",
    "address_councildis": "E",
    "status": "Pending",
    "rowid": "937441",
    "final_x": "3719796.09919",
    "final_y": "573668.890922",
    "longitude": "-89.94553464743863",
    "latitude": "30.07017010803077",
    "geocoded_column": {
      "latitude": "30.07017010803077",
      "longitude": "-89.94553464743863"
    }
  },
  {
    "service_request": "2022-937440",
    "request_type": "Trash/Recycling",
    "request_reason": "Order Recycling Cart",
    "date_created": "2022-11-03T18:34:04.000",
    "date_modified": "2022-11-03T18:34:04.000",
    "request_status": "Pending",
    "responsible_agency": "Department of Sanitation",
    "final_address": "541 Warrington Dr, New Orleans, Louisiana, 70122",
    "address_councildis": "D",
    "status": "Pending",
    "rowid": "937440",
    "final_x": "3681259.53397",
    "final_y": "549262.025299",
    "longitude": "-90.06821107726226",
    "latitude": "30.00428736705639",
    "geocoded_column": {
      "latitude": "30.00428736705639",
      "longitude": "-90.06821107726226"
    }
  },
  {
    "service_request": "2022-937439",
    "request_type": "Trash/Recycling",
    "request_reason": "Order Recycling Cart",
    "date_created": "2022-11-03T18:28:53.000",
    "date_modified": "2022-11-03T18:28:53.000",
    "request_status": "Pending",
    "responsible_agency": "Department of Sanitation",
    "final_address": "2521 New York St",
    "address_councildis": "D",
    "status": "Pending",
    "rowid": "937439",
    "final_x": "3685775.2685",
    "final_y": "556743.671002",
    "longitude": "-90.05368110681435",
    "latitude": "30.024721283665357",
    "geocoded_column": {
      "latitude": "30.024721283665357",
      "longitude": "-90.05368110681435"
    }
  },
  {
    "service_request": "2022-937438",
    "request_type": "Trash/Recycling",
    "request_reason": "Order Recycling Cart",
    "date_created": "2022-11-03T18:27:38.000",
    "date_modified": "2022-11-03T18:27:38.000",
    "request_status": "Pending",
    "responsible_agency": "Department of Sanitation",
    "final_address": "1629 Foy St",
    "address_councildis": "D",
    "status": "Pending",
    "rowid": "937438",
    "final_x": "3679866.2157",
    "final_y": "546675.230161",
    "longitude": "-90.07270273437001",
    "latitude": "29.997216827038006",
    "geocoded_column": {
      "latitude": "29.997216827038006",
      "longitude": "-90.07270273437001"
    }
  },
  {
    "service_request": "2022-937437",
    "request_type": "Trash/Recycling",
    "request_reason": "Order Recycling Cart",
    "date_created": "2022-11-03T18:27:13.000",
    "date_modified": "2022-11-03T18:27:13.000",
    "request_status": "Pending",
    "responsible_agency": "Department of Sanitation",
    "final_address": "2827 Pine St",
    "address_councildis": "B",
    "status": "Pending",
    "rowid": "937437",
    "final_x": "3667226.45959",
    "final_y": "531637.631363",
    "longitude": "-90.1131372288892",
    "latitude": "29.9562447908055",
    "geocoded_column": {
      "latitude": "29.9562447908055",
      "longitude": "-90.1131372288892"
    }
  },
  {
    "service_request": "2022-937436",
    "request_type": "Trash/Recycling",
    "request_reason": "Missed Trash Pick-Up",
    "date_created": "2022-11-03T18:25:37.000",
    "date_modified": "2022-11-03T18:25:37.000",
    "request_status": "Pending",
    "responsible_agency": "Department of Sanitation",
    "final_address": "2415 Magnolia St",
    "address_councildis": "B",
    "status": "Assigned to Contractor",
    "contractor": "Richards Disposal",
    "rowid": "937436",
    "final_x": "3674638.72289",
    "final_y": "526462.09715",
    "longitude": "-90.08990910609505",
    "latitude": "29.941794664525467",
    "geocoded_column": {
      "latitude": "29.941794664525467",
      "longitude": "-90.08990910609505"
    }
  },
  {
    "service_request": "2022-937435",
    "request_type": "Trash/Recycling",
    "request_reason": "Order Recycling Cart",
    "date_created": "2022-11-03T18:25:06.000",
    "date_modified": "2022-11-03T18:25:06.000",
    "request_status": "Pending",
    "responsible_agency": "Department of Sanitation",
    "final_address": "8 Melodia Ct",
    "address_councildis": "A",
    "status": "Pending",
    "rowid": "937435",
    "final_x": "3667468.50714",
    "final_y": "527187.713663",
    "longitude": "-90.11252262860751",
    "latitude": "29.94400187599131",
    "geocoded_column": {
      "latitude": "29.94400187599131",
      "longitude": "-90.11252262860751"
    }
  },
  {
    "service_request": "2022-937434",
    "request_type": "Trash/Recycling",
    "request_reason": "Order Trash Cart",
    "date_created": "2022-11-03T18:25:05.000",
    "date_modified": "2022-11-03T18:25:06.000",
    "request_status": "Pending",
    "responsible_agency": "Department of Sanitation",
    "final_address": "5523 Dayna Ct",
    "address_councildis": "A",
    "status": "Assigned to Contractor",
    "contractor": "Metro Disposal",
    "rowid": "937434",
    "final_x": "3664549.8089",
    "final_y": "543919.96699",
    "longitude": "-90.12117894699853",
    "latitude": "29.99009523764359",
    "geocoded_column": {
      "latitude": "29.99009523764359",
      "longitude": "-90.12117894699853"
    }
  },
  {
    "service_request": "2022-937433",
    "request_type": "Trash/Recycling",
    "request_reason": "Order Recycling Cart",
    "date_created": "2022-11-03T18:24:49.000",
    "date_modified": "2022-11-03T18:24:49.000",
    "request_status": "Pending",
    "responsible_agency": "Department of Sanitation",
    "final_address": "2521 New York St",
    "address_councildis": "D",
    "status": "Pending",
    "rowid": "937433",
    "final_x": "3685775.2685",
    "final_y": "556743.671002",
    "longitude": "-90.05368110681435",
    "latitude": "30.024721283665357",
    "geocoded_column": {
      "latitude": "30.024721283665357",
      "longitude": "-90.05368110681435"
    }
  },
  {
    "service_request": "2022-937432",
    "request_type": "Trash/Recycling",
    "request_reason": "Repair Recycling Cart",
    "date_created": "2022-11-03T18:24:12.000",
    "date_modified": "2022-11-03T18:24:12.000",
    "request_status": "Pending",
    "responsible_agency": "Department of Sanitation",
    "final_address": "2719 Pine St",
    "address_councildis": "B",
    "status": "Pending",
    "rowid": "937432",
    "final_x": "3667064.95809",
    "final_y": "531326.021954",
    "longitude": "-90.11365767177112",
    "latitude": "29.95539269486613",
    "geocoded_column": {
      "latitude": "29.95539269486613",
      "longitude": "-90.11365767177112"
    }
  },
  {
    "service_request": "2022-937431",
    "request_type": "Trash/Recycling",
    "request_reason": "Order Recycling Cart",
    "date_created": "2022-11-03T18:23:24.000",
    "date_modified": "2022-11-03T18:23:24.000",
    "request_status": "Pending",
    "responsible_agency": "Department of Sanitation",
    "final_address": "6954 General Haig St",
    "address_councildis": "A",
    "status": "Pending",
    "rowid": "937431",
    "final_x": "3671001.86004",
    "final_y": "553417.312663",
    "longitude": "-90.10047579884402",
    "latitude": "30.016020364280113",
    "geocoded_column": {
      "latitude": "30.016020364280113",
      "longitude": "-90.10047579884402"
    }
  },
  {
    "service_request": "2022-937430",
    "request_type": "Trash/Recycling",
    "request_reason": "Repair Recycling Cart",
    "date_created": "2022-11-03T18:22:51.000",
    "date_modified": "2022-11-03T18:22:51.000",
    "request_status": "Pending",
    "responsible_agency": "Department of Sanitation",
    "final_address": "3721 Rue Mignon",
    "address_councildis": "C",
    "status": "Pending",
    "rowid": "937430",
    "final_x": "3703244.86398",
    "final_y": "516822.560117",
    "longitude": "-89.99994842883623",
    "latitude": "29.914404727590732",
    "geocoded_column": {
      "latitude": "29.914404727590732",
      "longitude": "-89.99994842883623"
    }
  },
  {
    "service_request": "2022-937429",
    "request_type": "Trash/Recycling",
    "request_reason": "Order Recycling Cart",
    "date_created": "2022-11-03T18:17:53.000",
    "date_modified": "2022-11-03T18:17:53.000",
    "request_status": "Pending",
    "responsible_agency": "Department of Sanitation",
    "final_address": "5523 Dayna Ct",
    "address_councildis": "A",
    "status": "Pending",
    "rowid": "937429",
    "final_x": "3664549.8089",
    "final_y": "543919.96699",
    "longitude": "-90.12117894699853",
    "latitude": "29.99009523764359",
    "geocoded_column": {
      "latitude": "29.99009523764359",
      "longitude": "-90.12117894699853"
    }
  },
  {
    "service_request": "2022-937428",
    "request_type": "Trash/Recycling",
    "request_reason": "Missed Trash Pick-Up",
    "date_created": "2022-11-03T18:17:21.000",
    "date_modified": "2022-11-03T18:17:22.000",
    "request_status": "Pending",
    "responsible_agency": "Department of Sanitation",
    "final_address": "719 Ninth St",
    "address_councildis": "B",
    "status": "Assigned to Contractor",
    "contractor": "Richards Disposal",
    "rowid": "937428",
    "final_x": "3676638.94773",
    "final_y": "518953.604919",
    "longitude": "-90.0838524787258",
    "latitude": "29.92108892410324",
    "geocoded_column": {
      "latitude": "29.92108892410324",
      "longitude": "-90.0838524787258"
    }
  },
  {
    "service_request": "2022-937427",
    "request_type": "Trash/Recycling",
    "request_reason": "Missed Trash Pick-Up",
    "date_created": "2022-11-03T18:12:38.000",
    "date_modified": "2022-11-03T18:12:38.000",
    "request_status": "Pending",
    "responsible_agency": "Department of Sanitation",
    "final_address": "3601 Franklin Ave",
    "address_councildis": "D",
    "status": "Assigned to Contractor",
    "contractor": "Metro Disposal",
    "rowid": "937427",
    "final_x": "3687224.25711",
    "final_y": "546110.127184",
    "longitude": "-90.04947903007469",
    "latitude": "29.995438356936866",
    "geocoded_column": {
      "latitude": "29.995438356936866",
      "longitude": "-90.04947903007469"
    }
  },
  {
    "service_request": "2022-937426",
    "request_type": "Property Maintenance",
    "request_reason": "Property Maintenance",
    "date_created": "2022-11-03T18:11:17.000",
    "date_modified": "2022-11-03T18:11:17.000",
    "request_status": "Pending",
    "responsible_agency": "Department of Code Enforcement",
    "final_address": "1443 N Roman St",
    "address_councildis": "D",
    "status": "Pending",
    "rowid": "937426",
    "final_x": "3680930.1604",
    "final_y": "537387.672392",
    "longitude": "-90.06966533643815",
    "latitude": "29.971647066052427",
    "geocoded_column": {
      "latitude": "29.971647066052427",
      "longitude": "-90.06966533643815"
    }
  },
  {
    "service_request": "2022-937424",
    "request_type": "Trash/Recycling",
    "request_reason": "Replace Trash Cart",
    "date_created": "2022-11-03T18:09:53.000",
    "date_modified": "2022-11-03T18:09:53.000",
    "request_status": "Pending",
    "responsible_agency": "Department of Sanitation",
    "final_address": "57 English Turn Dr",
    "address_councildis": "C",
    "status": "Assigned to Contractor",
    "contractor": "Richards Disposal",
    "rowid": "937424",
    "final_x": "3721474.41042",
    "final_y": "513180.11909",
    "longitude": "-89.94255009171836",
    "latitude": "29.90379343667098",
    "geocoded_column": {
      "latitude": "29.90379343667098",
      "longitude": "-89.94255009171836"
    }
  },
  {
    "service_request": "2022-937423",
    "request_type": "Trash/Recycling",
    "request_reason": "Order Recycling Cart",
    "date_created": "2022-11-03T18:09:23.000",
    "date_modified": "2022-11-03T18:09:23.000",
    "request_status": "Pending",
    "responsible_agency": "Department of Sanitation",
    "final_address": "5728 Royal St",
    "address_councildis": "E",
    "status": "Pending",
    "rowid": "937423",
    "final_x": "3698152.85239",
    "final_y": "532085.250243",
    "longitude": "-90.01546638907543",
    "latitude": "29.956533794555778",
    "geocoded_column": {
      "latitude": "29.956533794555778",
      "longitude": "-90.01546638907543"
    }
  },
  {
    "service_request": "2022-937422",
    "request_type": "Trash/Recycling",
    "request_reason": "Replace Recycling Cart",
    "date_created": "2022-11-03T18:09:14.000",
    "date_modified": "2022-11-03T18:09:14.000",
    "request_status": "Pending",
    "responsible_agency": "Department of Sanitation",
    "final_address": "2816 Orleans Ave",
    "address_councildis": "A",
    "status": "Pending",
    "rowid": "937422",
    "final_x": "3676159.07048",
    "final_y": "537405.583624",
    "longitude": "-90.08473255648053",
    "latitude": "29.97184013206989",
    "geocoded_column": {
      "latitude": "29.97184013206989",
      "longitude": "-90.08473255648053"
    }
  },
  {
    "service_request": "2022-937421",
    "request_type": "Trash/Recycling",
    "request_reason": "Replace Trash Cart",
    "date_created": "2022-11-03T18:03:55.000",
    "date_modified": "2022-11-03T18:03:56.000",
    "request_status": "Pending",
    "responsible_agency": "Department of Sanitation",
    "final_address": "2035 Almonaster Ave",
    "address_councildis": "D",
    "status": "Assigned to Contractor",
    "contractor": "Metro Disposal",
    "rowid": "937421",
    "final_x": "3688090.50614",
    "final_y": "540120.400715",
    "longitude": "-90.04695505591678",
    "latitude": "29.978942032661326",
    "geocoded_column": {
      "latitude": "29.978942032661326",
      "longitude": "-90.04695505591678"
    }
  },
  {
    "service_request": "2022-937420",
    "request_type": "Trash/Recycling",
    "request_reason": "MIssed Recycling Pick-Up",
    "date_created": "2022-11-03T18:03:05.000",
    "date_modified": "2022-11-03T18:03:05.000",
    "request_status": "Pending",
    "responsible_agency": "Department of Sanitation",
    "final_address": "857 Bungalow Ct",
    "address_councildis": "A",
    "status": "Assigned to Contractor",
    "contractor": "Richards Disposal",
    "rowid": "937420",
    "final_x": "3672636.86542",
    "final_y": "540780.142667",
    "longitude": "-90.09574114765643",
    "latitude": "29.981224086015747",
    "geocoded_column": {
      "latitude": "29.981224086015747",
      "longitude": "-90.09574114765643"
    }
  },
  {
    "service_request": "2022-937418",
    "request_type": "Trash/Recycling",
    "request_reason": "Order Recycling Cart",
    "date_created": "2022-11-03T18:01:34.000",
    "date_modified": "2022-11-03T18:01:34.000",
    "request_status": "Pending",
    "responsible_agency": "Department of Sanitation",
    "final_address": "2617 Danneel St",
    "address_councildis": "B",
    "status": "Pending",
    "rowid": "937418",
    "final_x": "3675487.8132",
    "final_y": "524006.052988",
    "longitude": "-90.08731267157579",
    "latitude": "29.93501598501583",
    "geocoded_column": {
      "latitude": "29.93501598501583",
      "longitude": "-90.08731267157579"
    }
  },
  {
    "service_request": "2022-937417",
    "request_type": "Trash/Recycling",
    "request_reason": "Repair Recycling Cart",
    "date_created": "2022-11-03T18:00:39.000",
    "date_modified": "2022-11-03T18:00:39.000",
    "request_status": "Pending",
    "responsible_agency": "Department of Sanitation",
    "final_address": "425 20Th St",
    "address_councildis": "A",
    "status": "Pending",
    "rowid": "937417",
    "final_x": "3664592.20045",
    "final_y": "549107.975123",
    "longitude": "-90.12087163904582",
    "latitude": "30.004359252805486",
    "geocoded_column": {
      "latitude": "30.004359252805486",
      "longitude": "-90.12087163904582"
    }
  },
  {
    "service_request": "2022-937416",
    "request_type": "Trash/Recycling",
    "request_reason": "Order Recycling Cart",
    "date_created": "2022-11-03T18:00:35.000",
    "date_modified": "2022-11-03T18:00:36.000",
    "request_status": "Pending",
    "responsible_agency": "Department of Sanitation",
    "final_address": "2114 Marais St",
    "address_councildis": "C",
    "status": "Pending",
    "rowid": "937416",
    "final_x": "3684704.43311",
    "final_y": "536611.304263",
    "longitude": "-90.05777292773605",
    "latitude": "29.96939733256535",
    "geocoded_column": {
      "latitude": "29.96939733256535",
      "longitude": "-90.05777292773605"
    }
  },
  {
    "service_request": "2022-937415",
    "request_type": "Trash/Recycling",
    "request_reason": "Order Recycling Cart",
    "date_created": "2022-11-03T18:00:23.000",
    "date_modified": "2022-11-03T18:00:24.000",
    "request_status": "Pending",
    "responsible_agency": "Department of Sanitation",
    "final_address": "2141 Abundance St",
    "address_councildis": "D",
    "status": "Pending",
    "rowid": "937415",
    "final_x": "3684049.28533",
    "final_y": "543678.346446",
    "longitude": "-90.0595938391814",
    "latitude": "29.98884925879738",
    "geocoded_column": {
      "latitude": "29.98884925879738",
      "longitude": "-90.0595938391814"
    }
  },
  {
    "service_request": "2022-937414",
    "request_type": "Trash/Recycling",
    "request_reason": "Repair Recycling Cart",
    "date_created": "2022-11-03T17:59:32.000",
    "date_modified": "2022-11-03T17:59:32.000",
    "request_status": "Pending",
    "responsible_agency": "Department of Sanitation",
    "final_address": "5641 Marcia Ave",
    "address_councildis": "A",
    "status": "Pending",
    "rowid": "937414",
    "final_x": "3664966.18234",
    "final_y": "545207.901199",
    "longitude": "-90.11982064289911",
    "latitude": "29.993624500824094",
    "geocoded_column": {
      "latitude": "29.993624500824094",
      "longitude": "-90.11982064289911"
    }
  },
  {
    "service_request": "2022-937413",
    "request_type": "Trash/Recycling",
    "request_reason": "Order Recycling Cart",
    "date_created": "2022-11-03T17:53:32.000",
    "date_modified": "2022-11-03T17:53:32.000",
    "request_status": "Pending",
    "responsible_agency": "Department of Sanitation",
    "final_address": "1766 N Dorgenois St",
    "address_councildis": "D",
    "status": "Pending",
    "rowid": "937413",
    "final_x": "3680365.83426",
    "final_y": "540785.430667",
    "longitude": "-90.07132937810145",
    "latitude": "29.981006825232825",
    "geocoded_column": {
      "latitude": "29.981006825232825",
      "longitude": "-90.07132937810145"
    }
  },
  {
    "service_request": "2022-937412",
    "request_type": "Trash/Recycling",
    "request_reason": "Illegal Dumping",
    "date_created": "2022-11-03T17:52:48.000",
    "date_modified": "2022-11-03T17:52:48.000",
    "request_status": "Pending",
    "responsible_agency": "Department of Sanitation",
    "final_address": "4219 N Claiborne Ave",
    "address_councildis": "D",
    "status": "Pending",
    "rowid": "937412",
    "final_x": "3693026.99401",
    "final_y": "537022.488136",
    "longitude": "-90.03147497410414",
    "latitude": "29.97027056918445",
    "geocoded_column": {
      "latitude": "29.97027056918445",
      "longitude": "-90.03147497410414"
    }
  },
  {
    "service_request": "2022-937411",
    "request_type": "Trash/Recycling",
    "request_reason": "Order Trash Cart",
    "date_created": "2022-11-03T17:52:13.000",
    "date_modified": "2022-11-03T17:52:14.000",
    "request_status": "Pending",
    "responsible_agency": "Department of Sanitation",
    "final_address": "1766 N Dorgenois St",
    "address_councildis": "D",
    "status": "Assigned to Contractor",
    "contractor": "Metro Disposal",
    "rowid": "937411",
    "final_x": "3680365.83426",
    "final_y": "540785.430667",
    "longitude": "-90.07132937810145",
    "latitude": "29.981006825232825",
    "geocoded_column": {
      "latitude": "29.981006825232825",
      "longitude": "-90.07132937810145"
    }
  },
  {
    "service_request": "2022-937410",
    "request_type": "Trash/Recycling",
    "request_reason": "Order Recycling Cart",
    "date_created": "2022-11-03T17:51:10.000",
    "date_modified": "2022-11-03T17:51:10.000",
    "request_status": "Pending",
    "responsible_agency": "Department of Sanitation",
    "final_address": "7100 W Laverne St",
    "address_councildis": "D",
    "status": "Pending",
    "rowid": "937410",
    "final_x": "3695801.63491",
    "final_y": "556648.60745",
    "longitude": "-90.02200307519941",
    "latitude": "30.024148200635857",
    "geocoded_column": {
      "latitude": "30.024148200635857",
      "longitude": "-90.02200307519941"
    }
  },
  {
    "service_request": "2022-937409",
    "request_type": "Trash/Recycling",
    "request_reason": "Missed Trash Pick-Up",
    "date_created": "2022-11-03T17:50:24.000",
    "date_modified": "2022-11-03T17:50:25.000",
    "request_status": "Pending",
    "responsible_agency": "Department of Sanitation",
    "final_address": "2519 Loyola Ave",
    "address_councildis": "B",
    "status": "Assigned to Contractor",
    "contractor": "Richards Disposal",
    "rowid": "937409",
    "final_x": "3675325.86101",
    "final_y": "524742.52422",
    "longitude": "-90.08779868069543",
    "latitude": "29.937045881826396",
    "geocoded_column": {
      "latitude": "29.937045881826396",
      "longitude": "-90.08779868069543"
    }
  },
  {
    "service_request": "2022-937408",
    "request_type": "Trash/Recycling",
    "request_reason": "Missed Trash Pick-Up",
    "date_created": "2022-11-03T17:49:40.000",
    "date_modified": "2022-11-03T17:49:41.000",
    "request_status": "Pending",
    "responsible_agency": "Department of Sanitation",
    "final_address": "1500 BLK Euterpe St",
    "address_councildis": "B",
    "status": "Assigned to Contractor",
    "contractor": "Richards Disposal",
    "rowid": "937408",
    "final_x": "3679119.74671",
    "final_y": "524865.713508",
    "longitude": "-90.07581690165311",
    "latitude": "29.937270670782674",
    "geocoded_column": {
      "latitude": "29.937270670782674",
      "longitude": "-90.07581690165311"
    }
  },
  {
    "service_request": "2022-937407",
    "request_type": "Trash/Recycling",
    "request_reason": "Order Recycling Cart",
    "date_created": "2022-11-03T17:49:25.000",
    "date_modified": "2022-11-03T17:49:25.000",
    "request_status": "Pending",
    "responsible_agency": "Department of Sanitation",
    "final_address": "1521 Harcourt Dr",
    "address_councildis": "D",
    "status": "Pending",
    "rowid": "937407",
    "final_x": "3679041.06728",
    "final_y": "548623.474259",
    "longitude": "-90.0752417724118",
    "latitude": "30.0025987427065",
    "geocoded_column": {
      "latitude": "30.0025987427065",
      "longitude": "-90.0752417724118"
    }
  },
  {
    "service_request": "2022-937406",
    "request_type": "Property Maintenance",
    "request_reason": "Property Maintenance",
    "date_created": "2022-11-03T17:49:13.000",
    "date_modified": "2022-11-03T17:49:13.000",
    "request_status": "Pending",
    "responsible_agency": "Department of Code Enforcement",
    "final_address": "4219 N Claiborne Ave",
    "address_councildis": "D",
    "status": "Pending",
    "rowid": "937406",
    "final_x": "3693026.99401",
    "final_y": "537022.488136",
    "longitude": "-90.03147497410414",
    "latitude": "29.97027056918445",
    "geocoded_column": {
      "latitude": "29.97027056918445",
      "longitude": "-90.03147497410414"
    }
  },
  {
    "service_request": "2022-937405",
    "request_type": "Trash/Recycling",
    "request_reason": "Order Recycling Cart",
    "date_created": "2022-11-03T17:47:35.000",
    "date_modified": "2022-11-03T17:47:35.000",
    "request_status": "Pending",
    "responsible_agency": "Department of Sanitation",
    "final_address": "7300 Arbor Dr",
    "address_councildis": "E",
    "status": "Pending",
    "rowid": "937405",
    "final_x": "3700893.9562",
    "final_y": "557956.632667",
    "longitude": "-90.00586451502095",
    "latitude": "30.027583541042922",
    "geocoded_column": {
      "latitude": "30.027583541042922",
      "longitude": "-90.00586451502095"
    }
  },
  {
    "service_request": "2022-937404",
    "request_type": "Trash/Recycling",
    "request_reason": "Order Recycling Cart",
    "date_created": "2022-11-03T17:47:22.000",
    "date_modified": "2022-11-03T17:47:23.000",
    "request_status": "Pending",
    "responsible_agency": "Department of Sanitation",
    "final_address": "7555 Michigan St",
    "address_councildis": "E",
    "status": "Pending",
    "rowid": "937404",
    "final_x": "3712058.00312",
    "final_y": "566171.565987",
    "longitude": "-89.97027856465195",
    "latitude": "30.049810965478862",
    "geocoded_column": {
      "latitude": "30.049810965478862",
      "longitude": "-89.97027856465195"
    }
  },
  {
    "service_request": "2022-937403",
    "request_type": "Trash/Recycling",
    "request_reason": "Replace Trash Cart",
    "date_created": "2022-11-03T17:47:22.000",
    "date_modified": "2022-11-03T17:47:23.000",
    "request_status": "Pending",
    "responsible_agency": "Department of Sanitation",
    "final_address": "1521 Harcourt Dr",
    "address_councildis": "D",
    "status": "Assigned to Contractor",
    "contractor": "Metro Disposal",
    "rowid": "937403",
    "final_x": "3679041.06728",
    "final_y": "548623.474259",
    "longitude": "-90.0752417724118",
    "latitude": "30.0025987427065",
    "geocoded_column": {
      "latitude": "30.0025987427065",
      "longitude": "-90.0752417724118"
    }
  },
  {
    "service_request": "2022-937402",
    "request_type": "Trash/Recycling",
    "request_reason": "Replace Trash Cart",
    "date_created": "2022-11-03T17:47:16.000",
    "date_modified": "2022-11-03T17:47:17.000",
    "request_status": "Pending",
    "responsible_agency": "Department of Sanitation",
    "final_address": "1822 N Gayoso St",
    "address_councildis": "D",
    "status": "Assigned to Contractor",
    "contractor": "Metro Disposal",
    "rowid": "937402",
    "final_x": "3679297.22946",
    "final_y": "542149.394573",
    "longitude": "-90.07465718759217",
    "latitude": "29.984789569663153",
    "geocoded_column": {
      "latitude": "29.984789569663153",
      "longitude": "-90.07465718759217"
    }
  },
  {
    "service_request": "2022-937401",
    "request_type": "Trash/Recycling",
    "request_reason": "Order Recycling Cart",
    "date_created": "2022-11-03T17:44:17.000",
    "date_modified": "2022-11-03T17:44:18.000",
    "request_status": "Pending",
    "responsible_agency": "Department of Sanitation",
    "final_address": "6721 Canal Blvd",
    "address_councildis": "A",
    "status": "Pending",
    "rowid": "937401",
    "final_x": "3669095.14593",
    "final_y": "552214.12815",
    "longitude": "-90.10654088841912",
    "latitude": "30.012768302887103",
    "geocoded_column": {
      "latitude": "30.012768302887103",
      "longitude": "-90.10654088841912"
    }
  },
  {
    "service_request": "2022-937400",
    "request_type": "Trash/Recycling",
    "request_reason": "Order Recycling Cart",
    "date_created": "2022-11-03T17:43:31.000",
    "date_modified": "2022-11-03T17:43:31.000",
    "request_status": "Pending",
    "responsible_agency": "Department of Sanitation",
    "final_address": "4301 Jeanne Marie Pl",
    "address_councildis": "D",
    "status": "Pending",
    "rowid": "937400",
    "final_x": "3678653.68859",
    "final_y": "548082.35861",
    "longitude": "-90.07648430331521",
    "latitude": "30.00112255628835",
    "geocoded_column": {
      "latitude": "30.00112255628835",
      "longitude": "-90.07648430331521"
    }
  },
  {
    "service_request": "2022-937399",
    "request_type": "Trash/Recycling",
    "request_reason": "Order Recycling Cart",
    "date_created": "2022-11-03T17:42:23.000",
    "date_modified": "2022-11-03T17:42:23.000",
    "request_status": "Pending",
    "responsible_agency": "Department of Sanitation",
    "final_address": "7601 Branch Dr",
    "address_councildis": "E",
    "status": "Pending",
    "rowid": "937399",
    "final_x": "3714907.85528",
    "final_y": "568520.869157",
    "longitude": "-89.96118242919847",
    "latitude": "30.056177064507995",
    "geocoded_column": {
      "latitude": "30.056177064507995",
      "longitude": "-89.96118242919847"
    }
  },
  {
    "service_request": "2022-937398",
    "request_type": "Trash/Recycling",
    "request_reason": "Order Recycling Cart",
    "date_created": "2022-11-03T17:42:04.000",
    "date_modified": "2022-11-03T17:42:04.000",
    "request_status": "Pending",
    "responsible_agency": "Department of Sanitation",
    "final_address": "5240 Basinview Dr",
    "address_councildis": "E",
    "status": "Pending",
    "rowid": "937398",
    "final_x": "3698921.11434",
    "final_y": "556926.616858",
    "longitude": "-90.01213603292248",
    "latitude": "30.02481408907335",
    "geocoded_column": {
      "latitude": "30.02481408907335",
      "longitude": "-90.01213603292248"
    }
  },
  {
    "service_request": "2022-937397",
    "request_type": "Trash/Recycling",
    "request_reason": "Order Recycling Cart",
    "date_created": "2022-11-03T17:40:18.000",
    "date_modified": "2022-11-03T17:40:18.000",
    "request_status": "Pending",
    "responsible_agency": "Department of Sanitation",
    "final_address": "1378 Annette St",
    "address_councildis": "C",
    "status": "Pending",
    "rowid": "937397",
    "final_x": "3683033.14312",
    "final_y": "537174.593352",
    "longitude": "-90.06303126741315",
    "latitude": "29.970997234000194",
    "geocoded_column": {
      "latitude": "29.970997234000194",
      "longitude": "-90.06303126741315"
    }
  },
  {
    "service_request": "2022-937395",
    "request_type": "Trash/Recycling",
    "request_reason": "Order Trash Cart",
    "date_created": "2022-11-03T17:38:56.000",
    "date_modified": "2022-11-03T17:38:57.000",
    "request_status": "Pending",
    "responsible_agency": "Department of Sanitation",
    "final_address": "6209 Wadsworth Dr",
    "address_councildis": "D",
    "status": "Assigned to Contractor",
    "contractor": "Metro Disposal",
    "rowid": "937395",
    "final_x": "3681703.11343",
    "final_y": "555776.192409",
    "longitude": "-90.06658221878077",
    "latitude": "30.022185489326038",
    "geocoded_column": {
      "latitude": "30.022185489326038",
      "longitude": "-90.06658221878077"
    }
  },
  {
    "service_request": "2022-937394",
    "request_type": "Trash/Recycling",
    "request_reason": "Order Recycling Cart",
    "date_created": "2022-11-03T17:36:37.000",
    "date_modified": "2022-11-03T17:36:37.000",
    "request_status": "Pending",
    "responsible_agency": "Department of Sanitation",
    "final_address": "4040 Vendome Pl",
    "address_councildis": "B",
    "status": "Pending",
    "rowid": "937394",
    "final_x": "3668696.02318",
    "final_y": "530268.034369",
    "longitude": "-90.10854305394817",
    "latitude": "29.952435736361668",
    "geocoded_column": {
      "latitude": "29.952435736361668",
      "longitude": "-90.10854305394817"
    }
  },
  {
    "service_request": "2022-937393",
    "request_type": "Roads/Drainage",
    "request_reason": "Pothole",
    "date_created": "2022-11-03T17:34:07.000",
    "date_modified": "2022-11-03T17:34:07.000",
    "request_status": "Pending",
    "responsible_agency": "Department of Public Works",
    "final_address": "1835 Aubry St, New Orleans, Louisiana, 70116",
    "status": "Pending",
    "rowid": "937393",
    "longitude": "0.0",
    "latitude": "0.0",
    "geocoded_column": {
      "latitude": "0.0",
      "longitude": "0.0"
    }
  },
  {
    "service_request": "2022-937392",
    "request_type": "Trash/Recycling",
    "request_reason": "Replace Trash Cart",
    "date_created": "2022-11-03T17:32:54.000",
    "date_modified": "2022-11-03T17:32:55.000",
    "request_status": "Pending",
    "responsible_agency": "Department of Sanitation",
    "final_address": "1828 Aubry St, New Orleans, Louisiana, 70116",
    "address_councildis": "D",
    "status": "Assigned to Contractor",
    "contractor": "Metro Disposal",
    "rowid": "937392",
    "final_x": "3682046.09352",
    "final_y": "539225.014474",
    "longitude": "-90.0660768795682",
    "latitude": "29.976665232732636",
    "geocoded_column": {
      "latitude": "29.976665232732636",
      "longitude": "-90.0660768795682"
    }
  },
  {
    "service_request": "2022-937391",
    "request_type": "Trash/Recycling",
    "request_reason": "Start Trash Service",
    "date_created": "2022-11-03T17:32:28.000",
    "date_modified": "2022-11-03T17:32:29.000",
    "request_status": "Pending",
    "responsible_agency": "Department of Sanitation",
    "final_address": "5719 Royal St",
    "address_councildis": "E",
    "status": "Assigned to Contractor",
    "contractor": "Metro Disposal",
    "rowid": "937391",
    "final_x": "3698141.2296",
    "final_y": "532178.580099",
    "longitude": "-90.01549970042372",
    "latitude": "29.956790786206668",
    "geocoded_column": {
      "latitude": "29.956790786206668",
      "longitude": "-90.01549970042372"
    }
  },
  {
    "service_request": "2022-937388",
    "request_type": "Trash/Recycling",
    "request_reason": "Repair Recycling Cart",
    "date_created": "2022-11-03T17:30:16.000",
    "date_modified": "2022-11-03T17:30:17.000",
    "case_close_date": "2022-08-28T19:00:00.000",
    "request_status": "Pending",
    "responsible_agency": "Department of Sanitation",
    "final_address": "98 E Park Pl",
    "address_councildis": "A",
    "status": "Pending",
    "rowid": "937388",
    "final_x": "3670221.81326",
    "final_y": "544545.277391",
    "longitude": "-90.10324133554637",
    "latitude": "29.991648420554714",
    "geocoded_column": {
      "latitude": "29.991648420554714",
      "longitude": "-90.10324133554637"
    }
  },
  {
    "service_request": "2022-937387",
    "request_type": "Trash/Recycling",
    "request_reason": "Order Recycling Cart",
    "date_created": "2022-11-03T17:29:25.000",
    "date_modified": "2022-11-03T17:29:25.000",
    "request_status": "Pending",
    "responsible_agency": "Department of Sanitation",
    "final_address": "764 Germain St",
    "address_councildis": "A",
    "status": "Pending",
    "rowid": "937387",
    "final_x": "3669190.13185",
    "final_y": "547794.951826",
    "longitude": "-90.10639028834534",
    "latitude": "30.000614316556526",
    "geocoded_column": {
      "latitude": "30.000614316556526",
      "longitude": "-90.10639028834534"
    }
  },
  {
    "service_request": "2022-937386",
    "request_type": "Trash/Recycling",
    "request_reason": "Repair Recycling Cart",
    "date_created": "2022-11-03T17:27:20.000",
    "date_modified": "2022-11-03T17:34:06.000",
    "request_status": "Pending",
    "responsible_agency": "Department of Sanitation",
    "final_address": "New Orleans,LA",
    "address_councildis": "C",
    "rowid": "937386",
    "final_x": "3691043.19011",
    "final_y": "534617.625926",
    "longitude": "-90.03782588548044",
    "latitude": "29.963719869593845",
    "geocoded_column": {
      "latitude": "29.963719869593845",
      "longitude": "-90.03782588548044"
    }
  },
  {
    "service_request": "2022-937385",
    "request_type": "Traffic Signals/Signs/Striping/Streetlights",
    "request_reason": "Street Light Outage/Malfunction",
    "date_created": "2022-11-03T17:26:41.000",
    "date_modified": "2022-11-03T17:26:41.000",
    "request_status": "Pending",
    "responsible_agency": "Department of Public Works",
    "final_address": "DE BATTISTA PL & GENERAL MEYER AVE",
    "address_councildis": "C",
    "status": "Pending",
    "contractor": "Legacy Professional Services",
    "rowid": "937385",
    "final_x": "3699704.9",
    "final_y": "524391.51",
    "longitude": "-90.01084595721322",
    "latitude": "29.935329535432817",
    "geocoded_column": {
      "latitude": "29.935329535432817",
      "longitude": "-90.01084595721322"
    }
  },
  {
    "service_request": "2022-937384",
    "request_type": "Trash/Recycling",
    "request_reason": "Order Recycling Cart",
    "date_created": "2022-11-03T17:25:51.000",
    "date_modified": "2022-11-03T17:25:51.000",
    "request_status": "Pending",
    "responsible_agency": "Department of Sanitation",
    "final_address": "4314 Annette St",
    "address_councildis": "D",
    "status": "Pending",
    "rowid": "937384",
    "final_x": "3682112.49538",
    "final_y": "548454.404306",
    "longitude": "-90.06554464681341",
    "latitude": "30.00204077665038",
    "geocoded_column": {
      "latitude": "30.00204077665038",
      "longitude": "-90.06554464681341"
    }
  },