[
  {
    "service_request": "2025-1198710",
    "request_type": "Road Striping",
    "request_reason": "Bike Lane",
    "date_created": "2025-06-05T23:56:28.000",
    "date_modified": "2025-06-05T23:56:29.000",
    "request_status": "Pending",
    "responsible_agency": "Department of Public Works",
    "final_address": "540 S Broad St",
    "address_councildis": "B",
    "status": "Pending",
    "rowid": "1198710",
    "final_x": "3674171.78241",
    "final_y": "533407.733636",
    "longitude": "-90.09114560889088",
    "latitude": "29.96090678730102",
    "geocoded_column": {
      "latitude": "29.96090678730102",
      "longitude": "-90.09114560889088"
    }
  },
  {
    "service_request": "2025-1198709",
    "request_type": "Property Maintenance",
    "request_reason": "Property Maintenance",
    "date_created": "2025-06-05T23:52:57.000",
    "date_modified": "2025-06-05T23:53:00.000",
    "request_status": "Pending",
    "responsible_agency": "Department of Code Enforcement",
    "final_address": "0 BLK Across St",
    "address_councildis": "E",
    "status": "Pending",
    "rowid": "1198709",
    "final_x": "3711887.63918",
    "final_y": "553972.247814",
    "longitude": "-89.97127534652184",
    "latitude": "30.01627326470007",
    "geocoded_column": {
      "latitude": "30.01627326470007",
      "longitude": "-89.97127534652184"
    }
  },
  {
    "service_request": "2025-1198708",
    "request_type": "Streetlights",
    "request_reason": "New Streetlight Request",
    "date_created": "2025-06-05T22:55:53.000",
    "date_modified": "2025-06-05T22:55:54.000",
    "request_status": "Pending",
    "responsible_agency": "Department of Public Works",
    "final_address": "827 Voisin St",
    "address_councildis": "A",
    "status": "Pending",
    "contractor": "Legacy Professional Services",
    "rowid": "1198708",
    "final_x": "3668834.90068",
    "final_y": "543273.418574",
    "longitude": "-90.10766528095428",
    "latitude": "29.988192110591555",
    "geocoded_column": {
      "latitude": "29.988192110591555",
      "longitude": "-90.10766528095428"
    }
  },
  {
    "service_request": "2025-1198707",
    "request_type": "General Services",
    "request_reason": "General Service Request",
    "date_created": "2025-06-05T22:52:25.000",
    "date_modified": "2025-06-05T22:52:28.000",
    "request_status": "Pending",
    "responsible_agency": "Orleans Parish Communication District",
    "final_address": "New Orleans,LA",
    "status": "Pending",
    "rowid": "1198707",
    "longitude": "0.0",
    "latitude": "0.0",
    "geocoded_column": {
      "latitude": "0.0",
      "longitude": "0.0"
    }
  },
  {
    "service_request": "2025-1198706",
    "request_type": "Streetlights",
    "request_reason": "Streetlight Outage/Malfunction",
    "date_created": "2025-06-05T22:35:35.000",
    "date_modified": "2025-06-05T22:35:37.000",
    "request_status": "Pending",
    "responsible_agency": "Department of Public Works",
    "final_address": "6918 Argonne Blvd",
    "address_councildis": "A",
    "status": "Pending",
    "contractor": "Legacy Professional Services",
    "rowid": "1198706",
    "final_x": "3670652.9131",
    "final_y": "553337.057751",
    "longitude": "-90.10158104493789",
    "latitude": "30.015810010562202",
    "geocoded_column": {
      "latitude": "30.015810010562202",
      "longitude": "-90.10158104493789"
    }
  },
  {
    "service_request": "2025-1198705",
    "request_type": "Streetlights",
    "request_reason": "Streetlight Outage/Malfunction",
    "date_created": "2025-06-05T22:33:29.000",
    "date_modified": "2025-06-05T22:33:31.000",
    "request_status": "Pending",
    "responsible_agency": "Department of Public Works",
    "final_address": "6901 Argonne Blvd",
    "address_councildis": "A",
    "status": "Pending",
    "contractor": "Legacy Professional Services",
    "rowid": "1198705",
    "final_x": "3670775.51284",
    "final_y": "553234.231447",
    "longitude": "-90.10119717754341",
    "latitude": "30.015523650335048",
    "geocoded_column": {
      "latitude": "30.015523650335048",
      "longitude": "-90.10119717754341"
    }
  },
  {
    "service_request": "2025-1198704",
    "request_type": "Streetlights",
    "request_reason": "Streetlight Outage/Malfunction",
    "date_created": "2025-06-05T22:16:26.000",
    "date_modified": "2025-06-05T22:16:28.000",
    "request_status": "Pending",
    "responsible_agency": "Department of Public Works",
    "final_address": "3934 Annunciation St",
    "address_councildis": "B",
    "status": "Pending",
    "contractor": "Legacy Professional Services",
    "rowid": "1198704",
    "final_x": "3673081.96321",
    "final_y": "517906.277302",
    "longitude": "-90.09511602931028",
    "latitude": "29.918315280031823",
    "geocoded_column": {
      "latitude": "29.918315280031823",
      "longitude": "-90.09511602931028"
    }
  },
  {
    "service_request": "2025-1198703",
    "request_type": "Trash/Recycling",
    "request_reason": "Order Trash Cart",
    "date_created": "2025-06-05T22:07:53.000",
    "date_modified": "2025-06-05T22:07:54.000",
    "request_status": "Pending",
    "responsible_agency": "Department of Sanitation",
    "final_address": "13528 St Marie Dr",
    "address_councildis": "E",
    "status": "Assigned to Contractor",
    "contractor": "Waste Pro",
    "rowid": "1198703",
    "final_x": "3724206.59411",
    "final_y": "569171.609382",
    "longitude": "-89.93176597181322",
    "latitude": "30.057656870678873",
    "geocoded_column": {
      "latitude": "30.057656870678873",
      "longitude": "-89.93176597181322"
    }
  },
  {
    "service_request": "2025-1198702",
    "request_type": "Trash/Recycling",
    "request_reason": "Missed Trash Pick-Up",
    "date_created": "2025-06-05T21:44:21.000",
    "date_modified": "2025-06-05T21:44:24.000",
    "request_status": "Pending",
    "responsible_agency": "Department of Sanitation",
    "final_address": "3236 Calhoun St",
    "address_councildis": "A",
    "status": "Assigned to Contractor",
    "contractor": "IV Waste",
    "rowid": "1198702",
    "final_x": "3667311.10343",
    "final_y": "528725.355776",
    "longitude": "-90.11296789217876",
    "latitude": "29.94823450413603",
    "geocoded_column": {
      "latitude": "29.94823450413603",
      "longitude": "-90.11296789217876"
    }
  },
  {
    "service_request": "2025-1198701",
    "request_type": "Trash/Recycling",
    "request_reason": "Change Size of Trash Cart",
    "date_created": "2025-06-05T21:37:40.000",
    "date_modified": "2025-06-05T21:37:42.000",
    "request_status": "Pending",
    "responsible_agency": "Department of Sanitation",
    "final_address": "2109 Valence St",
    "address_councildis": "B",
    "status": "Assigned to Contractor",
    "contractor": "IV Waste",
    "rowid": "1198701",
    "final_x": "3669648.29402",
    "final_y": "522646.608122",
    "longitude": "-90.10579401756455",
    "latitude": "29.931451262344346",
    "geocoded_column": {
      "latitude": "29.931451262344346",
      "longitude": "-90.10579401756455"
    }
  },
  {
    "service_request": "2025-1198700",
    "request_type": "Mosquito, Termite & Rodent Control",
    "request_reason": "Mosquito Complaint",
    "date_created": "2025-06-05T21:28:52.000",
    "date_modified": "2025-06-05T21:28:54.000",
    "request_status": "Pending",
    "responsible_agency": "Mosquito, Termite & Rodent Control Board",
    "final_address": "222 S Pierce St",
    "address_councildis": "A",
    "status": "Pending",
    "rowid": "1198700",
    "final_x": "3671143.95668",
    "final_y": "537543.103112",
    "longitude": "-90.10056643968414",
    "latitude": "29.972367576625214",
    "geocoded_column": {
      "latitude": "29.972367576625214",
      "longitude": "-90.10056643968414"
    }
  },
  {
    "service_request": "2025-1198699",
    "request_type": "Abandoned Vehicles",
    "request_reason": "Abandoned/Junk Vehicles",
    "date_created": "2025-06-05T21:27:25.000",
    "date_modified": "2025-06-05T21:27:26.000",
    "request_status": "Pending",
    "responsible_agency": "Department of Public Works",
    "final_address": "2507 Baronne St",
    "address_councildis": "B",
    "status": "Pending",
    "rowid": "1198699",
    "final_x": "3676171.42017",
    "final_y": "523633.309179",
    "longitude": "-90.08516734619441",
    "latitude": "29.93397060329553",
    "geocoded_column": {
      "latitude": "29.93397060329553",
      "longitude": "-90.08516734619441"
    }
  },
  {
    "service_request": "2025-1198698",
    "request_type": "Abandoned Vehicles",
    "request_reason": "Abandoned/Junk Vehicles",
    "date_created": "2025-06-05T21:24:53.000",
    "date_modified": "2025-06-05T21:24:55.000",
    "request_status": "Pending",
    "responsible_agency": "Department of Public Works",
    "final_address": "2507 Baronne St",
    "address_councildis": "B",
    "status": "Pending",
    "rowid": "1198698",
    "final_x": "3676171.42017",
    "final_y": "523633.309179",
    "longitude": "-90.08516734619441",
    "latitude": "29.93397060329553",
    "geocoded_column": {
      "latitude": "29.93397060329553",
      "longitude": "-90.08516734619441"
    }
  },
  {
    "service_request": "2025-1198697",
    "request_type": "Mosquito, Termite & Rodent Control",
    "request_reason": "Mosquito Complaint",
    "date_created": "2025-06-05T21:22:37.000",
    "date_modified": "2025-06-05T21:22:40.000",
    "request_status": "Pending",
    "responsible_agency": "Mosquito, Termite & Rodent Control Board",
    "final_address": "1558 N Rocheblave St",
    "address_councildis": "D",
    "status": "Pending",
    "rowid": "1198697",
    "final_x": "3679836.15343",
    "final_y": "539327.647178",
    "longitude": "-90.0730529886429",
    "latitude": "29.97701445666532",
    "geocoded_column": {
      "latitude": "29.97701445666532",
      "longitude": "-90.0730529886429"
    }
  },
  {
    "service_request": "2025-1198696",
    "request_type": "Abandoned Vehicles",
    "request_reason": "Abandoned/Junk Vehicles",
    "date_created": "2025-06-05T21:18:16.000",
    "date_modified": "2025-06-05T21:18:18.000",
    "request_status": "Pending",
    "responsible_agency": "Department of Public Works",
    "final_address": "7733 Shubert St",
    "address_councildis": "E",
    "status": "Pending",
    "rowid": "1198696",
    "final_x": "3695665.76029",
    "final_y": "559233.91542",
    "longitude": "-90.0223389463368",
    "latitude": "30.0312610874014",
    "geocoded_column": {
      "latitude": "30.0312610874014",
      "longitude": "-90.0223389463368"
    }
  },
  {
    "service_request": "2025-1198695",
    "request_type": "Trash/Recycling",
    "request_reason": "Replace Trash Cart",
    "date_created": "2025-06-05T21:09:20.000",
    "date_modified": "2025-06-05T21:09:21.000",
    "request_status": "Pending",
    "responsible_agency": "Department of Sanitation",
    "final_address": "3620 Annunciation St",
    "address_councildis": "B",
    "status": "Assigned to Contractor",
    "contractor": "IV Waste",
    "rowid": "1198695",
    "final_x": "3674347.06964",
    "final_y": "518172.687862",
    "longitude": "-90.09111364422056",
    "latitude": "29.919010172508006",
    "geocoded_column": {
      "latitude": "29.919010172508006",
      "longitude": "-90.09111364422056"
    }
  },
  {
    "service_request": "2025-1198694",
    "request_type": "Trash/Recycling",
    "request_reason": "Replace Recycling Cart",
    "date_created": "2025-06-05T21:08:33.000",
    "date_modified": "2025-06-05T21:08:34.000",
    "request_status": "Pending",
    "responsible_agency": "Department of Sanitation",
    "final_address": "3620 Annunciation St",
    "address_councildis": "B",
    "status": "Pending",
    "rowid": "1198694",
    "final_x": "3674347.06964",
    "final_y": "518172.687862",
    "longitude": "-90.09111364422056",
    "latitude": "29.919010172508006",
    "geocoded_column": {
      "latitude": "29.919010172508006",
      "longitude": "-90.09111364422056"
    }
  },
  {
    "service_request": "2025-1198693",
    "request_type": "Trash/Recycling",
    "request_reason": "Request a Large Item Pick Up",
    "date_created": "2025-06-05T21:01:41.000",
    "date_modified": "2025-06-05T21:01:43.000",
    "request_status": "Pending",
    "responsible_agency": "Department of Sanitation",
    "final_address": "2324 Jackson Ave",
    "address_councildis": "B",
    "status": "Assigned to Contractor",
    "contractor": "IV Waste",
    "rowid": "1198693",
    "final_x": "3675647.30606",
    "final_y": "526195.183742",
    "longitude": "-90.08673396542972",
    "latitude": "29.9410306073941",
    "geocoded_column": {
      "latitude": "29.9410306073941",
      "longitude": "-90.08673396542972"
    }
  },
  {
    "service_request": "2025-1198692",
    "request_type": "Drainage",
    "request_reason": "Ditch and Culvert Maintenance",
    "date_created": "2025-06-05T20:46:20.000",
    "date_modified": "2025-06-05T20:46:22.000",
    "request_status": "Pending",
    "responsible_agency": "Department of Public Works",
    "final_address": "201 Woodland Dr",
    "address_councildis": "C",
    "status": "Pending",
    "rowid": "1198692",
    "final_x": "3705502.35915",
    "final_y": "521379.757305",
    "longitude": "-89.99265476577432",
    "latitude": "29.926863012443192",
    "geocoded_column": {
      "latitude": "29.926863012443192",
      "longitude": "-89.99265476577432"
    }
  },
  {
    "service_request": "2025-1198690",
    "request_type": "Abandoned Vehicles",
    "request_reason": "Abandoned/Junk Vehicles",
    "date_created": "2025-06-05T20:29:06.000",
    "date_modified": "2025-06-05T20:29:08.000",
    "request_status": "Pending",
    "responsible_agency": "Department of Public Works",
    "final_address": "4610 Sandalwood St",
    "address_councildis": "E",
    "status": "Pending",
    "rowid": "1198690",
    "final_x": "3712239.25464",
    "final_y": "555298.746713",
    "longitude": "-89.97011454401057",
    "latitude": "30.019909120243323",
    "geocoded_column": {
      "latitude": "30.019909120243323",
      "longitude": "-89.97011454401057"
    }
  },
  {
    "service_request": "2025-1198689",
    "request_type": "Abandoned Vehicles",
    "request_reason": "Abandoned/Junk Vehicles",
    "date_created": "2025-06-05T20:17:32.000",
    "date_modified": "2025-06-05T20:17:34.000",
    "request_status": "Pending",
    "responsible_agency": "Department of Public Works",
    "final_address": "4583 Hickerson Dr",
    "address_councildis": "E",
    "status": "Pending",
    "rowid": "1198689",
    "final_x": "3710547.15128",
    "final_y": "554872.24412",
    "longitude": "-89.97547696484361",
    "latitude": "30.018791649237652",
    "geocoded_column": {
      "latitude": "30.018791649237652",
      "longitude": "-89.97547696484361"
    }
  },
  {
    "service_request": "2025-1198688",
    "request_type": "Streetlights",
    "request_reason": "Streetlight Outage/Malfunction",
    "date_created": "2025-06-05T19:51:54.000",
    "date_modified": "2025-06-05T19:51:56.000",
    "request_status": "Pending",
    "responsible_agency": "Department of Public Works",
    "final_address": "2817 St Philip St",
    "address_councildis": "A",
    "status": "Pending",
    "contractor": "Legacy Professional Services",
    "rowid": "1198688",
    "final_x": "3676867.04917",
    "final_y": "538305.823881",
    "longitude": "-90.08246560996888",
    "latitude": "29.974294253014715",
    "geocoded_column": {
      "latitude": "29.974294253014715",
      "longitude": "-90.08246560996888"
    }
  },
  {
    "service_request": "2025-1198687",
    "request_type": "General Services",
    "request_reason": "General Service Request",
    "date_created": "2025-06-05T19:50:34.000",
    "date_modified": "2025-06-05T19:50:35.000",
    "request_status": "Pending",
    "responsible_agency": "Orleans Parish Communication District",
    "final_address": "7721 Alabama St",
    "address_councildis": "D",
    "status": "Pending",
    "rowid": "1198687",
    "final_x": "3694833.8689",
    "final_y": "558921.358492",
    "longitude": "-90.02497902065419",
    "latitude": "30.030427819723226",
    "geocoded_column": {
      "latitude": "30.030427819723226",
      "longitude": "-90.02497902065419"
    }
  },
  {
    "service_request": "2025-1198686",
    "request_type": "Roads and Streets",
    "request_reason": "Pothole",
    "date_created": "2025-06-05T19:48:02.000",
    "date_modified": "2025-06-05T19:48:03.000",
    "request_status": "Pending",
    "responsible_agency": "Department of Public Works",
    "final_address": "5605 Painters St",
    "address_councildis": "D",
    "status": "Pending",
    "rowid": "1198686",
    "final_x": "3686226.72918",
    "final_y": "553664.845527",
    "longitude": "-90.05236332863099",
    "latitude": "30.016241781103606",
    "geocoded_column": {
      "latitude": "30.016241781103606",
      "longitude": "-90.05236332863099"
    }
  },
  {
    "service_request": "2025-1198685",
    "request_type": "Roads and Streets",
    "request_reason": "Pothole",
    "date_created": "2025-06-05T19:48:01.000",
    "date_modified": "2025-06-05T19:48:03.000",
    "request_status": "Pending",
    "responsible_agency": "Department of Public Works",
    "final_address": "5605 Painters St",
    "address_councildis": "D",
    "status": "Pending",
    "rowid": "1198685",
    "final_x": "3686226.72918",
    "final_y": "553664.845527",
    "longitude": "-90.05236332863099",
    "latitude": "30.016241781103606",
    "geocoded_column": {
      "latitude": "30.016241781103606",
      "longitude": "-90.05236332863099"
    }
  },
  {
    "service_request": "2025-1198684",
    "request_type": "Streetlights",
    "request_reason": "Streetlight Outage/Malfunction",
    "date_created": "2025-06-05T19:47:01.000",
    "date_modified": "2025-06-05T19:47:07.000",
    "request_status": "Pending",
    "responsible_agency": "Department of Public Works",
    "final_address": "2817 St Philip St",
    "address_councildis": "A",
    "status": "Pending",
    "contractor": "Legacy Professional Services",
    "rowid": "1198684",
    "final_x": "3676867.04917",
    "final_y": "538305.823881",
    "longitude": "-90.08246560996888",
    "latitude": "29.974294253014715",
    "geocoded_column": {
      "latitude": "29.974294253014715",
      "longitude": "-90.08246560996888"
    }
  },
  {
    "service_request": "2025-1198683",
    "request_type": "Trash/Recycling",
    "request_reason": "Missed Trash Pick-Up",
    "date_created": "2025-06-05T19:43:23.000",
    "date_modified": "2025-06-05T19:43:25.000",
    "request_status": "Pending",
    "responsible_agency": "Department of Sanitation",
    "final_address": "2 Glacier Ct",
    "address_councildis": "C",
    "status": "Assigned to Contractor",
    "contractor": "Richards Disposal",
    "rowid": "1198683",
    "final_x": "3700316.3089",
    "final_y": "516250.366836",
    "longitude": "-90.0092127549692",
    "latitude": "29.91292477136277",
    "geocoded_column": {
      "latitude": "29.91292477136277",
      "longitude": "-90.0092127549692"
    }
  },
  {
    "service_request": "2025-1198682",
    "request_type": "Traffic Signals",
    "request_reason": "Traffic Signal Malfunctioning or Damaged",
    "date_created": "2025-06-05T19:28:20.000",
    "date_modified": "2025-06-05T19:28:22.000",
    "request_status": "Pending",
    "responsible_agency": "Department of Public Works",
    "final_address": "0 BLK Poydras St",
    "address_councildis": "B",
    "status": "Pending",
    "rowid": "1198682",
    "final_x": "3682820.46766",
    "final_y": "528816.972666",
    "longitude": "-90.06399531569016",
    "latitude": "29.948023114681554",
    "geocoded_column": {
      "latitude": "29.948023114681554",
      "longitude": "-90.06399531569016"
    }
  },
  {
    "service_request": "2025-1198681",
    "request_type": "Street and Traffic Signs",
    "request_reason": "Stop Sign Missing or Damaged",
    "date_created": "2025-06-05T19:27:08.000",
    "date_modified": "2025-06-05T19:27:10.000",
    "request_status": "Pending",
    "responsible_agency": "Department of Public Works",
    "final_address": "0 BLK Poydras St",
    "address_councildis": "B",
    "status": "Pending",
    "rowid": "1198681",
    "final_x": "3682820.46766",
    "final_y": "528816.972666",
    "longitude": "-90.06399531569016",
    "latitude": "29.948023114681554",
    "geocoded_column": {
      "latitude": "29.948023114681554",
      "longitude": "-90.06399531569016"
    }
  },
  {
    "service_request": "2025-1198680",
    "request_type": "Roads and Streets",
    "request_reason": "Pothole",
    "date_created": "2025-06-05T19:25:49.000",
    "date_modified": "2025-06-05T19:25:51.000",
    "request_status": "Pending",
    "responsible_agency": "Department of Public Works",
    "final_address": "8640 Palm St",
    "address_councildis": "A",
    "status": "Pending",
    "rowid": "1198680",
    "final_x": "3666153.73575",
    "final_y": "536064.776007",
    "longitude": "-90.11637607214071",
    "latitude": "29.968449348214993",
    "geocoded_column": {
      "latitude": "29.968449348214993",
      "longitude": "-90.11637607214071"
    }
  },
  {
    "service_request": "2025-1198679",
    "request_type": "Street and Traffic Signs",
    "request_reason": "Crosswalk Signage Damaged or Missing",
    "date_created": "2025-06-05T19:25:21.000",
    "date_modified": "2025-06-05T19:25:22.000",
    "request_status": "Pending",
    "responsible_agency": "Department of Public Works",
    "final_address": "0 BLK Poydras St",
    "address_councildis": "B",
    "status": "Pending",
    "rowid": "1198679",
    "final_x": "3682820.46766",
    "final_y": "528816.972666",
    "longitude": "-90.06399531569016",
    "latitude": "29.948023114681554",
    "geocoded_column": {
      "latitude": "29.948023114681554",
      "longitude": "-90.06399531569016"
    }
  },
  {
    "service_request": "2025-1198678",
    "request_type": "Drainage",
    "request_reason": "Street Flooding",
    "date_created": "2025-06-05T19:21:16.000",
    "date_modified": "2025-06-05T19:21:19.000",
    "request_status": "Pending",
    "responsible_agency": "Sewerage & Water Board",
    "final_address": "4954 De Montluzin St",
    "address_councildis": "D",
    "status": "Pending",
    "rowid": "1198678",
    "final_x": "3687024.86159",
    "final_y": "551358.992853",
    "longitude": "-90.04992318665873",
    "latitude": "30.009876974985968",
    "geocoded_column": {
      "latitude": "30.009876974985968",
      "longitude": "-90.04992318665873"
    }
  },
  {
    "service_request": "2025-1198677",
    "request_type": "Drainage",
    "request_reason": "Street Flooding",
    "date_created": "2025-06-05T19:18:54.000",
    "date_modified": "2025-06-05T19:18:56.000",
    "request_status": "Pending",
    "responsible_agency": "Sewerage & Water Board",
    "final_address": "1934 Dauphine St",
    "address_councildis": "C",
    "status": "Pending",
    "rowid": "1198677",
    "final_x": "3684254.82665",
    "final_y": "535127.157766",
    "longitude": "-90.05924493512906",
    "latitude": "29.96533019775946",
    "geocoded_column": {
      "latitude": "29.96533019775946",
      "longitude": "-90.05924493512906"
    }
  },
  {
    "service_request": "2025-1198676",
    "request_type": "Roads and Streets",
    "request_reason": "Street Subsidence (Sinking)",
    "date_created": "2025-06-05T19:03:16.000",
    "date_modified": "2025-06-05T19:03:18.000",
    "request_status": "Pending",
    "responsible_agency": "Department of Public Works",
    "final_address": "5528 Arts St",
    "address_councildis": "D",
    "status": "Pending",
    "rowid": "1198676",
    "final_x": "3685798.7807",
    "final_y": "553430.913559",
    "longitude": "-90.05372371025761",
    "latitude": "30.015611701913535",
    "geocoded_column": {
      "latitude": "30.015611701913535",
      "longitude": "-90.05372371025761"
    }
  },
  {
    "service_request": "2025-1198675",
    "request_type": "Trash/Recycling",
    "request_reason": "Replace Trash Cart",
    "date_created": "2025-06-05T18:55:50.000",
    "date_modified": "2025-06-05T18:55:52.000",
    "request_status": "Pending",
    "responsible_agency": "Department of Sanitation",
    "final_address": "1213 Mandolin St",
    "address_councildis": "D",
    "status": "Assigned to Contractor",
    "contractor": "IV Waste",
    "rowid": "1198675",
    "final_x": "3677105.18734",
    "final_y": "548097.11413",
    "longitude": "-90.08137564302261",
    "latitude": "30.001209741112778",
    "geocoded_column": {
      "latitude": "30.001209741112778",
      "longitude": "-90.08137564302261"
    }
  },
  {
    "service_request": "2025-1198674",
    "request_type": "Drainage",
    "request_reason": "Catch Basin Damaged",
    "date_created": "2025-06-05T18:49:08.000",
    "date_modified": "2025-06-05T18:49:10.000",
    "request_status": "Pending",
    "responsible_agency": "Sewerage & Water Board",
    "final_address": "1600 S Norman C Francis Prkwy",
    "address_councildis": "B",
    "status": "Pending",
    "rowid": "1198674",
    "final_x": "3669547.86977",
    "final_y": "531201.027714",
    "longitude": "-90.10582174441357",
    "latitude": "29.954976097230894",
    "geocoded_column": {
      "latitude": "29.954976097230894",
      "longitude": "-90.10582174441357"
    }
  },
  {
    "service_request": "2025-1198673",
    "request_type": "Roads and Streets",
    "request_reason": "Pothole",
    "date_created": "2025-06-05T18:46:02.000",
    "date_modified": "2025-06-05T18:46:04.000",
    "request_status": "Pending",
    "responsible_agency": "Department of Public Works",
    "final_address": "2303 Prentiss Ave",
    "address_councildis": "D",
    "status": "Pending",
    "rowid": "1198673",
    "final_x": "3684417.23298",
    "final_y": "553965.034008",
    "longitude": "-90.05806998113111",
    "latitude": "30.017122687406996",
    "geocoded_column": {
      "latitude": "30.017122687406996",
      "longitude": "-90.05806998113111"
    }
  },
  {
    "service_request": "2025-1198672",
    "request_type": "Trash/Recycling",
    "request_reason": "Replace Trash Cart",
    "date_created": "2025-06-05T18:31:42.000",
    "date_modified": "2025-06-05T18:31:44.000",
    "request_status": "Pending",
    "responsible_agency": "Department of Sanitation",
    "final_address": "4533 Annunciation St",
    "address_councildis": "B",
    "status": "Assigned to Contractor",
    "contractor": "IV Waste",
    "rowid": "1198672",
    "final_x": "3670486.7874",
    "final_y": "517717.789622",
    "longitude": "-90.10331401610286",
    "latitude": "29.917873855352216",
    "geocoded_column": {
      "latitude": "29.917873855352216",
      "longitude": "-90.10331401610286"
    }
  },
  {
    "service_request": "2025-1198671",
    "request_type": "Trash/Recycling",
    "request_reason": "Illegal Dumping",
    "date_created": "2025-06-05T18:23:55.000",
    "date_modified": "2025-06-05T18:23:56.000",
    "request_status": "Pending",
    "responsible_agency": "Department of Sanitation",
    "final_address": "2400 Filmore Ave",
    "address_councildis": "D",
    "status": "Pending",
    "rowid": "1198671",
    "final_x": "3685234.46364",
    "final_y": "552467.72591",
    "longitude": "-90.05554062793307",
    "latitude": "30.012980604678486",
    "geocoded_column": {
      "latitude": "30.012980604678486",
      "longitude": "-90.05554062793307"
    }
  },
  {
    "service_request": "2025-1198670",
    "request_type": "Trash/Recycling",
    "request_reason": "Order Trash Cart",
    "date_created": "2025-06-05T18:16:45.000",
    "date_modified": "2025-06-05T18:16:54.000",
    "request_status": "Pending",
    "responsible_agency": "Department of Sanitation",
    "final_address": "4742 Gawain Dr",
    "address_councildis": "E",
    "status": "Assigned to Contractor",
    "contractor": "Waste Pro",
    "rowid": "1198670",
    "final_x": "3706897.81726",
    "final_y": "555450.172761",
    "longitude": "-89.9869860050735",
    "latitude": "30.020499133959763",
    "geocoded_column": {
      "latitude": "30.020499133959763",
      "longitude": "-89.9869860050735"
    }
  },
  {
    "service_request": "2025-1198669",
    "request_type": "Trash/Recycling",
    "request_reason": "Request a Large Item Pick Up",
    "date_created": "2025-06-05T18:12:08.000",
    "date_modified": "2025-06-05T18:12:10.000",
    "request_status": "Pending",
    "responsible_agency": "Department of Sanitation",
    "final_address": "13121 Linden St",
    "address_councildis": "E",
    "status": "Assigned to Contractor",
    "contractor": "Waste Pro",
    "rowid": "1198669",
    "final_x": "3716165.86405",
    "final_y": "570638.600167",
    "longitude": "-89.95712573032955",
    "latitude": "30.06195846673104",
    "geocoded_column": {
      "latitude": "30.06195846673104",
      "longitude": "-89.95712573032955"
    }
  },
  {
    "service_request": "2025-1198668",
    "request_type": "Streetlights",
    "request_reason": "Streetlight Outage/Malfunction",
    "date_created": "2025-06-05T18:04:44.000",
    "date_modified": "2025-06-05T18:04:45.000",
    "request_status": "Pending",
    "responsible_agency": "Department of Public Works",
    "final_address": "1406 Seventh St",
    "address_councildis": "B",
    "status": "Pending",
    "contractor": "Legacy Professional Services",
    "rowid": "1198668",
    "final_x": "3675697.65281",
    "final_y": "521262.216185",
    "longitude": "-90.08674444796534",
    "latitude": "29.92746505012124",
    "geocoded_column": {
      "latitude": "29.92746505012124",
      "longitude": "-90.08674444796534"
    }
  },
  {
    "service_request": "2025-1198667",
    "request_type": "Trash/Recycling",
    "request_reason": "Request a Large Item Pick Up",
    "date_created": "2025-06-05T18:03:38.000",
    "date_modified": "2025-06-05T18:03:40.000",
    "request_status": "Pending",
    "responsible_agency": "Department of Sanitation",
    "final_address": "59 Winners Cir",
    "address_councildis": "E",
    "status": "Assigned to Contractor",
    "contractor": "Waste Pro",
    "rowid": "1198667",
    "final_x": "3715991.0318",
    "final_y": "570330.147047",
    "longitude": "-89.95769007638843",
    "latitude": "30.061116121053015",
    "geocoded_column": {
      "latitude": "30.061116121053015",
      "longitude": "-89.95769007638843"
    }
  },
  {
    "service_request": "2025-1198666",
    "request_type": "Trash/Recycling",
    "request_reason": "Order Second Trash Cart",
    "date_created": "2025-06-05T17:35:39.000",
    "date_modified": "2025-06-05T17:35:42.000",
    "request_status": "Pending",
    "responsible_agency": "Department of Sanitation",
    "final_address": "1925 Orleans Ave",
    "address_councildis": "D",
    "status": "Assigned to Contractor",
    "contractor": "IV Waste",
    "rowid": "1198666",
    "final_x": "3679141.87631",
    "final_y": "535326.062726",
    "longitude": "-90.07538448678316",
    "latitude": "29.96603245203055",
    "geocoded_column": {
      "latitude": "29.96603245203055",
      "longitude": "-90.07538448678316"
    }
  },
  {
    "service_request": "2025-1198665",
    "request_type": "Trash/Recycling",
    "request_reason": "Request a Large Item Pick Up",
    "date_created": "2025-06-05T17:34:46.000",
    "date_modified": "2025-06-05T17:34:48.000",
    "request_status": "Pending",
    "responsible_agency": "Department of Sanitation",
    "final_address": "1925 Orleans Ave",
    "address_councildis": "D",
    "status": "Assigned to Contractor",
    "contractor": "IV Waste",
    "rowid": "1198665",
    "final_x": "3679141.87631",
    "final_y": "535326.062726",
    "longitude": "-90.07538448678316",
    "latitude": "29.96603245203055",
    "geocoded_column": {
      "latitude": "29.96603245203055",
      "longitude": "-90.07538448678316"
    }
  },
  {
    "service_request": "2025-1198664",
    "request_type": "Mosquito, Termite & Rodent Control",
    "request_reason": "Rodent Complaint (Mice & Rats)",
    "date_created": "2025-06-05T17:33:53.000",
    "date_modified": "2025-06-05T17:33:55.000",
    "request_status": "Pending",
    "responsible_agency": "Mosquito, Termite & Rodent Control Board",
    "final_address": "1449 N Roman St",
    "address_councildis": "D",
    "status": "Pending",
    "rowid": "1198664",
    "final_x": "3680955.67701",
    "final_y": "537415.059144",
    "longitude": "-90.06958379725657",
    "latitude": "29.971721596381997",
    "geocoded_column": {
      "latitude": "29.971721596381997",
      "longitude": "-90.06958379725657"
    }
  },
  {
    "service_request": "2025-1198663",
    "request_type": "Trash/Recycling",
    "request_reason": "Request a Large Item Pick Up",
    "date_created": "2025-06-05T17:25:40.000",
    "date_modified": "2025-06-05T17:25:42.000",
    "request_status": "Pending",
    "responsible_agency": "Department of Sanitation",
    "final_address": "2224 Lapeyrouse St",
    "address_councildis": "D",
    "status": "Assigned to Contractor",
    "contractor": "IV Waste",
    "rowid": "1198663",
    "final_x": "3680288.93352",
    "final_y": "539182.956682",
    "longitude": "-90.07162799615512",
    "latitude": "29.976602906847997",
    "geocoded_column": {
      "latitude": "29.976602906847997",
      "longitude": "-90.07162799615512"
    }
  },
  {
    "service_request": "2025-1198662",
    "request_type": "Trash/Recycling",
    "request_reason": "Repair Recycling Cart",
    "date_created": "2025-06-05T17:20:59.000",
    "date_modified": "2025-06-05T17:21:01.000",
    "request_status": "Pending",
    "responsible_agency": "Department of Sanitation",
    "final_address": "729 Lyons St Apt A",
    "address_councildis": "B",
    "status": "Pending",
    "rowid": "1198662",
    "final_x": "3669353.36782",
    "final_y": "518111.007158",
    "longitude": "-90.10687832386532",
    "latitude": "29.918988485838394",
    "geocoded_column": {
      "latitude": "29.918988485838394",
      "longitude": "-90.10687832386532"
    }
  },
  {
    "service_request": "2025-1198661",
    "request_type": "Roads and Streets",
    "request_reason": "Pothole",
    "date_created": "2025-06-05T17:18:11.000",
    "date_modified": "2025-06-05T17:18:14.000",
    "request_status": "Pending",
    "responsible_agency": "Department of Public Works",
    "final_address": "1112 Monroe St",
    "address_councildis": "A",
    "status": "Pending",
    "rowid": "1198661",
    "final_x": "3660165.7872",
    "final_y": "529616.715137",
    "longitude": "-90.13549929222927",
    "latitude": "29.950892774487162",
    "geocoded_column": {
      "latitude": "29.950892774487162",
      "longitude": "-90.13549929222927"
    }
  },
  {
    "service_request": "2025-1198660",
    "request_type": "Trash/Recycling",
    "request_reason": "Request a Large Item Pick Up",
    "date_created": "2025-06-05T16:51:07.000",
    "date_modified": "2025-06-05T16:51:08.000",
    "request_status": "Pending",
    "responsible_agency": "Department of Sanitation",
    "final_address": "6341 Wales St",
    "address_councildis": "E",
    "status": "Assigned to Contractor",
    "contractor": "Waste Pro",
    "rowid": "1198660",
    "final_x": "3696381.83312",
    "final_y": "559937.694109",
    "longitude": "-90.02005065074498",
    "latitude": "30.03317366212209",
    "geocoded_column": {
      "latitude": "30.03317366212209",
      "longitude": "-90.02005065074498"
    }
  },
  {
    "service_request": "2025-1198659",
    "request_type": "Trash/Recycling",
    "request_reason": "Request a Large Item Pick Up",
    "date_created": "2025-06-05T16:46:56.000",
    "date_modified": "2025-06-05T16:46:57.000",
    "request_status": "Pending",
    "responsible_agency": "Department of Sanitation",
    "final_address": "3930 Palmyra St",
    "address_councildis": "A",
    "status": "Assigned to Contractor",
    "contractor": "IV Waste",
    "rowid": "1198659",
    "final_x": "3671059.70279",
    "final_y": "537247.421704",
    "longitude": "-90.10084257307058",
    "latitude": "29.971557044538482",
    "geocoded_column": {
      "latitude": "29.971557044538482",
      "longitude": "-90.10084257307058"
    }
  },
  {
    "service_request": "2025-1198658",
    "request_type": "Roads and Streets",
    "request_reason": "Pothole",
    "date_created": "2025-06-05T16:43:07.000",
    "date_modified": "2025-06-05T16:49:08.000",
    "request_status": "Pending",
    "responsible_agency": "Department of Public Works",
    "final_address": "1700 France St",
    "address_councildis": "D",
    "status": "Pending",
    "rowid": "1198658",
    "final_x": "3692920.4031",
    "final_y": "537443.633288",
    "longitude": "-90.03179649080697",
    "latitude": "29.971431898465518",
    "geocoded_column": {
      "latitude": "29.971431898465518",
      "longitude": "-90.03179649080697"
    }
  },
  {
    "service_request": "2025-1198657",
    "request_type": "Trash/Recycling",
    "request_reason": "MIssed Recycling Pick-Up",
    "date_created": "2025-06-05T16:42:57.000",
    "date_modified": "2025-06-05T16:42:58.000",
    "request_status": "Pending",
    "responsible_agency": "Department of Sanitation",
    "final_address": "5931 Beechcraft St",
    "address_councildis": "D",
    "status": "Assigned to Contractor",
    "contractor": "Waste Pro",
    "rowid": "1198657",
    "final_x": "3696431.91658",
    "final_y": "553193.746775",
    "longitude": "-90.02013662457233",
    "latitude": "30.014628791368626",
    "geocoded_column": {
      "latitude": "30.014628791368626",
      "longitude": "-90.02013662457233"
    }
  },
  {
    "service_request": "2025-1198656",
    "request_type": "Trash/Recycling",
    "request_reason": "Request a Large Item Pick Up",
    "date_created": "2025-06-05T16:41:32.000",
    "date_modified": "2025-06-05T16:41:34.000",
    "request_status": "Pending",
    "responsible_agency": "Department of Sanitation",
    "final_address": "517 S Murat St",
    "address_councildis": "A",
    "status": "Assigned to Contractor",
    "contractor": "IV Waste",
    "rowid": "1198656",
    "final_x": "3668602.07079",
    "final_y": "538012.575561",
    "longitude": "-90.10857833471724",
    "latitude": "29.973733419064004",
    "geocoded_column": {
      "latitude": "29.973733419064004",
      "longitude": "-90.10857833471724"
    }
  },
  {
    "service_request": "2025-1198655",
    "request_type": "Trash/Recycling",
    "request_reason": "Request a Large Item Pick Up",
    "date_created": "2025-06-05T16:40:00.000",
    "date_modified": "2025-06-05T16:40:07.000",
    "request_status": "Pending",
    "responsible_agency": "Department of Sanitation",
    "final_address": "4635 Camelia St",
    "address_councildis": "E",
    "status": "Assigned to Contractor",
    "contractor": "Waste Pro",
    "rowid": "1198655",
    "final_x": "3701654.08689",
    "final_y": "553674.144087",
    "longitude": "-90.00361961603383",
    "latitude": "30.015784104554527",
    "geocoded_column": {
      "latitude": "30.015784104554527",
      "longitude": "-90.00361961603383"
    }
  },
  {
    "service_request": "2025-1198654",
    "request_type": "Trash/Recycling",
    "request_reason": "Order Second Trash Cart",
    "date_created": "2025-06-05T16:30:40.000",
    "date_modified": "2025-06-05T16:30:42.000",
    "request_status": "Pending",
    "responsible_agency": "Department of Sanitation",
    "final_address": "498 Amethyst St",
    "address_councildis": "D",
    "status": "Assigned to Contractor",
    "contractor": "IV Waste",
    "rowid": "1198654",
    "final_x": "3668286.68545",
    "final_y": "556741.80649",
    "longitude": "-90.10894233318933",
    "latitude": "30.025241589931102",
    "geocoded_column": {
      "latitude": "30.025241589931102",
      "longitude": "-90.10894233318933"
    }
  },
  {
    "service_request": "2025-1198653",
    "request_type": "Trash/Recycling",
    "request_reason": "Illegal Dumping",
    "date_created": "2025-06-05T16:25:05.000",
    "date_modified": "2025-06-05T16:25:07.000",
    "request_status": "Pending",
    "responsible_agency": "Department of Sanitation",
    "final_address": "2100 BLK Esplanade Ave",
    "address_councildis": "D",
    "status": "Pending",
    "rowid": "1198653",
    "final_x": "3679740.03353",
    "final_y": "537792.811013",
    "longitude": "-90.07340986744494",
    "latitude": "29.97279709363078",
    "geocoded_column": {
      "latitude": "29.97279709363078",
      "longitude": "-90.07340986744494"
    }
  },
  {
    "service_request": "2025-1198652",
    "request_type": "Safety & Permits",
    "request_reason": "Zoning Enforcement",
    "date_created": "2025-06-05T16:21:33.000",
    "date_modified": "2025-06-05T16:21:35.000",
    "request_status": "Pending",
    "responsible_agency": "Safety and Permits",
    "final_address": "1114 Henriette Delille St",
    "address_councildis": "C",
    "status": "Pending",
    "rowid": "1198652",
    "final_x": "3682051.23228",
    "final_y": "534851.31303",
    "longitude": "-90.06621340544874",
    "latitude": "29.964638908399724",
    "geocoded_column": {
      "latitude": "29.964638908399724",
      "longitude": "-90.06621340544874"
    }
  },
  {
    "service_request": "2025-1198651",
    "request_type": "Roads and Streets",
    "request_reason": "Sidewalk Damaged or Missing",
    "date_created": "2025-06-05T16:18:40.000",
    "date_modified": "2025-06-05T16:18:42.000",
    "request_status": "Pending",
    "responsible_agency": "Department of Public Works",
    "final_address": "2717 Amelia St",
    "address_councildis": "B",
    "status": "Pending",
    "rowid": "1198651",
    "final_x": "3672195.23092",
    "final_y": "525111.996285",
    "longitude": "-90.09766969788724",
    "latitude": "29.93815501041464",
    "geocoded_column": {
      "latitude": "29.93815501041464",
      "longitude": "-90.09766969788724"
    }
  },
  {
    "service_request": "2025-1198650",
    "request_type": "Property Maintenance",
    "request_reason": "Property Maintenance",
    "date_created": "2025-06-05T16:18:33.000",
    "date_modified": "2025-06-05T16:18:34.000",
    "request_status": "Pending",
    "responsible_agency": "Department of Code Enforcement",
    "final_address": "5700 Vicksburg St",
    "address_councildis": "A",
    "status": "Pending",
    "rowid": "1198650",
    "final_x": "3668658.16654",
    "final_y": "545461.582416",
    "longitude": "-90.10814962534776",
    "latitude": "29.994214008166267",
    "geocoded_column": {
      "latitude": "29.994214008166267",
      "longitude": "-90.10814962534776"
    }
  },
  {
    "service_request": "2025-1198649",
    "request_type": "Trash/Recycling",
    "request_reason": "Request a Large Item Pick Up",
    "date_created": "2025-06-05T16:02:37.000",
    "date_modified": "2025-06-05T16:02:39.000",
    "request_status": "Pending",
    "responsible_agency": "Department of Sanitation",
    "final_address": "427 S Olympia St",
    "address_councildis": "A",
    "status": "Assigned to Contractor",
    "contractor": "IV Waste",
    "rowid": "1198649",
    "final_x": "3668490.86734",
    "final_y": "538467.548041",
    "longitude": "-90.10891418605041",
    "latitude": "29.97498770846052",
    "geocoded_column": {
      "latitude": "29.97498770846052",
      "longitude": "-90.10891418605041"
    }
  },
  {
    "service_request": "2025-1198648",
    "request_type": "Roads and Streets",
    "request_reason": "Sidewalk Damaged or Missing",
    "date_created": "2025-06-05T15:54:59.000",
    "date_modified": "2025-06-05T15:55:01.000",
    "request_status": "Pending",
    "responsible_agency": "Department of Public Works",
    "final_address": "0 BLK Admiralty Ct",
    "address_councildis": "C",
    "status": "Pending",
    "rowid": "1198648",
    "final_x": "3704031.03777",
    "final_y": "523040.620373",
    "longitude": "-89.99723816614093",
    "latitude": "29.931477060413563",
    "geocoded_column": {
      "latitude": "29.931477060413563",
      "longitude": "-89.99723816614093"
    }
  },
  {
    "service_request": "2025-1198647",
    "request_type": "Trash/Recycling",
    "request_reason": "Repair Trash Cart",
    "date_created": "2025-06-05T15:52:18.000",
    "date_modified": "2025-06-05T15:52:33.000",
    "request_status": "Pending",
    "responsible_agency": "Department of Sanitation",
    "final_address": "3017 Pocahontas St",
    "address_councildis": "D",
    "status": "Assigned to Contractor",
    "contractor": "IV Waste",
    "rowid": "1198647",
    "final_x": "3689268.59068",
    "final_y": "548425.158546",
    "longitude": "-90.04293884082296",
    "latitude": "30.001740712075357",
    "geocoded_column": {
      "latitude": "30.001740712075357",
      "longitude": "-90.04293884082296"
    }
  },
  {
    "service_request": "2025-1198646",
    "request_type": "Trash/Recycling",
    "request_reason": "Request a Large Item Pick Up",
    "date_created": "2025-06-05T15:49:26.000",
    "date_modified": "2025-06-05T15:49:28.000",
    "request_status": "Pending",
    "responsible_agency": "Department of Sanitation",
    "final_address": "10911 Yardley Rd",
    "address_councildis": "E",
    "status": "Assigned to Contractor",
    "contractor": "Waste Pro",
    "rowid": "1198646",
    "final_x": "3711721.99192",
    "final_y": "563587.731296",
    "longitude": "-89.97143762339216",
    "latitude": "30.04271744913748",
    "geocoded_column": {
      "latitude": "30.04271744913748",
      "longitude": "-89.97143762339216"
    }
  },
  {
    "service_request": "2025-1198645",
    "request_type": "Trash/Recycling",
    "request_reason": "Order Recycling Cart",
    "date_created": "2025-06-05T15:46:00.000",
    "date_modified": "2025-06-05T15:46:02.000",
    "request_status": "Pending",
    "responsible_agency": "Department of Sanitation",
    "final_address": "3032 Orleans Ave",
    "address_councildis": "A",
    "status": "Pending",
    "rowid": "1198645",
    "final_x": "3675511.17934",
    "final_y": "537892.435337",
    "longitude": "-90.08676197357316",
    "latitude": "29.97319820491467",
    "geocoded_column": {
      "latitude": "29.97319820491467",
      "longitude": "-90.08676197357316"
    }
  },
  {
    "service_request": "2025-1198644",
    "request_type": "Street and Traffic Signs",
    "request_reason": "Disabled Parking Sign Missing or Damaged",
    "date_created": "2025-06-05T15:45:01.000",
    "date_modified": "2025-06-05T15:45:03.000",
    "request_status": "Pending",
    "responsible_agency": "Department of Public Works",
    "final_address": "4400 Jeanne Marie Pl",
    "address_councildis": "D",
    "status": "Pending",
    "rowid": "1198644",
    "final_x": "3678462.44392",
    "final_y": "548548.01301",
    "longitude": "-90.0770723334688",
    "latitude": "30.002408707105264",
    "geocoded_column": {
      "latitude": "30.002408707105264",
      "longitude": "-90.0770723334688"
    }
  },
  {
    "service_request": "2025-1198643",
    "request_type": "Trash/Recycling",
    "request_reason": "Missed Trash Pick-Up",
    "date_created": "2025-06-05T15:44:37.000",
    "date_modified": "2025-06-05T16:16:30.000",
    "case_close_date": "2025-06-05T11:16:28.000",
    "request_status": "Closed",
    "responsible_agency": "Department of Sanitation",
    "final_address": "2437 Amelia St",
    "address_councildis": "B",
    "status": "Invalid Request",
    "contractor": "IV Waste",
    "contractor_action": "Invalid",
    "rowid": "1198643",
    "final_x": "3672404.31988",
    "final_y": "524241.897724",
    "longitude": "-90.09703922191478",
    "latitude": "29.935756320200912",
    "geocoded_column": {
      "latitude": "29.935756320200912",
      "longitude": "-90.09703922191478"
    }
  },
  {
    "service_request": "2025-1198642",
    "request_type": "Roads and Streets",
    "request_reason": "Street Subsidence (Sinking)",
    "date_created": "2025-06-05T15:44:32.000",
    "date_modified": "2025-06-05T15:44:34.000",
    "request_status": "Pending",
    "responsible_agency": "Department of Public Works",
    "final_address": "3116 Arts St",
    "address_councildis": "D",
    "status": "Pending",
    "rowid": "1198642",
    "final_x": "3686522.69487",
    "final_y": "544359.188559",
    "longitude": "-90.05175705555541",
    "latitude": "29.990645498389227",
    "geocoded_column": {
      "latitude": "29.990645498389227",
      "longitude": "-90.05175705555541"
    }
  },
  {
    "service_request": "2025-1198641",
    "request_type": "Abandoned Vehicles",
    "request_reason": "Abandoned/Junk Vehicles",
    "date_created": "2025-06-05T15:40:01.000",
    "date_modified": "2025-06-05T15:40:03.000",
    "request_status": "Pending",
    "responsible_agency": "Department of Public Works",
    "final_address": "3124 Arts St",
    "address_councildis": "D",
    "status": "Pending",
    "rowid": "1198641",
    "final_x": "3686508.87996",
    "final_y": "544408.997775",
    "longitude": "-90.0517989336697",
    "latitude": "29.990782880787553",
    "geocoded_column": {
      "latitude": "29.990782880787553",
      "longitude": "-90.0517989336697"
    }
  },
  {
    "service_request": "2025-1198640",
    "request_type": "Abandoned Vehicles",
    "request_reason": "Abandoned/Junk Vehicles",
    "date_created": "2025-06-05T15:38:19.000",
    "date_modified": "2025-06-05T15:38:20.000",
    "request_status": "Pending",
    "responsible_agency": "Department of Public Works",
    "final_address": "3124 Arts St",
    "address_councildis": "D",
    "status": "Pending",
    "rowid": "1198640",
    "final_x": "3686508.87996",
    "final_y": "544408.997775",
    "longitude": "-90.0517989336697",
    "latitude": "29.990782880787553",
    "geocoded_column": {
      "latitude": "29.990782880787553",
      "longitude": "-90.0517989336697"
    }
  },
  {
    "service_request": "2025-1198639",
    "request_type": "Abandoned Vehicles",
    "request_reason": "Abandoned/Junk Vehicles",
    "date_created": "2025-06-05T15:36:08.000",
    "date_modified": "2025-06-05T15:36:11.000",
    "request_status": "Pending",
    "responsible_agency": "Department of Public Works",
    "final_address": "3124 Arts St",
    "address_councildis": "D",
    "status": "Pending",
    "rowid": "1198639",
    "final_x": "3686508.87996",
    "final_y": "544408.997775",
    "longitude": "-90.0517989336697",
    "latitude": "29.990782880787553",
    "geocoded_column": {
      "latitude": "29.990782880787553",
      "longitude": "-90.0517989336697"
    }
  },
  {
    "service_request": "2025-1198638",
    "request_type": "Parks & Parkways",
    "request_reason": "Request Grass Cutting Service (City Owned Property)",
    "date_created": "2025-06-05T15:35:13.000",
    "date_modified": "2025-06-05T15:35:16.000",
    "request_status": "Pending",
    "responsible_agency": "Department of Parks & Parkway",
    "final_address": "6244 Providence Pl",
    "address_councildis": "D",
    "status": "Pending",
    "rowid": "1198638",
    "final_x": "3688124.69084",
    "final_y": "556228.094426",
    "longitude": "-90.04627564678061",
    "latitude": "30.0232312865133",
    "geocoded_column": {
      "latitude": "30.0232312865133",
      "longitude": "-90.04627564678061"
    }
  },
  {
    "service_request": "2025-1198637",
    "request_type": "Abandoned Vehicles",
    "request_reason": "Abandoned/Junk Vehicles",
    "date_created": "2025-06-05T15:35:08.000",
    "date_modified": "2025-06-05T15:35:11.000",
    "request_status": "Pending",
    "responsible_agency": "Department of Public Works",
    "final_address": "3124 Arts St",
    "address_councildis": "D",
    "status": "Pending",
    "rowid": "1198637",
    "final_x": "3686508.87996",
    "final_y": "544408.997775",
    "longitude": "-90.0517989336697",
    "latitude": "29.990782880787553",
    "geocoded_column": {
      "latitude": "29.990782880787553",
      "longitude": "-90.0517989336697"
    }
  },
  {
    "service_request": "2025-1198636",
    "request_type": "Abandoned Vehicles",
    "request_reason": "Abandoned/Junk Vehicles",
    "date_created": "2025-06-05T15:34:00.000",
    "date_modified": "2025-06-05T15:37:41.000",
    "request_status": "Pending",
    "responsible_agency": "Department of Public Works",
    "final_address": "4818 Francis Dr",
    "address_councildis": "D",
    "status": "Inspected",
    "rowid": "1198636",
    "final_x": "3698169.5953",
    "final_y": "554743.366168",
    "longitude": "-90.01459009179231",
    "latitude": "30.01883478560003",
    "geocoded_column": {
      "latitude": "30.01883478560003",
      "longitude": "-90.01459009179231"
    }
  },
  {
    "service_request": "2025-1198635",
    "request_type": "Abandoned Vehicles",
    "request_reason": "Abandoned/Junk Vehicles",
    "date_created": "2025-06-05T15:26:29.000",
    "date_modified": "2025-06-05T15:26:31.000",
    "request_status": "Pending",
    "responsible_agency": "Department of Public Works",
    "status": "Pending",
    "rowid": "1198635",
    "longitude": "0.0",
    "latitude": "0.0",
    "geocoded_column": {
      "latitude": "0.0",
      "longitude": "0.0"
    }
  },
  {
    "service_request": "2025-1198634",
    "request_type": "Trash/Recycling",
    "request_reason": "Request a Large Item Pick Up",
    "date_created": "2025-06-05T15:26:24.000",
    "date_modified": "2025-06-05T15:26:27.000",
    "request_status": "Pending",
    "responsible_agency": "Department of Sanitation",
    "final_address": "5628 Rosemary Pl",
    "address_councildis": "A",
    "status": "Assigned to Contractor",
    "contractor": "IV Waste",
    "rowid": "1198634",
    "final_x": "3667094.5737",
    "final_y": "545014.583119",
    "longitude": "-90.11310385944218",
    "latitude": "29.993030790914602",
    "geocoded_column": {
      "latitude": "29.993030790914602",
      "longitude": "-90.11310385944218"
    }
  },
  {
    "service_request": "2025-1198633",
    "request_type": "Abandoned Vehicles",
    "request_reason": "Abandoned/Junk Vehicles",
    "date_created": "2025-06-05T15:24:11.000",
    "date_modified": "2025-06-05T15:24:13.000",
    "request_status": "Pending",
    "responsible_agency": "Department of Public Works",
    "final_address": "3929 Toulouse St",
    "address_councildis": "A",
    "status": "Pending",
    "rowid": "1198633",
    "final_x": "3672682.64654",
    "final_y": "539441.18177",
    "longitude": "-90.0956422303058",
    "latitude": "29.977541040669106",
    "geocoded_column": {
      "latitude": "29.977541040669106",
      "longitude": "-90.0956422303058"
    }
  },
  {
    "service_request": "2025-1198632",
    "request_type": "Drainage",
    "request_reason": "Street Flooding",
    "date_created": "2025-06-05T15:24:07.000",
    "date_modified": "2025-06-05T15:24:08.000",
    "request_status": "Pending",
    "responsible_agency": "Sewerage & Water Board",
    "final_address": "8227 Plum St",
    "address_councildis": "A",
    "status": "Pending",
    "rowid": "1198632",
    "final_x": "3661788.70592",
    "final_y": "529062.383104",
    "longitude": "-90.1303932844971",
    "latitude": "29.949321789717484",
    "geocoded_column": {
      "latitude": "29.949321789717484",
      "longitude": "-90.1303932844971"
    }
  },
  {
    "service_request": "2025-1198631",
    "request_type": "Trash/Recycling",
    "request_reason": "Request a Large Item Pick Up",
    "date_created": "2025-06-05T15:21:35.000",
    "date_modified": "2025-06-05T15:21:38.000",
    "request_status": "Pending",
    "responsible_agency": "Department of Sanitation",
    "final_address": "4811 Press Dr",
    "address_councildis": "D",
    "status": "Assigned to Contractor",
    "contractor": "IV Waste",
    "rowid": "1198631",
    "final_x": "3689661.08412",
    "final_y": "551165.465109",
    "longitude": "-90.04160132603725",
    "latitude": "30.009263392123643",
    "geocoded_column": {
      "latitude": "30.009263392123643",
      "longitude": "-90.04160132603725"
    }
  },
  {
    "service_request": "2025-1198630",
    "request_type": "Trash/Recycling",
    "request_reason": "Request a Large Item Pick Up",
    "date_created": "2025-06-05T15:20:46.000",
    "date_modified": "2025-06-05T15:20:48.000",
    "request_status": "Pending",
    "responsible_agency": "Department of Sanitation",
    "final_address": "7600 Forum Blvd",
    "address_councildis": "E",
    "status": "Assigned to Contractor",
    "contractor": "Waste Pro",
    "rowid": "1198630",
    "final_x": "3720290.97119",
    "final_y": "572993.773673",
    "longitude": "-89.94399612020014",
    "latitude": "30.06829733106004",
    "geocoded_column": {
      "latitude": "30.06829733106004",
      "longitude": "-89.94399612020014"
    }
  },
  {
    "service_request": "2025-1198629",
    "request_type": "Trash/Recycling",
    "request_reason": "Return Trash Cart",
    "date_created": "2025-06-05T15:19:55.000",
    "date_modified": "2025-06-05T15:19:57.000",
    "request_status": "Pending",
    "responsible_agency": "Department of Sanitation",
    "final_address": "5502 Laurel St",
    "address_councildis": "A",
    "status": "Assigned to Contractor",
    "contractor": "IV Waste",
    "rowid": "1198629",
    "final_x": "3666167.26113",
    "final_y": "517840.079926",
    "longitude": "-90.11694433980433",
    "latitude": "29.918336907557165",
    "geocoded_column": {
      "latitude": "29.918336907557165",
      "longitude": "-90.11694433980433"
    }
  },
  {
    "service_request": "2025-1198628",
    "request_type": "Trash/Recycling",
    "request_reason": "Return Trash Cart",
    "date_created": "2025-06-05T15:17:47.000",
    "date_modified": "2025-06-05T15:17:48.000",
    "request_status": "Pending",
    "responsible_agency": "Department of Sanitation",
    "final_address": "9 Richmond Pl",
    "address_councildis": "A",
    "status": "Assigned to Contractor",
    "contractor": "IV Waste",
    "rowid": "1198628",
    "final_x": "3666589.7913",
    "final_y": "523656.067195",
    "longitude": "-90.11541550568799",
    "latitude": "29.93431669420583",
    "geocoded_column": {
      "latitude": "29.93431669420583",
      "longitude": "-90.11541550568799"
    }
  },
  {
    "service_request": "2025-1198627",
    "request_type": "Trash/Recycling",
    "request_reason": "Request a Large Item Pick Up",
    "date_created": "2025-06-05T15:16:02.000",
    "date_modified": "2025-06-05T15:16:04.000",
    "request_status": "Pending",
    "responsible_agency": "Department of Sanitation",
    "final_address": "822 Cadiz St",
    "address_councildis": "B",
    "status": "Assigned to Contractor",
    "contractor": "IV Waste",
    "rowid": "1198627",
    "final_x": "3670287.05601",
    "final_y": "518536.842103",
    "longitude": "-90.1039167212304",
    "latitude": "29.920131884443844",
    "geocoded_column": {
      "latitude": "29.920131884443844",
      "longitude": "-90.1039167212304"
    }
  },
  {
    "service_request": "2025-1198626",
    "request_type": "Trash/Recycling",
    "request_reason": "Replace Recycling Cart",
    "date_created": "2025-06-05T15:15:58.000",
    "date_modified": "2025-06-05T15:16:02.000",
    "request_status": "Pending",
    "responsible_agency": "Department of Sanitation",
    "final_address": "5502 Laurel St",
    "address_councildis": "A",
    "status": "Pending",
    "rowid": "1198626",
    "final_x": "3666167.26113",
    "final_y": "517840.079926",
    "longitude": "-90.11694433980433",
    "latitude": "29.918336907557165",
    "geocoded_column": {
      "latitude": "29.918336907557165",
      "longitude": "-90.11694433980433"
    }
  },
  {
    "service_request": "2025-1198625",
    "request_type": "Trash/Recycling",
    "request_reason": "Repair Trash Cart",
    "date_created": "2025-06-05T15:15:31.000",
    "date_modified": "2025-06-05T15:15:34.000",
    "request_status": "Pending",
    "responsible_agency": "Department of Sanitation",
    "final_address": "4662 Tulip St",
    "address_councildis": "E",
    "status": "Assigned to Contractor",
    "contractor": "Waste Pro",
    "rowid": "1198625",
    "final_x": "3702036.31857",
    "final_y": "553910.919383",
    "longitude": "-90.00240325560208",
    "latitude": "30.016422944250582",
    "geocoded_column": {
      "latitude": "30.016422944250582",
      "longitude": "-90.00240325560208"
    }
  },
  {
    "service_request": "2025-1198624",
    "request_type": "Drainage",
    "request_reason": "Street Flooding",
    "date_created": "2025-06-05T15:15:07.000",
    "date_modified": "2025-06-05T15:15:18.000",
    "request_status": "Pending",
    "responsible_agency": "Sewerage & Water Board",
    "final_address": "2244 Easter Ln",
    "address_councildis": "C",
    "status": "Pending",
    "rowid": "1198624",
    "final_x": "3699271.48983",
    "final_y": "522828.339195",
    "longitude": "-90.01227112116628",
    "latitude": "29.93104510390818",
    "geocoded_column": {
      "latitude": "29.93104510390818",
      "longitude": "-90.01227112116628"
    }
  },
  {
    "service_request": "2025-1198623",
    "request_type": "Trash/Recycling",
    "request_reason": "Request a Large Item Pick Up",
    "date_created": "2025-06-05T15:14:25.000",
    "date_modified": "2025-06-05T15:14:27.000",
    "request_status": "Pending",
    "responsible_agency": "Department of Sanitation",
    "final_address": "5601 Durham Dr",
    "address_councildis": "C",
    "status": "Assigned to Contractor",
    "contractor": "Richards Disposal",
    "rowid": "1198623",
    "final_x": "3704645.38199",
    "final_y": "518677.718007",
    "longitude": "-89.99545958429145",
    "latitude": "29.91946088512268",
    "geocoded_column": {
      "latitude": "29.91946088512268",
      "longitude": "-89.99545958429145"
    }
  },
  {
    "service_request": "2025-1198622",
    "request_type": "Trash/Recycling",
    "request_reason": "Illegal Dumping",
    "date_created": "2025-06-05T15:13:41.000",
    "date_modified": "2025-06-05T15:13:42.000",
    "request_status": "Pending",
    "responsible_agency": "Department of Sanitation",
    "final_address": "2205 Tupelo St",
    "address_councildis": "E",
    "status": "Pending",
    "rowid": "1198622",
    "final_x": "3701134.73041",
    "final_y": "537291.991816",
    "longitude": "-90.0058601853396",
    "latitude": "29.97075582661329",
    "geocoded_column": {
      "latitude": "29.97075582661329",
      "longitude": "-90.0058601853396"
    }
  },
  {
    "service_request": "2025-1198621",
    "request_type": "Trash/Recycling",
    "request_reason": "Request a Large Item Pick Up",
    "date_created": "2025-06-05T15:13:37.000",
    "date_modified": "2025-06-05T15:13:39.000",
    "request_status": "Pending",
    "responsible_agency": "Department of Sanitation",
    "final_address": "7525 Means Ave",
    "address_councildis": "E",
    "status": "Assigned to Contractor",
    "contractor": "Waste Pro",
    "rowid": "1198621",
    "final_x": "3708230.75563",
    "final_y": "564532.361441",
    "longitude": "-89.9824360367293",
    "latitude": "30.045428438672726",
    "geocoded_column": {
      "latitude": "30.045428438672726",
      "longitude": "-89.9824360367293"
    }
  },
  {
    "service_request": "2025-1198620",
    "request_type": "Trash/Recycling",
    "request_reason": "Illegal Dumping",
    "date_created": "2025-06-05T15:13:23.000",
    "date_modified": "2025-06-05T15:13:27.000",
    "request_status": "Pending",
    "responsible_agency": "Department of Sanitation",
    "final_address": "2603 Almonaster Ave",
    "address_councildis": "D",
    "status": "Pending",
    "rowid": "1198620",
    "final_x": "3688621.11113",
    "final_y": "542162.972941",
    "longitude": "-90.04520668448997",
    "latitude": "29.984541990367422",
    "geocoded_column": {
      "latitude": "29.984541990367422",
      "longitude": "-90.04520668448997"
    }
  },
  {
    "service_request": "2025-1198619",
    "request_type": "Trash/Recycling",
    "request_reason": "Request a Large Item Pick Up",
    "date_created": "2025-06-05T15:10:17.000",
    "date_modified": "2025-06-05T16:42:39.000",
    "case_close_date": "2025-06-05T11:42:38.000",
    "request_status": "Closed",
    "responsible_agency": "Department of Sanitation",
    "final_address": "1727 Tupelo St",
    "address_councildis": "E",
    "status": "Invalid Request",
    "contractor": "Waste Pro",
    "contractor_action": "Invalid",
    "rowid": "1198619",
    "final_x": "3700472.50724",
    "final_y": "535617.071494",
    "longitude": "-90.00801273498192",
    "latitude": "29.966171477915584",
    "geocoded_column": {
      "latitude": "29.966171477915584",
      "longitude": "-90.00801273498192"
    }
  },
  {
    "service_request": "2025-1198618",
    "request_type": "Streetlights",
    "request_reason": "Streetlight Knocked Down/Leaning",
    "date_created": "2025-06-05T15:08:13.000",
    "date_modified": "2025-06-05T15:08:15.000",
    "request_status": "Pending",
    "responsible_agency": "Department of Public Works",
    "final_address": "611 N Rampart St",
    "address_councildis": "C",
    "status": "Pending",
    "contractor": "Legacy Professional Services",
    "rowid": "1198618",
    "final_x": "3681135.97531",
    "final_y": "533175.009796",
    "longitude": "-90.06916212370932",
    "latitude": "29.960057445244097",
    "geocoded_column": {
      "latitude": "29.960057445244097",
      "longitude": "-90.06916212370932"
    }
  },
  {
    "service_request": "2025-1198617",
    "request_type": "Trash/Recycling",
    "request_reason": "Request a Large Item Pick Up",
    "date_created": "2025-06-05T15:06:21.000",
    "date_modified": "2025-06-05T15:06:23.000",
    "request_status": "Pending",
    "responsible_agency": "Department of Sanitation",
    "final_address": "4935 Good Dr",
    "address_councildis": "E",
    "status": "Assigned to Contractor",
    "contractor": "Waste Pro",
    "rowid": "1198617",
    "final_x": "3714769.68959",
    "final_y": "557646.991259",
    "longitude": "-89.96203047492733",
    "latitude": "30.026282843143058",
    "geocoded_column": {
      "latitude": "30.026282843143058",
      "longitude": "-89.96203047492733"
    }
  },
  {
    "service_request": "2025-1198616",
    "request_type": "Trash/Recycling",
    "request_reason": "Request a Large Item Pick Up",
    "date_created": "2025-06-05T15:06:07.000",
    "date_modified": "2025-06-05T15:06:10.000",
    "request_status": "Pending",
    "responsible_agency": "Department of Sanitation",
    "final_address": "8021 Spruce St",
    "address_councildis": "A",
    "status": "Assigned to Contractor",
    "contractor": "IV Waste",
    "rowid": "1198616",
    "final_x": "3664094.80941",
    "final_y": "530290.006145",
    "longitude": "-90.12307091708877",
    "latitude": "29.952630584873116",
    "geocoded_column": {
      "latitude": "29.952630584873116",
      "longitude": "-90.12307091708877"
    }
  },
  {
    "service_request": "2025-1198615",
    "request_type": "Trash/Recycling",
    "request_reason": "Request a Large Item Pick Up",
    "date_created": "2025-06-05T15:05:13.000",
    "date_modified": "2025-06-05T15:05:15.000",
    "request_status": "Pending",
    "responsible_agency": "Department of Sanitation",
    "final_address": "7654 Scottwood Dr",
    "address_councildis": "E",
    "status": "Assigned to Contractor",
    "contractor": "Waste Pro",
    "rowid": "1198615",
    "final_x": "3717125.17048",
    "final_y": "570845.159591",
    "longitude": "-89.9540855282319",
    "latitude": "30.062494704136082",
    "geocoded_column": {
      "latitude": "30.062494704136082",
      "longitude": "-89.9540855282319"
    }
  },
  {
    "service_request": "2025-1198614",
    "request_type": "Property Maintenance",
    "request_reason": "Property Maintenance",
    "date_created": "2025-06-05T15:03:39.000",
    "date_modified": "2025-06-05T15:41:26.000",
    "case_close_date": "2025-06-05T10:41:24.000",
    "request_status": "Closed",
    "responsible_agency": "Department of Code Enforcement",
    "final_address": "4747 De Montluzin St",
    "address_councildis": "D",
    "status": "Referred to Code Enforcement",
    "rowid": "1198614",
    "final_x": "3687184.50313",
    "final_y": "550710.432789",
    "longitude": "-90.04944178157032",
    "latitude": "30.0080887543664",
    "geocoded_column": {
      "latitude": "30.0080887543664",
      "longitude": "-90.04944178157032"
    }
  },
  {
    "service_request": "2025-1198613",
    "request_type": "Utility Poles",
    "request_reason": "Utility Pole Down",
    "date_created": "2025-06-05T15:02:09.000",
    "date_modified": "2025-06-05T15:02:13.000",
    "request_status": "Pending",
    "responsible_agency": "Utility Company Collective",
    "final_address": "1419 Basin St",
    "address_councildis": "C",
    "status": "Pending",
    "rowid": "1198613",
    "final_x": "3680564.42485",
    "final_y": "534202.605445",
    "longitude": "-90.07093120582029",
    "latitude": "29.962900309546708",
    "geocoded_column": {
      "latitude": "29.962900309546708",
      "longitude": "-90.07093120582029"
    }
  },
  {
    "service_request": "2025-1198612",
    "request_type": "Parks & Parkways",
    "request_reason": "Request Tree Service (Right of Way/Public Property)",
    "date_created": "2025-06-05T14:59:59.000",
    "date_modified": "2025-06-05T15:00:02.000",
    "request_status": "Pending",
    "responsible_agency": "Department of Parks & Parkway",
    "final_address": "6701 Canal Blvd., New Orleans  70124",
    "address_councildis": "A",
    "status": "Pending",
    "rowid": "1198612",
    "final_x": "3669081.8139",
    "final_y": "552067.508118",
    "longitude": "-90.10658796994825",
    "latitude": "30.012365541896422",
    "geocoded_column": {
      "latitude": "30.012365541896422",
      "longitude": "-90.10658796994825"
    }
  },
  {
    "service_request": "2025-1198611",
    "request_type": "Parks & Parkways",
    "request_reason": "Request Tree Service (Right of Way/Public Property)",
    "date_created": "2025-06-05T14:58:18.000",
    "date_modified": "2025-06-05T14:58:19.000",
    "request_status": "Pending",
    "responsible_agency": "Department of Parks & Parkway",
    "final_address": "5824 Fontainebleau Dr",
    "address_councildis": "A",
    "status": "Pending",
    "rowid": "1198611",
    "final_x": "3668293.90209",
    "final_y": "529775.657985",
    "longitude": "-90.10982937351963",
    "latitude": "29.9510936749149",
    "geocoded_column": {
      "latitude": "29.9510936749149",
      "longitude": "-90.10982937351963"
    }
  },
  {
    "service_request": "2025-1198610",
    "request_type": "Roads and Streets",
    "request_reason": "Pothole",
    "date_created": "2025-06-05T14:55:58.000",
    "date_modified": "2025-06-05T14:55:59.000",
    "request_status": "Pending",
    "responsible_agency": "Department of Public Works",
    "final_address": "ELYSIAN FIELDS AVE & PRENTISS AVE",
    "address_councildis": "D",
    "status": "Pending",
    "rowid": "1198610",
    "final_x": "3683666.8",
    "final_y": "553781.18",
    "longitude": "-90.06044749235672",
    "latitude": "30.016640099642377",
    "geocoded_column": {
      "latitude": "30.016640099642377",
      "longitude": "-90.06044749235672"
    }
  },
  {
    "service_request": "2025-1198609",
    "request_type": "Trash/Recycling",
    "request_reason": "Request a Large Item Pick Up",
    "date_created": "2025-06-05T14:54:04.000",
    "date_modified": "2025-06-05T14:54:05.000",
    "request_status": "Pending",
    "responsible_agency": "Department of Sanitation",
    "final_address": "7616 Dogwood Dr",
    "address_councildis": "E",
    "status": "Assigned to Contractor",
    "contractor": "Waste Pro",
    "rowid": "1198609",
    "final_x": "3701212.00305",
    "final_y": "561011.716318",
    "longitude": "-90.00474758401121",
    "latitude": "30.03597370152162",
    "geocoded_column": {
      "latitude": "30.03597370152162",
      "longitude": "-90.00474758401121"
    }
  },
  {
    "service_request": "2025-1198608",
    "request_type": "Street and Traffic Signs",
    "request_reason": "Traffic or Parking Sign Damaged or Missing",
    "date_created": "2025-06-05T14:49:29.000",
    "date_modified": "2025-06-05T14:49:30.000",
    "request_status": "Pending",
    "responsible_agency": "Department of Public Works",
    "final_address": "8501 Pontchartrain Blvd, New Orleans, Louisiana, 70124",
    "status": "Pending",
    "rowid": "1198608",
    "longitude": "0.0",
    "latitude": "0.0",
    "geocoded_column": {
      "latitude": "0.0",
      "longitude": "0.0"
    }
  },
  {
    "service_request": "2025-1198607",
    "request_type": "Streetlights",
    "request_reason": "New Streetlight Request",
    "date_created": "2025-06-05T14:46:46.000",
    "date_modified": "2025-06-05T14:46:47.000",
    "request_status": "Pending",
    "responsible_agency": "Department of Public Works",
    "final_address": "1400 BLK Sixth St",
    "address_councildis": "B",
    "status": "Pending",
    "contractor": "Legacy Professional Services",
    "rowid": "1198607",
    "final_x": "3675917.99951",
    "final_y": "521609.187212",
    "longitude": "-90.08603694428653",
    "latitude": "29.928412514577808",
    "geocoded_column": {
      "latitude": "29.928412514577808",
      "longitude": "-90.08603694428653"
    }
  },
  {
    "service_request": "2025-1198606",
    "request_type": "Trash/Recycling",
    "request_reason": "Illegal Dumping",
    "date_created": "2025-06-05T14:43:08.000",
    "date_modified": "2025-06-05T14:43:10.000",
    "request_status": "Pending",
    "responsible_agency": "Department of Sanitation",
    "final_address": "7800 Venice Blvd",
    "address_councildis": "E",
    "status": "Pending",
    "rowid": "1198606",
    "final_x": "3720888.59244",
    "final_y": "574502.355243",
    "longitude": "-89.94204903268081",
    "latitude": "30.07242535409901",
    "geocoded_column": {
      "latitude": "30.07242535409901",
      "longitude": "-89.94204903268081"
    }
  },
  {
    "service_request": "2025-1198605",
    "request_type": "Trash/Recycling",
    "request_reason": "Request a Large Item Pick Up",
    "date_created": "2025-06-05T14:42:48.000",
    "date_modified": "2025-06-05T14:42:51.000",
    "request_status": "Pending",
    "responsible_agency": "Department of Sanitation",
    "final_address": "726 Marigny St",
    "address_councildis": "C",
    "status": "Assigned to Contractor",
    "contractor": "IV Waste",
    "rowid": "1198605",
    "final_x": "3685487.60956",
    "final_y": "535115.012102",
    "longitude": "-90.05535230221864",
    "latitude": "29.96525905254891",
    "geocoded_column": {
      "latitude": "29.96525905254891",
      "longitude": "-90.05535230221864"
    }
  },
  {
    "service_request": "2025-1198604",
    "request_type": "Streetlights",
    "request_reason": "Streetlight Outage/Malfunction",
    "date_created": "2025-06-05T14:42:40.000",
    "date_modified": "2025-06-05T14:42:41.000",
    "request_status": "Pending",
    "responsible_agency": "Department of Public Works",
    "final_address": "1528 Eighth St",
    "address_councildis": "B",
    "status": "Pending",
    "contractor": "Legacy Professional Services",
    "rowid": "1198604",
    "final_x": "3675103.64853",
    "final_y": "521664.347961",
    "longitude": "-90.08860578536364",
    "latitude": "29.928588538307135",
    "geocoded_column": {
      "latitude": "29.928588538307135",
      "longitude": "-90.08860578536364"
    }
  },
  {
    "service_request": "2025-1198603",
    "request_type": "Trash/Recycling",
    "request_reason": "Missed Trash Pick-Up",
    "date_created": "2025-06-05T14:40:52.000",
    "date_modified": "2025-06-05T14:40:54.000",
    "request_status": "Pending",
    "responsible_agency": "Department of Sanitation",
    "final_address": "8700 Dinkins St",
    "address_councildis": "E",
    "status": "Assigned to Contractor",
    "contractor": "Waste Pro",
    "rowid": "1198603",
    "final_x": "3704180.51332",
    "final_y": "563091.697312",
    "longitude": "-89.99528984874834",
    "latitude": "30.041597856250046",
    "geocoded_column": {
      "latitude": "30.041597856250046",
      "longitude": "-89.99528984874834"
    }
  },
  {
    "service_request": "2025-1198602",
    "request_type": "Streetlights",
    "request_reason": "Streetlight Outage/Malfunction",
    "date_created": "2025-06-05T14:40:26.000",
    "date_modified": "2025-06-05T14:40:27.000",
    "request_status": "Pending",
    "responsible_agency": "Department of Public Works",
    "final_address": "1528 Eighth St",
    "address_councildis": "B",
    "status": "Pending",
    "contractor": "Legacy Professional Services",
    "rowid": "1198602",
    "final_x": "3675103.64853",
    "final_y": "521664.347961",
    "longitude": "-90.08860578536364",
    "latitude": "29.928588538307135",
    "geocoded_column": {
      "latitude": "29.928588538307135",
      "longitude": "-90.08860578536364"
    }
  },
  {
    "service_request": "2025-1198601",
    "request_type": "Property Maintenance",
    "request_reason": "Property Maintenance",
    "date_created": "2025-06-05T14:39:45.000",
    "date_modified": "2025-06-05T14:39:47.000",
    "request_status": "Pending",
    "responsible_agency": "Department of Code Enforcement",
    "final_address": "8701 Dinkins St",
    "address_councildis": "E",
    "status": "Pending",
    "rowid": "1198601",
    "final_x": "3704154.0106",
    "final_y": "563185.017952",
    "longitude": "-89.9953701626377",
    "latitude": "30.04185530210193",
    "geocoded_column": {
      "latitude": "30.04185530210193",
      "longitude": "-89.9953701626377"
    }
  },
  {
    "service_request": "2025-1198600",
    "request_type": "Streetlights",
    "request_reason": "Streetlight Outage/Malfunction",
    "date_created": "2025-06-05T14:37:40.000",
    "date_modified": "2025-06-05T14:37:42.000",
    "request_status": "Pending",
    "responsible_agency": "Department of Public Works",
    "final_address": "1124 Eighth St",
    "address_councildis": "B",
    "status": "Pending",
    "contractor": "Legacy Professional Services",
    "rowid": "1198600",
    "final_x": "3675968.45774",
    "final_y": "520355.388152",
    "longitude": "-90.08592074668186",
    "latitude": "29.924963462757567",
    "geocoded_column": {
      "latitude": "29.924963462757567",
      "longitude": "-90.08592074668186"
    }
  },
  {
    "service_request": "2025-1198599",
    "request_type": "Safety & Permits",
    "request_reason": "Construction permit",
    "date_created": "2025-06-05T14:37:25.000",
    "date_modified": "2025-06-05T14:37:27.000",
    "request_status": "Pending",
    "responsible_agency": "Safety and Permits",
    "final_address": "1601 Broadway St",
    "address_councildis": "A",
    "status": "Pending",
    "rowid": "1198599",
    "final_x": "3665028.86938",
    "final_y": "527687.475071",
    "longitude": "-90.12020856603078",
    "latitude": "29.94544730476522",
    "geocoded_column": {
      "latitude": "29.94544730476522",
      "longitude": "-90.12020856603078"
    }
  },
  {
    "service_request": "2025-1198598",
    "request_type": "Trash/Recycling",
    "request_reason": "Request a Large Item Pick Up",
    "date_created": "2025-06-05T14:36:50.000",
    "date_modified": "2025-06-05T14:36:52.000",
    "request_status": "Pending",
    "responsible_agency": "Department of Sanitation",
    "final_address": "7118 Foch Rd",
    "address_councildis": "D",
    "status": "Assigned to Contractor",
    "contractor": "Waste Pro",
    "rowid": "1198598",
    "final_x": "3696377.5192",
    "final_y": "556906.82505",
    "longitude": "-90.02017404722558",
    "latitude": "30.024840066646735",
    "geocoded_column": {
      "latitude": "30.024840066646735",
      "longitude": "-90.02017404722558"
    }
  },
  {
    "service_request": "2025-1198597",
    "request_type": "Streetlights",
    "request_reason": "Streetlight Outage/Malfunction",
    "date_created": "2025-06-05T14:35:08.000",
    "date_modified": "2025-06-05T14:35:09.000",
    "request_status": "Pending",
    "responsible_agency": "Department of Public Works",
    "final_address": "1520 Sixth St",
    "address_councildis": "B",
    "status": "Pending",
    "contractor": "Legacy Professional Services",
    "rowid": "1198597",
    "final_x": "3675645.86613",
    "final_y": "521943.643258",
    "longitude": "-90.08688452620085",
    "latitude": "29.929340302755303",
    "geocoded_column": {
      "latitude": "29.929340302755303",
      "longitude": "-90.08688452620085"
    }
  },
  {
    "service_request": "2025-1198596",
    "request_type": "Trash/Recycling",
    "request_reason": "Request a Large Item Pick Up",
    "date_created": "2025-06-05T14:34:05.000",
    "date_modified": "2025-06-05T14:34:06.000",
    "request_status": "Pending",
    "responsible_agency": "Department of Sanitation",
    "final_address": "4501 Lafon Dr",
    "address_councildis": "E",
    "status": "Assigned to Contractor",
    "contractor": "Waste Pro",
    "rowid": "1198596",
    "final_x": "3701380.49681",
    "final_y": "552839.806422",
    "longitude": "-90.00451460208652",
    "latitude": "30.01349872032208",
    "geocoded_column": {
      "latitude": "30.01349872032208",
      "longitude": "-90.00451460208652"
    }
  },
  {
    "service_request": "2025-1198595",
    "request_type": "Trash/Recycling",
    "request_reason": "Repair Trash Cart",
    "date_created": "2025-06-05T14:33:57.000",
    "date_modified": "2025-06-05T14:33:59.000",
    "request_status": "Pending",
    "responsible_agency": "Department of Sanitation",
    "final_address": "2017 N Claiborne Ave",
    "address_councildis": "D",
    "status": "Assigned to Contractor",
    "contractor": "IV Waste",
    "rowid": "1198595",
    "final_x": "3684242.58153",
    "final_y": "538126.980169",
    "longitude": "-90.05917826321557",
    "latitude": "29.97357904335096",
    "geocoded_column": {
      "latitude": "29.97357904335096",
      "longitude": "-90.05917826321557"
    }
  },
  {
    "service_request": "2025-1198594",
    "request_type": "Safety & Permits",
    "request_reason": "Construction permit",
    "date_created": "2025-06-05T14:32:43.000",
    "date_modified": "2025-06-05T14:32:45.000",
    "request_status": "Pending",
    "responsible_agency": "Safety and Permits",
    "final_address": "1601 Broadway St",
    "address_councildis": "A",
    "status": "Pending",
    "rowid": "1198594",
    "final_x": "3665028.86938",
    "final_y": "527687.475071",
    "longitude": "-90.12020856603078",
    "latitude": "29.94544730476522",
    "geocoded_column": {
      "latitude": "29.94544730476522",
      "longitude": "-90.12020856603078"
    }
  },
  {
    "service_request": "2025-1198593",
    "request_type": "Trash/Recycling",
    "request_reason": "Missed Trash Pick-Up",
    "date_created": "2025-06-05T14:32:32.000",
    "date_modified": "2025-06-05T15:04:06.000",
    "case_close_date": "2025-06-05T10:04:04.000",
    "request_status": "Closed",
    "responsible_agency": "Department of Sanitation",
    "final_address": "2606 N Rocheblave St",
    "address_councildis": "D",
    "status": "Invalid Request",
    "contractor": "IV Waste",
    "contractor_action": "Invalid",
    "rowid": "1198593",
    "final_x": "3686545.44738",
    "final_y": "541212.739468",
    "longitude": "-90.05179634474644",
    "latitude": "29.98199318235813",
    "geocoded_column": {
      "latitude": "29.98199318235813",
      "longitude": "-90.05179634474644"
    }
  },
  {
    "service_request": "2025-1198592",
    "request_type": "Streetlights",
    "request_reason": "Streetlight Outage/Malfunction",
    "date_created": "2025-06-05T14:32:10.000",
    "date_modified": "2025-06-05T14:32:12.000",
    "request_status": "Pending",
    "responsible_agency": "Department of Public Works",
    "final_address": "1410 Sixth St",
    "address_councildis": "B",
    "status": "Pending",
    "contractor": "Legacy Professional Services",
    "rowid": "1198592",
    "final_x": "3675962.71835",
    "final_y": "521475.278009",
    "longitude": "-90.08590037848465",
    "latitude": "29.92804296913018",
    "geocoded_column": {
      "latitude": "29.92804296913018",
      "longitude": "-90.08590037848465"
    }
  },
  {
    "service_request": "2025-1198591",
    "request_type": "Mosquito, Termite & Rodent Control",
    "request_reason": "Mosquito Complaint",
    "date_created": "2025-06-05T14:31:04.000",
    "date_modified": "2025-06-05T14:31:05.000",
    "request_status": "Pending",
    "responsible_agency": "Mosquito, Termite & Rodent Control Board",
    "final_address": "0 BLK Avoyelles Pl",
    "address_councildis": "E",
    "status": "Pending",
    "rowid": "1198591",
    "final_x": "3725656.02864",
    "final_y": "564342.81828",
    "longitude": "-89.92737183826097",
    "latitude": "30.044330888438765",
    "geocoded_column": {
      "latitude": "30.044330888438765",
      "longitude": "-89.92737183826097"
    }
  },
  {
    "service_request": "2025-1198590",
    "request_type": "Trash/Recycling",
    "request_reason": "Return Recycling Cart",
    "date_created": "2025-06-05T14:30:53.000",
    "date_modified": "2025-06-05T14:31:02.000",
    "request_status": "Pending",
    "responsible_agency": "Department of Sanitation",
    "final_address": "3321 St Claude Ave",
    "address_councildis": "C",
    "status": "Pending",
    "rowid": "1198590",
    "final_x": "3690050.412",
    "final_y": "535847.649543",
    "longitude": "-90.04091715752725",
    "latitude": "29.967132830067957",
    "geocoded_column": {
      "latitude": "29.967132830067957",
      "longitude": "-90.04091715752725"
    }
  },
  {
    "service_request": "2025-1198589",
    "request_type": "Streetlights",
    "request_reason": "Streetlight Outage/Malfunction",
    "date_created": "2025-06-05T14:28:54.000",
    "date_modified": "2025-06-05T14:28:56.000",
    "request_status": "Pending",
    "responsible_agency": "Department of Public Works",
    "final_address": "1218 Sixth St",
    "address_councildis": "B",
    "status": "Pending",
    "contractor": "Legacy Professional Services",
    "rowid": "1198589",
    "final_x": "3676251.90491",
    "final_y": "520943.700985",
    "longitude": "-90.08500576336402",
    "latitude": "29.926572644811525",
    "geocoded_column": {
      "latitude": "29.926572644811525",
      "longitude": "-90.08500576336402"
    }
  },
  {
    "service_request": "2025-1198588",
    "request_type": "Trash/Recycling",
    "request_reason": "Request a Large Item Pick Up",
    "date_created": "2025-06-05T14:28:48.000",
    "date_modified": "2025-06-05T14:28:50.000",
    "request_status": "Pending",
    "responsible_agency": "Department of Sanitation",
    "final_address": "860 Taft Pl",
    "address_councildis": "A",
    "status": "Assigned to Contractor",
    "contractor": "IV Waste",
    "rowid": "1198588",
    "final_x": "3673862.46452",
    "final_y": "539858.93569",
    "longitude": "-90.09190166604417",
    "latitude": "29.978654627086406",
    "geocoded_column": {
      "latitude": "29.978654627086406",
      "longitude": "-90.09190166604417"
    }
  },
  {
    "service_request": "2025-1198587",
    "request_type": "Drainage",
    "request_reason": "Catch Basin Clogged",
    "date_created": "2025-06-05T14:28:44.000",
    "date_modified": "2025-06-05T14:28:46.000",
    "request_status": "Pending",
    "responsible_agency": "Sewerage & Water Board",
    "final_address": "2021 N Claiborne Ave",
    "address_councildis": "D",
    "status": "Pending",
    "rowid": "1198587",
    "final_x": "3684272.48149",
    "final_y": "538130.430985",
    "longitude": "-90.05908371174598",
    "latitude": "29.973587617646675",
    "geocoded_column": {
      "latitude": "29.973587617646675",
      "longitude": "-90.05908371174598"
    }
  },
  {
    "service_request": "2025-1198586",
    "request_type": "Trash/Recycling",
    "request_reason": "Order Trash Cart",
    "date_created": "2025-06-05T14:28:42.000",
    "date_modified": "2025-06-05T14:28:44.000",
    "request_status": "Pending",
    "responsible_agency": "Department of Sanitation",
    "final_address": "1924 N Rampart St Apt B",
    "address_councildis": "C",
    "status": "Assigned to Contractor",
    "contractor": "IV Waste",
    "rowid": "1198586",
    "final_x": "3684125.92361",
    "final_y": "535822.254343",
    "longitude": "-90.05962760370947",
    "latitude": "29.967245413677652",
    "geocoded_column": {
      "latitude": "29.967245413677652",
      "longitude": "-90.05962760370947"
    }
  },
  {
    "service_request": "2025-1198585",
    "request_type": "Abandoned Vehicles",
    "request_reason": "Abandoned/Junk Vehicles",
    "date_created": "2025-06-05T14:28:02.000",
    "date_modified": "2025-06-05T14:28:04.000",
    "request_status": "Pending",
    "responsible_agency": "Department of Public Works",
    "final_address": "3001 Bell St",
    "address_councildis": "A",
    "status": "Pending",
    "rowid": "1198585",
    "final_x": "3676602.60193",
    "final_y": "539328.518794",
    "longitude": "-90.08326556001387",
    "latitude": "29.977114248550112",
    "geocoded_column": {
      "latitude": "29.977114248550112",
      "longitude": "-90.08326556001387"
    }
  },
  {
    "service_request": "2025-1198584",
    "request_type": "Trash/Recycling",
    "request_reason": "Order Trash Cart",
    "date_created": "2025-06-05T14:24:47.000",
    "date_modified": "2025-06-05T14:24:50.000",
    "request_status": "Pending",
    "responsible_agency": "Department of Sanitation",
    "final_address": "1924 N Rampart St Apt B",
    "address_councildis": "C",
    "status": "Assigned to Contractor",
    "contractor": "IV Waste",
    "rowid": "1198584",
    "final_x": "3684125.92361",
    "final_y": "535822.254343",
    "longitude": "-90.05962760370947",
    "latitude": "29.967245413677652",
    "geocoded_column": {
      "latitude": "29.967245413677652",
      "longitude": "-90.05962760370947"
    }
  },
  {
    "service_request": "2025-1198583",
    "request_type": "Streetlights",
    "request_reason": "Streetlight Outage/Malfunction",
    "date_created": "2025-06-05T14:23:39.000",
    "date_modified": "2025-06-05T14:23:41.000",
    "request_status": "Pending",
    "responsible_agency": "Department of Public Works",
    "final_address": "1236 Seventh St",
    "address_councildis": "B",
    "status": "Pending",
    "contractor": "Legacy Professional Services",
    "rowid": "1198583",
    "final_x": "3675925.24174",
    "final_y": "520901.323705",
    "longitude": "-90.08603840636134",
    "latitude": "29.926465902530964",
    "geocoded_column": {
      "latitude": "29.926465902530964",
      "longitude": "-90.08603840636134"
    }
  },
  {
    "service_request": "2025-1198582",
    "request_type": "Streetlights",
    "request_reason": "Streetlight Outage/Malfunction",
    "date_created": "2025-06-05T14:21:01.000",
    "date_modified": "2025-06-05T14:21:02.000",
    "request_status": "Pending",
    "responsible_agency": "Department of Public Works",
    "final_address": "1863 Saux Ln",
    "address_councildis": "C",
    "status": "Pending",
    "contractor": "Legacy Professional Services",
    "rowid": "1198582",
    "final_x": "3692537.60688",
    "final_y": "524083.348988",
    "longitude": "-90.0334840592079",
    "latitude": "29.934707710452365",
    "geocoded_column": {
      "latitude": "29.934707710452365",
      "longitude": "-90.0334840592079"
    }
  },
  {
    "service_request": "2025-1198581",
    "request_type": "Parks & Parkways",
    "request_reason": "Request Tree Service (Right of Way/Public Property)",
    "date_created": "2025-06-05T14:18:51.000",
    "date_modified": "2025-06-05T14:18:53.000",
    "request_status": "Pending",
    "responsible_agency": "Department of Parks & Parkway",
    "final_address": "1500 BLK Seventh St",
    "address_councildis": "B",
    "status": "Pending",
    "rowid": "1198581",
    "final_x": "3675394.43986",
    "final_y": "521849.162782",
    "longitude": "-90.08768147508924",
    "latitude": "29.929088030105262",
    "geocoded_column": {
      "latitude": "29.929088030105262",
      "longitude": "-90.08768147508924"
    }
  },
  {
    "service_request": "2025-1198580",
    "request_type": "Trash/Recycling",
    "request_reason": "Request a Large Item Pick Up",
    "date_created": "2025-06-05T14:17:29.000",
    "date_modified": "2025-06-05T14:17:30.000",
    "request_status": "Pending",
    "responsible_agency": "Department of Sanitation",
    "final_address": "3060 Dauphine St",
    "address_councildis": "C",
    "status": "Assigned to Contractor",
    "contractor": "IV Waste",
    "rowid": "1198580",
    "final_x": "3688558.81929",
    "final_y": "534844.111174",
    "longitude": "-90.04566322053348",
    "latitude": "29.96441962564243",
    "geocoded_column": {
      "latitude": "29.96441962564243",
      "longitude": "-90.04566322053348"
    }
  },
  {
    "service_request": "2025-1198579",
    "request_type": "Trash/Recycling",
    "request_reason": "Illegal Dumping",
    "date_created": "2025-06-05T14:15:18.000",
    "date_modified": "2025-06-05T14:15:20.000",
    "request_status": "Pending",
    "responsible_agency": "Department of Sanitation",
    "final_address": "6312 Paris Ave",
    "address_councildis": "D",
    "status": "Pending",
    "rowid": "1198579",
    "final_x": "3678485.42408",
    "final_y": "556471.52937",
    "longitude": "-90.07672522477696",
    "latitude": "30.024194830721758",
    "geocoded_column": {
      "latitude": "30.024194830721758",
      "longitude": "-90.07672522477696"
    }
  },
  {
    "service_request": "2025-1198578",
    "request_type": "Trash/Recycling",
    "request_reason": "Request a Large Item Pick Up",
    "date_created": "2025-06-05T14:15:15.000",
    "date_modified": "2025-06-05T14:15:18.000",
    "request_status": "Pending",
    "responsible_agency": "Department of Sanitation",
    "final_address": "7731 Shelly St",
    "address_councildis": "E",
    "status": "Assigned to Contractor",
    "contractor": "Waste Pro",
    "rowid": "1198578",
    "final_x": "3695932.63082",
    "final_y": "559352.779357",
    "longitude": "-90.02149132910432",
    "latitude": "30.03157951942622",
    "geocoded_column": {
      "latitude": "30.03157951942622",
      "longitude": "-90.02149132910432"
    }
  },
  {
    "service_request": "2025-1198577",
    "request_type": "Streetlights",
    "request_reason": "Streetlight Outage/Malfunction",
    "date_created": "2025-06-05T14:13:42.000",
    "date_modified": "2025-06-05T14:13:44.000",
    "request_status": "Pending",
    "responsible_agency": "Department of Public Works",
    "final_address": "1600 BLK Fourth St",
    "address_councildis": "B",
    "status": "Pending",
    "contractor": "Legacy Professional Services",
    "rowid": "1198577",
    "final_x": "3676073.59992",
    "final_y": "522882.662356",
    "longitude": "-90.08550196793918",
    "latitude": "29.93190949892243",
    "geocoded_column": {
      "latitude": "29.93190949892243",
      "longitude": "-90.08550196793918"
    }
  },
  {
    "service_request": "2025-1198576",
    "request_type": "Roads and Streets",
    "request_reason": "Pothole",
    "date_created": "2025-06-05T14:13:22.000",
    "date_modified": "2025-06-05T14:13:24.000",
    "request_status": "Pending",
    "responsible_agency": "Department of Public Works",
    "final_address": "CANAL BLVD EXIT & I 610 E ONRAMP",
    "address_councildis": "A",
    "status": "Pending",
    "rowid": "1198576",
    "final_x": "3667191.7",
    "final_y": "545853.38",
    "longitude": "-90.11276882898073",
    "latitude": "29.995334350451685",
    "geocoded_column": {
      "latitude": "29.995334350451685",
      "longitude": "-90.11276882898073"
    }
  },
  {
    "service_request": "2025-1198575",
    "request_type": "Roads and Streets",
    "request_reason": "Sidewalk Damaged or Missing",
    "date_created": "2025-06-05T14:11:23.000",
    "date_modified": "2025-06-05T14:11:25.000",
    "request_status": "Pending",
    "responsible_agency": "Department of Public Works",
    "final_address": "4206 Dauphine St",
    "address_councildis": "C",
    "status": "Pending",
    "rowid": "1198575",
    "final_x": "3692164.00169",
    "final_y": "533965.338565",
    "longitude": "-90.03430984082473",
    "latitude": "29.961891416768374",
    "geocoded_column": {
      "latitude": "29.961891416768374",
      "longitude": "-90.03430984082473"
    }
  },
  {
    "service_request": "2025-1198574",
    "request_type": "Trash/Recycling",
    "request_reason": "Order Recycling Cart",
    "date_created": "2025-06-05T14:09:07.000",
    "date_modified": "2025-06-05T14:09:09.000",
    "request_status": "Pending",
    "responsible_agency": "Department of Sanitation",
    "final_address": "1206 Clouet St",
    "address_councildis": "C",
    "status": "Pending",
    "rowid": "1198574",
    "final_x": "3689080.38639",
    "final_y": "536431.931719",
    "longitude": "-90.04395973404286",
    "latitude": "29.96876944999195",
    "geocoded_column": {
      "latitude": "29.96876944999195",
      "longitude": "-90.04395973404286"
    }
  },
  {
    "service_request": "2025-1198573",
    "request_type": "Trash/Recycling",
    "request_reason": "Request a Large Item Pick Up",
    "date_created": "2025-06-05T14:08:39.000",
    "date_modified": "2025-06-05T17:05:38.000",
    "case_close_date": "2025-06-05T12:05:36.000",
    "request_status": "Closed",
    "responsible_agency": "Department of Sanitation",
    "final_address": "4649 Werner Dr",
    "address_councildis": "E",
    "status": "Invalid Request",
    "contractor": "Waste Pro",
    "contractor_action": "Invalid Request",
    "rowid": "1198573",
    "final_x": "3704864.49854",
    "final_y": "554734.804696",
    "longitude": "-89.99343705815144",
    "latitude": "30.018597682825323",
    "geocoded_column": {
      "latitude": "30.018597682825323",
      "longitude": "-89.99343705815144"
    }
  },
  {
    "service_request": "2025-1198572",
    "request_type": "Trash/Recycling",
    "request_reason": "Return Trash Cart",
    "date_created": "2025-06-05T14:08:33.000",
    "date_modified": "2025-06-05T14:08:35.000",
    "request_status": "Pending",
    "responsible_agency": "Department of Sanitation",
    "final_address": "504 N Rendon St",
    "address_councildis": "A",
    "status": "Assigned to Contractor",
    "contractor": "IV Waste",
    "rowid": "1198572",
    "final_x": "3674590.31169",
    "final_y": "537663.751624",
    "longitude": "-90.08967810076977",
    "latitude": "29.972596917003816",
    "geocoded_column": {
      "latitude": "29.972596917003816",
      "longitude": "-90.08967810076977"
    }
  },
  {
    "service_request": "2025-1198571",
    "request_type": "Abandoned Vehicles",
    "request_reason": "Abandoned/Junk Vehicles",
    "date_created": "2025-06-05T14:03:22.000",
    "date_modified": "2025-06-05T14:03:23.000",
    "request_status": "Pending",
    "responsible_agency": "Department of Public Works",
    "final_address": "1715 Henriette Delille St",
    "address_councildis": "C",
    "status": "Pending",
    "rowid": "1198571",
    "final_x": "3683292.10408",
    "final_y": "536197.822407",
    "longitude": "-90.06224765540153",
    "latitude": "29.96830355544346",
    "geocoded_column": {
      "latitude": "29.96830355544346",
      "longitude": "-90.06224765540153"
    }
  },