[
  {
    "service_request": "2022-925796",
    "request_type": "Mosquito, Termite & Rodent Control",
    "request_reason": "Non-Rodent Complaint (Mice, Possums, Snakes)",
    "date_created": "2022-10-04T00:36:15.000",
    "date_modified": "2022-10-04T00:36:15.000",
    "request_status": "Pending",
    "responsible_agency": "Mosquito, Termite & Rodent Control Board",
    "final_address": "829 N Rocheblave St",
    "address_councildis": "D",
    "status": "Pending",
    "rowid": "925796",
    "final_x": "3677838.00046",
    "final_y": "536820.659528",
    "longitude": "-90.07945044421399",
    "latitude": "29.970181379144364",
    "geocoded_column": {
      "latitude": "29.970181379144364",
      "longitude": "-90.07945044421399"
    }
  },
  {
    "service_request": "2022-925795",
    "request_type": "Roads/Drainage",
    "request_reason": "Street Flooding / Drainage",
    "date_created": "2022-10-04T00:34:30.000",
    "date_modified": "2022-10-04T00:34:30.000",
    "request_status": "Pending",
    "responsible_agency": "Department of Public Works",
    "final_address": "2441 Orleans Ave",
    "address_councildis": "D",
    "status": "Pending",
    "rowid": "925795",
    "final_x": "3677653.41826",
    "final_y": "536434.795335",
    "longitude": "-90.08004670307605",
    "latitude": "29.969125936993006",
    "geocoded_column": {
      "latitude": "29.969125936993006",
      "longitude": "-90.08004670307605"
    }
  },
  {
    "service_request": "2022-925794",
    "request_type": "Traffic Signals/Signs/Striping/Streetlights",
    "request_reason": "Street Light Outage/Malfunction",
    "date_created": "2022-10-03T23:54:15.000",
    "date_modified": "2022-10-03T23:54:16.000",
    "request_status": "Pending",
    "responsible_agency": "Department of Public Works",
    "final_address": "ELYSIAN FIELDS AVE & I 610 E",
    "address_councildis": "D",
    "status": "Pending",
    "contractor": "Legacy Professional Services",
    "rowid": "925794",
    "final_x": "3684304.5",
    "final_y": "544551.28",
    "longitude": "-90.05875702380456",
    "latitude": "29.99124171275241",
    "geocoded_column": {
      "latitude": "29.99124171275241",
      "longitude": "-90.05875702380456"
    }
  },
  {
    "service_request": "2022-925793",
    "request_type": "Property Maintenance",
    "request_reason": "Property Maintenance",
    "date_created": "2022-10-03T23:49:48.000",
    "date_modified": "2022-10-03T23:49:48.000",
    "request_status": "Pending",
    "responsible_agency": "Department of Code Enforcement",
    "final_address": "8621 Chef Menteur Hwy",
    "address_councildis": "E",
    "status": "Pending",
    "rowid": "925793",
    "final_x": "3707446.24478",
    "final_y": "553449.860951",
    "longitude": "-89.98532750996263",
    "latitude": "30.01498132074364",
    "geocoded_column": {
      "latitude": "30.01498132074364",
      "longitude": "-89.98532750996263"
    }
  },
  {
    "service_request": "2022-925792",
    "request_type": "Property Maintenance",
    "request_reason": "Property Maintenance",
    "date_created": "2022-10-03T23:48:29.000",
    "date_modified": "2022-10-03T23:48:29.000",
    "request_status": "Pending",
    "responsible_agency": "Department of Code Enforcement",
    "final_address": "8601 Chef Menteur Hwy",
    "address_councildis": "E",
    "status": "Pending",
    "rowid": "925792",
    "final_x": "3707303.0282",
    "final_y": "553416.883287",
    "longitude": "-89.98578122743986",
    "latitude": "30.014895276819903",
    "geocoded_column": {
      "latitude": "30.014895276819903",
      "longitude": "-89.98578122743986"
    }
  },
  {
    "service_request": "2022-925791",
    "request_type": "Trash/Recycling",
    "request_reason": "Missed Trash Pick-Up",
    "date_created": "2022-10-03T23:45:23.000",
    "date_modified": "2022-10-03T23:45:24.000",
    "request_status": "Pending",
    "responsible_agency": "Department of Sanitation",
    "final_address": "131 S Rendon St",
    "address_councildis": "B",
    "status": "Assigned to Contractor",
    "contractor": "Richards Disposal",
    "rowid": "925791",
    "final_x": "3673353.23329",
    "final_y": "536264.249415",
    "longitude": "-90.09363284460643",
    "latitude": "29.968785620484017",
    "geocoded_column": {
      "latitude": "29.968785620484017",
      "longitude": "-90.09363284460643"
    }
  },
  {
    "service_request": "2022-925790",
    "request_type": "Property Maintenance",
    "request_reason": "Property Maintenance",
    "date_created": "2022-10-03T23:45:17.000",
    "date_modified": "2022-10-03T23:45:17.000",
    "request_status": "Pending",
    "responsible_agency": "Department of Code Enforcement",
    "final_address": "4455 Gawain Dr",
    "address_councildis": "E",
    "status": "Pending",
    "rowid": "925790",
    "final_x": "3707233.62052",
    "final_y": "553920.405591",
    "longitude": "-89.98598181387648",
    "latitude": "30.016282013088194",
    "geocoded_column": {
      "latitude": "30.016282013088194",
      "longitude": "-89.98598181387648"
    }
  },
  {
    "service_request": "2022-925789",
    "request_type": "Abandoned Vehicles",
    "request_reason": "Abandoned/Junk Vehicles",
    "date_created": "2022-10-03T23:41:55.000",
    "date_modified": "2022-10-03T23:41:55.000",
    "request_status": "Pending",
    "responsible_agency": "Department of Public Works",
    "final_address": "4819 Galahad Dr",
    "address_councildis": "E",
    "status": "Pending",
    "rowid": "925789",
    "final_x": "3707221.16958",
    "final_y": "556081.114714",
    "longitude": "-89.98594087587618",
    "latitude": "30.022223528523547",
    "geocoded_column": {
      "latitude": "30.022223528523547",
      "longitude": "-89.98594087587618"
    }
  },
  {
    "service_request": "2022-925788",
    "request_type": "Property Maintenance",
    "request_reason": "Property Maintenance",
    "date_created": "2022-10-03T23:35:47.000",
    "date_modified": "2022-10-03T23:35:47.000",
    "request_status": "Pending",
    "responsible_agency": "Department of Code Enforcement",
    "final_address": "11800 Curran Rd",
    "address_councildis": "E",
    "status": "Pending",
    "rowid": "925788",
    "final_x": "3712453.64734",
    "final_y": "567367.098212",
    "longitude": "-89.96898310204558",
    "latitude": "30.053085246027965",
    "geocoded_column": {
      "latitude": "30.053085246027965",
      "longitude": "-89.96898310204558"
    }
  },
  {
    "service_request": "2022-925787",
    "request_type": "Property Maintenance",
    "request_reason": "Property Maintenance",
    "date_created": "2022-10-03T23:33:46.000",
    "date_modified": "2022-10-03T23:33:46.000",
    "request_status": "Pending",
    "responsible_agency": "Department of Code Enforcement",
    "final_address": "4901 Galahad Dr",
    "address_councildis": "E",
    "status": "Pending",
    "rowid": "925787",
    "final_x": "3707186.10936",
    "final_y": "556452.89961",
    "longitude": "-89.98603784370975",
    "latitude": "30.023246925925804",
    "geocoded_column": {
      "latitude": "30.023246925925804",
      "longitude": "-89.98603784370975"
    }
  },
  {
    "service_request": "2022-925786",
    "request_type": "Property Maintenance",
    "request_reason": "Property Maintenance",
    "date_created": "2022-10-03T23:31:21.000",
    "date_modified": "2022-10-03T23:31:21.000",
    "request_status": "Pending",
    "responsible_agency": "Department of Code Enforcement",
    "final_address": "4810 Gawain Dr",
    "address_councildis": "E",
    "status": "Pending",
    "rowid": "925786",
    "final_x": "3706846.43569",
    "final_y": "555985.982041",
    "longitude": "-89.98712846360084",
    "latitude": "30.02197406150728",
    "geocoded_column": {
      "latitude": "30.02197406150728",
      "longitude": "-89.98712846360084"
    }
  },
  {
    "service_request": "2022-925785",
    "request_type": "Property Maintenance",
    "request_reason": "Property Maintenance",
    "date_created": "2022-10-03T23:30:03.000",
    "date_modified": "2022-10-03T23:30:03.000",
    "request_status": "Pending",
    "responsible_agency": "Department of Code Enforcement",
    "final_address": "4919 Gawain Dr",
    "address_councildis": "E",
    "status": "Pending",
    "rowid": "925785",
    "final_x": "3706938.82475",
    "final_y": "556547.02345",
    "longitude": "-89.98681570816647",
    "latitude": "30.02351372238688",
    "geocoded_column": {
      "latitude": "30.02351372238688",
      "longitude": "-89.98681570816647"
    }
  },
  {
    "service_request": "2022-925784",
    "request_type": "Property Maintenance",
    "request_reason": "Property Maintenance",
    "date_created": "2022-10-03T23:28:44.000",
    "date_modified": "2022-10-03T23:28:44.000",
    "request_status": "Pending",
    "responsible_agency": "Department of Code Enforcement",
    "final_address": "4843 Gawain Dr",
    "address_councildis": "E",
    "status": "Pending",
    "rowid": "925784",
    "final_x": "3706964.49688",
    "final_y": "556239.49577",
    "longitude": "-89.98674600987214",
    "latitude": "30.0226673113331",
    "geocoded_column": {
      "latitude": "30.0226673113331",
      "longitude": "-89.98674600987214"
    }
  },
  {
    "service_request": "2022-925783",
    "request_type": "Property Maintenance",
    "request_reason": "Property Maintenance",
    "date_created": "2022-10-03T23:27:13.000",
    "date_modified": "2022-10-03T23:27:13.000",
    "request_status": "Pending",
    "responsible_agency": "Department of Code Enforcement",
    "final_address": "4711 Gawain Dr",
    "address_councildis": "E",
    "status": "Pending",
    "rowid": "925783",
    "final_x": "3707067.90385",
    "final_y": "555214.793881",
    "longitude": "-89.98645732959478",
    "latitude": "30.01984643708927",
    "geocoded_column": {
      "latitude": "30.01984643708927",
      "longitude": "-89.98645732959478"
    }
  },
  {
    "service_request": "2022-925782",
    "request_type": "Property Maintenance",
    "request_reason": "Property Maintenance",
    "date_created": "2022-10-03T23:26:04.000",
    "date_modified": "2022-10-03T23:26:04.000",
    "request_status": "Pending",
    "responsible_agency": "Department of Code Enforcement",
    "final_address": "4437 Gawain Dr",
    "address_councildis": "E",
    "status": "Pending",
    "rowid": "925782",
    "final_x": "3707301.30641",
    "final_y": "553665.659863",
    "longitude": "-89.98577742359072",
    "latitude": "30.01557937210517",
    "geocoded_column": {
      "latitude": "30.01557937210517",
      "longitude": "-89.98577742359072"
    }
  },
  {
    "service_request": "2022-925781",
    "request_type": "Property Maintenance",
    "request_reason": "Property Maintenance",
    "date_created": "2022-10-03T23:21:00.000",
    "date_modified": "2022-10-03T23:21:01.000",
    "request_status": "Pending",
    "responsible_agency": "Department of Code Enforcement",
    "final_address": "2300 Leon C Simon Dr",
    "address_councildis": "D",
    "status": "Pending",
    "rowid": "925781",
    "final_x": "3684181.15663",
    "final_y": "556834.85833",
    "longitude": "-90.05871501937101",
    "latitude": "30.02502086970795",
    "geocoded_column": {
      "latitude": "30.02502086970795",
      "longitude": "-90.05871501937101"
    }
  },
  {
    "service_request": "2022-925780",
    "request_type": "Trash/Recycling",
    "request_reason": "Request a Large Item Pick Up",
    "date_created": "2022-10-03T22:59:48.000",
    "date_modified": "2022-10-03T22:59:49.000",
    "request_status": "Pending",
    "responsible_agency": "Department of Sanitation",
    "final_address": "3326 Baudin St",
    "address_councildis": "B",
    "status": "Assigned to Contractor",
    "contractor": "Richards Disposal",
    "rowid": "925780",
    "final_x": "3672422.38913",
    "final_y": "535258.599814",
    "longitude": "-90.09660679085789",
    "latitude": "29.966048080980972",
    "geocoded_column": {
      "latitude": "29.966048080980972",
      "longitude": "-90.09660679085789"
    }
  },
  {
    "service_request": "2022-925779",
    "request_type": "Traffic Signals/Signs/Striping/Streetlights",
    "request_reason": "Street Light Outage/Malfunction",
    "date_created": "2022-10-03T22:34:09.000",
    "date_modified": "2022-10-03T22:34:10.000",
    "request_status": "Pending",
    "responsible_agency": "Department of Public Works",
    "final_address": "37TH ST & FLEUR DE LIS DR",
    "address_councildis": "A",
    "status": "Pending",
    "contractor": "Legacy Professional Services",
    "rowid": "925779",
    "final_x": "3665379.8",
    "final_y": "552351.08",
    "longitude": "-90.11827480971031",
    "latitude": "30.013253725468992",
    "geocoded_column": {
      "latitude": "30.013253725468992",
      "longitude": "-90.11827480971031"
    }
  },
  {
    "service_request": "2022-925778",
    "request_type": "Traffic Signals/Signs/Striping/Streetlights",
    "request_reason": "Street Light Outage/Malfunction",
    "date_created": "2022-10-03T22:32:59.000",
    "date_modified": "2022-10-03T22:33:00.000",
    "request_status": "Pending",
    "responsible_agency": "Department of Public Works",
    "final_address": "22ND ST & FLEUR DE LIS DR",
    "address_councildis": "A",
    "status": "Pending",
    "contractor": "Legacy Professional Services",
    "rowid": "925778",
    "final_x": "3665214.4",
    "final_y": "549328.38",
    "longitude": "-90.11889860643902",
    "latitude": "30.004947172378735",
    "geocoded_column": {
      "latitude": "30.004947172378735",
      "longitude": "-90.11889860643902"
    }
  },
  {
    "service_request": "2022-925777",
    "request_type": "Traffic Signals/Signs/Striping/Streetlights",
    "request_reason": "Street Light Outage/Malfunction",
    "date_created": "2022-10-03T22:13:16.000",
    "date_modified": "2022-10-03T22:13:17.000",
    "request_status": "Pending",
    "responsible_agency": "Department of Public Works",
    "final_address": "5967 Dreux Ave",
    "address_councildis": "D",
    "status": "Pending",
    "contractor": "Legacy Professional Services",
    "rowid": "925777",
    "final_x": "3696523.85834",
    "final_y": "553917.456407",
    "longitude": "-90.01981992340478",
    "latitude": "30.016615822783674",
    "geocoded_column": {
      "latitude": "30.016615822783674",
      "longitude": "-90.01981992340478"
    }
  },
  {
    "service_request": "2022-925776",
    "request_type": "Traffic Signals/Signs/Striping/Streetlights",
    "request_reason": "Street Light Outage/Malfunction",
    "date_created": "2022-10-03T21:56:05.000",
    "date_modified": "2022-10-03T21:56:05.000",
    "request_status": "Pending",
    "responsible_agency": "Department of Public Works",
    "final_address": "9801 Andover Dr",
    "address_councildis": "E",
    "status": "Pending",
    "contractor": "Legacy Professional Services",
    "rowid": "925776",
    "final_x": "3708780.80228",
    "final_y": "562053.482655",
    "longitude": "-89.98079011430335",
    "latitude": "30.038594668928816",
    "geocoded_column": {
      "latitude": "30.038594668928816",
      "longitude": "-89.98079011430335"
    }
  },
  {
    "service_request": "2022-925775",
    "request_type": "Traffic Signals/Signs/Striping/Streetlights",
    "request_reason": "Street Light Outage/Malfunction",
    "date_created": "2022-10-03T21:55:04.000",
    "date_modified": "2022-10-03T21:55:05.000",
    "request_status": "Pending",
    "responsible_agency": "Department of Public Works",
    "final_address": "9968 E Wheaton Cir",
    "address_councildis": "E",
    "status": "Pending",
    "contractor": "Legacy Professional Services",
    "rowid": "925775",
    "final_x": "3708717.68075",
    "final_y": "562145.333663",
    "longitude": "-89.98098616775096",
    "latitude": "30.038849271235023",
    "geocoded_column": {
      "latitude": "30.038849271235023",
      "longitude": "-89.98098616775096"
    }
  },
  {
    "service_request": "2022-925773",
    "request_type": "Traffic Signals/Signs/Striping/Streetlights",
    "request_reason": "Street Light Outage/Malfunction",
    "date_created": "2022-10-03T21:46:44.000",
    "date_modified": "2022-10-03T21:46:45.000",
    "request_status": "Pending",
    "responsible_agency": "Department of Public Works",
    "final_address": "9761 Andover Dr",
    "address_councildis": "E",
    "status": "Pending",
    "contractor": "Legacy Professional Services",
    "rowid": "925773",
    "final_x": "3708684.90929",
    "final_y": "561993.540191",
    "longitude": "-89.98109539493595",
    "latitude": "30.038432962958854",
    "geocoded_column": {
      "latitude": "30.038432962958854",
      "longitude": "-89.98109539493595"
    }
  },
  {
    "service_request": "2022-925772",
    "request_type": "Traffic Signals/Signs/Striping/Streetlights",
    "request_reason": "Street Light Outage/Malfunction",
    "date_created": "2022-10-03T21:44:44.000",
    "date_modified": "2022-10-03T21:44:45.000",
    "request_status": "Pending",
    "responsible_agency": "Department of Public Works",
    "final_address": "9700 W Wheaton Cir",
    "address_councildis": "E",
    "status": "Pending",
    "contractor": "Legacy Professional Services",
    "rowid": "925772",
    "final_x": "3708628.29604",
    "final_y": "562086.994271",
    "longitude": "-89.98127082130563",
    "latitude": "30.038691761469998",
    "geocoded_column": {
      "latitude": "30.038691761469998",
      "longitude": "-89.98127082130563"
    }
  },
  {
    "service_request": "2022-925771",
    "request_type": "Trash/Recycling",
    "request_reason": "Request a Large Item Pick Up",
    "date_created": "2022-10-03T21:35:36.000",
    "date_modified": "2022-10-03T21:35:36.000",
    "request_status": "Pending",
    "responsible_agency": "Department of Sanitation",
    "final_address": "7515 Michigan St",
    "address_councildis": "E",
    "status": "Assigned to Contractor",
    "contractor": "Metro Disposal",
    "rowid": "925771",
    "final_x": "3712231.3877",
    "final_y": "565922.436899",
    "longitude": "-89.9697399367572",
    "latitude": "30.04912028923194",
    "geocoded_column": {
      "latitude": "30.04912028923194",
      "longitude": "-89.9697399367572"
    }
  },
  {
    "service_request": "2022-925770",
    "request_type": "Trash/Recycling",
    "request_reason": "Request a Large Item Pick Up",
    "date_created": "2022-10-03T21:28:42.000",
    "date_modified": "2022-10-03T21:28:42.000",
    "request_status": "Pending",
    "responsible_agency": "Department of Sanitation",
    "final_address": "5427 Charlotte Dr",
    "address_councildis": "D",
    "status": "Assigned to Contractor",
    "contractor": "Metro Disposal",
    "rowid": "925770",
    "final_x": "3680150.05538",
    "final_y": "552543.928598",
    "longitude": "-90.07160195600596",
    "latitude": "30.013345056758563",
    "geocoded_column": {
      "latitude": "30.013345056758563",
      "longitude": "-90.07160195600596"
    }
  },
  {
    "service_request": "2022-925769",
    "request_type": "Traffic Signals/Signs/Striping/Streetlights",
    "request_reason": "Street Light Outage/Malfunction",
    "date_created": "2022-10-03T21:26:08.000",
    "date_modified": "2022-10-03T21:26:09.000",
    "request_status": "Pending",
    "responsible_agency": "Department of Public Works",
    "final_address": "6662 Avenue B",
    "address_councildis": "A",
    "status": "Pending",
    "contractor": "Legacy Professional Services",
    "rowid": "925769",
    "final_x": "3665699.88884",
    "final_y": "552448.413206",
    "longitude": "-90.11726023133022",
    "latitude": "30.01351202089339",
    "geocoded_column": {
      "latitude": "30.01351202089339",
      "longitude": "-90.11726023133022"
    }
  },
  {
    "service_request": "2022-925767",
    "request_type": "Traffic Signals/Signs/Striping/Streetlights",
    "request_reason": "Street Light Outage/Malfunction",
    "date_created": "2022-10-03T21:08:59.000",
    "date_modified": "2022-10-03T21:09:00.000",
    "request_status": "Pending",
    "responsible_agency": "Department of Public Works",
    "final_address": "4123 Orleans Ave",
    "address_councildis": "A",
    "status": "Pending",
    "contractor": "Legacy Professional Services",
    "rowid": "925767",
    "final_x": "3672545.64308",
    "final_y": "540408.193739",
    "longitude": "-90.0960419552688",
    "latitude": "29.98020406235481",
    "geocoded_column": {
      "latitude": "29.98020406235481",
      "longitude": "-90.0960419552688"
    }
  },
  {
    "service_request": "2022-925766",
    "request_type": "Abandoned Vehicles",
    "request_reason": "Abandoned/Junk Vehicles",
    "date_created": "2022-10-03T20:46:32.000",
    "date_modified": "2022-10-03T20:46:32.000",
    "request_status": "Pending",
    "responsible_agency": "Department of Public Works",
    "final_address": "1725 Joseph St",
    "address_councildis": "A",
    "status": "Pending",
    "rowid": "925766",
    "final_x": "3667033.75533",
    "final_y": "522656.076986",
    "longitude": "-90.11404751246036",
    "latitude": "29.931554056965815",
    "geocoded_column": {
      "latitude": "29.931554056965815",
      "longitude": "-90.11404751246036"
    }
  },
  {
    "service_request": "2022-925765",
    "request_type": "Abandoned Vehicles",
    "request_reason": "Abandoned/Junk Vehicles",
    "date_created": "2022-10-03T20:43:34.000",
    "date_modified": "2022-10-03T20:43:34.000",
    "request_status": "Pending",
    "responsible_agency": "Department of Public Works",
    "final_address": "1437 N Roman St",
    "address_councildis": "D",
    "status": "Pending",
    "rowid": "925765",
    "final_x": "3680862.46453",
    "final_y": "537305.651976",
    "longitude": "-90.06988198631608",
    "latitude": "29.971423590828714",
    "geocoded_column": {
      "latitude": "29.971423590828714",
      "longitude": "-90.06988198631608"
    }
  },
  {
    "service_request": "2022-925763",
    "request_type": "Trash/Recycling",
    "request_reason": "Missed Trash Pick-Up",
    "date_created": "2022-10-03T20:25:03.000",
    "date_modified": "2022-10-03T20:25:03.000",
    "request_status": "Pending",
    "responsible_agency": "Department of Sanitation",
    "final_address": "4409 Magazine St",
    "address_councildis": "B",
    "status": "Assigned to Contractor",
    "contractor": "Richards Disposal",
    "rowid": "925763",
    "final_x": "3670793.07335",
    "final_y": "518799.885175",
    "longitude": "-90.10231054240693",
    "latitude": "29.920840231012463",
    "geocoded_column": {
      "latitude": "29.920840231012463",
      "longitude": "-90.10231054240693"
    }
  },
  {
    "service_request": "2022-925762",
    "request_type": "Property Maintenance",
    "request_reason": "Property Maintenance",
    "date_created": "2022-10-03T20:22:53.000",
    "date_modified": "2022-10-03T20:22:53.000",
    "request_status": "Pending",
    "responsible_agency": "Department of Code Enforcement",
    "final_address": "13933 Explorers Ave",
    "address_councildis": "E",
    "status": "Pending",
    "rowid": "925762",
    "final_x": "3726288.88819",
    "final_y": "570352.294375",
    "longitude": "-89.92513833389398",
    "latitude": "30.060833057589694",
    "geocoded_column": {
      "latitude": "30.060833057589694",
      "longitude": "-89.92513833389398"
    }
  },
  {
    "service_request": "2022-925761",
    "request_type": "Trash/Recycling",
    "request_reason": "Request a Large Item Pick Up",
    "date_created": "2022-10-03T20:19:15.000",
    "date_modified": "2022-10-03T20:19:16.000",
    "request_status": "Pending",
    "responsible_agency": "Department of Sanitation",
    "final_address": "2731 St Philip St",
    "address_councildis": "A",
    "status": "Assigned to Contractor",
    "contractor": "Richards Disposal",
    "rowid": "925761",
    "final_x": "3677170.61819",
    "final_y": "538073.216073",
    "longitude": "-90.08151489288608",
    "latitude": "29.973645545568857",
    "geocoded_column": {
      "latitude": "29.973645545568857",
      "longitude": "-90.08151489288608"
    }
  },
  {
    "service_request": "2022-925760",
    "request_type": "Trash/Recycling",
    "request_reason": "Illegal Dumping",
    "date_created": "2022-10-03T20:14:23.000",
    "date_modified": "2022-10-03T20:14:24.000",
    "request_status": "Pending",
    "responsible_agency": "Department of Sanitation",
    "final_address": "750 S Norman C Francis Prkwy",
    "address_councildis": "B",
    "status": "Pending",
    "rowid": "925760",
    "final_x": "3671632.49409",
    "final_y": "534352.496773",
    "longitude": "-90.09913208549945",
    "latitude": "29.96358001928335",
    "geocoded_column": {
      "latitude": "29.96358001928335",
      "longitude": "-90.09913208549945"
    }
  },
  {
    "service_request": "2022-925759",
    "request_type": "Trash/Recycling",
    "request_reason": "Request a Large Item Pick Up",
    "date_created": "2022-10-03T19:44:17.000",
    "date_modified": "2022-10-03T19:44:17.000",
    "request_status": "Pending",
    "responsible_agency": "Department of Sanitation",
    "final_address": "6340 Annunciation St",
    "address_councildis": "A",
    "status": "Assigned to Contractor",
    "contractor": "Richards Disposal",
    "rowid": "925759",
    "final_x": "3662582.1945",
    "final_y": "518517.177591",
    "longitude": "-90.12823805376864",
    "latitude": "29.920302876472533",
    "geocoded_column": {
      "latitude": "29.920302876472533",
      "longitude": "-90.12823805376864"
    }
  },
  {
    "service_request": "2022-925758",
    "request_type": "Traffic Signals/Signs/Striping/Streetlights",
    "request_reason": "Street Light Outage/Malfunction",
    "date_created": "2022-10-03T19:44:10.000",
    "date_modified": "2022-10-03T19:44:11.000",
    "request_status": "Pending",
    "responsible_agency": "Department of Public Works",
    "final_address": "765 Carondelet St",
    "address_councildis": "B",
    "status": "Pending",
    "contractor": "Legacy Professional Services",
    "rowid": "925758",
    "final_x": "3679974.90645",
    "final_y": "528177.555456",
    "longitude": "-90.07300210472073",
    "latitude": "29.946351300989914",
    "geocoded_column": {
      "latitude": "29.946351300989914",
      "longitude": "-90.07300210472073"
    }
  },
  {
    "service_request": "2022-925757",
    "request_type": "Traffic Signals/Signs/Striping/Streetlights",
    "request_reason": "Street Light Outage/Malfunction",
    "date_created": "2022-10-03T19:31:43.000",
    "date_modified": "2022-10-03T19:32:37.000",
    "request_status": "Pending",
    "responsible_agency": "Department of Public Works",
    "final_address": "4642 Pecan St",
    "address_councildis": "E",
    "status": "Pending",
    "contractor": "Legacy Professional Services",
    "rowid": "925757",
    "final_x": "3701797.9041",
    "final_y": "553740.807767",
    "longitude": "-90.00316277666032",
    "latitude": "30.015962814464665",
    "geocoded_column": {
      "latitude": "30.015962814464665",
      "longitude": "-90.00316277666032"
    }
  },
  {
    "service_request": "2022-925756",
    "request_type": "Property Maintenance",
    "request_reason": "Property Maintenance",
    "date_created": "2022-10-03T19:24:10.000",
    "date_modified": "2022-10-03T19:24:10.000",
    "request_status": "Pending",
    "responsible_agency": "Department of Code Enforcement",
    "final_address": "7400 Adventure Ave",
    "address_councildis": "E",
    "status": "Pending",
    "rowid": "925756",
    "final_x": "3726016.75372",
    "final_y": "570013.408102",
    "longitude": "-89.92601168817511",
    "latitude": "30.059910456844264",
    "geocoded_column": {
      "latitude": "30.059910456844264",
      "longitude": "-89.92601168817511"
    }
  },
  {
    "service_request": "2022-925755",
    "request_type": "Trash/Recycling",
    "request_reason": "Replace Recycling Cart",
    "date_created": "2022-10-03T19:16:03.000",
    "date_modified": "2022-10-03T19:16:03.000",
    "request_status": "Pending",
    "responsible_agency": "Department of Sanitation",
    "final_address": "4713 Prytania St",
    "address_councildis": "B",
    "status": "Pending",
    "rowid": "925755",
    "final_x": "3669635.88583",
    "final_y": "520246.510072",
    "longitude": "-90.10591435145253",
    "latitude": "29.92485212418657",
    "geocoded_column": {
      "latitude": "29.92485212418657",
      "longitude": "-90.10591435145253"
    }
  },
  {
    "service_request": "2022-925754",
    "request_type": "Trash/Recycling",
    "request_reason": "Missed Trash Pick-Up",
    "date_created": "2022-10-03T19:13:22.000",
    "date_modified": "2022-10-03T19:13:22.000",
    "request_status": "Pending",
    "responsible_agency": "Department of Sanitation",
    "final_address": "2224 St Nick Dr",
    "address_councildis": "C",
    "status": "Assigned to Contractor",
    "contractor": "Richards Disposal",
    "rowid": "925754",
    "final_x": "3699827.37085",
    "final_y": "522797.445691",
    "longitude": "-90.01051741614688",
    "latitude": "29.930942523513085",
    "geocoded_column": {
      "latitude": "29.930942523513085",
      "longitude": "-90.01051741614688"
    }
  },
  {
    "service_request": "2022-925753",
    "request_type": "Property Maintenance",
    "request_reason": "Property Maintenance",
    "date_created": "2022-10-03T19:11:31.000",
    "date_modified": "2022-10-03T19:11:31.000",
    "request_status": "Pending",
    "responsible_agency": "Department of Code Enforcement",
    "final_address": "2837 Milan St",
    "address_councildis": "B",
    "status": "Pending",
    "rowid": "925753",
    "final_x": "3671183.03867",
    "final_y": "525465.503805",
    "longitude": "-90.10085328448618",
    "latitude": "29.93915701639153",
    "geocoded_column": {
      "latitude": "29.93915701639153",
      "longitude": "-90.10085328448618"
    }
  },
  {
    "service_request": "2022-925752",
    "request_type": "Trash/Recycling",
    "request_reason": "Replace Recycling Cart",
    "date_created": "2022-10-03T19:11:17.000",
    "date_modified": "2022-10-03T19:11:17.000",
    "request_status": "Pending",
    "responsible_agency": "Department of Sanitation",
    "final_address": "2735 Ursulines Ave",
    "address_councildis": "A",
    "status": "Pending",
    "rowid": "925752",
    "final_x": "3677239.89301",
    "final_y": "538535.757769",
    "longitude": "-90.08128014588729",
    "latitude": "29.97491529545918",
    "geocoded_column": {
      "latitude": "29.97491529545918",
      "longitude": "-90.08128014588729"
    }
  },
  {
    "service_request": "2022-925751",
    "request_type": "Traffic Signals/Signs/Striping/Streetlights",
    "request_reason": "Street Light Outage/Malfunction",
    "date_created": "2022-10-03T19:05:57.000",
    "date_modified": "2022-10-03T19:05:58.000",
    "request_status": "Pending",
    "responsible_agency": "Department of Public Works",
    "final_address": "5001 Perlita St",
    "address_councildis": "D",
    "status": "Pending",
    "contractor": "Legacy Professional Services",
    "rowid": "925751",
    "final_x": "3678824.21403",
    "final_y": "550600.930068",
    "longitude": "-90.07585828364795",
    "latitude": "30.008042585289",
    "geocoded_column": {
      "latitude": "30.008042585289",
      "longitude": "-90.07585828364795"
    }
  },
  {
    "service_request": "2022-925750",
    "request_type": "Health Related Questions",
    "request_reason": "Noise Ordinance Complaint",
    "date_created": "2022-10-03T19:03:33.000",
    "date_modified": "2022-10-03T19:03:33.000",
    "request_status": "Pending",
    "responsible_agency": "Health Department",
    "final_address": "818 Moss St",
    "address_councildis": "A",
    "status": "Pending",
    "rowid": "925750",
    "final_x": "3674653.47483",
    "final_y": "539195.949194",
    "longitude": "-90.08942608884169",
    "latitude": "29.976808052790876",
    "geocoded_column": {
      "latitude": "29.976808052790876",
      "longitude": "-90.08942608884169"
    }
  },
  {
    "service_request": "2022-925749",
    "request_type": "Traffic Signals/Signs/Striping/Streetlights",
    "request_reason": "Street Light Outage/Malfunction",
    "date_created": "2022-10-03T18:55:29.000",
    "date_modified": "2022-10-03T18:55:30.000",
    "request_status": "Pending",
    "responsible_agency": "Department of Public Works",
    "final_address": "5175 Westgrove Park",
    "address_councildis": "C",
    "status": "Pending",
    "contractor": "Legacy Professional Services",
    "rowid": "925749",
    "final_x": "3703649.53962",
    "final_y": "510897.263599",
    "longitude": "-89.99888895015116",
    "latitude": "29.89809922364051",
    "geocoded_column": {
      "latitude": "29.89809922364051",
      "longitude": "-89.99888895015116"
    }
  },
  {
    "service_request": "2022-925748",
    "request_type": "Trash/Recycling",
    "request_reason": "Order Recycling Cart",
    "date_created": "2022-10-03T18:50:00.000",
    "date_modified": "2022-10-03T18:50:00.000",
    "request_status": "Pending",
    "responsible_agency": "Department of Sanitation",
    "final_address": "3353 Plymouth Pl",
    "address_councildis": "C",
    "status": "Pending",
    "rowid": "925748",
    "final_x": "3702730.05246",
    "final_y": "518723.736631",
    "longitude": "-90.00150358958703",
    "latitude": "29.919648773041402",
    "geocoded_column": {
      "latitude": "29.919648773041402",
      "longitude": "-90.00150358958703"
    }
  },
  {
    "service_request": "2022-925747",
    "request_type": "Trash/Recycling",
    "request_reason": "Request a Large Item Pick Up",
    "date_created": "2022-10-03T18:47:27.000",
    "date_modified": "2022-10-03T18:47:27.000",
    "request_status": "Pending",
    "responsible_agency": "Department of Sanitation",
    "final_address": "3131 Milan St",
    "address_councildis": "B",
    "status": "Assigned to Contractor",
    "contractor": "Richards Disposal",
    "rowid": "925747",
    "final_x": "3671070.69659",
    "final_y": "526586.229886",
    "longitude": "-90.10116991479502",
    "latitude": "29.942241971127007",
    "geocoded_column": {
      "latitude": "29.942241971127007",
      "longitude": "-90.10116991479502"
    }
  },
  {
    "service_request": "2022-925746",
    "request_type": "Property Maintenance",
    "request_reason": "Property Maintenance",
    "date_created": "2022-10-03T18:45:07.000",
    "date_modified": "2022-10-03T18:45:07.000",
    "request_status": "Pending",
    "responsible_agency": "Department of Code Enforcement",
    "final_address": "7412 Lakeshore Dr",
    "address_councildis": "D",
    "status": "Pending",
    "rowid": "925746",
    "final_x": "3666834.90644",
    "final_y": "556350.731994",
    "longitude": "-90.11354290644564",
    "latitude": "30.024208849408627",
    "geocoded_column": {
      "latitude": "30.024208849408627",
      "longitude": "-90.11354290644564"
    }
  },
  {
    "service_request": "2022-925745",
    "request_type": "Abandoned Vehicles",
    "request_reason": "Abandoned/Junk Vehicles",
    "date_created": "2022-10-03T18:29:53.000",
    "date_modified": "2022-10-03T18:29:53.000",
    "request_status": "Pending",
    "responsible_agency": "Department of Public Works",
    "final_address": "2641 Ursulines Ave",
    "address_councildis": "D",
    "status": "Pending",
    "rowid": "925745",
    "final_x": "3677819.05621",
    "final_y": "538093.175625",
    "longitude": "-90.0794662960138",
    "latitude": "29.97368093267166",
    "geocoded_column": {
      "latitude": "29.97368093267166",
      "longitude": "-90.0794662960138"
    }
  },
  {
    "service_request": "2022-925744",
    "request_type": "Trash/Recycling",
    "request_reason": "MIssed Recycling Pick-Up",
    "date_created": "2022-10-03T18:29:34.000",
    "date_modified": "2022-10-03T18:29:34.000",
    "request_status": "Pending",
    "responsible_agency": "Department of Sanitation",
    "final_address": "324 N Lopez St",
    "address_councildis": "B",
    "status": "Assigned to Contractor",
    "contractor": "Richards Disposal",
    "rowid": "925744",
    "final_x": "3674516.97198",
    "final_y": "537005.445064",
    "longitude": "-90.08993228187892",
    "latitude": "29.970788986061788",
    "geocoded_column": {
      "latitude": "29.970788986061788",
      "longitude": "-90.08993228187892"
    }
  },
  {
    "service_request": "2022-925743",
    "request_type": "Trash/Recycling",
    "request_reason": "Missed Trash Pick-Up",
    "date_created": "2022-10-03T18:28:02.000",
    "date_modified": "2022-10-03T18:28:02.000",
    "request_status": "Pending",
    "responsible_agency": "Department of Sanitation",
    "final_address": "324 N Lopez St",
    "address_councildis": "B",
    "status": "Assigned to Contractor",
    "contractor": "Richards Disposal",
    "rowid": "925743",
    "final_x": "3674516.97198",
    "final_y": "537005.445064",
    "longitude": "-90.08993228187892",
    "latitude": "29.970788986061788",
    "geocoded_column": {
      "latitude": "29.970788986061788",
      "longitude": "-90.08993228187892"
    }
  },
  {
    "service_request": "2022-925742",
    "request_type": "Trash/Recycling",
    "request_reason": "Request a Large Item Pick Up",
    "date_created": "2022-10-03T18:27:43.000",
    "date_modified": "2022-10-03T18:27:44.000",
    "request_status": "Pending",
    "responsible_agency": "Department of Sanitation",
    "final_address": "6527 West End Blvd",
    "address_councildis": "A",
    "status": "Assigned to Contractor",
    "contractor": "Metro Disposal",
    "rowid": "925742",
    "final_x": "3666726.08122",
    "final_y": "551104.866517",
    "longitude": "-90.11406315775392",
    "latitude": "30.00978775139419",
    "geocoded_column": {
      "latitude": "30.00978775139419",
      "longitude": "-90.11406315775392"
    }
  },
  {
    "service_request": "2022-925741",
    "request_type": "Traffic Signals/Signs/Striping/Streetlights",
    "request_reason": "Street Light Outage/Malfunction",
    "date_created": "2022-10-03T18:19:53.000",
    "date_modified": "2022-10-03T18:20:57.000",
    "request_status": "Pending",
    "responsible_agency": "Department of Public Works",
    "final_address": "8643 Hickory St",
    "address_councildis": "A",
    "status": "Pending",
    "contractor": "Legacy Professional Services",
    "rowid": "925741",
    "final_x": "3661855.15712",
    "final_y": "531369.613571",
    "longitude": "-90.13010696934349",
    "latitude": "29.95566401239345",
    "geocoded_column": {
      "latitude": "29.95566401239345",
      "longitude": "-90.13010696934349"
    }
  },
  {
    "service_request": "2022-925740",
    "request_type": "Traffic Signals/Signs/Striping/Streetlights",
    "request_reason": "Street Light Outage/Malfunction",
    "date_created": "2022-10-03T18:12:54.000",
    "date_modified": "2022-10-03T18:12:55.000",
    "request_status": "Pending",
    "responsible_agency": "Department of Public Works",
    "final_address": "600 Moss St",
    "address_councildis": "A",
    "status": "Pending",
    "contractor": "Legacy Professional Services",
    "rowid": "925740",
    "final_x": "3674353.09064",
    "final_y": "538309.377801",
    "longitude": "-90.09040517118315",
    "latitude": "29.97437924680844",
    "geocoded_column": {
      "latitude": "29.97437924680844",
      "longitude": "-90.09040517118315"
    }
  },
  {
    "service_request": "2022-925739",
    "request_type": "Property Maintenance",
    "request_reason": "Property Maintenance",
    "date_created": "2022-10-03T18:12:06.000",
    "date_modified": "2022-10-03T18:12:06.000",
    "request_status": "Pending",
    "responsible_agency": "Department of Code Enforcement",
    "final_address": "218 Warrington Dr",
    "address_councildis": "D",
    "status": "Pending",
    "rowid": "925739",
    "final_x": "3682299.72418",
    "final_y": "547252.571857",
    "longitude": "-90.0649951965483",
    "latitude": "29.99873047008268",
    "geocoded_column": {
      "latitude": "29.99873047008268",
      "longitude": "-90.0649951965483"
    }
  },
  {
    "service_request": "2022-925738",
    "request_type": "Trash/Recycling",
    "request_reason": "Start Trash Service",
    "date_created": "2022-10-03T17:59:21.000",
    "date_modified": "2022-10-03T17:59:22.000",
    "request_status": "Pending",
    "responsible_agency": "Department of Sanitation",
    "final_address": "8837 Palm St",
    "address_councildis": "A",
    "status": "Assigned to Contractor",
    "contractor": "Richards Disposal",
    "rowid": "925738",
    "final_x": "3665714.80807",
    "final_y": "536576.099399",
    "longitude": "-90.11774510238816",
    "latitude": "29.969868128857748",
    "geocoded_column": {
      "latitude": "29.969868128857748",
      "longitude": "-90.11774510238816"
    }
  },
  {
    "service_request": "2022-925737",
    "request_type": "Trash/Recycling",
    "request_reason": "Replace Recycling Cart",
    "date_created": "2022-10-03T17:51:02.000",
    "date_modified": "2022-10-03T17:51:03.000",
    "request_status": "Pending",
    "responsible_agency": "Department of Sanitation",
    "final_address": "4622 Constance St",
    "address_councildis": "B",
    "status": "Pending",
    "rowid": "925737",
    "final_x": "3670150.88033",
    "final_y": "518282.157814",
    "longitude": "-90.10435518629704",
    "latitude": "29.919435600078216",
    "geocoded_column": {
      "latitude": "29.919435600078216",
      "longitude": "-90.10435518629704"
    }
  },
  {
    "service_request": "2022-925736",
    "request_type": "Trash/Recycling",
    "request_reason": "Return Trash Cart",
    "date_created": "2022-10-03T17:50:57.000",
    "date_modified": "2022-10-03T17:50:58.000",
    "request_status": "Pending",
    "responsible_agency": "Department of Sanitation",
    "final_address": "524 Washington Ave",
    "address_councildis": "B",
    "status": "Assigned to Contractor",
    "contractor": "Richards Disposal",
    "rowid": "925736",
    "final_x": "3678061.82178",
    "final_y": "519219.996727",
    "longitude": "-90.07935189941102",
    "latitude": "29.921778675480546",
    "geocoded_column": {
      "latitude": "29.921778675480546",
      "longitude": "-90.07935189941102"
    }
  },
  {
    "service_request": "2022-925735",
    "request_type": "Trash/Recycling",
    "request_reason": "Request a Large Item Pick Up",
    "date_created": "2022-10-03T17:46:26.000",
    "date_modified": "2022-10-03T17:46:26.000",
    "request_status": "Pending",
    "responsible_agency": "Department of Sanitation",
    "final_address": "6955 Fleur-De-Lis Dr",
    "address_councildis": "A",
    "status": "Assigned to Contractor",
    "contractor": "Metro Disposal",
    "rowid": "925735",
    "final_x": "3665600.5897",
    "final_y": "554103.91068",
    "longitude": "-90.1175184666077",
    "latitude": "30.018066955776238",
    "geocoded_column": {
      "latitude": "30.018066955776238",
      "longitude": "-90.1175184666077"
    }
  },
  {
    "service_request": "2022-925734",
    "request_type": "Trash/Recycling",
    "request_reason": "Start Trash Service",
    "date_created": "2022-10-03T17:43:09.000",
    "date_modified": "2022-10-03T17:43:09.000",
    "request_status": "Pending",
    "responsible_agency": "Department of Sanitation",
    "final_address": "14863 N Little Woods Dr",
    "address_councildis": "E",
    "status": "Assigned to Contractor",
    "contractor": "Metro Disposal",
    "rowid": "925734",
    "final_x": "3720017.96364",
    "final_y": "575070.722027",
    "longitude": "-89.9447795800987",
    "latitude": "30.07401715968198",
    "geocoded_column": {
      "latitude": "30.07401715968198",
      "longitude": "-89.9447795800987"
    }
  },
  {
    "service_request": "2022-925733",
    "request_type": "Trash/Recycling",
    "request_reason": "Missed Trash Pick-Up",
    "date_created": "2022-10-03T17:42:18.000",
    "date_modified": "2022-10-03T17:42:18.000",
    "request_status": "Pending",
    "responsible_agency": "Department of Sanitation",
    "final_address": "2224 St Nick Dr",
    "address_councildis": "C",
    "status": "Assigned to Contractor",
    "contractor": "Richards Disposal",
    "rowid": "925733",
    "final_x": "3699827.37085",
    "final_y": "522797.445691",
    "longitude": "-90.01051741614688",
    "latitude": "29.930942523513085",
    "geocoded_column": {
      "latitude": "29.930942523513085",
      "longitude": "-90.01051741614688"
    }
  },
  {
    "service_request": "2022-925732",
    "request_type": "Trash/Recycling",
    "request_reason": "Illegal Dumping",
    "date_created": "2022-10-03T17:26:18.000",
    "date_modified": "2022-10-03T17:26:18.000",
    "request_status": "Pending",
    "responsible_agency": "Department of Sanitation",
    "final_address": "4520 S Robertson St",
    "address_councildis": "B",
    "status": "Pending",
    "rowid": "925732",
    "final_x": "3669918.97223",
    "final_y": "524297.936444",
    "longitude": "-90.10488362793032",
    "latitude": "29.93598390829717",
    "geocoded_column": {
      "latitude": "29.93598390829717",
      "longitude": "-90.10488362793032"
    }
  },
  {
    "service_request": "2022-925731",
    "request_type": "Trash/Recycling",
    "request_reason": "Missed Trash Pick-Up",
    "date_created": "2022-10-03T17:08:54.000",
    "date_modified": "2022-10-03T17:08:54.000",
    "case_close_date": "2022-01-09T18:00:00.000",
    "request_status": "Pending",
    "responsible_agency": "Department of Sanitation",
    "final_address": "120 N Norman C Francis Prkwy",
    "address_councildis": "B",
    "status": "Assigned to Contractor",
    "contractor": "Richards Disposal",
    "rowid": "925731",
    "final_x": "3673479.79496",
    "final_y": "536850.009928",
    "longitude": "-90.09321313375989",
    "latitude": "29.970392498272314",
    "geocoded_column": {
      "latitude": "29.970392498272314",
      "longitude": "-90.09321313375989"
    }
  },
  {
    "service_request": "2022-925730",
    "request_type": "Trash/Recycling",
    "request_reason": "Missed Trash Pick-Up",
    "date_created": "2022-10-03T17:06:35.000",
    "date_modified": "2022-10-03T17:06:35.000",
    "request_status": "Pending",
    "responsible_agency": "Department of Sanitation",
    "final_address": "2131 Marengo St",
    "address_councildis": "B",
    "status": "Assigned to Contractor",
    "contractor": "Richards Disposal",
    "rowid": "925730",
    "final_x": "3671805.91463",
    "final_y": "523036.669371",
    "longitude": "-90.09896938955197",
    "latitude": "29.932460071129636",
    "geocoded_column": {
      "latitude": "29.932460071129636",
      "longitude": "-90.09896938955197"
    }
  },
  {
    "service_request": "2022-925729",
    "request_type": "Property Maintenance",
    "request_reason": "Property Maintenance",
    "date_created": "2022-10-03T16:56:10.000",
    "date_modified": "2022-10-03T16:56:10.000",
    "request_status": "Pending",
    "responsible_agency": "Department of Code Enforcement",
    "final_address": "1563 N Johnson St",
    "address_councildis": "D",
    "status": "Pending",
    "rowid": "925729",
    "final_x": "3680901.73019",
    "final_y": "538506.849545",
    "longitude": "-90.06971614497652",
    "latitude": "29.97472527864403",
    "geocoded_column": {
      "latitude": "29.97472527864403",
      "longitude": "-90.06971614497652"
    }
  },
  {
    "service_request": "2022-925728",
    "request_type": "Trash/Recycling",
    "request_reason": "Missed Trash Pick-Up",
    "date_created": "2022-10-03T16:53:25.000",
    "date_modified": "2022-10-03T16:53:25.000",
    "request_status": "Pending",
    "responsible_agency": "Department of Sanitation",
    "final_address": "200 N Norman C Francis Pkwy, New Orleans, Louisiana, 70119",
    "status": "Assigned to Contractor",
    "rowid": "925728",
    "longitude": "0.0",
    "latitude": "0.0",
    "geocoded_column": {
      "latitude": "0.0",
      "longitude": "0.0"
    }
  },
  {
    "service_request": "2022-925727",
    "request_type": "Trash/Recycling",
    "request_reason": "Illegal Dumping",
    "date_created": "2022-10-03T16:53:21.000",
    "date_modified": "2022-10-03T16:53:21.000",
    "request_status": "Pending",
    "responsible_agency": "Department of Sanitation",
    "final_address": "1940 Feliciana St",
    "address_councildis": "D",
    "status": "Pending",
    "rowid": "925727",
    "final_x": "3689536.07747",
    "final_y": "539408.065994",
    "longitude": "-90.04241475077023",
    "latitude": "29.976938662345802",
    "geocoded_column": {
      "latitude": "29.976938662345802",
      "longitude": "-90.04241475077023"
    }
  },
  {
    "service_request": "2022-925726",
    "request_type": "Trash/Recycling",
    "request_reason": "Request a Large Item Pick Up",
    "date_created": "2022-10-03T16:50:20.000",
    "date_modified": "2022-10-03T16:50:20.000",
    "request_status": "Pending",
    "responsible_agency": "Department of Sanitation",
    "final_address": "2432 DAbadie St",
    "address_councildis": "D",
    "status": "Assigned to Contractor",
    "contractor": "Metro Disposal",
    "rowid": "925726",
    "final_x": "3680159.07381",
    "final_y": "540230.544331",
    "longitude": "-90.07200171214564",
    "latitude": "29.979487340675686",
    "geocoded_column": {
      "latitude": "29.979487340675686",
      "longitude": "-90.07200171214564"
    }
  },
  {
    "service_request": "2022-925724",
    "request_type": "Trash/Recycling",
    "request_reason": "Order Recycling Cart",
    "date_created": "2022-10-03T16:48:34.000",
    "date_modified": "2022-10-03T16:48:34.000",
    "request_status": "Pending",
    "responsible_agency": "Department of Sanitation",
    "final_address": "1617 Duels St, New Orleans, Louisiana, 70119",
    "address_councildis": "D",
    "status": "Pending",
    "rowid": "925724",
    "final_x": "3680129.60239",
    "final_y": "542253.405197",
    "longitude": "-90.07202446630043",
    "latitude": "29.985050395097968",
    "geocoded_column": {
      "latitude": "29.985050395097968",
      "longitude": "-90.07202446630043"
    }
  },
  {
    "service_request": "2022-925723",
    "request_type": "Trash/Recycling",
    "request_reason": "Missed Trash Pick-Up",
    "date_created": "2022-10-03T16:43:35.000",
    "date_modified": "2022-10-03T16:43:36.000",
    "request_status": "Pending",
    "responsible_agency": "Department of Sanitation",
    "final_address": "4411 Magazine St",
    "address_councildis": "B",
    "status": "Assigned to Contractor",
    "contractor": "Richards Disposal",
    "rowid": "925723",
    "final_x": "3670776.74241",
    "final_y": "518796.872695",
    "longitude": "-90.10236219401855",
    "latitude": "29.920832430069403",
    "geocoded_column": {
      "latitude": "29.920832430069403",
      "longitude": "-90.10236219401855"
    }
  },
  {
    "service_request": "2022-925722",
    "request_type": "Traffic Signals/Signs/Striping/Streetlights",
    "request_reason": "Street Light Outage/Malfunction",
    "date_created": "2022-10-03T16:43:21.000",
    "date_modified": "2022-10-03T16:43:22.000",
    "request_status": "Pending",
    "responsible_agency": "Department of Public Works",
    "final_address": "909 Semmes St",
    "address_councildis": "C",
    "status": "Pending",
    "contractor": "Legacy Professional Services",
    "rowid": "925722",
    "final_x": "3688528.59747",
    "final_y": "524025.1831",
    "longitude": "-90.04614245762163",
    "latitude": "29.934672215766103",
    "geocoded_column": {
      "latitude": "29.934672215766103",
      "longitude": "-90.04614245762163"
    }
  },
  {
    "service_request": "2022-925721",
    "request_type": "Trash/Recycling",
    "request_reason": "Illegal Dumping",
    "date_created": "2022-10-03T16:41:37.000",
    "date_modified": "2022-10-03T16:41:39.000",
    "request_status": "Pending",
    "responsible_agency": "Department of Sanitation",
    "final_address": "JOURDAN AVE & N ROCHEBLAVE ST",
    "address_councildis": "E",
    "status": "Pending",
    "rowid": "925721",
    "final_x": "3696394.5",
    "final_y": "539364.98",
    "longitude": "-90.02075534163075",
    "latitude": "29.97660594924913",
    "geocoded_column": {
      "latitude": "29.97660594924913",
      "longitude": "-90.02075534163075"
    }
  },
  {
    "service_request": "2022-925720",
    "request_type": "Trash/Recycling",
    "request_reason": "Repair Trash Cart",
    "date_created": "2022-10-03T16:37:19.000",
    "date_modified": "2022-10-03T16:37:20.000",
    "request_status": "Pending",
    "responsible_agency": "Department of Sanitation",
    "final_address": "2311 Bienville Ave",
    "address_councildis": "B",
    "status": "Assigned to Contractor",
    "contractor": "Richards Disposal",
    "rowid": "925720",
    "final_x": "3677157.76885",
    "final_y": "534843.710534",
    "longitude": "-90.08166688849924",
    "latitude": "29.964765891944953",
    "geocoded_column": {
      "latitude": "29.964765891944953",
      "longitude": "-90.08166688849924"
    }
  },
  {
    "service_request": "2022-925719",
    "request_type": "Abandoned Vehicles",
    "request_reason": "Abandoned/Junk Vehicles",
    "date_created": "2022-10-03T16:36:35.000",
    "date_modified": "2022-10-03T16:36:35.000",
    "request_status": "Pending",
    "responsible_agency": "Department of Public Works",
    "final_address": "COLAPISSA ST & PINE ST",
    "address_councildis": "B",
    "status": "Pending",
    "rowid": "925719",
    "final_x": "3667698.6",
    "final_y": "532336.98",
    "longitude": "-90.11162281788707",
    "latitude": "29.95815393673079",
    "geocoded_column": {
      "latitude": "29.95815393673079",
      "longitude": "-90.11162281788707"
    }
  },
  {
    "service_request": "2022-925718",
    "request_type": "Trash/Recycling",
    "request_reason": "Missed Trash Pick-Up",
    "date_created": "2022-10-03T16:33:36.000",
    "date_modified": "2022-10-03T16:33:36.000",
    "request_status": "Pending",
    "responsible_agency": "Department of Sanitation",
    "final_address": "1300 BLK Pauline St",
    "address_councildis": "D",
    "status": "Assigned to Contractor",
    "contractor": "Metro Disposal",
    "rowid": "925718",
    "final_x": "3691441.52456",
    "final_y": "536369.452639",
    "longitude": "-90.03650537929596",
    "latitude": "29.96852438759832",
    "geocoded_column": {
      "latitude": "29.96852438759832",
      "longitude": "-90.03650537929596"
    }
  },
  {
    "service_request": "2022-925717",
    "request_type": "Trash/Recycling",
    "request_reason": "Missed Trash Pick-Up",
    "date_created": "2022-10-03T16:33:29.000",
    "date_modified": "2022-10-03T16:33:30.000",
    "request_status": "Pending",
    "responsible_agency": "Department of Sanitation",
    "final_address": "7140 Bunker Hill Rd",
    "address_councildis": "E",
    "status": "Assigned to Contractor",
    "contractor": "Metro Disposal",
    "rowid": "925717",
    "final_x": "3705677.6691",
    "final_y": "560813.586654",
    "longitude": "-89.99064269186913",
    "latitude": "30.03528579468438",
    "geocoded_column": {
      "latitude": "30.03528579468438",
      "longitude": "-89.99064269186913"
    }
  },
  {
    "service_request": "2022-925716",
    "request_type": "Trash/Recycling",
    "request_reason": "Request a Large Item Pick Up",
    "date_created": "2022-10-03T16:32:16.000",
    "date_modified": "2022-10-03T16:32:16.000",
    "request_status": "Pending",
    "responsible_agency": "Department of Sanitation",
    "final_address": "529 Bermuda St",
    "address_councildis": "C",
    "status": "Assigned to Contractor",
    "contractor": "Richards Disposal",
    "rowid": "925716",
    "final_x": "3686836.10332",
    "final_y": "529973.078849",
    "longitude": "-90.05127552089293",
    "latitude": "29.951079084155314",
    "geocoded_column": {
      "latitude": "29.951079084155314",
      "longitude": "-90.05127552089293"
    }
  },
  {
    "service_request": "2022-925715",
    "request_type": "Trash/Recycling",
    "request_reason": "Missed Trash Pick-Up",
    "date_created": "2022-10-03T16:32:13.000",
    "date_modified": "2022-10-03T16:32:14.000",
    "request_status": "Pending",
    "responsible_agency": "Department of Sanitation",
    "final_address": "7140 Bunker Hill Rd",
    "address_councildis": "E",
    "status": "Assigned to Contractor",
    "contractor": "Metro Disposal",
    "rowid": "925715",
    "final_x": "3705677.6691",
    "final_y": "560813.586654",
    "longitude": "-89.99064269186913",
    "latitude": "30.03528579468438",
    "geocoded_column": {
      "latitude": "30.03528579468438",
      "longitude": "-89.99064269186913"
    }
  },
  {
    "service_request": "2022-925714",
    "request_type": "Trash/Recycling",
    "request_reason": "Request a Large Item Pick Up",
    "date_created": "2022-10-03T16:27:41.000",
    "date_modified": "2022-10-03T16:27:42.000",
    "request_status": "Pending",
    "responsible_agency": "Department of Sanitation",
    "final_address": "4116 Prytania St",
    "address_councildis": "B",
    "status": "Assigned to Contractor",
    "contractor": "Richards Disposal",
    "rowid": "925714",
    "final_x": "3671852.56423",
    "final_y": "520362.412024",
    "longitude": "-90.09891307101228",
    "latitude": "29.925105340436552",
    "geocoded_column": {
      "latitude": "29.925105340436552",
      "longitude": "-90.09891307101228"
    }
  },
  {
    "service_request": "2022-925713",
    "request_type": "Trash/Recycling",
    "request_reason": "Request a Large Item Pick Up",
    "date_created": "2022-10-03T16:20:46.000",
    "date_modified": "2022-10-03T16:20:46.000",
    "request_status": "Pending",
    "responsible_agency": "Department of Sanitation",
    "final_address": "1724 Joliet St",
    "address_councildis": "A",
    "status": "Assigned to Contractor",
    "contractor": "Richards Disposal",
    "rowid": "925713",
    "final_x": "3662214.52979",
    "final_y": "530834.78893",
    "longitude": "-90.12898994237032",
    "latitude": "29.95418303610503",
    "geocoded_column": {
      "latitude": "29.95418303610503",
      "longitude": "-90.12898994237032"
    }
  },
  {
    "service_request": "2022-925712",
    "request_type": "Abandoned Vehicles",
    "request_reason": "Abandoned/Junk Vehicles",
    "date_created": "2022-10-03T16:16:18.000",
    "date_modified": "2022-10-03T16:16:19.000",
    "request_status": "Pending",
    "responsible_agency": "Department of Public Works",
    "final_address": "1502 Milan St",
    "address_councildis": "B",
    "status": "Pending",
    "rowid": "925712",
    "final_x": "3671576.64897",
    "final_y": "520683.302521",
    "longitude": "-90.09977314384989",
    "latitude": "29.925995857078497",
    "geocoded_column": {
      "latitude": "29.925995857078497",
      "longitude": "-90.09977314384989"
    }
  },
  {
    "service_request": "2022-925711",
    "request_type": "Traffic Signals/Signs/Striping/Streetlights",
    "request_reason": "Street Light Outage/Malfunction",
    "date_created": "2022-10-03T16:12:49.000",
    "date_modified": "2022-10-03T16:56:38.000",
    "request_status": "Pending",
    "responsible_agency": "Department of Public Works",
    "final_address": "700 BLK Jourdan Ave",
    "address_councildis": "E",
    "status": "Pending",
    "contractor": "Legacy Professional Services",
    "rowid": "925711",
    "final_x": "3694662.6674",
    "final_y": "533200.739817",
    "longitude": "-90.0264470244827",
    "latitude": "29.95971091344004",
    "geocoded_column": {
      "latitude": "29.95971091344004",
      "longitude": "-90.0264470244827"
    }
  },
  {
    "service_request": "2022-925710",
    "request_type": "Trash/Recycling",
    "request_reason": "MIssed Recycling Pick-Up",
    "date_created": "2022-10-03T16:09:51.000",
    "date_modified": "2022-10-03T16:09:52.000",
    "request_status": "Pending",
    "responsible_agency": "Department of Sanitation",
    "final_address": "2428 Bristol Pl",
    "address_councildis": "C",
    "status": "Assigned to Contractor",
    "contractor": "Richards Disposal",
    "rowid": "925710",
    "final_x": "3702694.36721",
    "final_y": "522054.051066",
    "longitude": "-90.00149404431058",
    "latitude": "29.92880712687749",
    "geocoded_column": {
      "latitude": "29.92880712687749",
      "longitude": "-90.00149404431058"
    }
  },
  {
    "service_request": "2022-925709",
    "request_type": "Traffic Signals/Signs/Striping/Streetlights",
    "request_reason": "Street Light Outage/Malfunction",
    "date_created": "2022-10-03T16:09:01.000",
    "date_modified": "2022-10-03T16:09:02.000",
    "request_status": "Pending",
    "responsible_agency": "Department of Public Works",
    "final_address": "1529 Athis St",
    "address_councildis": "D",
    "status": "Pending",
    "contractor": "Legacy Professional Services",
    "rowid": "925709",
    "final_x": "3678612.94024",
    "final_y": "553831.768407",
    "longitude": "-90.07641379479819",
    "latitude": "30.016932601547882",
    "geocoded_column": {
      "latitude": "30.016932601547882",
      "longitude": "-90.07641379479819"
    }
  },
  {
    "service_request": "2022-925708",
    "request_type": "Traffic Signals/Signs/Striping/Streetlights",
    "request_reason": "Street Light Outage/Malfunction",
    "date_created": "2022-10-03T16:08:25.000",
    "date_modified": "2022-10-03T16:08:26.000",
    "request_status": "Pending",
    "responsible_agency": "Department of Public Works",
    "final_address": "BANKS ST & S NORMAN C FRANCIS PKWY",
    "address_councildis": "B",
    "status": "Pending",
    "contractor": "Legacy Professional Services",
    "rowid": "925708",
    "final_x": "3672568.1",
    "final_y": "535734.98",
    "longitude": "-90.09613039534027",
    "latitude": "29.9673536412601",
    "geocoded_column": {
      "latitude": "29.9673536412601",
      "longitude": "-90.09613039534027"
    }
  },
  {
    "service_request": "2022-925707",
    "request_type": "Trash/Recycling",
    "request_reason": "Replace Trash Cart",
    "date_created": "2022-10-03T16:08:10.000",
    "date_modified": "2022-10-03T16:08:11.000",
    "request_status": "Pending",
    "responsible_agency": "Department of Sanitation",
    "final_address": "2342 Comet St",
    "address_councildis": "C",
    "status": "Assigned to Contractor",
    "contractor": "Richards Disposal",
    "rowid": "925707",
    "final_x": "3700215.40644",
    "final_y": "522291.085114",
    "longitude": "-90.00931091966464",
    "latitude": "29.929537883646507",
    "geocoded_column": {
      "latitude": "29.929537883646507",
      "longitude": "-90.00931091966464"
    }
  },
  {
    "service_request": "2022-925706",
    "request_type": "Trash/Recycling",
    "request_reason": "Missed Trash Pick-Up",
    "date_created": "2022-10-03T16:07:59.000",
    "date_modified": "2022-10-03T16:08:03.000",
    "request_status": "Pending",
    "responsible_agency": "Department of Sanitation",
    "final_address": "7030 Boston Dr",
    "address_councildis": "E",
    "status": "Assigned to Contractor",
    "contractor": "Metro Disposal",
    "rowid": "925706",
    "final_x": "3706367.73963",
    "final_y": "560652.00067",
    "longitude": "-89.98846796591668",
    "latitude": "30.034819244756914",
    "geocoded_column": {
      "latitude": "30.034819244756914",
      "longitude": "-89.98846796591668"
    }
  },
  {
    "service_request": "2022-925705",
    "request_type": "Roads/Drainage",
    "request_reason": "Pothole",
    "date_created": "2022-10-03T16:07:42.000",
    "date_modified": "2022-10-03T16:47:29.000",
    "request_status": "Pending",
    "responsible_agency": "Department of Public Works",
    "final_address": "4900 BLK Dauphine St",
    "address_councildis": "E",
    "status": "Pending",
    "rowid": "925705",
    "final_x": "3695356.39534",
    "final_y": "533208.785732",
    "longitude": "-90.02425610958609",
    "latitude": "29.959711262522433",
    "geocoded_column": {
      "latitude": "29.959711262522433",
      "longitude": "-90.02425610958609"
    }
  },
  {
    "service_request": "2022-925704",
    "request_type": "Trash/Recycling",
    "request_reason": "Missed Trash Pick-Up",
    "date_created": "2022-10-03T16:07:41.000",
    "date_modified": "2022-10-03T16:08:04.000",
    "request_status": "Pending",
    "responsible_agency": "Department of Sanitation",
    "final_address": "7140 Bunker Hill Rd",
    "address_councildis": "E",
    "status": "Assigned to Contractor",
    "contractor": "Metro Disposal",
    "rowid": "925704",
    "final_x": "3705677.6691",
    "final_y": "560813.586654",
    "longitude": "-89.99064269186913",
    "latitude": "30.03528579468438",
    "geocoded_column": {
      "latitude": "30.03528579468438",
      "longitude": "-89.99064269186913"
    }
  },
  {
    "service_request": "2022-925703",
    "request_type": "Trash/Recycling",
    "request_reason": "Replace Trash Cart",
    "date_created": "2022-10-03T16:03:52.000",
    "date_modified": "2022-10-03T16:03:53.000",
    "request_status": "Pending",
    "responsible_agency": "Department of Sanitation",
    "final_address": "1128 Tchoupitoulas St",
    "address_councildis": "B",
    "status": "Assigned to Contractor",
    "contractor": "Empire Services",
    "rowid": "925703",
    "final_x": "3681928.77717",
    "final_y": "525858.670269",
    "longitude": "-90.06691397479587",
    "latitude": "29.939915905332857",
    "geocoded_column": {
      "latitude": "29.939915905332857",
      "longitude": "-90.06691397479587"
    }
  },
  {
    "service_request": "2022-925702",
    "request_type": "Roads/Drainage",
    "request_reason": "Street Flooding / Drainage",
    "date_created": "2022-10-03T15:59:08.000",
    "date_modified": "2022-10-03T15:59:08.000",
    "request_status": "Pending",
    "responsible_agency": "Department of Public Works",
    "final_address": "1108 Canal St",
    "address_councildis": "B",
    "status": "Pending",
    "rowid": "925702",
    "final_x": "3679855.48335",
    "final_y": "531576.790979",
    "longitude": "-90.07326113988603",
    "latitude": "29.955701667811937",
    "geocoded_column": {
      "latitude": "29.955701667811937",
      "longitude": "-90.07326113988603"
    }
  },
  {
    "service_request": "2022-925701",
    "request_type": "Trash/Recycling",
    "request_reason": "Missed Trash Pick-Up",
    "date_created": "2022-10-03T15:55:09.000",
    "date_modified": "2022-10-03T15:55:09.000",
    "request_status": "Pending",
    "responsible_agency": "Department of Sanitation",
    "final_address": "5801 Chamberlain Dr",
    "address_councildis": "D",
    "status": "Assigned to Contractor",
    "contractor": "Metro Disposal",
    "rowid": "925701",
    "final_x": "3679434.89647",
    "final_y": "553878.261527",
    "longitude": "-90.07381513964442",
    "latitude": "30.017035623392555",
    "geocoded_column": {
      "latitude": "30.017035623392555",
      "longitude": "-90.07381513964442"
    }
  },
  {
    "service_request": "2022-925699",
    "request_type": "Trash/Recycling",
    "request_reason": "MIssed Recycling Pick-Up",
    "date_created": "2022-10-03T15:51:57.000",
    "date_modified": "2022-10-03T15:51:57.000",
    "request_status": "Pending",
    "responsible_agency": "Department of Sanitation",
    "final_address": "217 Delaronde St",
    "address_councildis": "C",
    "status": "Assigned to Contractor",
    "contractor": "Richards Disposal",
    "rowid": "925699",
    "final_x": "3686130.42722",
    "final_y": "530633.89325",
    "longitude": "-90.05348038307504",
    "latitude": "29.952917789547804",
    "geocoded_column": {
      "latitude": "29.952917789547804",
      "longitude": "-90.05348038307504"
    }
  },
  {
    "service_request": "2022-925698",
    "request_type": "Property Maintenance",
    "request_reason": "Property Maintenance",
    "date_created": "2022-10-03T15:50:18.000",
    "date_modified": "2022-10-03T16:42:39.000",
    "case_close_date": "2022-10-03T11:42:39.000",
    "request_status": "Closed",
    "responsible_agency": "Department of Code Enforcement",
    "final_address": "7801 Bass St",
    "address_councildis": "E",
    "status": "Duplicate Request",
    "rowid": "925698",
    "final_x": "3720082.01599",
    "final_y": "573745.982698",
    "longitude": "-89.9446278446755",
    "latitude": "30.070372553100313",
    "geocoded_column": {
      "latitude": "30.070372553100313",
      "longitude": "-89.9446278446755"
    }
  },
  {
    "service_request": "2022-925697",
    "request_type": "Traffic Signals/Signs/Striping/Streetlights",
    "request_reason": "Street Light Outage/Malfunction",
    "date_created": "2022-10-03T15:46:52.000",
    "date_modified": "2022-10-03T16:51:02.000",
    "request_status": "Pending",
    "responsible_agency": "Department of Public Works",
    "final_address": "7807 Bass St",
    "address_councildis": "E",
    "status": "Pending",
    "contractor": "Legacy Professional Services",
    "rowid": "925697",
    "final_x": "3720055.70918",
    "final_y": "573773.513706",
    "longitude": "-89.94470995202204",
    "latitude": "30.070449128357588",
    "geocoded_column": {
      "latitude": "30.070449128357588",
      "longitude": "-89.94470995202204"
    }
  },
  {
    "service_request": "2022-925696",
    "request_type": "Trash/Recycling",
    "request_reason": "Replace Trash Cart",
    "date_created": "2022-10-03T15:46:26.000",
    "date_modified": "2022-10-03T15:46:28.000",
    "request_status": "Pending",
    "responsible_agency": "Department of Sanitation",
    "final_address": "1833 Martin Luther King, Jr. Blvd",
    "address_councildis": "B",
    "status": "Assigned to Contractor",
    "contractor": "Richards Disposal",
    "rowid": "925696",
    "final_x": "3678230.17646",
    "final_y": "526227.482686",
    "longitude": "-90.07857825370546",
    "latitude": "29.941041900562254",
    "geocoded_column": {
      "latitude": "29.941041900562254",
      "longitude": "-90.07857825370546"
    }
  },
  {
    "service_request": "2022-925695",
    "request_type": "Trash/Recycling",
    "request_reason": "Missed Trash Pick-Up",
    "date_created": "2022-10-03T15:43:27.000",
    "date_modified": "2022-10-03T15:43:28.000",
    "request_status": "Pending",
    "responsible_agency": "Department of Sanitation",
    "final_address": "1314 Pauline St",
    "address_councildis": "D",
    "status": "Assigned to Contractor",
    "contractor": "Metro Disposal",
    "rowid": "925695",
    "final_x": "3691394.50435",
    "final_y": "536335.275847",
    "longitude": "-90.03665509241793",
    "latitude": "29.968431876642164",
    "geocoded_column": {
      "latitude": "29.968431876642164",
      "longitude": "-90.03665509241793"
    }
  },
  {
    "service_request": "2022-925694",
    "request_type": "Property Maintenance",
    "request_reason": "Property Maintenance",
    "date_created": "2022-10-03T15:43:18.000",
    "date_modified": "2022-10-03T15:43:18.000",
    "request_status": "Pending",
    "responsible_agency": "Department of Code Enforcement",
    "final_address": "9219 Stroelitz St",
    "address_councildis": "A",
    "status": "Pending",
    "rowid": "925694",
    "final_x": "3664949.23271",
    "final_y": "537788.083336",
    "longitude": "-90.12012234603252",
    "latitude": "29.973222992459544",
    "geocoded_column": {
      "latitude": "29.973222992459544",
      "longitude": "-90.12012234603252"
    }
  },
  {
    "service_request": "2022-925693",
    "request_type": "Roads/Drainage",
    "request_reason": "Pothole",
    "date_created": "2022-10-03T15:42:24.000",
    "date_modified": "2022-10-03T15:43:12.000",
    "request_status": "Pending",
    "responsible_agency": "Department of Public Works",
    "final_address": "WISTERIA ST & LOTUS ST",
    "address_councildis": "D",
    "status": "Pending",
    "rowid": "925693",
    "final_x": "3687698.7",
    "final_y": "548441.58",
    "longitude": "-90.04789769361771",
    "latitude": "30.001834383738444",
    "geocoded_column": {
      "latitude": "30.001834383738444",
      "longitude": "-90.04789769361771"
    }
  },
  {
    "service_request": "2022-925692",
    "request_type": "Trash/Recycling",
    "request_reason": "Missed Trash Pick-Up",
    "date_created": "2022-10-03T15:42:15.000",
    "date_modified": "2022-10-03T15:42:15.000",
    "request_status": "Pending",
    "responsible_agency": "Department of Sanitation",
    "final_address": "9215 Apricot St",
    "address_councildis": "A",
    "status": "Assigned to Contractor",
    "contractor": "Richards Disposal",
    "rowid": "925692",
    "final_x": "3662871.70739",
    "final_y": "535369.264326",
    "longitude": "-90.12676406019824",
    "latitude": "29.96663235717359",
    "geocoded_column": {
      "latitude": "29.96663235717359",
      "longitude": "-90.12676406019824"
    }
  },
  {
    "service_request": "2022-925691",
    "request_type": "Roads/Drainage",
    "request_reason": "Pothole",
    "date_created": "2022-10-03T15:42:02.000",
    "date_modified": "2022-10-03T15:42:03.000",
    "request_status": "Pending",
    "responsible_agency": "Department of Public Works",
    "final_address": "3800 Gentilly Blvd",
    "address_councildis": "D",
    "status": "Pending",
    "rowid": "925691",
    "final_x": "3687735.30959",
    "final_y": "548757.635731",
    "longitude": "-90.04777083828733",
    "latitude": "30.002702292891186",
    "geocoded_column": {
      "latitude": "30.002702292891186",
      "longitude": "-90.04777083828733"
    }
  },
  {
    "service_request": "2022-925690",
    "request_type": "Trash/Recycling",
    "request_reason": "Missed Trash Pick-Up",
    "date_created": "2022-10-03T15:36:04.000",
    "date_modified": "2022-10-03T15:36:04.000",
    "request_status": "Pending",
    "responsible_agency": "Department of Sanitation",
    "final_address": "3314 Grand Route St John St",
    "address_councildis": "A",
    "status": "Assigned to Contractor",
    "contractor": "Richards Disposal",
    "rowid": "925690",
    "final_x": "3675653.0811",
    "final_y": "540300.513931",
    "longitude": "-90.086231046",
    "latitude": "29.97981535079162",
    "geocoded_column": {
      "latitude": "29.97981535079162",
      "longitude": "-90.086231046"
    }
  },
  {
    "service_request": "2022-925689",
    "request_type": "Traffic Signals/Signs/Striping/Streetlights",
    "request_reason": "Street Light Outage/Malfunction",
    "date_created": "2022-10-03T15:32:00.000",
    "date_modified": "2022-10-03T15:32:00.000",
    "request_status": "Pending",
    "responsible_agency": "Department of Public Works",
    "final_address": "330 Newton St",
    "address_councildis": "C",
    "status": "Pending",
    "contractor": "Legacy Professional Services",
    "rowid": "925689",
    "final_x": "3686453.95266",
    "final_y": "527970.608319",
    "longitude": "-90.05255283301311",
    "latitude": "29.94558472359371",
    "geocoded_column": {
      "latitude": "29.94558472359371",
      "longitude": "-90.05255283301311"
    }
  },
  {
    "service_request": "2022-925688",
    "request_type": "Property Maintenance",
    "request_reason": "Property Maintenance",
    "date_created": "2022-10-03T15:31:43.000",
    "date_modified": "2022-10-03T15:31:44.000",
    "request_status": "Pending",
    "responsible_agency": "Department of Code Enforcement",
    "final_address": "3250 Behrman Hwy",
    "address_councildis": "C",
    "status": "Pending",
    "rowid": "925688",
    "final_x": "3695346.55926",
    "final_y": "518526.110775",
    "longitude": "-90.02481663853465",
    "latitude": "29.91933927955122",
    "geocoded_column": {
      "latitude": "29.91933927955122",
      "longitude": "-90.02481663853465"
    }
  },
  {
    "service_request": "2022-925687",
    "request_type": "Trash/Recycling",
    "request_reason": "MIssed Recycling Pick-Up",
    "date_created": "2022-10-03T15:30:04.000",
    "date_modified": "2022-10-03T15:30:05.000",
    "request_status": "Pending",
    "responsible_agency": "Department of Sanitation",
    "final_address": "5801 Chamberlain Dr",
    "address_councildis": "D",
    "status": "Assigned to Contractor",
    "contractor": "Metro Disposal",
    "rowid": "925687",
    "final_x": "3679434.89647",
    "final_y": "553878.261527",
    "longitude": "-90.07381513964442",
    "latitude": "30.017035623392555",
    "geocoded_column": {
      "latitude": "30.017035623392555",
      "longitude": "-90.07381513964442"
    }
  },
  {
    "service_request": "2022-925686",
    "request_type": "Trash/Recycling",
    "request_reason": "Dead Animal Pick Up",
    "date_created": "2022-10-03T15:28:26.000",
    "date_modified": "2022-10-03T15:30:51.000",
    "request_status": "Pending",
    "responsible_agency": "Department of Sanitation",
    "final_address": "2555 Frankfort St",
    "address_councildis": "D",
    "status": "Assigned to Contractor",
    "contractor": "Metro Disposal",
    "rowid": "925686",
    "final_x": "3686017.84015",
    "final_y": "557150.367835",
    "longitude": "-90.05290026237364",
    "latitude": "30.02583209782994",
    "geocoded_column": {
      "latitude": "30.02583209782994",
      "longitude": "-90.05290026237364"
    }
  },
  {
    "service_request": "2022-925685",
    "request_type": "Property Maintenance",
    "request_reason": "Property Maintenance",
    "date_created": "2022-10-03T15:25:52.000",
    "date_modified": "2022-10-03T15:25:53.000",
    "request_status": "Pending",
    "responsible_agency": "Department of Code Enforcement",
    "final_address": "4420 Laine Ave",
    "address_councildis": "E",
    "status": "Pending",
    "rowid": "925685",
    "final_x": "3705832.67377",
    "final_y": "553560.961047",
    "longitude": "-89.99042146860113",
    "latitude": "30.015338899735745",
    "geocoded_column": {
      "latitude": "30.015338899735745",
      "longitude": "-89.99042146860113"
    }
  },
  {
    "service_request": "2022-925684",
    "request_type": "Trash/Recycling",
    "request_reason": "MIssed Recycling Pick-Up",
    "date_created": "2022-10-03T15:24:19.000",
    "date_modified": "2022-10-03T15:24:20.000",
    "request_status": "Pending",
    "responsible_agency": "Department of Sanitation",
    "final_address": "7480 Garfield St",
    "address_councildis": "A",
    "status": "Assigned to Contractor",
    "contractor": "Richards Disposal",
    "rowid": "925684",
    "final_x": "3660997.64326",
    "final_y": "524074.678972",
    "longitude": "-90.13305600055138",
    "latitude": "29.93562999858943",
    "geocoded_column": {
      "latitude": "29.93562999858943",
      "longitude": "-90.13305600055138"
    }
  },
  {
    "service_request": "2022-925683",
    "request_type": "Abandoned Vehicles",
    "request_reason": "Abandoned/Junk Vehicles",
    "date_created": "2022-10-03T15:22:28.000",
    "date_modified": "2022-10-03T15:24:00.000",
    "request_status": "Pending",
    "responsible_agency": "Department of Public Works",
    "final_address": "3100 BLK Pine St",
    "address_councildis": "B",
    "status": "Pending",
    "rowid": "925683",
    "final_x": "3667800.31331",
    "final_y": "532476.762918",
    "longitude": "-90.11129692675026",
    "latitude": "29.958535311428264",
    "geocoded_column": {
      "latitude": "29.958535311428264",
      "longitude": "-90.11129692675026"
    }
  },
  {
    "service_request": "2022-925682",
    "request_type": "Trash/Recycling",
    "request_reason": "MIssed Recycling Pick-Up",
    "date_created": "2022-10-03T15:18:47.000",
    "date_modified": "2022-10-03T15:18:48.000",
    "request_status": "Pending",
    "responsible_agency": "Department of Sanitation",
    "final_address": "2308 Gravier St",
    "address_councildis": "B",
    "status": "Assigned to Contractor",
    "contractor": "Richards Disposal",
    "rowid": "925682",
    "final_x": "3675419.42465",
    "final_y": "532550.951812",
    "longitude": "-90.08723520868648",
    "latitude": "29.958513675345614",
    "geocoded_column": {
      "latitude": "29.958513675345614",
      "longitude": "-90.08723520868648"
    }
  },
  {
    "service_request": "2022-925681",
    "request_type": "Trash/Recycling",
    "request_reason": "Repair Trash Cart",
    "date_created": "2022-10-03T15:17:27.000",
    "date_modified": "2022-10-03T15:17:28.000",
    "request_status": "Pending",
    "responsible_agency": "Department of Sanitation",
    "final_address": "2308 Gravier St",
    "address_councildis": "B",
    "status": "Assigned to Contractor",
    "contractor": "Richards Disposal",
    "rowid": "925681",
    "final_x": "3675419.42465",
    "final_y": "532550.951812",
    "longitude": "-90.08723520868648",
    "latitude": "29.958513675345614",
    "geocoded_column": {
      "latitude": "29.958513675345614",
      "longitude": "-90.08723520868648"
    }
  },
  {
    "service_request": "2022-925680",
    "request_type": "Trash/Recycling",
    "request_reason": "Missed Trash Pick-Up",
    "date_created": "2022-10-03T15:17:22.000",
    "date_modified": "2022-10-03T15:17:23.000",
    "request_status": "Pending",
    "responsible_agency": "Department of Sanitation",
    "final_address": "1440 Pleasant St",
    "address_councildis": "B",
    "status": "Assigned to Contractor",
    "contractor": "Richards Disposal",
    "rowid": "925680",
    "final_x": "3674874.38677",
    "final_y": "521113.491513",
    "longitude": "-90.08934839608595",
    "latitude": "29.927080707168386",
    "geocoded_column": {
      "latitude": "29.927080707168386",
      "longitude": "-90.08934839608595"
    }
  },
  {
    "service_request": "2022-925679",
    "request_type": "Trash/Recycling",
    "request_reason": "Order Recycling Cart",
    "date_created": "2022-10-03T15:15:59.000",
    "date_modified": "2022-10-03T15:16:00.000",
    "request_status": "Pending",
    "responsible_agency": "Department of Sanitation",
    "final_address": "1434 Toledano St",
    "address_councildis": "B",
    "status": "Pending",
    "rowid": "925679",
    "final_x": "3674818.12046",
    "final_y": "520987.251641",
    "longitude": "-90.08953034025946",
    "latitude": "29.926735267824203",
    "geocoded_column": {
      "latitude": "29.926735267824203",
      "longitude": "-90.08953034025946"
    }
  },
  {
    "service_request": "2022-925678",
    "request_type": "Trash/Recycling",
    "request_reason": "Repair Trash Cart",
    "date_created": "2022-10-03T15:14:18.000",
    "date_modified": "2022-10-03T15:14:19.000",
    "request_status": "Pending",
    "responsible_agency": "Department of Sanitation",
    "final_address": "1434 Toledano St",
    "address_councildis": "B",
    "status": "Assigned to Contractor",
    "contractor": "Richards Disposal",
    "rowid": "925678",
    "final_x": "3674818.12046",
    "final_y": "520987.251641",
    "longitude": "-90.08953034025946",
    "latitude": "29.926735267824203",
    "geocoded_column": {
      "latitude": "29.926735267824203",
      "longitude": "-90.08953034025946"
    }
  },
  {
    "service_request": "2022-925677",
    "request_type": "Property Maintenance",
    "request_reason": "Property Maintenance",
    "date_created": "2022-10-03T15:10:28.000",
    "date_modified": "2022-10-03T15:10:29.000",
    "request_status": "Pending",
    "responsible_agency": "Department of Code Enforcement",
    "final_address": "3604 Second St",
    "address_councildis": "B",
    "status": "Pending",
    "rowid": "925677",
    "final_x": "3672751.08968",
    "final_y": "528957.133952",
    "longitude": "-90.0957836870515",
    "latitude": "29.948711386419735",
    "geocoded_column": {
      "latitude": "29.948711386419735",
      "longitude": "-90.0957836870515"
    }
  },
  {
    "service_request": "2022-925676",
    "request_type": "Trash/Recycling",
    "request_reason": "Replace Trash Cart",
    "date_created": "2022-10-03T15:06:46.000",
    "date_modified": "2022-10-03T16:40:14.000",
    "case_close_date": "2022-10-03T11:40:14.000",
    "request_status": "Closed",
    "responsible_agency": "Department of Sanitation",
    "final_address": "3610 Second St",
    "address_councildis": "B",
    "status": "Duplicate Request",
    "contractor": "Richards Disposal",
    "rowid": "925676",
    "final_x": "3672728.91822",
    "final_y": "528990.10144",
    "longitude": "-90.0958525677413",
    "latitude": "29.94880269457321",
    "geocoded_column": {
      "latitude": "29.94880269457321",
      "longitude": "-90.0958525677413"
    }
  },
  {
    "service_request": "2022-925675",
    "request_type": "Trash/Recycling",
    "request_reason": "Missed Trash Pick-Up",
    "date_created": "2022-10-03T15:03:11.000",
    "date_modified": "2022-10-03T15:03:12.000",
    "request_status": "Pending",
    "responsible_agency": "Department of Sanitation",
    "final_address": "8536 Huntington Park Dr",
    "address_councildis": "E",
    "status": "Assigned to Contractor",
    "contractor": "Metro Disposal",
    "rowid": "925675",
    "final_x": "3705424.19031",
    "final_y": "560135.346717",
    "longitude": "-89.99146882067004",
    "latitude": "30.033429065753552",
    "geocoded_column": {
      "latitude": "30.033429065753552",
      "longitude": "-89.99146882067004"
    }
  },
  {
    "service_request": "2022-925674",
    "request_type": "Trash/Recycling",
    "request_reason": "Request a Large Item Pick Up",
    "date_created": "2022-10-03T14:59:49.000",
    "date_modified": "2022-10-03T14:59:49.000",
    "request_status": "Pending",
    "responsible_agency": "Department of Sanitation",
    "final_address": "4708 Perlita St",
    "address_councildis": "D",
    "status": "Assigned to Contractor",
    "contractor": "Metro Disposal",
    "rowid": "925674",
    "final_x": "3678608.25928",
    "final_y": "549899.547412",
    "longitude": "-90.07656485434157",
    "latitude": "30.006120548498366",
    "geocoded_column": {
      "latitude": "30.006120548498366",
      "longitude": "-90.07656485434157"
    }
  },
  {
    "service_request": "2022-925672",
    "request_type": "Trash/Recycling",
    "request_reason": "Missed Trash Pick-Up",
    "date_created": "2022-10-03T14:51:20.000",
    "date_modified": "2022-10-03T14:51:21.000",
    "request_status": "Pending",
    "responsible_agency": "Department of Sanitation",
    "final_address": "324 S Norman C Francis Prkwy",
    "address_councildis": "B",
    "status": "Assigned to Contractor",
    "contractor": "Richards Disposal",
    "rowid": "925672",
    "final_x": "3672716.44328",
    "final_y": "535820.313351",
    "longitude": "-90.09565901328185",
    "latitude": "29.967583874264513",
    "geocoded_column": {
      "latitude": "29.967583874264513",
      "longitude": "-90.09565901328185"
    }
  },
  {
    "service_request": "2022-925671",
    "request_type": "Mosquito, Termite & Rodent Control",
    "request_reason": "Rodent Complaint (Rats)",
    "date_created": "2022-10-03T14:47:54.000",
    "date_modified": "2022-10-03T14:47:54.000",
    "request_status": "Pending",
    "responsible_agency": "Mosquito, Termite & Rodent Control Board",
    "final_address": "3137 Broadway St",
    "address_councildis": "B",
    "status": "Pending",
    "rowid": "925671",
    "final_x": "3668119.46708",
    "final_y": "532370.103299",
    "longitude": "-90.11029271499291",
    "latitude": "29.958232669505744",
    "geocoded_column": {
      "latitude": "29.958232669505744",
      "longitude": "-90.11029271499291"
    }
  },
  {
    "service_request": "2022-925670",
    "request_type": "Roads/Drainage",
    "request_reason": "Pothole",
    "date_created": "2022-10-03T14:47:27.000",
    "date_modified": "2022-10-03T14:47:28.000",
    "request_status": "Pending",
    "responsible_agency": "Department of Public Works",
    "final_address": "SUMNER ST & LAWRENCE ST",
    "address_councildis": "C",
    "status": "Pending",
    "rowid": "925670",
    "final_x": "3691012.6",
    "final_y": "525542.78",
    "longitude": "-90.03824638635969",
    "latitude": "29.93876812992951",
    "geocoded_column": {
      "latitude": "29.93876812992951",
      "longitude": "-90.03824638635969"
    }
  },
  {
    "service_request": "2022-925669",
    "request_type": "Mosquito, Termite & Rodent Control",
    "request_reason": "Rodent Complaint (Rats)",
    "date_created": "2022-10-03T14:45:38.000",
    "date_modified": "2022-10-03T14:45:40.000",
    "request_status": "Pending",
    "responsible_agency": "Mosquito, Termite & Rodent Control Board",
    "final_address": "3137 Broadway St",
    "address_councildis": "B",
    "status": "Pending",
    "rowid": "925669",
    "final_x": "3668119.46708",
    "final_y": "532370.103299",
    "longitude": "-90.11029271499291",
    "latitude": "29.958232669505744",
    "geocoded_column": {
      "latitude": "29.958232669505744",
      "longitude": "-90.11029271499291"
    }
  },
  {
    "service_request": "2022-925668",
    "request_type": "Trash/Recycling",
    "request_reason": "Replace Trash Cart",
    "date_created": "2022-10-03T14:44:59.000",
    "date_modified": "2022-10-03T14:44:59.000",
    "request_status": "Pending",
    "responsible_agency": "Department of Sanitation",
    "final_address": "3311 River Oaks Dr",
    "address_councildis": "C",
    "status": "Assigned to Contractor",
    "contractor": "Richards Disposal",
    "rowid": "925668",
    "final_x": "3701369.34647",
    "final_y": "518978.404343",
    "longitude": "-90.00578932340845",
    "latitude": "29.920392439753012",
    "geocoded_column": {
      "latitude": "29.920392439753012",
      "longitude": "-90.00578932340845"
    }
  },
  {
    "service_request": "2022-925667",
    "request_type": "Roads/Drainage",
    "request_reason": "Street Subsidence (Sinking)",
    "date_created": "2022-10-03T14:44:03.000",
    "date_modified": "2022-10-03T14:44:03.000",
    "request_status": "Pending",
    "responsible_agency": "Department of Public Works",
    "final_address": "324 Robert E Lee Blvd",
    "address_councildis": "A",
    "status": "Pending",
    "rowid": "925667",
    "final_x": "3667647.67239",
    "final_y": "554739.165976",
    "longitude": "-90.11102902778805",
    "latitude": "30.019753799520068",
    "geocoded_column": {
      "latitude": "30.019753799520068",
      "longitude": "-90.11102902778805"
    }
  },
  {
    "service_request": "2022-925666",
    "request_type": "Trash/Recycling",
    "request_reason": "MIssed Recycling Pick-Up",
    "date_created": "2022-10-03T14:42:55.000",
    "date_modified": "2022-10-03T14:42:56.000",
    "request_status": "Pending",
    "responsible_agency": "Department of Sanitation",
    "final_address": "3469 Wall Blvd",
    "address_councildis": "C",
    "status": "Assigned to Contractor",
    "contractor": "Richards Disposal",
    "rowid": "925666",
    "final_x": "3696104.05232",
    "final_y": "523772.610235",
    "longitude": "-90.02223613764197",
    "latitude": "29.93374155782828",
    "geocoded_column": {
      "latitude": "29.93374155782828",
      "longitude": "-90.02223613764197"
    }
  },
  {
    "service_request": "2022-925665",
    "request_type": "Trash/Recycling",
    "request_reason": "Missed Trash Pick-Up",
    "date_created": "2022-10-03T14:42:21.000",
    "date_modified": "2022-10-03T14:42:22.000",
    "request_status": "Pending",
    "responsible_agency": "Department of Sanitation",
    "final_address": "8835 Birch St",
    "address_councildis": "A",
    "status": "Assigned to Contractor",
    "contractor": "Richards Disposal",
    "rowid": "925665",
    "final_x": "3660897.44499",
    "final_y": "531297.144898",
    "longitude": "-90.13313349771457",
    "latitude": "29.95549236490284",
    "geocoded_column": {
      "latitude": "29.95549236490284",
      "longitude": "-90.13313349771457"
    }
  },
  {
    "service_request": "2022-925664",
    "request_type": "Property Maintenance",
    "request_reason": "Property Maintenance",
    "date_created": "2022-10-03T14:37:13.000",
    "date_modified": "2022-10-03T15:02:47.000",
    "request_status": "Pending",
    "responsible_agency": "Department of Code Enforcement",
    "final_address": "5912 St Claude Ave",
    "address_councildis": "E",
    "status": "Pending",
    "rowid": "925664",
    "final_x": "3698993.15895",
    "final_y": "533452.556996",
    "longitude": "-90.01276323349184",
    "latitude": "29.960266801360078",
    "geocoded_column": {
      "latitude": "29.960266801360078",
      "longitude": "-90.01276323349184"
    }
  },
  {
    "service_request": "2022-925663",
    "request_type": "Abandoned Vehicles",
    "request_reason": "Abandoned/Junk Vehicles",
    "date_created": "2022-10-03T14:34:54.000",
    "date_modified": "2022-10-03T14:37:29.000",
    "request_status": "Pending",
    "responsible_agency": "Department of Public Works",
    "final_address": "533 Second St",
    "address_councildis": "B",
    "status": "Pending",
    "rowid": "925663",
    "final_x": "3678944.31797",
    "final_y": "519721.992888",
    "longitude": "-90.07654885505193",
    "latitude": "29.923132416495278",
    "geocoded_column": {
      "latitude": "29.923132416495278",
      "longitude": "-90.07654885505193"
    }
  },
  {
    "service_request": "2022-925662",
    "request_type": "Trash/Recycling",
    "request_reason": "Illegal Dumping",
    "date_created": "2022-10-03T14:33:00.000",
    "date_modified": "2022-10-03T14:33:01.000",
    "request_status": "Pending",
    "responsible_agency": "Department of Sanitation",
    "final_address": "LEAKE AVE & MAPLE ST",
    "address_councildis": "A",
    "status": "Pending",
    "rowid": "925662",
    "final_x": "3660297.0",
    "final_y": "527982.18",
    "longitude": "-90.13513895480085",
    "latitude": "29.94639455232828",
    "geocoded_column": {
      "latitude": "29.94639455232828",
      "longitude": "-90.13513895480085"
    }
  },
  {
    "service_request": "2022-925661",
    "request_type": "Roads/Drainage",
    "request_reason": "Pothole",
    "date_created": "2022-10-03T14:31:12.000",
    "date_modified": "2022-10-03T14:31:12.000",
    "request_status": "Pending",
    "responsible_agency": "Department of Public Works",
    "final_address": "5300 BLK Annunciation St",
    "address_councildis": "B",
    "status": "Pending",
    "rowid": "925661",
    "final_x": "3667177.9704",
    "final_y": "517583.360946",
    "longitude": "-90.1137626850114",
    "latitude": "29.91760146980537",
    "geocoded_column": {
      "latitude": "29.91760146980537",
      "longitude": "-90.1137626850114"
    }
  },
  {
    "service_request": "2022-925660",
    "request_type": "Roads/Drainage",
    "request_reason": "Pothole",
    "date_created": "2022-10-03T14:30:15.000",
    "date_modified": "2022-10-03T14:30:15.000",
    "request_status": "Pending",
    "responsible_agency": "Department of Public Works",
    "final_address": "600 N Carrollton Ave",
    "address_councildis": "A",
    "status": "Pending",
    "rowid": "925660",
    "final_x": "3672465.91636",
    "final_y": "539621.186186",
    "longitude": "-90.09632060125843",
    "latitude": "29.978042426802066",
    "geocoded_column": {
      "latitude": "29.978042426802066",
      "longitude": "-90.09632060125843"
    }
  },
  {
    "service_request": "2022-925659",
    "request_type": "Roads/Drainage",
    "request_reason": "Pothole",
    "date_created": "2022-10-03T14:29:11.000",
    "date_modified": "2022-10-03T14:29:11.000",
    "request_status": "Pending",
    "responsible_agency": "Department of Public Works",
    "final_address": "5300 BLK Constance St",
    "address_councildis": "B",
    "status": "Pending",
    "rowid": "925659",
    "final_x": "3667276.17591",
    "final_y": "518291.386105",
    "longitude": "-90.113428911014",
    "latitude": "29.919545442340482",
    "geocoded_column": {
      "latitude": "29.919545442340482",
      "longitude": "-90.113428911014"
    }
  },
  {
    "service_request": "2022-925658",
    "request_type": "Roads/Drainage",
    "request_reason": "Pothole",
    "date_created": "2022-10-03T14:27:56.000",
    "date_modified": "2022-10-03T14:27:57.000",
    "request_status": "Pending",
    "responsible_agency": "Department of Public Works",
    "final_address": "719 Octavia St",
    "address_councildis": "A",
    "status": "Pending",
    "rowid": "925658",
    "final_x": "3666421.20935",
    "final_y": "518619.441911",
    "longitude": "-90.11611662548324",
    "latitude": "29.920472493615005",
    "geocoded_column": {
      "latitude": "29.920472493615005",
      "longitude": "-90.11611662548324"
    }
  },
  {
    "service_request": "2022-925657",
    "request_type": "Roads/Drainage",
    "request_reason": "Catch Basin - Broken/Damage",
    "date_created": "2022-10-03T14:26:58.000",
    "date_modified": "2022-10-03T14:27:00.000",
    "request_status": "Pending",
    "responsible_agency": "Department of Public Works",
    "final_address": "700 BLK Soniat St",
    "address_councildis": "B",
    "status": "Pending",
    "rowid": "925657",
    "final_x": "3668323.46286",
    "final_y": "518038.844616",
    "longitude": "-90.11013164576559",
    "latitude": "29.918820332834642",
    "geocoded_column": {
      "latitude": "29.918820332834642",
      "longitude": "-90.11013164576559"
    }
  },
  {
    "service_request": "2022-925656",
    "request_type": "Trash/Recycling",
    "request_reason": "Missed Trash Pick-Up",
    "date_created": "2022-10-03T14:26:33.000",
    "date_modified": "2022-10-03T14:26:34.000",
    "request_status": "Pending",
    "responsible_agency": "Department of Sanitation",
    "final_address": "2116 Bienville Ave",
    "address_councildis": "B",
    "status": "Assigned to Contractor",
    "contractor": "Richards Disposal",
    "rowid": "925656",
    "final_x": "3677570.17691",
    "final_y": "534325.076933",
    "longitude": "-90.0803824398211",
    "latitude": "29.963327431847656",
    "geocoded_column": {
      "latitude": "29.963327431847656",
      "longitude": "-90.0803824398211"
    }
  },
  {
    "service_request": "2022-925655",
    "request_type": "Trash/Recycling",
    "request_reason": "Replace Trash Cart",
    "date_created": "2022-10-03T14:20:18.000",
    "date_modified": "2022-10-03T14:20:19.000",
    "request_status": "Pending",
    "responsible_agency": "Department of Sanitation",
    "final_address": "7723 Oak St",
    "address_councildis": "A",
    "status": "Assigned to Contractor",
    "contractor": "Richards Disposal",
    "rowid": "925655",
    "final_x": "3662936.99719",
    "final_y": "527540.424639",
    "longitude": "-90.12681820065916",
    "latitude": "29.94510369454193",
    "geocoded_column": {
      "latitude": "29.94510369454193",
      "longitude": "-90.12681820065916"
    }
  },
  {
    "service_request": "2022-925654",
    "request_type": "Trash/Recycling",
    "request_reason": "Repair Trash Cart",
    "date_created": "2022-10-03T14:12:44.000",
    "date_modified": "2022-10-03T14:15:30.000",
    "request_status": "Pending",
    "responsible_agency": "Department of Sanitation",
    "final_address": "9231 Palm St",
    "address_councildis": "A",
    "status": "Assigned to Contractor",
    "contractor": "Richards Disposal",
    "rowid": "925654",
    "final_x": "3664705.69108",
    "final_y": "537506.497416",
    "longitude": "-90.12090091263914",
    "latitude": "29.972455812740552",
    "geocoded_column": {
      "latitude": "29.972455812740552",
      "longitude": "-90.12090091263914"
    }
  },