[
  {
    "service_request": "2025-1235836",
    "request_type": "General Services",
    "request_reason": "General Service Request",
    "date_created": "2025-10-25T23:28:56.000",
    "date_modified": "2025-10-25T23:28:58.000",
    "request_status": "Pending",
    "responsible_agency": "Orleans Parish Communication District",
    "final_address": "2717 St Ann St",
    "address_councildis": "A",
    "status": "Pending",
    "rowid": "1235836",
    "final_x": "3676768.80481",
    "final_y": "537373.721288",
    "longitude": "-90.08280801643059",
    "latitude": "29.97173423827593",
    "geocoded_column": {
      "latitude": "29.97173423827593",
      "longitude": "-90.08280801643059"
    }
  },
  {
    "service_request": "2025-1235835",
    "request_type": "Trash/Recycling",
    "request_reason": "Repair Trash Cart",
    "date_created": "2025-10-25T23:19:46.000",
    "date_modified": "2025-10-25T23:19:48.000",
    "request_status": "Pending",
    "responsible_agency": "Department of Sanitation",
    "final_address": "816 Henry Clay Ave",
    "address_councildis": "A",
    "status": "Assigned to Contractor",
    "contractor": "IV Waste",
    "rowid": "1235835",
    "final_x": "3663789.17191",
    "final_y": "519745.551928",
    "longitude": "-90.12438727042897",
    "latitude": "29.923645562935235",
    "geocoded_column": {
      "latitude": "29.923645562935235",
      "longitude": "-90.12438727042897"
    }
  },
  {
    "service_request": "2025-1235834",
    "request_type": "Property Maintenance",
    "request_reason": "Property Maintenance",
    "date_created": "2025-10-25T23:16:30.000",
    "date_modified": "2025-10-25T23:16:31.000",
    "request_status": "Pending",
    "responsible_agency": "Department of Code Enforcement",
    "final_address": "1428 Poland Ave",
    "address_councildis": "D",
    "status": "Pending",
    "rowid": "1235834",
    "final_x": "3693317.09603",
    "final_y": "536366.265671",
    "longitude": "-90.03058236686347",
    "latitude": "29.96845712393352",
    "geocoded_column": {
      "latitude": "29.96845712393352",
      "longitude": "-90.03058236686347"
    }
  },
  {
    "service_request": "2025-1235833",
    "request_type": "Trash/Recycling",
    "request_reason": "Order Recycling Cart",
    "date_created": "2025-10-25T23:13:51.000",
    "date_modified": "2025-10-25T23:13:55.000",
    "request_status": "Pending",
    "responsible_agency": "Department of Sanitation",
    "final_address": "816 Henry Clay Ave",
    "address_councildis": "A",
    "status": "Pending",
    "rowid": "1235833",
    "final_x": "3663789.17191",
    "final_y": "519745.551928",
    "longitude": "-90.12438727042897",
    "latitude": "29.923645562935235",
    "geocoded_column": {
      "latitude": "29.923645562935235",
      "longitude": "-90.12438727042897"
    }
  },
  {
    "service_request": "2025-1235831",
    "request_type": "Abandoned Vehicles",
    "request_reason": "Abandoned/Junk Vehicles",
    "date_created": "2025-10-25T21:14:47.000",
    "date_modified": "2025-10-25T21:14:49.000",
    "request_status": "Pending",
    "responsible_agency": "Department of Public Works",
    "final_address": "5923 Colbert St",
    "address_councildis": "A",
    "status": "Pending",
    "rowid": "1235831",
    "final_x": "3667436.78721",
    "final_y": "546987.620113",
    "longitude": "-90.11195642851327",
    "latitude": "29.998445939683787",
    "geocoded_column": {
      "latitude": "29.998445939683787",
      "longitude": "-90.11195642851327"
    }
  },
  {
    "service_request": "2025-1235830",
    "request_type": "Street and Traffic Signs",
    "request_reason": "Street Name Sign Damaged or Missing",
    "date_created": "2025-10-25T20:54:32.000",
    "date_modified": "2025-10-25T20:54:33.000",
    "request_status": "Pending",
    "responsible_agency": "Department of Public Works",
    "final_address": "BIENVILLE ST & EXCHANGE PL",
    "address_councildis": "C",
    "status": "Pending",
    "rowid": "1235830",
    "final_x": "3681811.93",
    "final_y": "531192.64",
    "longitude": "-90.0670967826716",
    "latitude": "29.954586079200734",
    "geocoded_column": {
      "latitude": "29.954586079200734",
      "longitude": "-90.0670967826716"
    }
  },
  {
    "service_request": "2025-1235829",
    "request_type": "Street and Traffic Signs",
    "request_reason": "One Way Sign Missing or Damaged",
    "date_created": "2025-10-25T20:52:18.000",
    "date_modified": "2025-10-25T20:52:19.000",
    "request_status": "Pending",
    "responsible_agency": "Department of Public Works",
    "final_address": "BIENVILLE ST & CHARTRES ST",
    "address_councildis": "C",
    "status": "Pending",
    "rowid": "1235829",
    "final_x": "3681950.3",
    "final_y": "531091.18",
    "longitude": "-90.06666340592915",
    "latitude": "29.95430289339862",
    "geocoded_column": {
      "latitude": "29.95430289339862",
      "longitude": "-90.06666340592915"
    }
  },
  {
    "service_request": "2025-1235828",
    "request_type": "Street and Traffic Signs",
    "request_reason": "Street Name Sign Damaged or Missing",
    "date_created": "2025-10-25T20:50:55.000",
    "date_modified": "2025-10-25T20:50:58.000",
    "request_status": "Pending",
    "responsible_agency": "Department of Public Works",
    "final_address": "BIENVILLE ST & ROYAL ST",
    "address_councildis": "C",
    "status": "Pending",
    "rowid": "1235828",
    "final_x": "3681664.8",
    "final_y": "531302.78",
    "longitude": "-90.06755751983562",
    "latitude": "29.954893396707345",
    "geocoded_column": {
      "latitude": "29.954893396707345",
      "longitude": "-90.06755751983562"
    }
  },
  {
    "service_request": "2025-1235827",
    "request_type": "Healthy Homes",
    "request_reason": "Healthy Homes",
    "date_created": "2025-10-25T20:17:14.000",
    "date_modified": "2025-10-25T20:17:16.000",
    "request_status": "Pending",
    "responsible_agency": "Department of Code Enforcement",
    "final_address": "0 BLK Agriculture Pl",
    "address_councildis": "D",
    "status": "Pending",
    "rowid": "1235827",
    "final_x": "3689891.40135",
    "final_y": "543419.290574",
    "longitude": "-90.04114966127275",
    "latitude": "29.987957086684915",
    "geocoded_column": {
      "latitude": "29.987957086684915",
      "longitude": "-90.04114966127275"
    }
  },
  {
    "service_request": "2025-1235826",
    "request_type": "Streetlights",
    "request_reason": "Streetlight Outage/Malfunction",
    "date_created": "2025-10-25T20:02:26.000",
    "date_modified": "2025-10-25T20:02:29.000",
    "request_status": "Pending",
    "responsible_agency": "Department of Public Works",
    "final_address": "4006 Annunciation St",
    "address_councildis": "B",
    "status": "Pending",
    "rowid": "1235826",
    "final_x": "3672530.69691",
    "final_y": "517853.182198",
    "longitude": "-90.0968578934684",
    "latitude": "29.91818565394963",
    "geocoded_column": {
      "latitude": "29.91818565394963",
      "longitude": "-90.0968578934684"
    }
  },
  {
    "service_request": "2025-1235825",
    "request_type": "Trash/Recycling",
    "request_reason": "Return Recycling Cart",
    "date_created": "2025-10-25T19:44:40.000",
    "date_modified": "2025-10-25T19:44:42.000",
    "request_status": "Pending",
    "responsible_agency": "Department of Sanitation",
    "final_address": "4700 Perlita St",
    "address_councildis": "D",
    "status": "Pending",
    "rowid": "1235825",
    "final_x": "3678614.75618",
    "final_y": "549820.072084",
    "longitude": "-90.07654708298314",
    "latitude": "30.005901823790282",
    "geocoded_column": {
      "latitude": "30.005901823790282",
      "longitude": "-90.07654708298314"
    }
  },
  {
    "service_request": "2025-1235824",
    "request_type": "EMS",
    "request_reason": "EMS Compliment",
    "date_created": "2025-10-25T19:30:05.000",
    "date_modified": "2025-10-25T19:30:13.000",
    "request_status": "Pending",
    "responsible_agency": "Emergency Medical Services",
    "final_address": "0 BLK Admiralty Ct",
    "address_councildis": "C",
    "status": "Pending",
    "rowid": "1235824",
    "final_x": "3704031.03777",
    "final_y": "523040.620373",
    "longitude": "-89.99723816614093",
    "latitude": "29.931477060413563",
    "geocoded_column": {
      "latitude": "29.931477060413563",
      "longitude": "-89.99723816614093"
    }
  },
  {
    "service_request": "2025-1235823",
    "request_type": "Streetlights",
    "request_reason": "New Streetlight Request",
    "date_created": "2025-10-25T19:28:08.000",
    "date_modified": "2025-10-25T19:28:10.000",
    "request_status": "Pending",
    "responsible_agency": "Department of Public Works",
    "final_address": "3016 Cleveland Ave",
    "address_councildis": "B",
    "status": "Pending",
    "rowid": "1235823",
    "final_x": "3673944.32046",
    "final_y": "535598.345606",
    "longitude": "-90.09178893874027",
    "latitude": "29.966937012374398",
    "geocoded_column": {
      "latitude": "29.966937012374398",
      "longitude": "-90.09178893874027"
    }
  },
  {
    "service_request": "2025-1235822",
    "request_type": "Property Maintenance",
    "request_reason": "Property Maintenance",
    "date_created": "2025-10-25T19:20:25.000",
    "date_modified": "2025-10-25T19:20:28.000",
    "request_status": "Pending",
    "responsible_agency": "Department of Code Enforcement",
    "final_address": "5537 Pasteur Blvd",
    "address_councildis": "D",
    "status": "Pending",
    "rowid": "1235822",
    "final_x": "3682976.47484",
    "final_y": "553414.334487",
    "longitude": "-90.06264147820039",
    "latitude": "30.015652476363783",
    "geocoded_column": {
      "latitude": "30.015652476363783",
      "longitude": "-90.06264147820039"
    }
  },
  {
    "service_request": "2025-1235821",
    "request_type": "Streetlights",
    "request_reason": "Streetlight Outage/Malfunction",
    "date_created": "2025-10-25T19:17:46.000",
    "date_modified": "2025-10-25T19:17:48.000",
    "request_status": "Pending",
    "responsible_agency": "Department of Public Works",
    "final_address": "364 Walnut St",
    "address_councildis": "A",
    "status": "Pending",
    "rowid": "1235821",
    "final_x": "3662062.81216",
    "final_y": "522422.988794",
    "longitude": "-90.1297480050048",
    "latitude": "29.931057647652636",
    "geocoded_column": {
      "latitude": "29.931057647652636",
      "longitude": "-90.1297480050048"
    }
  },
  {
    "service_request": "2025-1235820",
    "request_type": "Streetlights",
    "request_reason": "Streetlight Outage/Malfunction",
    "date_created": "2025-10-25T19:14:07.000",
    "date_modified": "2025-10-25T19:14:10.000",
    "request_status": "Pending",
    "responsible_agency": "Department of Public Works",
    "final_address": "364 Walnut St",
    "address_councildis": "A",
    "status": "Pending",
    "rowid": "1235820",
    "final_x": "3662062.81216",
    "final_y": "522422.988794",
    "longitude": "-90.1297480050048",
    "latitude": "29.931057647652636",
    "geocoded_column": {
      "latitude": "29.931057647652636",
      "longitude": "-90.1297480050048"
    }
  },
  {
    "service_request": "2025-1235819",
    "request_type": "Streetlights",
    "request_reason": "Streetlight Outage/Malfunction",
    "date_created": "2025-10-25T19:01:09.000",
    "date_modified": "2025-10-25T19:01:11.000",
    "request_status": "Pending",
    "responsible_agency": "Department of Public Works",
    "final_address": "7263 Canal Blvd",
    "address_councildis": "D",
    "status": "Pending",
    "rowid": "1235819",
    "final_x": "3669371.82766",
    "final_y": "555282.053849",
    "longitude": "-90.10556286244523",
    "latitude": "30.021195863670865",
    "geocoded_column": {
      "latitude": "30.021195863670865",
      "longitude": "-90.10556286244523"
    }
  },
  {
    "service_request": "2025-1235818",
    "request_type": "General Services",
    "request_reason": "General Service Request",
    "date_created": "2025-10-25T18:51:28.000",
    "date_modified": "2025-10-25T18:51:30.000",
    "request_status": "Pending",
    "responsible_agency": "Orleans Parish Communication District",
    "final_address": "2800 Banks St",
    "address_councildis": "B",
    "status": "Pending",
    "rowid": "1235818",
    "final_x": "3674083.11752",
    "final_y": "534477.686021",
    "longitude": "-90.09138897541445",
    "latitude": "29.963851439977457",
    "geocoded_column": {
      "latitude": "29.963851439977457",
      "longitude": "-90.09138897541445"
    }
  },
  {
    "service_request": "2025-1235817",
    "request_type": "Property Maintenance",
    "request_reason": "Property Maintenance",
    "date_created": "2025-10-25T17:56:57.000",
    "date_modified": "2025-10-25T17:56:59.000",
    "request_status": "Pending",
    "responsible_agency": "Department of Code Enforcement",
    "final_address": "8501 Lake Forest Blvd",
    "address_councildis": "E",
    "status": "Pending",
    "rowid": "1235817",
    "final_x": "3705934.16228",
    "final_y": "558213.466524",
    "longitude": "-89.98992847266243",
    "latitude": "30.028128216452462",
    "geocoded_column": {
      "latitude": "30.028128216452462",
      "longitude": "-89.98992847266243"
    }
  },
  {
    "service_request": "2025-1235816",
    "request_type": "Abandoned Vehicles",
    "request_reason": "Abandoned/Junk Vehicles",
    "date_created": "2025-10-25T17:50:36.000",
    "date_modified": "2025-10-25T17:50:38.000",
    "request_status": "Pending",
    "responsible_agency": "Department of Public Works",
    "final_address": "5440 Edenboro Rd",
    "address_councildis": "E",
    "status": "Pending",
    "rowid": "1235816",
    "final_x": "3708152.41937",
    "final_y": "557855.822043",
    "longitude": "-89.98293229646417",
    "latitude": "30.027073137536604",
    "geocoded_column": {
      "latitude": "30.027073137536604",
      "longitude": "-89.98293229646417"
    }
  },
  {
    "service_request": "2025-1235815",
    "request_type": "Roads and Streets",
    "request_reason": "Street Subsidence (Sinking)",
    "date_created": "2025-10-25T17:46:43.000",
    "date_modified": "2025-10-25T17:46:45.000",
    "request_status": "Pending",
    "responsible_agency": "Sewerage & Water Board",
    "final_address": "5321 Edenboro Rd",
    "address_councildis": "E",
    "status": "Pending",
    "rowid": "1235815",
    "final_x": "3708452.47089",
    "final_y": "557656.223963",
    "longitude": "-89.9819916087192",
    "latitude": "30.02651459445265",
    "geocoded_column": {
      "latitude": "30.02651459445265",
      "longitude": "-89.9819916087192"
    }
  },
  {
    "service_request": "2025-1235814",
    "request_type": "Property Maintenance",
    "request_reason": "Property Maintenance",
    "date_created": "2025-10-25T17:06:12.000",
    "date_modified": "2025-10-25T17:06:14.000",
    "request_status": "Pending",
    "responsible_agency": "Department of Code Enforcement",
    "final_address": "6900 BLK Boston Dr",
    "address_councildis": "E",
    "status": "Pending",
    "rowid": "1235814",
    "final_x": "3706492.2041",
    "final_y": "560522.210764",
    "longitude": "-89.98807945801056",
    "latitude": "30.034458356285466",
    "geocoded_column": {
      "latitude": "30.034458356285466",
      "longitude": "-89.98807945801056"
    }
  },
  {
    "service_request": "2025-1235813",
    "request_type": "Streetlights",
    "request_reason": "Streetlight Outage/Malfunction",
    "date_created": "2025-10-25T17:01:55.000",
    "date_modified": "2025-10-25T17:01:56.000",
    "request_status": "Pending",
    "responsible_agency": "Department of Public Works",
    "final_address": "6900 BLK Boston Dr",
    "address_councildis": "E",
    "status": "Pending",
    "rowid": "1235813",
    "final_x": "3706492.2041",
    "final_y": "560522.210764",
    "longitude": "-89.98807945801056",
    "latitude": "30.034458356285466",
    "geocoded_column": {
      "latitude": "30.034458356285466",
      "longitude": "-89.98807945801056"
    }
  },
  {
    "service_request": "2025-1235812",
    "request_type": "Abandoned Vehicles",
    "request_reason": "Abandoned/Junk Vehicles",
    "date_created": "2025-10-25T15:59:00.000",
    "date_modified": "2025-10-25T15:59:01.000",
    "request_status": "Pending",
    "responsible_agency": "Department of Public Works",
    "final_address": "7118 Parkside Ct",
    "address_councildis": "E",
    "status": "Pending",
    "rowid": "1235812",
    "final_x": "3704485.18756",
    "final_y": "559992.810909",
    "longitude": "-89.99444141023154",
    "latitude": "30.03306735063237",
    "geocoded_column": {
      "latitude": "30.03306735063237",
      "longitude": "-89.99444141023154"
    }
  },
  {
    "service_request": "2025-1235811",
    "request_type": "Abandoned Vehicles",
    "request_reason": "Abandoned/Junk Vehicles",
    "date_created": "2025-10-25T15:58:04.000",
    "date_modified": "2025-10-25T15:58:05.000",
    "request_status": "Pending",
    "responsible_agency": "Department of Public Works",
    "final_address": "1400 Leda St",
    "address_councildis": "A",
    "status": "Pending",
    "rowid": "1235811",
    "final_x": "3675569.94357",
    "final_y": "541136.142796",
    "longitude": "-90.08646490905033",
    "latitude": "29.982115530310722",
    "geocoded_column": {
      "latitude": "29.982115530310722",
      "longitude": "-90.08646490905033"
    }
  },
  {
    "service_request": "2025-1235810",
    "request_type": "Property Maintenance",
    "request_reason": "Property Maintenance",
    "date_created": "2025-10-25T15:49:17.000",
    "date_modified": "2025-10-25T15:49:20.000",
    "request_status": "Pending",
    "responsible_agency": "Department of Code Enforcement",
    "final_address": "4340 Lincoln St",
    "address_councildis": "C",
    "status": "Pending",
    "rowid": "1235810",
    "final_x": "3710904.51883",
    "final_y": "514090.923826",
    "longitude": "-89.97587433501606",
    "latitude": "29.906646369408403",
    "geocoded_column": {
      "latitude": "29.906646369408403",
      "longitude": "-89.97587433501606"
    }
  },
  {
    "service_request": "2025-1235809",
    "request_type": "Roads and Streets",
    "request_reason": "Street Subsidence (Sinking)",
    "date_created": "2025-10-25T15:42:03.000",
    "date_modified": "2025-10-25T15:42:05.000",
    "request_status": "Pending",
    "responsible_agency": "Sewerage & Water Board",
    "final_address": "625 English Turn Dr",
    "address_councildis": "C",
    "status": "Pending",
    "rowid": "1235809",
    "final_x": "3715382.65714",
    "final_y": "515809.215668",
    "longitude": "-89.96167614840944",
    "latitude": "29.911224433386455",
    "geocoded_column": {
      "latitude": "29.911224433386455",
      "longitude": "-89.96167614840944"
    }
  },
  {
    "service_request": "2025-1235808",
    "request_type": "Trash/Recycling",
    "request_reason": "Request a Large Item Pick Up",
    "date_created": "2025-10-25T15:35:18.000",
    "date_modified": "2025-10-25T15:35:20.000",
    "request_status": "Pending",
    "responsible_agency": "Department of Sanitation",
    "final_address": "2028 Peniston St Apt B",
    "address_councildis": "B",
    "status": "Assigned to Contractor",
    "contractor": "IV Waste",
    "rowid": "1235808",
    "final_x": "3672430.9378",
    "final_y": "522720.725306",
    "longitude": "-90.0970070046203",
    "latitude": "29.931572798313454",
    "geocoded_column": {
      "latitude": "29.931572798313454",
      "longitude": "-90.0970070046203"
    }
  },
  {
    "service_request": "2025-1235807",
    "request_type": "Roads and Streets",
    "request_reason": "Road Shoulder Damage",
    "date_created": "2025-10-25T15:12:06.000",
    "date_modified": "2025-10-25T15:12:08.000",
    "request_status": "Pending",
    "responsible_agency": "Department of Public Works",
    "final_address": "4454 Dale St",
    "address_councildis": "E",
    "status": "Pending",
    "rowid": "1235807",
    "final_x": "3699491.62468",
    "final_y": "553517.088919",
    "longitude": "-90.01045770645112",
    "latitude": "30.01542108638151",
    "geocoded_column": {
      "latitude": "30.01542108638151",
      "longitude": "-90.01045770645112"
    }
  },
  {
    "service_request": "2025-1235806",
    "request_type": "Trash/Recycling",
    "request_reason": "Request a Large Item Pick Up",
    "date_created": "2025-10-25T15:01:38.000",
    "date_modified": "2025-10-25T15:01:39.000",
    "request_status": "Pending",
    "responsible_agency": "Department of Sanitation",
    "final_address": "2101 Sere St",
    "address_councildis": "D",
    "status": "Assigned to Contractor",
    "contractor": "IV Waste",
    "rowid": "1235806",
    "final_x": "3683489.82479",
    "final_y": "545903.18728",
    "longitude": "-90.06128298586947",
    "latitude": "29.994983869077675",
    "geocoded_column": {
      "latitude": "29.994983869077675",
      "longitude": "-90.06128298586947"
    }
  },
  {
    "service_request": "2025-1235805",
    "request_type": "Abandoned Vehicles",
    "request_reason": "Abandoned/Junk Vehicles",
    "date_created": "2025-10-25T14:32:17.000",
    "date_modified": "2025-10-25T14:32:19.000",
    "request_status": "Pending",
    "responsible_agency": "Department of Public Works",
    "final_address": "1800 BLK Magic Walk",
    "address_councildis": "D",
    "status": "Pending",
    "rowid": "1235805",
    "final_x": "3679256.07912",
    "final_y": "534836.603999",
    "longitude": "-90.07504081127361",
    "latitude": "29.964683159534715",
    "geocoded_column": {
      "latitude": "29.964683159534715",
      "longitude": "-90.07504081127361"
    }
  },
  {
    "service_request": "2025-1235804",
    "request_type": "Trash/Recycling",
    "request_reason": "Repair Trash Cart",
    "date_created": "2025-10-25T14:25:52.000",
    "date_modified": "2025-10-25T14:25:54.000",
    "request_status": "Pending",
    "responsible_agency": "Department of Sanitation",
    "final_address": "1451 Polymnia St",
    "address_councildis": "B",
    "status": "Assigned to Contractor",
    "contractor": "IV Waste",
    "rowid": "1235804",
    "final_x": "3679256.92309",
    "final_y": "524457.384508",
    "longitude": "-90.0753979794591",
    "latitude": "29.93614376061866",
    "geocoded_column": {
      "latitude": "29.93614376061866",
      "longitude": "-90.0753979794591"
    }
  },
  {
    "service_request": "2025-1235803",
    "request_type": "Trash/Recycling",
    "request_reason": "Repair Trash Cart",
    "date_created": "2025-10-25T14:23:52.000",
    "date_modified": "2025-10-25T14:23:53.000",
    "request_status": "Pending",
    "responsible_agency": "Department of Sanitation",
    "final_address": "1451 Polymnia St",
    "address_councildis": "B",
    "status": "Assigned to Contractor",
    "contractor": "IV Waste",
    "rowid": "1235803",
    "final_x": "3679256.92309",
    "final_y": "524457.384508",
    "longitude": "-90.0753979794591",
    "latitude": "29.93614376061866",
    "geocoded_column": {
      "latitude": "29.93614376061866",
      "longitude": "-90.0753979794591"
    }
  },
  {
    "service_request": "2025-1235802",
    "request_type": "Trash/Recycling",
    "request_reason": "Order Trash Cart",
    "date_created": "2025-10-25T14:21:43.000",
    "date_modified": "2025-10-25T14:21:44.000",
    "request_status": "Pending",
    "responsible_agency": "Department of Sanitation",
    "final_address": "1451 Polymnia St",
    "address_councildis": "B",
    "status": "Assigned to Contractor",
    "contractor": "IV Waste",
    "rowid": "1235802",
    "final_x": "3679256.92309",
    "final_y": "524457.384508",
    "longitude": "-90.0753979794591",
    "latitude": "29.93614376061866",
    "geocoded_column": {
      "latitude": "29.93614376061866",
      "longitude": "-90.0753979794591"
    }
  },
  {
    "service_request": "2025-1235801",
    "request_type": "Trash/Recycling",
    "request_reason": "Order Trash Cart",
    "date_created": "2025-10-25T14:19:24.000",
    "date_modified": "2025-10-25T14:19:26.000",
    "request_status": "Pending",
    "responsible_agency": "Department of Sanitation",
    "final_address": "1720 Prytania St",
    "address_councildis": "B",
    "status": "Assigned to Contractor",
    "contractor": "IV Waste",
    "rowid": "1235801",
    "final_x": "3679270.99765",
    "final_y": "524557.02278",
    "longitude": "-90.07535009221748",
    "latitude": "29.93641730811355",
    "geocoded_column": {
      "latitude": "29.93641730811355",
      "longitude": "-90.07535009221748"
    }
  },
  {
    "service_request": "2025-1235800",
    "request_type": "Trash/Recycling",
    "request_reason": "Order Trash Cart",
    "date_created": "2025-10-25T14:17:53.000",
    "date_modified": "2025-10-25T14:17:57.000",
    "request_status": "Pending",
    "responsible_agency": "Department of Sanitation",
    "final_address": "1712 Prytania St",
    "address_councildis": "B",
    "status": "Assigned to Contractor",
    "contractor": "IV Waste",
    "rowid": "1235800",
    "final_x": "3679291.56213",
    "final_y": "524587.435836",
    "longitude": "-90.07528411523221",
    "latitude": "29.93650031316619",
    "geocoded_column": {
      "latitude": "29.93650031316619",
      "longitude": "-90.07528411523221"
    }
  },
  {
    "service_request": "2025-1235799",
    "request_type": "Trash/Recycling",
    "request_reason": "Order Recycling Cart",
    "date_created": "2025-10-25T14:15:13.000",
    "date_modified": "2025-10-25T14:15:15.000",
    "request_status": "Pending",
    "responsible_agency": "Department of Sanitation",
    "final_address": "2914 St Philip St",
    "address_councildis": "A",
    "status": "Pending",
    "rowid": "1235799",
    "final_x": "3676556.9899",
    "final_y": "538456.503817",
    "longitude": "-90.0834396597598",
    "latitude": "29.974717874615205",
    "geocoded_column": {
      "latitude": "29.974717874615205",
      "longitude": "-90.0834396597598"
    }
  },
  {
    "service_request": "2025-1235798",
    "request_type": "Trash/Recycling",
    "request_reason": "Order Trash Cart",
    "date_created": "2025-10-25T14:11:47.000",
    "date_modified": "2025-10-25T14:11:48.000",
    "request_status": "Pending",
    "responsible_agency": "Department of Sanitation",
    "final_address": "2914 St Philip St",
    "address_councildis": "A",
    "status": "Assigned to Contractor",
    "contractor": "IV Waste",
    "rowid": "1235798",
    "final_x": "3676556.9899",
    "final_y": "538456.503817",
    "longitude": "-90.0834396597598",
    "latitude": "29.974717874615205",
    "geocoded_column": {
      "latitude": "29.974717874615205",
      "longitude": "-90.0834396597598"
    }
  },
  {
    "service_request": "2025-1235797",
    "request_type": "Trash/Recycling",
    "request_reason": "Order Recycling Cart",
    "date_created": "2025-10-25T14:07:53.000",
    "date_modified": "2025-10-25T14:07:54.000",
    "request_status": "Pending",
    "responsible_agency": "Department of Sanitation",
    "final_address": "1808 Cambronne St",
    "address_councildis": "A",
    "status": "Pending",
    "rowid": "1235797",
    "final_x": "3662615.68058",
    "final_y": "530755.063426",
    "longitude": "-90.12772591178795",
    "latitude": "29.953952217145066",
    "geocoded_column": {
      "latitude": "29.953952217145066",
      "longitude": "-90.12772591178795"
    }
  },
  {
    "service_request": "2025-1235796",
    "request_type": "Trash/Recycling",
    "request_reason": "Order Trash Cart",
    "date_created": "2025-10-25T14:05:43.000",
    "date_modified": "2025-10-25T14:05:47.000",
    "request_status": "Pending",
    "responsible_agency": "Department of Sanitation",
    "final_address": "1808 Cambronne St",
    "address_councildis": "A",
    "status": "Assigned to Contractor",
    "contractor": "IV Waste",
    "rowid": "1235796",
    "final_x": "3662615.68058",
    "final_y": "530755.063426",
    "longitude": "-90.12772591178795",
    "latitude": "29.953952217145066",
    "geocoded_column": {
      "latitude": "29.953952217145066",
      "longitude": "-90.12772591178795"
    }
  },
  {
    "service_request": "2025-1235794",
    "request_type": "Abandoned Vehicles",
    "request_reason": "Abandoned/Junk Vehicles",
    "date_created": "2025-10-25T13:46:04.000",
    "date_modified": "2025-10-25T13:46:06.000",
    "request_status": "Pending",
    "responsible_agency": "Department of Public Works",
    "final_address": "2810 Second St",
    "address_councildis": "B",
    "status": "Pending",
    "rowid": "1235794",
    "final_x": "3674261.5074",
    "final_y": "526655.161854",
    "longitude": "-90.09109344677665",
    "latitude": "29.942336779252965",
    "geocoded_column": {
      "latitude": "29.942336779252965",
      "longitude": "-90.09109344677665"
    }
  },
  {
    "service_request": "2025-1235793",
    "request_type": "Trash/Recycling",
    "request_reason": "Return Trash Cart",
    "date_created": "2025-10-25T13:24:12.000",
    "date_modified": "2025-10-25T13:24:14.000",
    "request_status": "Pending",
    "responsible_agency": "Department of Sanitation",
    "final_address": "318 Bermuda St",
    "address_councildis": "C",
    "status": "Assigned to Contractor",
    "contractor": "Richards Disposal",
    "rowid": "1235793",
    "final_x": "3686403.36879",
    "final_y": "530672.317954",
    "longitude": "-90.05261719994384",
    "latitude": "29.953015058792293",
    "geocoded_column": {
      "latitude": "29.953015058792293",
      "longitude": "-90.05261719994384"
    }
  },
  {
    "service_request": "2025-1235792",
    "request_type": "Streetlights",
    "request_reason": "Streetlight Outage/Malfunction",
    "date_created": "2025-10-25T13:02:40.000",
    "date_modified": "2025-10-25T13:02:42.000",
    "request_status": "Pending",
    "responsible_agency": "Department of Public Works",
    "final_address": "3700 BLK Bienville Ave",
    "address_councildis": "B",
    "status": "Pending",
    "rowid": "1235792",
    "final_x": "3672670.36853",
    "final_y": "538110.725732",
    "longitude": "-90.09572639406888",
    "latitude": "29.97388310316899",
    "geocoded_column": {
      "latitude": "29.97388310316899",
      "longitude": "-90.09572639406888"
    }
  },
  {
    "service_request": "2025-1235791",
    "request_type": "Trash/Recycling",
    "request_reason": "Illegal Dumping",
    "date_created": "2025-10-25T12:54:15.000",
    "date_modified": "2025-10-25T12:54:17.000",
    "request_status": "Pending",
    "responsible_agency": "Department of Sanitation",
    "final_address": "3018 Gravier St",
    "address_councildis": "B",
    "status": "Pending",
    "rowid": "1235791",
    "final_x": "3672699.03694",
    "final_y": "533963.501125",
    "longitude": "-90.09577731514628",
    "latitude": "29.962478780547656",
    "geocoded_column": {
      "latitude": "29.962478780547656",
      "longitude": "-90.09577731514628"
    }
  },
  {
    "service_request": "2025-1235790",
    "request_type": "Trash/Recycling",
    "request_reason": "Order Recycling Cart",
    "date_created": "2025-10-25T12:35:54.000",
    "date_modified": "2025-10-25T12:35:57.000",
    "request_status": "Pending",
    "responsible_agency": "Department of Sanitation",
    "final_address": "2702 Annette St",
    "address_councildis": "D",
    "status": "Pending",
    "rowid": "1235790",
    "final_x": "3682633.68143",
    "final_y": "542089.131084",
    "longitude": "-90.06412089965445",
    "latitude": "29.98452266950387",
    "geocoded_column": {
      "latitude": "29.98452266950387",
      "longitude": "-90.06412089965445"
    }
  },
  {
    "service_request": "2025-1235789",
    "request_type": "Trash/Recycling",
    "request_reason": "Order Recycling Cart",
    "date_created": "2025-10-25T12:21:11.000",
    "date_modified": "2025-10-25T12:21:12.000",
    "request_status": "Pending",
    "responsible_agency": "Department of Sanitation",
    "final_address": "2700 Annette St",
    "address_councildis": "D",
    "status": "Pending",
    "rowid": "1235789",
    "final_x": "3682633.81557",
    "final_y": "542079.976332",
    "longitude": "-90.06412079625748",
    "latitude": "29.984497493068304",
    "geocoded_column": {
      "latitude": "29.984497493068304",
      "longitude": "-90.06412079625748"
    }
  },
  {
    "service_request": "2025-1235788",
    "request_type": "Traffic Signals",
    "request_reason": "Traffic Signal Malfunctioning or Damaged",
    "date_created": "2025-10-25T12:05:09.000",
    "date_modified": "2025-10-25T12:05:10.000",
    "request_status": "Pending",
    "responsible_agency": "Department of Public Works",
    "final_address": "1111 Canal St",
    "address_councildis": "C",
    "status": "Pending",
    "rowid": "1235788",
    "final_x": "3679986.71823",
    "final_y": "531707.587395",
    "longitude": "-90.07284220329849",
    "latitude": "29.956057344840524",
    "geocoded_column": {
      "latitude": "29.956057344840524",
      "longitude": "-90.07284220329849"
    }
  },
  {
    "service_request": "2025-1235787",
    "request_type": "Property Maintenance",
    "request_reason": "Property Maintenance",
    "date_created": "2025-10-25T12:02:40.000",
    "date_modified": "2025-10-25T12:02:42.000",
    "request_status": "Pending",
    "responsible_agency": "Department of Code Enforcement",
    "final_address": "8200 Willow St",
    "address_councildis": "A",
    "status": "Pending",
    "rowid": "1235787",
    "final_x": "3662101.86599",
    "final_y": "529136.635328",
    "longitude": "-90.12940203059486",
    "latitude": "29.949516915823203",
    "geocoded_column": {
      "latitude": "29.949516915823203",
      "longitude": "-90.12940203059486"
    }
  },
  {
    "service_request": "2025-1235786",
    "request_type": "Trash/Recycling",
    "request_reason": "Order Recycling Cart",
    "date_created": "2025-10-25T11:49:40.000",
    "date_modified": "2025-10-25T11:49:42.000",
    "request_status": "Pending",
    "responsible_agency": "Department of Sanitation",
    "final_address": "1822 S Rendon St",
    "address_councildis": "B",
    "status": "Pending",
    "rowid": "1235786",
    "final_x": "3669468.3323",
    "final_y": "530394.165506",
    "longitude": "-90.10610018198294",
    "latitude": "29.952759833904608",
    "geocoded_column": {
      "latitude": "29.952759833904608",
      "longitude": "-90.10610018198294"
    }
  },
  {
    "service_request": "2025-1235785",
    "request_type": "Trash/Recycling",
    "request_reason": "Request a Large Item Pick Up",
    "date_created": "2025-10-25T11:02:58.000",
    "date_modified": "2025-10-25T11:02:59.000",
    "request_status": "Pending",
    "responsible_agency": "Department of Sanitation",
    "final_address": "749 S Genois St",
    "address_councildis": "B",
    "status": "Assigned to Contractor",
    "contractor": "IV Waste",
    "rowid": "1235785",
    "final_x": "3670881.31438",
    "final_y": "535010.131846",
    "longitude": "-90.10148191227124",
    "latitude": "29.96541052252787",
    "geocoded_column": {
      "latitude": "29.96541052252787",
      "longitude": "-90.10148191227124"
    }
  },
  {
    "service_request": "2025-1235784",
    "request_type": "Roads and Streets",
    "request_reason": "Pothole",
    "date_created": "2025-10-25T10:52:27.000",
    "date_modified": "2025-10-25T10:52:29.000",
    "request_status": "Pending",
    "responsible_agency": "Department of Public Works",
    "final_address": "1325 Feliciana St",
    "address_councildis": "C",
    "status": "Pending",
    "rowid": "1235784",
    "final_x": "3688995.74095",
    "final_y": "537000.439048",
    "longitude": "-90.04420684973056",
    "latitude": "29.970335264399914",
    "geocoded_column": {
      "latitude": "29.970335264399914",
      "longitude": "-90.04420684973056"
    }
  },
  {
    "service_request": "2025-1235783",
    "request_type": "Streetlights",
    "request_reason": "Streetlight Outage/Malfunction",
    "date_created": "2025-10-25T10:45:00.000",
    "date_modified": "2025-10-25T10:45:02.000",
    "request_status": "Pending",
    "responsible_agency": "Department of Public Works",
    "final_address": "538 Topaz St",
    "address_councildis": "D",
    "status": "Pending",
    "rowid": "1235783",
    "final_x": "3668658.29031",
    "final_y": "556467.854042",
    "longitude": "-90.10777737322118",
    "latitude": "30.024477395049047",
    "geocoded_column": {
      "latitude": "30.024477395049047",
      "longitude": "-90.10777737322118"
    }
  },
  {
    "service_request": "2025-1235782",
    "request_type": "Streetlights",
    "request_reason": "Streetlight Outage/Malfunction",
    "date_created": "2025-10-25T10:43:41.000",
    "date_modified": "2025-10-25T10:43:43.000",
    "request_status": "Pending",
    "responsible_agency": "Department of Public Works",
    "final_address": "525 Crystal St",
    "address_councildis": "D",
    "status": "Pending",
    "rowid": "1235782",
    "final_x": "3668574.93498",
    "final_y": "556362.303066",
    "longitude": "-90.10804432871913",
    "latitude": "30.02418961868286",
    "geocoded_column": {
      "latitude": "30.02418961868286",
      "longitude": "-90.10804432871913"
    }
  },
  {
    "service_request": "2025-1235781",
    "request_type": "Trash/Recycling",
    "request_reason": "Request a Large Item Pick Up",
    "date_created": "2025-10-25T10:41:14.000",
    "date_modified": "2025-10-25T10:41:16.000",
    "request_status": "Pending",
    "responsible_agency": "Department of Sanitation",
    "final_address": "1715 Feliciana St",
    "address_councildis": "D",
    "status": "Assigned to Contractor",
    "contractor": "IV Waste",
    "rowid": "1235781",
    "final_x": "3689355.52521",
    "final_y": "538403.363337",
    "longitude": "-90.04302072308025",
    "latitude": "29.974181677183395",
    "geocoded_column": {
      "latitude": "29.974181677183395",
      "longitude": "-90.04302072308025"
    }
  },
  {
    "service_request": "2025-1235780",
    "request_type": "Trash/Recycling",
    "request_reason": "Request a Large Item Pick Up",
    "date_created": "2025-10-25T10:20:44.000",
    "date_modified": "2025-10-25T10:20:46.000",
    "request_status": "Pending",
    "responsible_agency": "Department of Sanitation",
    "final_address": "6479 Louisville St",
    "address_councildis": "A",
    "status": "Assigned to Contractor",
    "contractor": "IV Waste",
    "rowid": "1235780",
    "final_x": "3668141.58772",
    "final_y": "550659.093524",
    "longitude": "-90.10960609107934",
    "latitude": "30.00852054004306",
    "geocoded_column": {
      "latitude": "30.00852054004306",
      "longitude": "-90.10960609107934"
    }
  },
  {
    "service_request": "2025-1235779",
    "request_type": "General Services",
    "request_reason": "General Service Request",
    "date_created": "2025-10-25T09:56:00.000",
    "date_modified": "2025-10-25T09:56:12.000",
    "request_status": "Pending",
    "responsible_agency": "Orleans Parish Communication District",
    "final_address": "7904 St Charles Ave Apt R6",
    "address_councildis": "A",
    "status": "Pending",
    "rowid": "1235779",
    "final_x": "3661024.13094",
    "final_y": "526277.861182",
    "longitude": "-90.13289950942824",
    "latitude": "29.941687290378585",
    "geocoded_column": {
      "latitude": "29.941687290378585",
      "longitude": "-90.13289950942824"
    }
  },
  {
    "service_request": "2025-1235778",
    "request_type": "Trash/Recycling",
    "request_reason": "Request a Large Item Pick Up",
    "date_created": "2025-10-25T09:46:30.000",
    "date_modified": "2025-10-25T09:46:32.000",
    "request_status": "Pending",
    "responsible_agency": "Department of Sanitation",
    "final_address": "1637 Seventh St",
    "address_councildis": "B",
    "status": "Assigned to Contractor",
    "contractor": "IV Waste",
    "rowid": "1235778",
    "final_x": "3675086.31835",
    "final_y": "522376.093562",
    "longitude": "-90.08863608639302",
    "latitude": "29.930546125664993",
    "geocoded_column": {
      "latitude": "29.930546125664993",
      "longitude": "-90.08863608639302"
    }
  },
  {
    "service_request": "2025-1235777",
    "request_type": "Trash/Recycling",
    "request_reason": "Request a Large Item Pick Up",
    "date_created": "2025-10-25T09:45:32.000",
    "date_modified": "2025-10-25T09:45:34.000",
    "request_status": "Pending",
    "responsible_agency": "Department of Sanitation",
    "final_address": "3520 Palmyra St",
    "address_councildis": "B",
    "status": "Assigned to Contractor",
    "contractor": "IV Waste",
    "rowid": "1235777",
    "final_x": "3672205.76577",
    "final_y": "536444.419719",
    "longitude": "-90.09725048601813",
    "latitude": "29.96931511421506",
    "geocoded_column": {
      "latitude": "29.96931511421506",
      "longitude": "-90.09725048601813"
    }
  },
  {
    "service_request": "2025-1235776",
    "request_type": "Drainage",
    "request_reason": "Catch Basin Not Draining",
    "date_created": "2025-10-25T09:42:50.000",
    "date_modified": "2025-10-25T09:42:52.000",
    "request_status": "Pending",
    "responsible_agency": "Sewerage & Water Board",
    "final_address": "601 Congress St",
    "address_councildis": "C",
    "status": "Pending",
    "rowid": "1235776",
    "final_x": "3690301.23337",
    "final_y": "533745.181701",
    "longitude": "-90.04019999524186",
    "latitude": "29.96134399784388",
    "geocoded_column": {
      "latitude": "29.96134399784388",
      "longitude": "-90.04019999524186"
    }
  },
  {
    "service_request": "2025-1235775",
    "request_type": "Roads and Streets",
    "request_reason": "Street Subsidence (Sinking)",
    "date_created": "2025-10-25T09:33:28.000",
    "date_modified": "2025-10-25T09:33:30.000",
    "request_status": "Pending",
    "responsible_agency": "Sewerage & Water Board",
    "final_address": "220 Topaz St",
    "address_councildis": "D",
    "status": "Pending",
    "rowid": "1235775",
    "final_x": "3667312.50516",
    "final_y": "556305.303514",
    "longitude": "-90.11203530720402",
    "latitude": "30.024069948838516",
    "geocoded_column": {
      "latitude": "30.024069948838516",
      "longitude": "-90.11203530720402"
    }
  },
  {
    "service_request": "2025-1235774",
    "request_type": "Trash/Recycling",
    "request_reason": "Request a Large Item Pick Up",
    "date_created": "2025-10-25T09:23:33.000",
    "date_modified": "2025-10-25T09:23:35.000",
    "request_status": "Pending",
    "responsible_agency": "Department of Sanitation",
    "final_address": "13701 N Lemans St",
    "address_councildis": "E",
    "status": "Assigned to Contractor",
    "contractor": "Waste Pro",
    "rowid": "1235774",
    "final_x": "3726491.63552",
    "final_y": "563617.842145",
    "longitude": "-89.92475914794163",
    "latitude": "30.042309287252316",
    "geocoded_column": {
      "latitude": "30.042309287252316",
      "longitude": "-89.92475914794163"
    }
  },
  {
    "service_request": "2025-1235773",
    "request_type": "Streetlights",
    "request_reason": "Streetlight Outage/Malfunction",
    "date_created": "2025-10-25T08:24:42.000",
    "date_modified": "2025-10-25T08:24:45.000",
    "request_status": "Pending",
    "responsible_agency": "Department of Public Works",
    "final_address": "2424 Marengo St",
    "address_councildis": "B",
    "status": "Pending",
    "rowid": "1235773",
    "final_x": "3671602.6955",
    "final_y": "524005.061756",
    "longitude": "-90.09957801885793",
    "latitude": "29.93512885559905",
    "geocoded_column": {
      "latitude": "29.93512885559905",
      "longitude": "-90.09957801885793"
    }
  },
  {
    "service_request": "2025-1235772",
    "request_type": "Streetlights",
    "request_reason": "Streetlight Outage/Malfunction",
    "date_created": "2025-10-25T07:36:30.000",
    "date_modified": "2025-10-25T07:36:32.000",
    "request_status": "Pending",
    "responsible_agency": "Department of Public Works",
    "final_address": "WOODLAND BRIDGE & WOODLAND HWY",
    "address_councildis": "C",
    "status": "Pending",
    "rowid": "1235772",
    "final_x": "3710002.1",
    "final_y": "513116.08",
    "longitude": "-89.97875879866287",
    "latitude": "29.90399525116702",
    "geocoded_column": {
      "latitude": "29.90399525116702",
      "longitude": "-89.97875879866287"
    }
  },
  {
    "service_request": "2025-1235771",
    "request_type": "Roads and Streets",
    "request_reason": "Street Subsidence (Sinking)",
    "date_created": "2025-10-25T07:27:50.000",
    "date_modified": "2025-10-25T07:27:52.000",
    "request_status": "Pending",
    "responsible_agency": "Sewerage & Water Board",
    "final_address": "625 English Turn Dr",
    "address_councildis": "C",
    "status": "Pending",
    "rowid": "1235771",
    "final_x": "3715382.65714",
    "final_y": "515809.215668",
    "longitude": "-89.96167614840944",
    "latitude": "29.911224433386455",
    "geocoded_column": {
      "latitude": "29.911224433386455",
      "longitude": "-89.96167614840944"
    }
  },
  {
    "service_request": "2025-1235770",
    "request_type": "Parks & Parkways",
    "request_reason": "Park Maintenance/Clean Up",
    "date_created": "2025-10-25T00:37:00.000",
    "date_modified": "2025-10-25T00:37:02.000",
    "request_status": "Pending",
    "responsible_agency": "Department of Parks & Parkway",
    "final_address": "2420 State St",
    "address_councildis": "A",
    "status": "Pending",
    "rowid": "1235770",
    "final_x": "3666693.32218",
    "final_y": "525595.357373",
    "longitude": "-90.11502356564236",
    "latitude": "29.93964609543363",
    "geocoded_column": {
      "latitude": "29.93964609543363",
      "longitude": "-90.11502356564236"
    }
  },
  {
    "service_request": "2025-1235769",
    "request_type": "Property Maintenance",
    "request_reason": "Property Maintenance",
    "date_created": "2025-10-24T22:26:53.000",
    "date_modified": "2025-10-24T22:26:54.000",
    "request_status": "Pending",
    "responsible_agency": "Department of Code Enforcement",
    "final_address": "3200 Canal St",
    "address_councildis": "B",
    "status": "Pending",
    "rowid": "1235769",
    "final_x": "3673677.72577",
    "final_y": "536249.897863",
    "longitude": "-90.09260856679315",
    "latitude": "29.968736501266164",
    "geocoded_column": {
      "latitude": "29.968736501266164",
      "longitude": "-90.09260856679315"
    }
  },
  {
    "service_request": "2025-1235768",
    "request_type": "Abandoned Vehicles",
    "request_reason": "Abandoned/Junk Vehicles",
    "date_created": "2025-10-24T22:23:37.000",
    "date_modified": "2025-10-24T22:23:39.000",
    "request_status": "Pending",
    "responsible_agency": "Department of Public Works",
    "final_address": "3534 Upperline St A",
    "address_councildis": "B",
    "status": "Pending",
    "rowid": "1235768",
    "final_x": "3669251.04711",
    "final_y": "527989.154047",
    "longitude": "-90.10686755657366",
    "latitude": "29.946153235318885",
    "geocoded_column": {
      "latitude": "29.946153235318885",
      "longitude": "-90.10686755657366"
    }
  },
  {
    "service_request": "2025-1235767",
    "request_type": "Health Related Request",
    "request_reason": "Noise Ordinance Complaint",
    "date_created": "2025-10-24T22:18:23.000",
    "date_modified": "2025-10-24T22:18:25.000",
    "request_status": "Pending",
    "responsible_agency": "Health Department",
    "final_address": "900 Toulouse st",
    "status": "Pending",
    "rowid": "1235767",
    "longitude": "0.0",
    "latitude": "0.0",
    "geocoded_column": {
      "latitude": "0.0",
      "longitude": "0.0"
    }
  },
  {
    "service_request": "2025-1235766",
    "request_type": "Roads and Streets",
    "request_reason": "Abandoned Service Cut",
    "date_created": "2025-10-24T22:17:24.000",
    "date_modified": "2025-10-24T22:17:26.000",
    "request_status": "Pending",
    "responsible_agency": "Department of Public Works",
    "final_address": "3123 Royal St",
    "address_councildis": "C",
    "status": "Pending",
    "rowid": "1235766",
    "final_x": "3688826.26998",
    "final_y": "534487.408837",
    "longitude": "-90.04483130135513",
    "latitude": "29.96343055159097",
    "geocoded_column": {
      "latitude": "29.96343055159097",
      "longitude": "-90.04483130135513"
    }
  },
  {
    "service_request": "2025-1235765",
    "request_type": "Abandoned Vehicles",
    "request_reason": "Abandoned/Junk Vehicles",
    "date_created": "2025-10-24T20:51:48.000",
    "date_modified": "2025-10-24T20:51:51.000",
    "request_status": "Pending",
    "responsible_agency": "Department of Public Works",
    "final_address": "613 S Pierce St",
    "address_councildis": "A",
    "status": "Pending",
    "rowid": "1235765",
    "final_x": "3670176.38561",
    "final_y": "536392.674375",
    "longitude": "-90.10366119631763",
    "latitude": "29.969232871547995",
    "geocoded_column": {
      "latitude": "29.969232871547995",
      "longitude": "-90.10366119631763"
    }
  },
  {
    "service_request": "2025-1235764",
    "request_type": "Property Maintenance",
    "request_reason": "Property Maintenance",
    "date_created": "2025-10-24T20:08:23.000",
    "date_modified": "2025-10-24T20:08:25.000",
    "request_status": "Pending",
    "responsible_agency": "Department of Code Enforcement",
    "final_address": "4516 S Robertson St",
    "address_councildis": "B",
    "status": "Pending",
    "rowid": "1235764",
    "final_x": "3669948.49806",
    "final_y": "524303.036476",
    "longitude": "-90.10479024132798",
    "latitude": "29.935997061313838",
    "geocoded_column": {
      "latitude": "29.935997061313838",
      "longitude": "-90.10479024132798"
    }
  },
  {
    "service_request": "2025-1235763",
    "request_type": "Safety & Permits",
    "request_reason": "Zoning Enforcement",
    "date_created": "2025-10-24T19:17:17.000",
    "date_modified": "2025-10-24T19:17:18.000",
    "request_status": "Pending",
    "responsible_agency": "Safety and Permits",
    "final_address": "3117 Palmyra St",
    "address_councildis": "B",
    "status": "Pending",
    "rowid": "1235763",
    "final_x": "3673497.58888",
    "final_y": "535560.928902",
    "longitude": "-90.09320099922218",
    "latitude": "29.96684743104238",
    "geocoded_column": {
      "latitude": "29.96684743104238",
      "longitude": "-90.09320099922218"
    }
  },
  {
    "service_request": "2025-1235762",
    "request_type": "Streetlights",
    "request_reason": "Streetlight Outage/Malfunction",
    "date_created": "2025-10-24T19:10:54.000",
    "date_modified": "2025-10-24T19:10:58.000",
    "request_status": "Pending",
    "responsible_agency": "Department of Public Works",
    "final_address": "1905 Wickfield Dr",
    "address_councildis": "D",
    "status": "Pending",
    "rowid": "1235762",
    "final_x": "3681141.45883",
    "final_y": "551491.753557",
    "longitude": "-90.06850634220615",
    "latitude": "30.01042190162428",
    "geocoded_column": {
      "latitude": "30.01042190162428",
      "longitude": "-90.06850634220615"
    }
  },
  {
    "service_request": "2025-1235761",
    "request_type": "Trash/Recycling",
    "request_reason": "Missed Trash Pick-Up",
    "date_created": "2025-10-24T18:46:31.000",
    "date_modified": "2025-10-25T11:53:35.000",
    "case_close_date": "2025-10-25T06:53:35.000",
    "request_status": "Closed",
    "responsible_agency": "Department of Sanitation",
    "final_address": "3825 Jena St",
    "address_councildis": "B",
    "status": "Invalid Request",
    "contractor": "IV Waste",
    "contractor_action": "Invalid Request",
    "rowid": "1235761",
    "final_x": "3669705.10234",
    "final_y": "528661.846272",
    "longitude": "-90.10541118311178",
    "latitude": "29.94798954821877",
    "geocoded_column": {
      "latitude": "29.94798954821877",
      "longitude": "-90.10541118311178"
    }
  },
  {
    "service_request": "2025-1235760",
    "request_type": "Healthy Homes",
    "request_reason": "Healthy Homes",
    "date_created": "2025-10-24T18:41:42.000",
    "date_modified": "2025-10-24T18:41:45.000",
    "request_status": "Pending",
    "responsible_agency": "Department of Code Enforcement",
    "final_address": "1479 N Miro St",
    "address_councildis": "D",
    "status": "Pending",
    "rowid": "1235760",
    "final_x": "3679965.21231",
    "final_y": "538461.420105",
    "longitude": "-90.07267547899745",
    "latitude": "29.974628727997985",
    "geocoded_column": {
      "latitude": "29.974628727997985",
      "longitude": "-90.07267547899745"
    }
  },
  {
    "service_request": "2025-1235759",
    "request_type": "Abandoned Vehicles",
    "request_reason": "Abandoned/Junk Vehicles",
    "date_created": "2025-10-24T18:28:52.000",
    "date_modified": "2025-10-24T18:28:54.000",
    "request_status": "Pending",
    "responsible_agency": "Department of Public Works",
    "final_address": "1017 Valence St",
    "address_councildis": "B",
    "status": "Pending",
    "rowid": "1235759",
    "final_x": "3669945.82273",
    "final_y": "519207.871543",
    "longitude": "-90.10497112769677",
    "latitude": "29.92198706555784",
    "geocoded_column": {
      "latitude": "29.92198706555784",
      "longitude": "-90.10497112769677"
    }
  },
  {
    "service_request": "2025-1235758",
    "request_type": "Trash/Recycling",
    "request_reason": "Missed Trash Pick-Up",
    "date_created": "2025-10-24T17:57:16.000",
    "date_modified": "2025-10-24T17:57:19.000",
    "request_status": "Pending",
    "responsible_agency": "Department of Sanitation",
    "final_address": "50 Martin Dr",
    "address_councildis": "E",
    "status": "Assigned to Contractor",
    "contractor": "Waste Pro",
    "rowid": "1235758",
    "final_x": "3697911.66007",
    "final_y": "561049.822942",
    "longitude": "-90.01517584372164",
    "latitude": "30.036183286871285",
    "geocoded_column": {
      "latitude": "30.036183286871285",
      "longitude": "-90.01517584372164"
    }
  },
  {
    "service_request": "2025-1235757",
    "request_type": "Abandoned Vehicles",
    "request_reason": "Abandoned/Junk Vehicles",
    "date_created": "2025-10-24T17:35:28.000",
    "date_modified": "2025-10-24T17:35:31.000",
    "request_status": "Pending",
    "responsible_agency": "Department of Public Works",
    "final_address": "0 BLK Across St",
    "address_councildis": "E",
    "status": "Pending",
    "rowid": "1235757",
    "final_x": "3711887.63918",
    "final_y": "553972.247814",
    "longitude": "-89.97127534652184",
    "latitude": "30.01627326470007",
    "geocoded_column": {
      "latitude": "30.01627326470007",
      "longitude": "-89.97127534652184"
    }
  },
  {
    "service_request": "2025-1235756",
    "request_type": "Trash/Recycling",
    "request_reason": "Request a Large Item Pick Up",
    "date_created": "2025-10-24T17:28:51.000",
    "date_modified": "2025-10-24T17:28:53.000",
    "request_status": "Pending",
    "responsible_agency": "Department of Sanitation",
    "final_address": "801 Navarre St",
    "address_councildis": "A",
    "status": "Assigned to Contractor",
    "contractor": "IV Waste",
    "rowid": "1235756",
    "final_x": "3668735.98862",
    "final_y": "543875.12987",
    "longitude": "-90.10795738757884",
    "latitude": "29.98984951978325",
    "geocoded_column": {
      "latitude": "29.98984951978325",
      "longitude": "-90.10795738757884"
    }
  },
  {
    "service_request": "2025-1235755",
    "request_type": "Trash/Recycling",
    "request_reason": "Order Recycling Cart",
    "date_created": "2025-10-24T16:51:12.000",
    "date_modified": "2025-10-24T16:51:14.000",
    "request_status": "Pending",
    "responsible_agency": "Department of Sanitation",
    "final_address": "1723 Nie Prkwy",
    "address_councildis": "C",
    "status": "Pending",
    "rowid": "1235755",
    "final_x": "3701147.1201",
    "final_y": "524454.590076",
    "longitude": "-90.00629059023235",
    "latitude": "29.935457135121954",
    "geocoded_column": {
      "latitude": "29.935457135121954",
      "longitude": "-90.00629059023235"
    }
  },
  {
    "service_request": "2025-1235754",
    "request_type": "Trash/Recycling",
    "request_reason": "Order Recycling Cart",
    "date_created": "2025-10-24T16:51:12.000",
    "date_modified": "2025-10-24T16:51:14.000",
    "request_status": "Pending",
    "responsible_agency": "Department of Sanitation",
    "final_address": "1723 Nie Prkwy",
    "address_councildis": "C",
    "status": "Pending",
    "rowid": "1235754",
    "final_x": "3701147.1201",
    "final_y": "524454.590076",
    "longitude": "-90.00629059023235",
    "latitude": "29.935457135121954",
    "geocoded_column": {
      "latitude": "29.935457135121954",
      "longitude": "-90.00629059023235"
    }
  },
  {
    "service_request": "2025-1235753",
    "request_type": "Trash/Recycling",
    "request_reason": "Request a Large Item Pick Up",
    "date_created": "2025-10-24T16:45:32.000",
    "date_modified": "2025-10-24T16:45:35.000",
    "request_status": "Pending",
    "responsible_agency": "Department of Sanitation",
    "final_address": "1209 Charbonnet St",
    "address_councildis": "E",
    "status": "Assigned to Contractor",
    "contractor": "Waste Pro",
    "rowid": "1235753",
    "final_x": "3698791.80996",
    "final_y": "534109.939845",
    "longitude": "-90.01337513447697",
    "latitude": "29.962080749245455",
    "geocoded_column": {
      "latitude": "29.962080749245455",
      "longitude": "-90.01337513447697"
    }
  },
  {
    "service_request": "2025-1235752",
    "request_type": "Safety & Permits",
    "request_reason": "Zoning Enforcement",
    "date_created": "2025-10-24T16:39:12.000",
    "date_modified": "2025-10-24T16:39:14.000",
    "request_status": "Pending",
    "responsible_agency": "Safety and Permits",
    "final_address": "1600 BLK Red Allen Way",
    "address_councildis": "C",
    "status": "Pending",
    "rowid": "1235752",
    "final_x": "3690384.1753",
    "final_y": "528619.730934",
    "longitude": "-90.04012074926631",
    "latitude": "29.947248208340316",
    "geocoded_column": {
      "latitude": "29.947248208340316",
      "longitude": "-90.04012074926631"
    }
  },
  {
    "service_request": "2025-1235751",
    "request_type": "Trash/Recycling",
    "request_reason": "Replace Trash Cart",
    "date_created": "2025-10-24T16:36:58.000",
    "date_modified": "2025-10-24T16:37:00.000",
    "request_status": "Pending",
    "responsible_agency": "Department of Sanitation",
    "final_address": "4839 Laurel St",
    "address_councildis": "B",
    "status": "Assigned to Contractor",
    "contractor": "IV Waste",
    "rowid": "1235751",
    "final_x": "3669351.57812",
    "final_y": "517906.519222",
    "longitude": "-90.10689088172033",
    "latitude": "29.918426261213213",
    "geocoded_column": {
      "latitude": "29.918426261213213",
      "longitude": "-90.10689088172033"
    }
  },
  {
    "service_request": "2025-1235750",
    "request_type": "Trash/Recycling",
    "request_reason": "Request a Large Item Pick Up",
    "date_created": "2025-10-24T16:33:57.000",
    "date_modified": "2025-10-24T16:33:59.000",
    "request_status": "Pending",
    "responsible_agency": "Department of Sanitation",
    "final_address": "2240 Constance St",
    "address_councildis": "B",
    "status": "Assigned to Contractor",
    "contractor": "IV Waste",
    "rowid": "1235750",
    "final_x": "3678820.38856",
    "final_y": "521536.293305",
    "longitude": "-90.07687725347672",
    "latitude": "29.928124888596415",
    "geocoded_column": {
      "latitude": "29.928124888596415",
      "longitude": "-90.07687725347672"
    }
  },
  {
    "service_request": "2025-1235749",
    "request_type": "Trash/Recycling",
    "request_reason": "Request a Large Item Pick Up",
    "date_created": "2025-10-24T16:30:40.000",
    "date_modified": "2025-10-24T16:30:42.000",
    "request_status": "Pending",
    "responsible_agency": "Department of Sanitation",
    "final_address": "1019 Lizardi St",
    "address_councildis": "E",
    "status": "Assigned to Contractor",
    "contractor": "Waste Pro",
    "rowid": "1235749",
    "final_x": "3696508.88503",
    "final_y": "533844.651269",
    "longitude": "-90.02059382408562",
    "latitude": "29.96142341343651",
    "geocoded_column": {
      "latitude": "29.96142341343651",
      "longitude": "-90.02059382408562"
    }
  },
  {
    "service_request": "2025-1235748",
    "request_type": "Trash/Recycling",
    "request_reason": "Request a Large Item Pick Up",
    "date_created": "2025-10-24T16:29:48.000",
    "date_modified": "2025-10-24T16:29:51.000",
    "request_status": "Pending",
    "responsible_agency": "Department of Sanitation",
    "final_address": "1016 Andry St",
    "address_councildis": "E",
    "status": "Assigned to Contractor",
    "contractor": "Waste Pro",
    "rowid": "1235748",
    "final_x": "3697049.68611",
    "final_y": "533684.961605",
    "longitude": "-90.01889186171415",
    "latitude": "29.960967276293374",
    "geocoded_column": {
      "latitude": "29.960967276293374",
      "longitude": "-90.01889186171415"
    }
  },
  {
    "service_request": "2025-1235747",
    "request_type": "General Services",
    "request_reason": "General Service Request",
    "date_created": "2025-10-24T16:25:44.000",
    "date_modified": "2025-10-24T16:25:45.000",
    "request_status": "Pending",
    "responsible_agency": "Orleans Parish Communication District",
    "final_address": "5300 BLK Press Dr",
    "address_councildis": "D",
    "status": "Pending",
    "rowid": "1235747",
    "final_x": "3689317.35656",
    "final_y": "552873.132886",
    "longitude": "-90.04262650367794",
    "latitude": "30.013969499329843",
    "geocoded_column": {
      "latitude": "30.013969499329843",
      "longitude": "-90.04262650367794"
    }
  },
  {
    "service_request": "2025-1235746",
    "request_type": "Streetlights",
    "request_reason": "Streetlight Outage/Malfunction",
    "date_created": "2025-10-24T16:22:25.000",
    "date_modified": "2025-10-24T16:22:26.000",
    "request_status": "Pending",
    "responsible_agency": "Department of Public Works",
    "final_address": "2419 Felicity St",
    "address_councildis": "B",
    "status": "Pending",
    "rowid": "1235746",
    "final_x": "3676056.51272",
    "final_y": "527053.573054",
    "longitude": "-90.08541250890924",
    "latitude": "29.943378647534466",
    "geocoded_column": {
      "latitude": "29.943378647534466",
      "longitude": "-90.08541250890924"
    }
  },
  {
    "service_request": "2025-1235745",
    "request_type": "Trash/Recycling",
    "request_reason": "Request a Large Item Pick Up",
    "date_created": "2025-10-24T16:17:29.000",
    "date_modified": "2025-10-24T16:17:31.000",
    "request_status": "Pending",
    "responsible_agency": "Department of Sanitation",
    "final_address": "7081 Whitmore Pl",
    "address_councildis": "E",
    "status": "Assigned to Contractor",
    "contractor": "Waste Pro",
    "rowid": "1235745",
    "final_x": "3718892.52869",
    "final_y": "569498.070694",
    "longitude": "-89.94855038926539",
    "latitude": "30.05873215845026",
    "geocoded_column": {
      "latitude": "30.05873215845026",
      "longitude": "-89.94855038926539"
    }
  },
  {
    "service_request": "2025-1235744",
    "request_type": "Trash/Recycling",
    "request_reason": "Request a Large Item Pick Up",
    "date_created": "2025-10-24T16:08:55.000",
    "date_modified": "2025-10-24T16:08:57.000",
    "request_status": "Pending",
    "responsible_agency": "Department of Sanitation",
    "final_address": "1725 Robert C. Blakes, Sr. Dr",
    "address_councildis": "B",
    "status": "Assigned to Contractor",
    "contractor": "IV Waste",
    "rowid": "1235744",
    "final_x": "3678335.1357",
    "final_y": "525105.871165",
    "longitude": "-90.07828566441945",
    "latitude": "29.93795467871141",
    "geocoded_column": {
      "latitude": "29.93795467871141",
      "longitude": "-90.07828566441945"
    }
  },
  {
    "service_request": "2025-1235742",
    "request_type": "Roads and Streets",
    "request_reason": "Sidewalk Damaged or Missing",
    "date_created": "2025-10-24T16:04:03.000",
    "date_modified": "2025-10-24T16:04:05.000",
    "request_status": "Pending",
    "responsible_agency": "Department of Public Works",
    "final_address": "1614 Simon Bolivar Ave",
    "address_councildis": "B",
    "status": "Pending",
    "rowid": "1235742",
    "final_x": "3677135.02856",
    "final_y": "526306.382654",
    "longitude": "-90.0820331175139",
    "latitude": "29.941291779238668",
    "geocoded_column": {
      "latitude": "29.941291779238668",
      "longitude": "-90.0820331175139"
    }
  },
  {
    "service_request": "2025-1235741",
    "request_type": "Mosquito, Termite & Rodent Control",
    "request_reason": "Rodent Complaint (Mice & Rats)",
    "date_created": "2025-10-24T16:02:26.000",
    "date_modified": "2025-10-24T16:02:27.000",
    "request_status": "Pending",
    "responsible_agency": "Mosquito, Termite & Rodent Control Board",
    "final_address": "1614 Simon Bolivar Ave",
    "address_councildis": "B",
    "status": "Pending",
    "rowid": "1235741",
    "final_x": "3677135.02856",
    "final_y": "526306.382654",
    "longitude": "-90.0820331175139",
    "latitude": "29.941291779238668",
    "geocoded_column": {
      "latitude": "29.941291779238668",
      "longitude": "-90.0820331175139"
    }
  },
  {
    "service_request": "2025-1235740",
    "request_type": "Trash/Recycling",
    "request_reason": "Request a Large Item Pick Up",
    "date_created": "2025-10-24T16:00:44.000",
    "date_modified": "2025-10-24T16:00:47.000",
    "request_status": "Pending",
    "responsible_agency": "Department of Sanitation",
    "final_address": "1941 Marigny St",
    "address_councildis": "D",
    "status": "Assigned to Contractor",
    "contractor": "IV Waste",
    "rowid": "1235740",
    "final_x": "3685198.60047",
    "final_y": "539623.03745",
    "longitude": "-90.05610629173594",
    "latitude": "29.977663411579922",
    "geocoded_column": {
      "latitude": "29.977663411579922",
      "longitude": "-90.05610629173594"
    }
  },
  {
    "service_request": "2025-1235739",
    "request_type": "Trash/Recycling",
    "request_reason": "Request a Large Item Pick Up",
    "date_created": "2025-10-24T15:59:45.000",
    "date_modified": "2025-10-24T15:59:46.000",
    "request_status": "Pending",
    "responsible_agency": "Department of Sanitation",
    "final_address": "4615 Painters St",
    "address_councildis": "D",
    "status": "Assigned to Contractor",
    "contractor": "IV Waste",
    "rowid": "1235739",
    "final_x": "3686356.42255",
    "final_y": "549761.84546",
    "longitude": "-90.0520914449711",
    "latitude": "30.005505970927153",
    "geocoded_column": {
      "latitude": "30.005505970927153",
      "longitude": "-90.0520914449711"
    }
  },
  {
    "service_request": "2025-1235738",
    "request_type": "Safety & Permits",
    "request_reason": "Licenses & Permits",
    "date_created": "2025-10-24T15:52:34.000",
    "date_modified": "2025-10-24T15:52:36.000",
    "request_status": "Pending",
    "responsible_agency": "Safety and Permits",
    "final_address": "2235 Poydras St Ste A",
    "address_councildis": "B",
    "status": "Pending",
    "rowid": "1235738",
    "final_x": "3674853.30203",
    "final_y": "531992.290755",
    "longitude": "-90.08904203323482",
    "latitude": "29.956994460615146",
    "geocoded_column": {
      "latitude": "29.956994460615146",
      "longitude": "-90.08904203323482"
    }
  },
  {
    "service_request": "2025-1235737",
    "request_type": "Trash/Recycling",
    "request_reason": "Missed Trash Pick-Up",
    "date_created": "2025-10-24T15:51:24.000",
    "date_modified": "2025-10-24T15:51:26.000",
    "request_status": "Pending",
    "responsible_agency": "Department of Sanitation",
    "final_address": "4708 Lafon Dr",
    "address_councildis": "E",
    "status": "Assigned to Contractor",
    "contractor": "Waste Pro",
    "rowid": "1235737",
    "final_x": "3701097.90634",
    "final_y": "553967.754456",
    "longitude": "-90.00536613232342",
    "latitude": "30.016609156535495",
    "geocoded_column": {
      "latitude": "30.016609156535495",
      "longitude": "-90.00536613232342"
    }
  },
  {
    "service_request": "2025-1235736",
    "request_type": "Traffic Signals",
    "request_reason": "Traffic Signal Malfunctioning or Damaged",
    "date_created": "2025-10-24T15:35:42.000",
    "date_modified": "2025-10-24T15:35:44.000",
    "request_status": "Pending",
    "responsible_agency": "Department of Public Works",
    "final_address": "511 Marigny St",
    "address_councildis": "C",
    "status": "Pending",
    "rowid": "1235736",
    "final_x": "3685612.26338",
    "final_y": "534293.513669",
    "longitude": "-90.05498759507746",
    "latitude": "29.962996392583978",
    "geocoded_column": {
      "latitude": "29.962996392583978",
      "longitude": "-90.05498759507746"
    }
  },
  {
    "service_request": "2025-1235735",
    "request_type": "Abandoned Vehicles",
    "request_reason": "Abandoned/Junk Vehicles",
    "date_created": "2025-10-24T15:32:10.000",
    "date_modified": "2025-10-24T15:32:12.000",
    "request_status": "Pending",
    "responsible_agency": "Department of Public Works",
    "final_address": "1400 Leda St",
    "address_councildis": "A",
    "status": "Pending",
    "rowid": "1235735",
    "final_x": "3675569.94357",
    "final_y": "541136.142796",
    "longitude": "-90.08646490905033",
    "latitude": "29.982115530310722",
    "geocoded_column": {
      "latitude": "29.982115530310722",
      "longitude": "-90.08646490905033"
    }
  },
  {
    "service_request": "2025-1235734",
    "request_type": "Trash/Recycling",
    "request_reason": "Request a Large Item Pick Up",
    "date_created": "2025-10-24T15:25:22.000",
    "date_modified": "2025-10-24T15:25:24.000",
    "request_status": "Pending",
    "responsible_agency": "Department of Sanitation",
    "final_address": "7111 Beauvoir Ct",
    "address_councildis": "E",
    "status": "Assigned to Contractor",
    "contractor": "Waste Pro",
    "rowid": "1235734",
    "final_x": "3716548.70994",
    "final_y": "567493.125092",
    "longitude": "-89.95603507700099",
    "latitude": "30.05329706157279",
    "geocoded_column": {
      "latitude": "30.05329706157279",
      "longitude": "-89.95603507700099"
    }
  },
  {
    "service_request": "2025-1235733",
    "request_type": "Roads and Streets",
    "request_reason": "Road Shoulder Damage",
    "date_created": "2025-10-24T15:19:59.000",
    "date_modified": "2025-10-24T15:20:01.000",
    "request_status": "Pending",
    "responsible_agency": "Department of Public Works",
    "final_address": "4005 Danneel St",
    "address_councildis": "B",
    "status": "Pending",
    "rowid": "1235733",
    "final_x": "3672138.6635",
    "final_y": "522478.188922",
    "longitude": "-90.09793793739297",
    "latitude": "29.93091456942129",
    "geocoded_column": {
      "latitude": "29.93091456942129",
      "longitude": "-90.09793793739297"
    }
  },
  {
    "service_request": "2025-1235732",
    "request_type": "Parks & Parkways",
    "request_reason": "Request Grass Cutting Service (City Owned Property)",
    "date_created": "2025-10-24T15:17:16.000",
    "date_modified": "2025-10-24T15:17:17.000",
    "request_status": "Pending",
    "responsible_agency": "Department of Parks & Parkway",
    "final_address": "201 Fairfax Pl",
    "address_councildis": "C",
    "status": "Pending",
    "rowid": "1235732",
    "final_x": "3706050.75531",
    "final_y": "517360.152181",
    "longitude": "-89.99107227844776",
    "latitude": "29.915792841230783",
    "geocoded_column": {
      "latitude": "29.915792841230783",
      "longitude": "-89.99107227844776"
    }
  },
  {
    "service_request": "2025-1235731",
    "request_type": "Trash/Recycling",
    "request_reason": "Request a Large Item Pick Up",
    "date_created": "2025-10-24T15:14:47.000",
    "date_modified": "2025-10-24T15:14:49.000",
    "request_status": "Pending",
    "responsible_agency": "Department of Sanitation",
    "final_address": "1400 Governor Nicholls St",
    "address_councildis": "C",
    "status": "Assigned to Contractor",
    "contractor": "IV Waste",
    "rowid": "1235731",
    "final_x": "3681649.47573",
    "final_y": "535486.706694",
    "longitude": "-90.06745995603487",
    "latitude": "29.96639823303778",
    "geocoded_column": {
      "latitude": "29.96639823303778",
      "longitude": "-90.06745995603487"
    }
  },
  {
    "service_request": "2025-1235730",
    "request_type": "Property Maintenance",
    "request_reason": "Property Maintenance",
    "date_created": "2025-10-24T15:13:39.000",
    "date_modified": "2025-10-24T15:40:22.000",
    "case_close_date": "2025-10-24T10:40:21.000",
    "request_status": "Closed",
    "responsible_agency": "Department of Code Enforcement",
    "final_address": "200 Brunswick Ct",
    "address_councildis": "C",
    "status": "Referred to Code Enforcement",
    "rowid": "1235730",
    "final_x": "3706021.94334",
    "final_y": "517248.662645",
    "longitude": "-89.99116734130126",
    "latitude": "29.91548721154596",
    "geocoded_column": {
      "latitude": "29.91548721154596",
      "longitude": "-89.99116734130126"
    }
  },
  {
    "service_request": "2025-1235729",
    "request_type": "Trash/Recycling",
    "request_reason": "Request a Large Item Pick Up",
    "date_created": "2025-10-24T15:12:28.000",
    "date_modified": "2025-10-24T15:12:30.000",
    "request_status": "Pending",
    "responsible_agency": "Department of Sanitation",
    "final_address": "7801 Parry St",
    "address_councildis": "E",
    "status": "Assigned to Contractor",
    "contractor": "Waste Pro",
    "rowid": "1235729",
    "final_x": "3714030.77829",
    "final_y": "569023.663526",
    "longitude": "-89.96393569579035",
    "latitude": "30.057588392666045",
    "geocoded_column": {
      "latitude": "30.057588392666045",
      "longitude": "-89.96393569579035"
    }
  },
  {
    "service_request": "2025-1235728",
    "request_type": "Trash/Recycling",
    "request_reason": "Request a Large Item Pick Up",
    "date_created": "2025-10-24T15:12:26.000",
    "date_modified": "2025-10-24T15:14:26.000",
    "request_status": "Pending",
    "responsible_agency": "Department of Sanitation",
    "final_address": "7801 Branch Dr",
    "address_councildis": "E",
    "status": "Assigned to Contractor",
    "contractor": "Waste Pro",
    "rowid": "1235728",
    "final_x": "3714364.85938",
    "final_y": "569256.51959",
    "longitude": "-89.96287091635176",
    "latitude": "30.0582176686775",
    "geocoded_column": {
      "latitude": "30.0582176686775",
      "longitude": "-89.96287091635176"
    }
  },
  {
    "service_request": "2025-1235727",
    "request_type": "Trash/Recycling",
    "request_reason": "Request a Large Item Pick Up",
    "date_created": "2025-10-24T15:10:47.000",
    "date_modified": "2025-10-24T15:10:49.000",
    "request_status": "Pending",
    "responsible_agency": "Department of Sanitation",
    "final_address": "2212 Leon C Simon Dr",
    "address_councildis": "D",
    "status": "Assigned to Contractor",
    "contractor": "IV Waste",
    "rowid": "1235727",
    "final_x": "3683586.61673",
    "final_y": "556768.05769",
    "longitude": "-90.06059601314917",
    "latitude": "30.024855364162395",
    "geocoded_column": {
      "latitude": "30.024855364162395",
      "longitude": "-90.06059601314917"
    }
  },
  {
    "service_request": "2025-1235726",
    "request_type": "Roads and Streets",
    "request_reason": "Debris in Driving Lanes",
    "date_created": "2025-10-24T14:55:26.000",
    "date_modified": "2025-10-24T14:55:28.000",
    "request_status": "Pending",
    "responsible_agency": "Department of Public Works",
    "final_address": "2600 BLK Third St",
    "address_councildis": "B",
    "status": "Pending",
    "rowid": "1235726",
    "final_x": "3674351.5758",
    "final_y": "526029.922793",
    "longitude": "-90.09083048575927",
    "latitude": "29.940614891583678",
    "geocoded_column": {
      "latitude": "29.940614891583678",
      "longitude": "-90.09083048575927"
    }
  },
  {
    "service_request": "2025-1235725",
    "request_type": "Roads and Streets",
    "request_reason": "Pothole",
    "date_created": "2025-10-24T14:49:38.000",
    "date_modified": "2025-10-24T14:49:40.000",
    "request_status": "Pending",
    "responsible_agency": "Department of Public Works",
    "final_address": "4409 Orleans Ave",
    "address_councildis": "A",
    "status": "Pending",
    "rowid": "1235725",
    "final_x": "3671426.33307",
    "final_y": "541231.295372",
    "longitude": "-90.09954922442417",
    "latitude": "29.982500497257554",
    "geocoded_column": {
      "latitude": "29.982500497257554",
      "longitude": "-90.09954922442417"
    }
  },
  {
    "service_request": "2025-1235724",
    "request_type": "Road Striping",
    "request_reason": "Crosswalks",
    "date_created": "2025-10-24T14:46:20.000",
    "date_modified": "2025-10-24T14:50:23.000",
    "request_status": "Pending",
    "responsible_agency": "Department of Public Works",
    "final_address": "4425 Tchoupitoulas St",
    "address_councildis": "B",
    "status": "Pending",
    "rowid": "1235724",
    "final_x": "3670924.01876",
    "final_y": "517468.695542",
    "longitude": "-90.10194236334226",
    "latitude": "29.917176012522226",
    "geocoded_column": {
      "latitude": "29.917176012522226",
      "longitude": "-90.10194236334226"
    }
  },
  {
    "service_request": "2025-1235723",
    "request_type": "Abandoned Vehicles",
    "request_reason": "Abandoned/Junk Vehicles",
    "date_created": "2025-10-24T14:39:23.000",
    "date_modified": "2025-10-24T14:39:25.000",
    "request_status": "Pending",
    "responsible_agency": "Department of Public Works",
    "final_address": "2235 Chartres St",
    "address_councildis": "C",
    "status": "Pending",
    "rowid": "1235723",
    "final_x": "3685476.43708",
    "final_y": "534568.367429",
    "longitude": "-90.05540683697222",
    "latitude": "29.963756311417814",
    "geocoded_column": {
      "latitude": "29.963756311417814",
      "longitude": "-90.05540683697222"
    }
  },
  {
    "service_request": "2025-1235722",
    "request_type": "Trash/Recycling",
    "request_reason": "Request a Large Item Pick Up",
    "date_created": "2025-10-24T14:38:11.000",
    "date_modified": "2025-10-24T14:38:13.000",
    "request_status": "Pending",
    "responsible_agency": "Department of Sanitation",
    "final_address": "7706 Reindeer St",
    "address_councildis": "E",
    "status": "Assigned to Contractor",
    "contractor": "Waste Pro",
    "rowid": "1235722",
    "final_x": "3716700.25496",
    "final_y": "570887.542631",
    "longitude": "-89.95542707150838",
    "latitude": "30.062625296457146",
    "geocoded_column": {
      "latitude": "30.062625296457146",
      "longitude": "-89.95542707150838"
    }
  },
  {
    "service_request": "2025-1235721",
    "request_type": "Trash/Recycling",
    "request_reason": "Repair Trash Cart",
    "date_created": "2025-10-24T14:36:59.000",
    "date_modified": "2025-10-24T14:37:00.000",
    "request_status": "Pending",
    "responsible_agency": "Department of Sanitation",
    "final_address": "1907 Marengo St",
    "address_councildis": "B",
    "status": "Assigned to Contractor",
    "contractor": "IV Waste",
    "rowid": "1235721",
    "final_x": "3671904.87297",
    "final_y": "522148.071738",
    "longitude": "-90.09868721255789",
    "latitude": "29.930013782239445",
    "geocoded_column": {
      "latitude": "29.930013782239445",
      "longitude": "-90.09868721255789"
    }
  },
  {
    "service_request": "2025-1235720",
    "request_type": "Streetlights",
    "request_reason": "New Streetlight Request",
    "date_created": "2025-10-24T14:35:09.000",
    "date_modified": "2025-10-24T14:35:14.000",
    "request_status": "Pending",
    "responsible_agency": "Department of Public Works",
    "final_address": "1608 Bartholomew St",
    "address_councildis": "D",
    "status": "Pending",
    "rowid": "1235720",
    "final_x": "3692251.99702",
    "final_y": "537272.95252",
    "longitude": "-90.03391351795113",
    "latitude": "29.97098344605974",
    "geocoded_column": {
      "latitude": "29.97098344605974",
      "longitude": "-90.03391351795113"
    }
  },
  {
    "service_request": "2025-1235719",
    "request_type": "Roads and Streets",
    "request_reason": "Pothole",
    "date_created": "2025-10-24T14:32:57.000",
    "date_modified": "2025-10-24T14:32:58.000",
    "request_status": "Pending",
    "responsible_agency": "Department of Public Works",
    "final_address": "PALMETTO ST & MONTICELLO AVE",
    "status": "Pending",
    "rowid": "1235719",
    "final_x": "3663443.5",
    "final_y": "538826.28",
    "longitude": "-90.1248431935598",
    "latitude": "29.976121439699533",
    "geocoded_column": {
      "latitude": "29.976121439699533",
      "longitude": "-90.1248431935598"
    }
  },
  {
    "service_request": "2025-1235718",
    "request_type": "Streetlights",
    "request_reason": "Streetlight Outage/Malfunction",
    "date_created": "2025-10-24T14:32:01.000",
    "date_modified": "2025-10-24T14:32:03.000",
    "request_status": "Pending",
    "responsible_agency": "Department of Public Works",
    "final_address": "3624 Pittari Pl",
    "address_councildis": "C",
    "status": "Pending",
    "rowid": "1235718",
    "final_x": "3709619.25208",
    "final_y": "517393.809397",
    "longitude": "-89.97980758436805",
    "latitude": "29.915769962618864",
    "geocoded_column": {
      "latitude": "29.915769962618864",
      "longitude": "-89.97980758436805"
    }
  },
  {
    "service_request": "2025-1235717",
    "request_type": "Trash/Recycling",
    "request_reason": "Replace Trash Cart",
    "date_created": "2025-10-24T14:29:34.000",
    "date_modified": "2025-10-24T14:29:35.000",
    "request_status": "Pending",
    "responsible_agency": "Department of Sanitation",
    "final_address": "1316 Jay St",
    "address_councildis": "D",
    "status": "Assigned to Contractor",
    "contractor": "IV Waste",
    "rowid": "1235717",
    "final_x": "3677338.45704",
    "final_y": "556018.883865",
    "longitude": "-90.08036507060098",
    "latitude": "30.022984756428198",
    "geocoded_column": {
      "latitude": "30.022984756428198",
      "longitude": "-90.08036507060098"
    }
  },
  {
    "service_request": "2025-1235716",
    "request_type": "Abandoned Vehicles",
    "request_reason": "Abandoned/Junk Vehicles",
    "date_created": "2025-10-24T14:28:28.000",
    "date_modified": "2025-10-24T14:29:37.000",
    "request_status": "Pending",
    "responsible_agency": "Department of Public Works",
    "final_address": "1129 Lowerline St",
    "address_councildis": "A",
    "status": "Inspected",
    "rowid": "1235716",
    "final_x": "3663644.79885",
    "final_y": "526701.583166",
    "longitude": "-90.1246113786",
    "latitude": "29.942776637243345",
    "geocoded_column": {
      "latitude": "29.942776637243345",
      "longitude": "-90.1246113786"
    }
  },
  {
    "service_request": "2025-1235715",
    "request_type": "Trash/Recycling",
    "request_reason": "Repair Trash Cart",
    "date_created": "2025-10-24T14:25:00.000",
    "date_modified": "2025-10-24T14:25:02.000",
    "request_status": "Pending",
    "responsible_agency": "Department of Sanitation",
    "final_address": "3435 Calhoun St",
    "address_councildis": "A",
    "status": "Assigned to Contractor",
    "contractor": "IV Waste",
    "rowid": "1235715",
    "final_x": "3667739.95796",
    "final_y": "529329.226369",
    "longitude": "-90.11159348824665",
    "latitude": "29.94988238582053",
    "geocoded_column": {
      "latitude": "29.94988238582053",
      "longitude": "-90.11159348824665"
    }
  },
  {
    "service_request": "2025-1235714",
    "request_type": "Street and Traffic Signs",
    "request_reason": "Traffic or Parking Sign Damaged or Missing",
    "date_created": "2025-10-24T14:23:44.000",
    "date_modified": "2025-10-24T14:23:46.000",
    "request_status": "Pending",
    "responsible_agency": "Department of Public Works",
    "final_address": "4601 Freret St",
    "address_councildis": "B",
    "status": "Pending",
    "rowid": "1235714",
    "final_x": "3669747.99201",
    "final_y": "524002.912828",
    "longitude": "-90.10543339887533",
    "latitude": "29.935177727566128",
    "geocoded_column": {
      "latitude": "29.935177727566128",
      "longitude": "-90.10543339887533"
    }
  },
  {
    "service_request": "2025-1235713",
    "request_type": "Abandoned Vehicles",
    "request_reason": "Abandoned/Junk Vehicles",
    "date_created": "2025-10-24T14:14:57.000",
    "date_modified": "2025-10-24T14:18:18.000",
    "request_status": "Pending",
    "responsible_agency": "Department of Public Works",
    "final_address": "1813 N Galvez St",
    "address_councildis": "D",
    "status": "Inspected",
    "rowid": "1235713",
    "final_x": "3682328.65704",
    "final_y": "539906.085194",
    "longitude": "-90.06516065046078",
    "latitude": "29.978529344072918",
    "geocoded_column": {
      "latitude": "29.978529344072918",
      "longitude": "-90.06516065046078"
    }
  },
  {
    "service_request": "2025-1235712",
    "request_type": "Abandoned Vehicles",
    "request_reason": "Abandoned/Junk Vehicles",
    "date_created": "2025-10-24T14:13:51.000",
    "date_modified": "2025-10-24T14:13:53.000",
    "request_status": "Pending",
    "responsible_agency": "Department of Public Works",
    "final_address": "1939 Almonaster Ave",
    "address_councildis": "D",
    "status": "Pending",
    "rowid": "1235712",
    "final_x": "3687993.76873",
    "final_y": "539759.763274",
    "longitude": "-90.04727337294287",
    "latitude": "29.97795339304244",
    "geocoded_column": {
      "latitude": "29.97795339304244",
      "longitude": "-90.04727337294287"
    }
  },
  {
    "service_request": "2025-1235711",
    "request_type": "Streetlights",
    "request_reason": "Streetlight Outage/Malfunction",
    "date_created": "2025-10-24T14:08:14.000",
    "date_modified": "2025-10-24T14:08:16.000",
    "request_status": "Pending",
    "responsible_agency": "Department of Public Works",
    "final_address": "430 Dauphine St",
    "address_councildis": "C",
    "status": "Pending",
    "rowid": "1235711",
    "final_x": "3681482.78082",
    "final_y": "532204.560835",
    "longitude": "-90.0681008252178",
    "latitude": "29.957378515539933",
    "geocoded_column": {
      "latitude": "29.957378515539933",
      "longitude": "-90.0681008252178"
    }
  },
  {
    "service_request": "2025-1235710",
    "request_type": "Trash/Recycling",
    "request_reason": "Request a Large Item Pick Up",
    "date_created": "2025-10-24T14:05:29.000",
    "date_modified": "2025-10-24T14:05:59.000",
    "request_status": "Pending",
    "responsible_agency": "Department of Sanitation",
    "final_address": "5236 Revel St",
    "address_councildis": "E",
    "status": "Assigned to Contractor",
    "contractor": "Waste Pro",
    "rowid": "1235710",
    "final_x": "3725040.1687",
    "final_y": "562683.318944",
    "longitude": "-89.9293824679228",
    "latitude": "30.03978871568909",
    "geocoded_column": {
      "latitude": "30.03978871568909",
      "longitude": "-89.9293824679228"
    }
  },
  {
    "service_request": "2025-1235709",
    "request_type": "Roads and Streets",
    "request_reason": "Pothole",
    "date_created": "2025-10-24T14:02:11.000",
    "date_modified": "2025-10-24T14:17:40.000",
    "request_status": "Pending",
    "responsible_agency": "Department of Public Works",
    "final_address": "7153 E Tamaron Blvd",
    "address_councildis": "E",
    "status": "Pending",
    "rowid": "1235709",
    "final_x": "3718429.97061",
    "final_y": "569220.562726",
    "longitude": "-89.95002306504317",
    "latitude": "30.057984489418494",
    "geocoded_column": {
      "latitude": "30.057984489418494",
      "longitude": "-89.95002306504317"
    }
  },
  {
    "service_request": "2025-1235708",
    "request_type": "Trash/Recycling",
    "request_reason": "Request a Large Item Pick Up",
    "date_created": "2025-10-24T14:01:25.000",
    "date_modified": "2025-10-24T14:01:28.000",
    "request_status": "Pending",
    "responsible_agency": "Department of Sanitation",
    "final_address": "2730 General Ogden St",
    "address_councildis": "A",
    "status": "Assigned to Contractor",
    "contractor": "IV Waste",
    "rowid": "1235708",
    "final_x": "3663647.10413",
    "final_y": "534484.269573",
    "longitude": "-90.12434484028685",
    "latitude": "29.96417643858637",
    "geocoded_column": {
      "latitude": "29.96417643858637",
      "longitude": "-90.12434484028685"
    }
  },
  {
    "service_request": "2025-1235707",
    "request_type": "Parks & Parkways",
    "request_reason": "Request Tree Service (Right of Way/Public Property)",
    "date_created": "2025-10-24T14:00:47.000",
    "date_modified": "2025-10-24T14:00:49.000",
    "request_status": "Pending",
    "responsible_agency": "Department of Parks & Parkway",
    "final_address": "606 Hagan St",
    "address_councildis": "A",
    "status": "Pending",
    "rowid": "1235707",
    "final_x": "3674466.56769",
    "final_y": "538153.653065",
    "longitude": "-90.09005211958905",
    "latitude": "29.973947671719664",
    "geocoded_column": {
      "latitude": "29.973947671719664",
      "longitude": "-90.09005211958905"
    }
  },
  {
    "service_request": "2025-1235706",
    "request_type": "Trash/Recycling",
    "request_reason": "Request a Large Item Pick Up",
    "date_created": "2025-10-24T13:49:46.000",
    "date_modified": "2025-10-24T13:49:48.000",
    "request_status": "Pending",
    "responsible_agency": "Department of Sanitation",
    "final_address": "1541 N Rocheblave St",
    "address_councildis": "D",
    "status": "Assigned to Contractor",
    "contractor": "IV Waste",
    "rowid": "1235706",
    "final_x": "3679663.54869",
    "final_y": "539195.932874",
    "longitude": "-90.07360270316711",
    "latitude": "29.976657506802617",
    "geocoded_column": {
      "latitude": "29.976657506802617",
      "longitude": "-90.07360270316711"
    }
  },
  {
    "service_request": "2025-1235705",
    "request_type": "Trash/Recycling",
    "request_reason": "Replace Trash Cart",
    "date_created": "2025-10-24T13:48:03.000",
    "date_modified": "2025-10-24T13:48:05.000",
    "request_status": "Pending",
    "responsible_agency": "Department of Sanitation",
    "final_address": "2024 Westbend Prkwy",
    "address_councildis": "C",
    "status": "Assigned to Contractor",
    "contractor": "Richards Disposal",
    "rowid": "1235705",
    "final_x": "3696937.83671",
    "final_y": "523562.170875",
    "longitude": "-90.01961155181452",
    "latitude": "29.93313666285694",
    "geocoded_column": {
      "latitude": "29.93313666285694",
      "longitude": "-90.01961155181452"
    }
  },
  {
    "service_request": "2025-1235704",
    "request_type": "Abandoned Vehicles",
    "request_reason": "Abandoned/Junk Vehicles",
    "date_created": "2025-10-24T13:38:50.000",
    "date_modified": "2025-10-24T13:38:51.000",
    "request_status": "Pending",
    "responsible_agency": "Department of Public Works",
    "final_address": "7041 W Tamaron Blvd",
    "address_councildis": "E",
    "status": "Pending",
    "rowid": "1235704",
    "final_x": "3718743.97567",
    "final_y": "568294.874533",
    "longitude": "-89.94906589151991",
    "latitude": "30.055428803934902",
    "geocoded_column": {
      "latitude": "30.055428803934902",
      "longitude": "-89.94906589151991"
    }
  },
  {
    "service_request": "2025-1235703",
    "request_type": "Trash/Recycling",
    "request_reason": "Repair Trash Cart",
    "date_created": "2025-10-24T13:33:34.000",
    "date_modified": "2025-10-24T13:33:35.000",
    "request_status": "Pending",
    "responsible_agency": "Department of Sanitation",
    "final_address": "4900 Galahad Dr",
    "address_councildis": "E",
    "status": "Assigned to Contractor",
    "contractor": "Waste Pro",
    "rowid": "1235703",
    "final_x": "3707052.78449",
    "final_y": "556437.68841",
    "longitude": "-89.98645968293398",
    "latitude": "30.023209410830475",
    "geocoded_column": {
      "latitude": "30.023209410830475",
      "longitude": "-89.98645968293398"
    }
  },
  {
    "service_request": "2025-1235702",
    "request_type": "Trash/Recycling",
    "request_reason": "Replace Trash Cart",
    "date_created": "2025-10-24T13:26:24.000",
    "date_modified": "2025-10-24T13:26:26.000",
    "request_status": "Pending",
    "responsible_agency": "Department of Sanitation",
    "final_address": "217 N Tonti St",
    "address_councildis": "B",
    "status": "Assigned to Contractor",
    "contractor": "IV Waste",
    "rowid": "1235702",
    "final_x": "3676742.92053",
    "final_y": "534784.795014",
    "longitude": "-90.08297898298909",
    "latitude": "29.964616348120337",
    "geocoded_column": {
      "latitude": "29.964616348120337",
      "longitude": "-90.08297898298909"
    }
  },
  {
    "service_request": "2025-1235701",
    "request_type": "Property Maintenance",
    "request_reason": "Property Maintenance",
    "date_created": "2025-10-24T13:25:21.000",
    "date_modified": "2025-10-24T14:39:38.000",
    "case_close_date": "2025-10-24T09:39:18.000",
    "request_status": "Closed",
    "responsible_agency": "Department of Code Enforcement",
    "final_address": "3201 Vespasian St",
    "address_councildis": "C",
    "status": "Referred to Code Enforcement",
    "rowid": "1235701",
    "final_x": "3695139.56477",
    "final_y": "522693.63449",
    "longitude": "-90.02531984696874",
    "latitude": "29.930805053335227",
    "geocoded_column": {
      "latitude": "29.930805053335227",
      "longitude": "-90.02531984696874"
    }
  },
  {
    "service_request": "2025-1235700",
    "request_type": "Streetlights",
    "request_reason": "Streetlight Outage/Malfunction",
    "date_created": "2025-10-24T13:23:26.000",
    "date_modified": "2025-10-24T13:27:36.000",
    "request_status": "Pending",
    "responsible_agency": "Department of Public Works",
    "final_address": "36 Pinewood Ct",
    "address_councildis": "C",
    "status": "Pending",
    "rowid": "1235700",
    "final_x": "3695909.92298",
    "final_y": "522951.743227",
    "longitude": "-90.02287862868384",
    "latitude": "29.93149056128374",
    "geocoded_column": {
      "latitude": "29.93149056128374",
      "longitude": "-90.02287862868384"
    }
  },
  {
    "service_request": "2025-1235699",
    "request_type": "Streetlights",
    "request_reason": "Streetlight Outage/Malfunction",
    "date_created": "2025-10-24T13:22:11.000",
    "date_modified": "2025-10-24T13:27:46.000",
    "request_status": "Pending",
    "responsible_agency": "Department of Public Works",
    "final_address": "5 Pinewood Ct",
    "address_councildis": "C",
    "status": "Pending",
    "rowid": "1235699",
    "final_x": "3696030.81264",
    "final_y": "522837.475515",
    "longitude": "-90.02250112316116",
    "latitude": "29.931172562045866",
    "geocoded_column": {
      "latitude": "29.931172562045866",
      "longitude": "-90.02250112316116"
    }
  },
  {
    "service_request": "2025-1235698",
    "request_type": "Trash/Recycling",
    "request_reason": "Repair Recycling Cart",
    "date_created": "2025-10-24T13:10:37.000",
    "date_modified": "2025-10-24T13:10:39.000",
    "request_status": "Pending",
    "responsible_agency": "Department of Sanitation",
    "final_address": "1212 Dufossat St",
    "address_councildis": "B",
    "status": "Pending",
    "rowid": "1235698",
    "final_x": "3668046.25466",
    "final_y": "519764.73292",
    "longitude": "-90.11094853420961",
    "latitude": "29.923574115419306",
    "geocoded_column": {
      "latitude": "29.923574115419306",
      "longitude": "-90.11094853420961"
    }
  },
  {
    "service_request": "2025-1235697",
    "request_type": "Trash/Recycling",
    "request_reason": "Request a Large Item Pick Up",
    "date_created": "2025-10-24T13:09:49.000",
    "date_modified": "2025-10-24T13:09:51.000",
    "request_status": "Pending",
    "responsible_agency": "Department of Sanitation",
    "final_address": "4920 Robin Hood Dr",
    "address_councildis": "E",
    "status": "Assigned to Contractor",
    "contractor": "Waste Pro",
    "rowid": "1235697",
    "final_x": "3717336.41388",
    "final_y": "557781.176987",
    "longitude": "-89.95391492463494",
    "latitude": "30.02656708843679",
    "geocoded_column": {
      "latitude": "30.02656708843679",
      "longitude": "-89.95391492463494"
    }
  },
  {
    "service_request": "2025-1235696",
    "request_type": "Property Maintenance",
    "request_reason": "Property Maintenance",
    "date_created": "2025-10-24T13:07:18.000",
    "date_modified": "2025-10-24T15:33:34.000",
    "case_close_date": "2025-10-24T10:33:33.000",
    "request_status": "Closed",
    "responsible_agency": "Department of Code Enforcement",
    "final_address": "7800 Swift St",
    "address_councildis": "E",
    "status": "Referred to Code Enforcement",
    "rowid": "1235696",
    "final_x": "3695248.98154",
    "final_y": "559192.218652",
    "longitude": "-90.02365748295563",
    "latitude": "30.031159542251142",
    "geocoded_column": {
      "latitude": "30.031159542251142",
      "longitude": "-90.02365748295563"
    }
  },
  {
    "service_request": "2025-1235695",
    "request_type": "Streetlights",
    "request_reason": "Streetlight Outage/Malfunction",
    "date_created": "2025-10-24T13:04:40.000",
    "date_modified": "2025-10-24T13:04:42.000",
    "request_status": "Pending",
    "responsible_agency": "Department of Public Works",
    "final_address": "3412 Touro St",
    "address_councildis": "D",
    "status": "Pending",
    "rowid": "1235695",
    "final_x": "3683466.49954",
    "final_y": "545210.460367",
    "longitude": "-90.06138095853912",
    "latitude": "29.993079828749657",
    "geocoded_column": {
      "latitude": "29.993079828749657",
      "longitude": "-90.06138095853912"
    }
  },
  {
    "service_request": "2025-1235694",
    "request_type": "Abandoned Vehicles",
    "request_reason": "Abandoned/Junk Vehicles",
    "date_created": "2025-10-24T13:00:11.000",
    "date_modified": "2025-10-24T13:01:01.000",
    "request_status": "Pending",
    "responsible_agency": "Department of Public Works",
    "final_address": "5500 St Bernard Ave",
    "address_councildis": "D",
    "status": "Inspected",
    "rowid": "1235694",
    "final_x": "3676817.25032",
    "final_y": "552437.502422",
    "longitude": "-90.08213553753079",
    "latitude": "30.013152910539205",
    "geocoded_column": {
      "latitude": "30.013152910539205",
      "longitude": "-90.08213553753079"
    }
  },