[
  {
    "service_request": "2023-1056928",
    "request_type": "Roads/Drainage",
    "request_reason": "Pothole",
    "date_created": "2023-12-21T01:40:29.000",
    "date_modified": "2023-12-21T01:40:29.000",
    "request_status": "Pending",
    "responsible_agency": "Department of Public Works",
    "final_address": "4216 Chestnut St",
    "address_councildis": "B",
    "status": "Pending",
    "rowid": "1056928",
    "final_x": "3671574.31393",
    "final_y": "519539.203703",
    "longitude": "-90.09981939416457",
    "latitude": "29.922850019854593",
    "geocoded_column": {
      "latitude": "29.922850019854593",
      "longitude": "-90.09981939416457"
    }
  },
  {
    "service_request": "2023-1056927",
    "request_type": "Property Maintenance",
    "request_reason": "Property Maintenance",
    "date_created": "2023-12-21T00:59:07.000",
    "date_modified": "2023-12-21T00:59:07.000",
    "request_status": "Pending",
    "responsible_agency": "Department of Code Enforcement",
    "final_address": "1510 Calhoun St",
    "address_councildis": "A",
    "status": "Pending",
    "rowid": "1056927",
    "final_x": "3664526.13748",
    "final_y": "522357.930362",
    "longitude": "-90.12197375232677",
    "latitude": "29.93080738076965",
    "geocoded_column": {
      "latitude": "29.93080738076965",
      "longitude": "-90.12197375232677"
    }
  },
  {
    "service_request": "2023-1056926",
    "request_type": "Roads/Drainage",
    "request_reason": "Pothole",
    "date_created": "2023-12-20T23:27:27.000",
    "date_modified": "2023-12-20T23:27:27.000",
    "request_status": "Pending",
    "responsible_agency": "Department of Public Works",
    "final_address": "1523 Antonine St",
    "address_councildis": "B",
    "status": "Pending",
    "rowid": "1056926",
    "final_x": "3673374.72936",
    "final_y": "520875.962873",
    "longitude": "-90.09409054390046",
    "latitude": "29.926472262294165",
    "geocoded_column": {
      "latitude": "29.926472262294165",
      "longitude": "-90.09409054390046"
    }
  },
  {
    "service_request": "2023-1056925",
    "request_type": "Trash/Recycling",
    "request_reason": "Replace Trash Cart",
    "date_created": "2023-12-20T23:26:34.000",
    "date_modified": "2023-12-20T23:26:35.000",
    "request_status": "Pending",
    "responsible_agency": "Department of Sanitation",
    "final_address": "4437 Banks St",
    "address_councildis": "A",
    "status": "Assigned to Contractor",
    "contractor": "Richards Disposal",
    "rowid": "1056925",
    "final_x": "3669078.15284",
    "final_y": "538441.666313",
    "longitude": "-90.10706025681993",
    "latitude": "29.974899273593046",
    "geocoded_column": {
      "latitude": "29.974899273593046",
      "longitude": "-90.10706025681993"
    }
  },
  {
    "service_request": "2023-1056924",
    "request_type": "Trash/Recycling",
    "request_reason": "MIssed Recycling Pick-Up",
    "date_created": "2023-12-20T23:03:49.000",
    "date_modified": "2023-12-20T23:03:50.000",
    "request_status": "Pending",
    "responsible_agency": "Department of Sanitation",
    "final_address": "2412 S Saratoga St",
    "address_councildis": "B",
    "status": "Assigned to Contractor",
    "contractor": "Richards Disposal",
    "rowid": "1056924",
    "final_x": "3675879.20225",
    "final_y": "524608.144956",
    "longitude": "-90.08605636752623",
    "latitude": "29.936659832396415",
    "geocoded_column": {
      "latitude": "29.936659832396415",
      "longitude": "-90.08605636752623"
    }
  },
  {
    "service_request": "2023-1056923",
    "request_type": "Trash/Recycling",
    "request_reason": "Request a Large Item Pick Up",
    "date_created": "2023-12-20T22:55:15.000",
    "date_modified": "2023-12-20T22:55:17.000",
    "request_status": "Pending",
    "responsible_agency": "Department of Sanitation",
    "final_address": "1234 Egania St",
    "address_councildis": "E",
    "status": "Assigned to Contractor",
    "contractor": "Waste Pro",
    "rowid": "1056923",
    "final_x": "3696944.63178",
    "final_y": "534738.725894",
    "longitude": "-90.01918543823872",
    "latitude": "29.963868067328434",
    "geocoded_column": {
      "latitude": "29.963868067328434",
      "longitude": "-90.01918543823872"
    }
  },
  {
    "service_request": "2023-1056922",
    "request_type": "Trash/Recycling",
    "request_reason": "Missed Trash Pick-Up",
    "date_created": "2023-12-20T22:36:42.000",
    "date_modified": "2023-12-20T22:36:43.000",
    "request_status": "Pending",
    "responsible_agency": "Department of Sanitation",
    "final_address": "7825 Spruce St",
    "address_councildis": "A",
    "status": "Assigned to Contractor",
    "contractor": "Richards Disposal",
    "rowid": "1056922",
    "final_x": "3664536.09095",
    "final_y": "529884.922881",
    "longitude": "-90.12169106807205",
    "latitude": "29.951503913748827",
    "geocoded_column": {
      "latitude": "29.951503913748827",
      "longitude": "-90.12169106807205"
    }
  },
  {
    "service_request": "2023-1056920",
    "request_type": "Parks & Parkways",
    "request_reason": "Request Tree Service (Right of Way/Public Property)",
    "date_created": "2023-12-20T21:40:13.000",
    "date_modified": "2023-12-20T21:40:13.000",
    "request_status": "Pending",
    "responsible_agency": "Department of Parks & Parkway",
    "final_address": "1604 Oretha Castle Haley Blvd",
    "address_councildis": "B",
    "status": "Pending",
    "rowid": "1056920",
    "final_x": "3677883.99278",
    "final_y": "525932.341373",
    "longitude": "-90.07968141413609",
    "latitude": "29.94024077864382",
    "geocoded_column": {
      "latitude": "29.94024077864382",
      "longitude": "-90.07968141413609"
    }
  },
  {
    "service_request": "2023-1056919",
    "request_type": "Trash/Recycling",
    "request_reason": "Return Trash Cart",
    "date_created": "2023-12-20T20:38:03.000",
    "date_modified": "2023-12-20T20:38:04.000",
    "request_status": "Pending",
    "responsible_agency": "Department of Sanitation",
    "final_address": "1212 Joseph St",
    "address_councildis": "A",
    "status": "Assigned to Contractor",
    "contractor": "Richards Disposal",
    "rowid": "1056919",
    "final_x": "3666402.38599",
    "final_y": "520329.90636",
    "longitude": "-90.11611868770781",
    "latitude": "29.92517628250779",
    "geocoded_column": {
      "latitude": "29.92517628250779",
      "longitude": "-90.11611868770781"
    }
  },
  {
    "service_request": "2023-1056918",
    "request_type": "Traffic Signals/Signs/Striping/Streetlights",
    "request_reason": "Striping/Road Surface Markings",
    "date_created": "2023-12-20T20:30:50.000",
    "date_modified": "2023-12-20T20:30:50.000",
    "request_status": "Pending",
    "responsible_agency": "Department of Public Works",
    "final_address": "NAPOLEON AVE & S CLAIBORNE AVE",
    "address_councildis": "B",
    "status": "Pending",
    "rowid": "1056918",
    "final_x": "3670320.5",
    "final_y": "525786.88",
    "longitude": "-90.10356554298984",
    "latitude": "29.940066178929065",
    "geocoded_column": {
      "latitude": "29.940066178929065",
      "longitude": "-90.10356554298984"
    }
  },
  {
    "service_request": "2023-1056917",
    "request_type": "Trash/Recycling",
    "request_reason": "Order Trash Cart",
    "date_created": "2023-12-20T20:26:36.000",
    "date_modified": "2023-12-20T20:26:37.000",
    "request_status": "Pending",
    "responsible_agency": "Department of Sanitation",
    "final_address": "3911 Toulouse St",
    "address_councildis": "A",
    "status": "Assigned to Contractor",
    "contractor": "Richards Disposal",
    "rowid": "1056917",
    "final_x": "3672800.37025",
    "final_y": "539354.588618",
    "longitude": "-90.09527337338781",
    "latitude": "29.977299441984382",
    "geocoded_column": {
      "latitude": "29.977299441984382",
      "longitude": "-90.09527337338781"
    }
  },
  {
    "service_request": "2023-1056916",
    "request_type": "Trash/Recycling",
    "request_reason": "MIssed Recycling Pick-Up",
    "date_created": "2023-12-20T20:05:53.000",
    "date_modified": "2023-12-20T20:05:54.000",
    "request_status": "Pending",
    "responsible_agency": "Department of Sanitation",
    "final_address": "4928 Chrysler St",
    "address_councildis": "E",
    "status": "Assigned to Contractor",
    "contractor": "Waste Pro",
    "rowid": "1056916",
    "final_x": "3715148.42981",
    "final_y": "557623.339355",
    "longitude": "-89.96083460962151",
    "latitude": "30.02620534133813",
    "geocoded_column": {
      "latitude": "30.02620534133813",
      "longitude": "-89.96083460962151"
    }
  },
  {
    "service_request": "2023-1056915",
    "request_type": "Roads/Drainage",
    "request_reason": "Pothole",
    "date_created": "2023-12-20T20:00:48.000",
    "date_modified": "2023-12-20T20:00:48.000",
    "request_status": "Pending",
    "responsible_agency": "Department of Public Works",
    "final_address": "6025 Chestnut St",
    "address_councildis": "A",
    "status": "Pending",
    "rowid": "1056915",
    "final_x": "3664712.2265",
    "final_y": "519963.62508",
    "longitude": "-90.12146623337942",
    "latitude": "29.92421838457258",
    "geocoded_column": {
      "latitude": "29.92421838457258",
      "longitude": "-90.12146623337942"
    }
  },
  {
    "service_request": "2023-1056914",
    "request_type": "Mosquito, Termite & Rodent Control",
    "request_reason": "Non-Rodent Complaint (Mice, Possums, Snakes)",
    "date_created": "2023-12-20T19:42:26.000",
    "date_modified": "2023-12-20T19:42:26.000",
    "request_status": "Pending",
    "responsible_agency": "Mosquito, Termite & Rodent Control Board",
    "final_address": "11800 BLK Curran Rd",
    "address_councildis": "E",
    "status": "Pending",
    "rowid": "1056914",
    "final_x": "3712593.43173",
    "final_y": "567510.483205",
    "longitude": "-89.96853588786934",
    "latitude": "30.05347491908286",
    "geocoded_column": {
      "latitude": "30.05347491908286",
      "longitude": "-89.96853588786934"
    }
  },
  {
    "service_request": "2023-1056913",
    "request_type": "Trash/Recycling",
    "request_reason": "Replace Trash Cart",
    "date_created": "2023-12-20T19:10:21.000",
    "date_modified": "2023-12-20T19:10:22.000",
    "request_status": "Pending",
    "responsible_agency": "Department of Sanitation",
    "final_address": "7911 Jeannette St",
    "address_councildis": "A",
    "status": "Assigned to Contractor",
    "contractor": "Richards Disposal",
    "rowid": "1056913",
    "final_x": "3663202.66061",
    "final_y": "528727.407936",
    "longitude": "-90.12593992459634",
    "latitude": "29.9483598234777",
    "geocoded_column": {
      "latitude": "29.9483598234777",
      "longitude": "-90.12593992459634"
    }
  },
  {
    "service_request": "2023-1056912",
    "request_type": "Trash/Recycling",
    "request_reason": "Request a Large Item Pick Up",
    "date_created": "2023-12-20T19:05:40.000",
    "date_modified": "2023-12-20T19:05:41.000",
    "request_status": "Pending",
    "responsible_agency": "Department of Sanitation",
    "final_address": "3134 N Rampart St",
    "address_councildis": "C",
    "status": "Assigned to Contractor",
    "contractor": "IV Waste",
    "rowid": "1056912",
    "final_x": "3689186.62486",
    "final_y": "535453.673734",
    "longitude": "-90.04365899957524",
    "latitude": "29.96607629558546",
    "geocoded_column": {
      "latitude": "29.96607629558546",
      "longitude": "-90.04365899957524"
    }
  },
  {
    "service_request": "2023-1056911",
    "request_type": "Traffic Signals/Signs/Striping/Streetlights",
    "request_reason": "Traffic Signal Malfunctioning/Damaged",
    "date_created": "2023-12-20T18:36:01.000",
    "date_modified": "2023-12-20T18:36:01.000",
    "request_status": "Pending",
    "responsible_agency": "Department of Public Works",
    "final_address": "ELYSIAN FIELDS AVE & GENTILLY BLVD",
    "address_councildis": "D",
    "status": "Pending",
    "rowid": "1056911",
    "final_x": "3684059.79",
    "final_y": "547584.11",
    "longitude": "-90.05942349799389",
    "latitude": "29.99958839427118",
    "geocoded_column": {
      "latitude": "29.99958839427118",
      "longitude": "-90.05942349799389"
    }
  },
  {
    "service_request": "2023-1056910",
    "request_type": "Trash/Recycling",
    "request_reason": "Missed Trash Pick-Up",
    "date_created": "2023-12-20T18:29:06.000",
    "date_modified": "2023-12-20T18:29:07.000",
    "request_status": "Pending",
    "responsible_agency": "Department of Sanitation",
    "final_address": "3028 Fern St",
    "address_councildis": "B",
    "status": "Assigned to Contractor",
    "contractor": "Richards Disposal",
    "rowid": "1056910",
    "final_x": "3666987.79085",
    "final_y": "532853.675524",
    "longitude": "-90.11385000072318",
    "latitude": "29.959595499568675",
    "geocoded_column": {
      "latitude": "29.959595499568675",
      "longitude": "-90.11385000072318"
    }
  },
  {
    "service_request": "2023-1056909",
    "request_type": "Traffic Signals/Signs/Striping/Streetlights",
    "request_reason": "Street Light Outage/Malfunction",
    "date_created": "2023-12-20T18:26:19.000",
    "date_modified": "2023-12-20T18:26:20.000",
    "request_status": "Pending",
    "responsible_agency": "Department of Public Works",
    "final_address": "7800 Mackenzie St",
    "address_councildis": "E",
    "status": "Assigned to Contractor",
    "contractor": "Legacy Professional Services",
    "rowid": "1056909",
    "final_x": "3710589.21387",
    "final_y": "566647.958947",
    "longitude": "-89.9749029631766",
    "latitude": "30.051168813493895",
    "geocoded_column": {
      "latitude": "30.051168813493895",
      "longitude": "-89.9749029631766"
    }
  },
  {
    "service_request": "2023-1056908",
    "request_type": "Trash/Recycling",
    "request_reason": "Request a Large Item Pick Up",
    "date_created": "2023-12-20T18:23:07.000",
    "date_modified": "2023-12-20T18:23:08.000",
    "request_status": "Pending",
    "responsible_agency": "Department of Sanitation",
    "final_address": "937 Henry Clay Ave",
    "address_councildis": "A",
    "status": "Assigned to Contractor",
    "contractor": "Richards Disposal",
    "rowid": "1056908",
    "final_x": "3664079.17332",
    "final_y": "520141.523896",
    "longitude": "-90.12345864054552",
    "latitude": "29.92472594535707",
    "geocoded_column": {
      "latitude": "29.92472594535707",
      "longitude": "-90.12345864054552"
    }
  },
  {
    "service_request": "2023-1056907",
    "request_type": "Roads/Drainage",
    "request_reason": "Catch Basin - Broken/Damage",
    "date_created": "2023-12-20T18:13:38.000",
    "date_modified": "2023-12-20T18:13:38.000",
    "request_status": "Pending",
    "responsible_agency": "Department of Public Works",
    "final_address": "535 Arabella St",
    "address_councildis": "A",
    "status": "Pending",
    "rowid": "1056907",
    "final_x": "3665709.33741",
    "final_y": "518227.41503",
    "longitude": "-90.11837680203152",
    "latitude": "29.9194153167254",
    "geocoded_column": {
      "latitude": "29.9194153167254",
      "longitude": "-90.11837680203152"
    }
  },
  {
    "service_request": "2023-1056906",
    "request_type": "Abandoned Vehicles",
    "request_reason": "Vehicle Blocking Your Driveway",
    "date_created": "2023-12-20T18:07:14.000",
    "date_modified": "2023-12-20T18:07:14.000",
    "request_status": "Pending",
    "responsible_agency": "Department of Public Works",
    "final_address": "7513 Burthe St",
    "address_councildis": "A",
    "status": "Pending",
    "rowid": "1056906",
    "final_x": "3662770.09683",
    "final_y": "526270.43155",
    "longitude": "-90.1273873606279",
    "latitude": "29.941616450081842",
    "geocoded_column": {
      "latitude": "29.941616450081842",
      "longitude": "-90.1273873606279"
    }
  },
  {
    "service_request": "2023-1056905",
    "request_type": "Abandoned Vehicles",
    "request_reason": "Abandoned/Junk Vehicles",
    "date_created": "2023-12-20T17:50:52.000",
    "date_modified": "2023-12-20T17:50:52.000",
    "request_status": "Pending",
    "responsible_agency": "Department of Public Works",
    "final_address": "4400 BLK Longfellow Dr",
    "address_councildis": "E",
    "status": "Pending",
    "rowid": "1056905",
    "final_x": "3709769.4364",
    "final_y": "554362.64828",
    "longitude": "-89.9779532891422",
    "latitude": "30.01741577712585",
    "geocoded_column": {
      "latitude": "30.01741577712585",
      "longitude": "-89.9779532891422"
    }
  },
  {
    "service_request": "2023-1056903",
    "request_type": "Abandoned Vehicles",
    "request_reason": "Abandoned/Junk Vehicles",
    "date_created": "2023-12-20T16:53:24.000",
    "date_modified": "2023-12-20T16:53:25.000",
    "request_status": "Pending",
    "responsible_agency": "Department of Public Works",
    "final_address": "5613 Rhodes Ave",
    "address_councildis": "C",
    "status": "Pending",
    "rowid": "1056903",
    "final_x": "3704238.65098",
    "final_y": "519781.611",
    "longitude": "-89.99670277465167",
    "latitude": "29.92250926079693",
    "geocoded_column": {
      "latitude": "29.92250926079693",
      "longitude": "-89.99670277465167"
    }
  },
  {
    "service_request": "2023-1056901",
    "request_type": "Trash/Recycling",
    "request_reason": "Replace Trash Cart",
    "date_created": "2023-12-20T16:39:44.000",
    "date_modified": "2023-12-20T16:39:45.000",
    "request_status": "Pending",
    "responsible_agency": "Department of Sanitation",
    "final_address": "1503 Marais St",
    "address_councildis": "C",
    "status": "Assigned to Contractor",
    "contractor": "IV Waste",
    "rowid": "1056901",
    "final_x": "3682680.90645",
    "final_y": "536434.153671",
    "longitude": "-90.06416957639466",
    "latitude": "29.968972013473223",
    "geocoded_column": {
      "latitude": "29.968972013473223",
      "longitude": "-90.06416957639466"
    }
  },
  {
    "service_request": "2023-1056900",
    "request_type": "Traffic Signals/Signs/Striping/Streetlights",
    "request_reason": "Traffic Signal Malfunctioning/Damaged",
    "date_created": "2023-12-20T16:36:24.000",
    "date_modified": "2023-12-20T16:36:25.000",
    "request_status": "Pending",
    "responsible_agency": "Department of Public Works",
    "final_address": "WASHINGTON AVE & S CLAIBORNE AVE",
    "address_councildis": "B",
    "status": "Pending",
    "rowid": "1056900",
    "final_x": "3673195.7",
    "final_y": "526653.08",
    "longitude": "-90.09445851618365",
    "latitude": "29.942362783507658",
    "geocoded_column": {
      "latitude": "29.942362783507658",
      "longitude": "-90.09445851618365"
    }
  },
  {
    "service_request": "2023-1056899",
    "request_type": "Roads/Drainage",
    "request_reason": "Pothole",
    "date_created": "2023-12-20T16:18:57.000",
    "date_modified": "2023-12-20T16:18:57.000",
    "request_status": "Pending",
    "responsible_agency": "Department of Public Works",
    "final_address": "4216 Chestnut St",
    "address_councildis": "B",
    "status": "Pending",
    "rowid": "1056899",
    "final_x": "3671574.31393",
    "final_y": "519539.203703",
    "longitude": "-90.09981939416457",
    "latitude": "29.922850019854593",
    "geocoded_column": {
      "latitude": "29.922850019854593",
      "longitude": "-90.09981939416457"
    }
  },
  {
    "service_request": "2023-1056898",
    "request_type": "Roads/Drainage",
    "request_reason": "Pothole",
    "date_created": "2023-12-20T16:15:09.000",
    "date_modified": "2023-12-20T16:15:11.000",
    "request_status": "Pending",
    "responsible_agency": "Department of Public Works",
    "final_address": "2911 N Rampart St",
    "address_councildis": "C",
    "status": "Pending",
    "rowid": "1056898",
    "final_x": "3688199.57641",
    "final_y": "535779.324999",
    "longitude": "-90.04676451802412",
    "latitude": "29.96700223328246",
    "geocoded_column": {
      "latitude": "29.96700223328246",
      "longitude": "-90.04676451802412"
    }
  },
  {
    "service_request": "2023-1056897",
    "request_type": "Property Maintenance",
    "request_reason": "Property Maintenance",
    "date_created": "2023-12-20T16:12:49.000",
    "date_modified": "2023-12-20T16:12:50.000",
    "request_status": "Pending",
    "responsible_agency": "Department of Code Enforcement",
    "final_address": "2826 Jackson Ave",
    "address_councildis": "B",
    "status": "Pending",
    "rowid": "1056897",
    "final_x": "3674647.7915",
    "final_y": "527504.117695",
    "longitude": "-90.08984477220814",
    "latitude": "29.94465960785384",
    "geocoded_column": {
      "latitude": "29.94465960785384",
      "longitude": "-90.08984477220814"
    }
  },
  {
    "service_request": "2023-1056896",
    "request_type": "Trash/Recycling",
    "request_reason": "Request a Large Item Pick Up",
    "date_created": "2023-12-20T16:07:45.000",
    "date_modified": "2023-12-20T16:07:45.000",
    "request_status": "Pending",
    "responsible_agency": "Department of Sanitation",
    "final_address": "2653 Abundance St",
    "address_councildis": "D",
    "status": "Assigned to Contractor",
    "contractor": "IV Waste",
    "rowid": "1056896",
    "final_x": "3687856.895",
    "final_y": "543986.29179",
    "longitude": "-90.04755587612932",
    "latitude": "29.98957906681047",
    "geocoded_column": {
      "latitude": "29.98957906681047",
      "longitude": "-90.04755587612932"
    }
  },
  {
    "service_request": "2023-1056895",
    "request_type": "Roads/Drainage",
    "request_reason": "Pothole",
    "date_created": "2023-12-20T16:06:13.000",
    "date_modified": "2023-12-20T16:06:13.000",
    "request_status": "Pending",
    "responsible_agency": "Department of Public Works",
    "final_address": "1000 BLK Homer Plessy Way",
    "address_councildis": "C",
    "status": "Pending",
    "rowid": "1056895",
    "final_x": "3688020.4753",
    "final_y": "536011.523237",
    "longitude": "-90.0473218886746",
    "latitude": "29.967646225638635",
    "geocoded_column": {
      "latitude": "29.967646225638635",
      "longitude": "-90.0473218886746"
    }
  },
  {
    "service_request": "2023-1056894",
    "request_type": "Traffic Signals/Signs/Striping/Streetlights",
    "request_reason": "Street Light Outage/Malfunction",
    "date_created": "2023-12-20T16:05:57.000",
    "date_modified": "2023-12-20T16:05:58.000",
    "request_status": "Pending",
    "responsible_agency": "Department of Public Works",
    "final_address": "4823 Feliciana Dr",
    "address_councildis": "D",
    "status": "Assigned to Contractor",
    "contractor": "Legacy Professional Services",
    "rowid": "1056894",
    "final_x": "3690206.92336",
    "final_y": "550956.395221",
    "longitude": "-90.03988429509293",
    "latitude": "30.00867159606581",
    "geocoded_column": {
      "latitude": "30.00867159606581",
      "longitude": "-90.03988429509293"
    }
  },
  {
    "service_request": "2023-1056893",
    "request_type": "Trash/Recycling",
    "request_reason": "Request a Large Item Pick Up",
    "date_created": "2023-12-20T16:00:25.000",
    "date_modified": "2023-12-20T16:00:26.000",
    "request_status": "Pending",
    "responsible_agency": "Department of Sanitation",
    "final_address": "1406 Fats Domino Ave",
    "address_councildis": "E",
    "status": "Assigned to Contractor",
    "contractor": "Waste Pro",
    "rowid": "1056893",
    "final_x": "3698250.91114",
    "final_y": "535022.716486",
    "longitude": "-90.0150500388881",
    "latitude": "29.964607681455778",
    "geocoded_column": {
      "latitude": "29.964607681455778",
      "longitude": "-90.0150500388881"
    }
  },
  {
    "service_request": "2023-1056892",
    "request_type": "Trash/Recycling",
    "request_reason": "MIssed Recycling Pick-Up",
    "date_created": "2023-12-20T15:58:29.000",
    "date_modified": "2023-12-20T15:58:30.000",
    "request_status": "Pending",
    "responsible_agency": "Department of Sanitation",
    "final_address": "4419 Knight Dr",
    "address_councildis": "E",
    "status": "Assigned to Contractor",
    "contractor": "Waste Pro",
    "rowid": "1056892",
    "final_x": "3708377.53784",
    "final_y": "553852.125207",
    "longitude": "-89.98237011006736",
    "latitude": "30.016057233859833",
    "geocoded_column": {
      "latitude": "30.016057233859833",
      "longitude": "-89.98237011006736"
    }
  },
  {
    "service_request": "2023-1056891",
    "request_type": "Roads/Drainage",
    "request_reason": "Pothole",
    "date_created": "2023-12-20T15:38:27.000",
    "date_modified": "2023-12-20T15:38:27.000",
    "request_status": "Pending",
    "responsible_agency": "Department of Public Works",
    "final_address": "1301 Constantinople St",
    "address_councildis": "B",
    "status": "Pending",
    "rowid": "1056891",
    "final_x": "3672430.66305",
    "final_y": "520250.7726",
    "longitude": "-90.09709199725775",
    "latitude": "29.924781230435865",
    "geocoded_column": {
      "latitude": "29.924781230435865",
      "longitude": "-90.09709199725775"
    }
  },
  {
    "service_request": "2023-1056890",
    "request_type": "Trash/Recycling",
    "request_reason": "Stop Trash Service",
    "date_created": "2023-12-20T15:33:50.000",
    "date_modified": "2023-12-20T15:33:51.000",
    "request_status": "Pending",
    "responsible_agency": "Department of Sanitation",
    "final_address": "5145 Lakeview Ct",
    "address_councildis": "E",
    "status": "Assigned to Contractor",
    "contractor": "Waste Pro",
    "rowid": "1056890",
    "final_x": "3698942.67031",
    "final_y": "556309.38569",
    "longitude": "-90.01209040902269",
    "latitude": "30.02311625585094",
    "geocoded_column": {
      "latitude": "30.02311625585094",
      "longitude": "-90.01209040902269"
    }
  },
  {
    "service_request": "2023-1056889",
    "request_type": "Trash/Recycling",
    "request_reason": "MIssed Recycling Pick-Up",
    "date_created": "2023-12-20T15:33:39.000",
    "date_modified": "2023-12-20T15:33:40.000",
    "request_status": "Pending",
    "responsible_agency": "Department of Sanitation",
    "final_address": "4804 Crowder Blvd",
    "address_councildis": "E",
    "status": "Assigned to Contractor",
    "contractor": "Waste Pro",
    "rowid": "1056889",
    "final_x": "3706295.12011",
    "final_y": "555980.839641",
    "longitude": "-89.98887065598569",
    "latitude": "30.02197772026598",
    "geocoded_column": {
      "latitude": "30.02197772026598",
      "longitude": "-89.98887065598569"
    }
  },
  {
    "service_request": "2023-1056887",
    "request_type": "Trash/Recycling",
    "request_reason": "Request a Large Item Pick Up",
    "date_created": "2023-12-20T15:26:08.000",
    "date_modified": "2023-12-20T15:26:09.000",
    "request_status": "Pending",
    "responsible_agency": "Department of Sanitation",
    "final_address": "4720 Prytania St",
    "address_councildis": "B",
    "status": "Assigned to Contractor",
    "contractor": "Richards Disposal",
    "rowid": "1056887",
    "final_x": "3669597.0011",
    "final_y": "520139.923384",
    "longitude": "-90.10604070185525",
    "latitude": "29.92456018994522",
    "geocoded_column": {
      "latitude": "29.92456018994522",
      "longitude": "-90.10604070185525"
    }
  },
  {
    "service_request": "2023-1056886",
    "request_type": "Roads/Drainage",
    "request_reason": "Pothole",
    "date_created": "2023-12-20T15:22:56.000",
    "date_modified": "2023-12-20T15:22:56.000",
    "request_status": "Pending",
    "responsible_agency": "Department of Public Works",
    "final_address": "1312 Milan St",
    "address_councildis": "B",
    "status": "Pending",
    "rowid": "1056886",
    "final_x": "3671625.82823",
    "final_y": "520286.919608",
    "longitude": "-90.09963137110304",
    "latitude": "29.92490447494246",
    "geocoded_column": {
      "latitude": "29.92490447494246",
      "longitude": "-90.09963137110304"
    }
  },
  {
    "service_request": "2023-1056885",
    "request_type": "Traffic Signals/Signs/Striping/Streetlights",
    "request_reason": "Street Light Outage/Malfunction",
    "date_created": "2023-12-20T15:22:27.000",
    "date_modified": "2023-12-20T15:22:28.000",
    "request_status": "Pending",
    "responsible_agency": "Department of Public Works",
    "final_address": "6039 Lafaye St",
    "address_councildis": "D",
    "status": "Assigned to Contractor",
    "contractor": "Legacy Professional Services",
    "rowid": "1056885",
    "final_x": "3687173.2877",
    "final_y": "555567.295257",
    "longitude": "-90.04930526635152",
    "latitude": "30.021443684033432",
    "geocoded_column": {
      "latitude": "30.021443684033432",
      "longitude": "-90.04930526635152"
    }
  },
  {
    "service_request": "2023-1056884",
    "request_type": "Trash/Recycling",
    "request_reason": "Replace Trash Cart",
    "date_created": "2023-12-20T15:22:25.000",
    "date_modified": "2023-12-20T15:22:26.000",
    "request_status": "Pending",
    "responsible_agency": "Department of Sanitation",
    "final_address": "3917 Laurel St",
    "address_councildis": "B",
    "status": "Assigned to Contractor",
    "contractor": "Richards Disposal",
    "rowid": "1056884",
    "final_x": "3673118.24692",
    "final_y": "518282.25695",
    "longitude": "-90.0949886751293",
    "latitude": "29.919348026086276",
    "geocoded_column": {
      "latitude": "29.919348026086276",
      "longitude": "-90.0949886751293"
    }
  },
  {
    "service_request": "2023-1056883",
    "request_type": "Roads/Drainage",
    "request_reason": "Street Subsidence (Sinking)",
    "date_created": "2023-12-20T15:15:51.000",
    "date_modified": "2023-12-20T15:15:52.000",
    "request_status": "Pending",
    "responsible_agency": "Department of Public Works",
    "final_address": "2701 S Miro St",
    "address_councildis": "B",
    "status": "Pending",
    "rowid": "1056883",
    "final_x": "3672252.64987",
    "final_y": "528593.317056",
    "longitude": "-90.09736986753163",
    "latitude": "29.94772580249203",
    "geocoded_column": {
      "latitude": "29.94772580249203",
      "longitude": "-90.09736986753163"
    }
  },
  {
    "service_request": "2023-1056882",
    "request_type": "Property Maintenance",
    "request_reason": "Property Maintenance",
    "date_created": "2023-12-20T15:15:44.000",
    "date_modified": "2023-12-20T15:15:44.000",
    "request_status": "Pending",
    "responsible_agency": "Department of Code Enforcement",
    "final_address": "2816 Spain St",
    "address_councildis": "D",
    "status": "Pending",
    "rowid": "1056882",
    "final_x": "3685538.47887",
    "final_y": "543171.287885",
    "longitude": "-90.05490780886488",
    "latitude": "29.98740942576499",
    "geocoded_column": {
      "latitude": "29.98740942576499",
      "longitude": "-90.05490780886488"
    }
  },
  {
    "service_request": "2023-1056881",
    "request_type": "Trash/Recycling",
    "request_reason": "Request a Large Item Pick Up",
    "date_created": "2023-12-20T15:14:00.000",
    "date_modified": "2023-12-20T15:14:01.000",
    "request_status": "Pending",
    "responsible_agency": "Department of Sanitation",
    "final_address": "7081 W Tamaron Blvd",
    "address_councildis": "E",
    "status": "Assigned to Contractor",
    "contractor": "Waste Pro",
    "rowid": "1056881",
    "final_x": "3718589.707",
    "final_y": "568575.908069",
    "longitude": "-89.94954277106267",
    "latitude": "30.056206653240945",
    "geocoded_column": {
      "latitude": "30.056206653240945",
      "longitude": "-89.94954277106267"
    }
  },
  {
    "service_request": "2023-1056880",
    "request_type": "Trash/Recycling",
    "request_reason": "Illegal Dumping",
    "date_created": "2023-12-20T15:09:41.000",
    "date_modified": "2023-12-20T15:09:41.000",
    "request_status": "Pending",
    "responsible_agency": "Department of Sanitation",
    "final_address": "2050 Constance St",
    "address_councildis": "B",
    "status": "Pending",
    "rowid": "1056880",
    "final_x": "3679638.15925",
    "final_y": "522124.668986",
    "longitude": "-90.07427532757933",
    "latitude": "29.929718046871503",
    "geocoded_column": {
      "latitude": "29.929718046871503",
      "longitude": "-90.07427532757933"
    }
  },
  {
    "service_request": "2023-1056879",
    "request_type": "Roads/Drainage",
    "request_reason": "Street Subsidence (Sinking)",
    "date_created": "2023-12-20T15:05:24.000",
    "date_modified": "2023-12-20T15:05:24.000",
    "request_status": "Pending",
    "responsible_agency": "Department of Public Works",
    "final_address": "506 Florida Blvd",
    "address_councildis": "A",
    "status": "Pending",
    "rowid": "1056879",
    "final_x": "3667628.65895",
    "final_y": "545341.940816",
    "longitude": "-90.11140574284177",
    "latitude": "29.993915262667738",
    "geocoded_column": {
      "latitude": "29.993915262667738",
      "longitude": "-90.11140574284177"
    }
  },
  {
    "service_request": "2023-1056878",
    "request_type": "Traffic Signals/Signs/Striping/Streetlights",
    "request_reason": "Street Light Outage/Malfunction",
    "date_created": "2023-12-20T15:05:06.000",
    "date_modified": "2023-12-20T15:05:07.000",
    "request_status": "Pending",
    "responsible_agency": "Department of Public Works",
    "final_address": "18 Stilt St",
    "address_councildis": "D",
    "status": "Assigned to Contractor",
    "contractor": "Legacy Professional Services",
    "rowid": "1056878",
    "final_x": "3673041.08788",
    "final_y": "557433.463195",
    "longitude": "-90.09389547436898",
    "latitude": "30.027002848433906",
    "geocoded_column": {
      "latitude": "30.027002848433906",
      "longitude": "-90.09389547436898"
    }
  },
  {
    "service_request": "2023-1056877",
    "request_type": "Trash/Recycling",
    "request_reason": "Missed Trash Pick-Up",
    "date_created": "2023-12-20T14:49:14.000",
    "date_modified": "2023-12-20T14:49:15.000",
    "request_status": "Pending",
    "responsible_agency": "Department of Sanitation",
    "final_address": "4216 Mccoy St",
    "address_councildis": "E",
    "status": "Assigned to Contractor",
    "contractor": "Waste Pro",
    "rowid": "1056877",
    "final_x": "3711967.34981",
    "final_y": "553752.011799",
    "longitude": "-89.97103177127718",
    "latitude": "30.015665096050245",
    "geocoded_column": {
      "latitude": "30.015665096050245",
      "longitude": "-89.97103177127718"
    }
  },
  {
    "service_request": "2023-1056876",
    "request_type": "Traffic Signals/Signs/Striping/Streetlights",
    "request_reason": "Additional signage",
    "date_created": "2023-12-20T14:47:28.000",
    "date_modified": "2023-12-20T14:47:28.000",
    "request_status": "Pending",
    "responsible_agency": "Department of Public Works",
    "final_address": "941 Jefferson Ave",
    "address_councildis": "B",
    "status": "Pending",
    "rowid": "1056876",
    "final_x": "3666892.08321",
    "final_y": "519105.974647",
    "longitude": "-90.11461395720502",
    "latitude": "29.921796543226755",
    "geocoded_column": {
      "latitude": "29.921796543226755",
      "longitude": "-90.11461395720502"
    }
  },
  {
    "service_request": "2023-1056875",
    "request_type": "Trash/Recycling",
    "request_reason": "Dead Animal Pick Up",
    "date_created": "2023-12-20T14:47:01.000",
    "date_modified": "2023-12-20T14:47:19.000",
    "case_close_date": "2023-12-20T08:47:19.000",
    "request_status": "Closed",
    "responsible_agency": "Department of Sanitation",
    "final_address": "920 St Louis St",
    "address_councildis": "C",
    "status": "Assigned to Contractor",
    "contractor": "Empire Services",
    "contractor_action": "Completed",
    "rowid": "1056875",
    "final_x": "3681373.24354",
    "final_y": "532377.667651",
    "longitude": "-90.06844067667576",
    "latitude": "29.9578578257421",
    "geocoded_column": {
      "latitude": "29.9578578257421",
      "longitude": "-90.06844067667576"
    }
  },
  {
    "service_request": "2023-1056874",
    "request_type": "Trash/Recycling",
    "request_reason": "Request a Large Item Pick Up",
    "date_created": "2023-12-20T14:46:33.000",
    "date_modified": "2023-12-20T14:46:34.000",
    "request_status": "Pending",
    "responsible_agency": "Department of Sanitation",
    "final_address": "4216 Mccoy St",
    "address_councildis": "E",
    "status": "Assigned to Contractor",
    "contractor": "Waste Pro",
    "rowid": "1056874",
    "final_x": "3711967.34981",
    "final_y": "553752.011799",
    "longitude": "-89.97103177127718",
    "latitude": "30.015665096050245",
    "geocoded_column": {
      "latitude": "30.015665096050245",
      "longitude": "-89.97103177127718"
    }
  },
  {
    "service_request": "2023-1056873",
    "request_type": "Trash/Recycling",
    "request_reason": "Request a Large Item Pick Up",
    "date_created": "2023-12-20T14:46:20.000",
    "date_modified": "2023-12-20T14:46:21.000",
    "request_status": "Pending",
    "responsible_agency": "Department of Sanitation",
    "final_address": "3519 Lang St",
    "address_councildis": "C",
    "status": "Assigned to Contractor",
    "contractor": "Richards Disposal",
    "rowid": "1056873",
    "final_x": "3701907.40401",
    "final_y": "518044.406454",
    "longitude": "-90.0041251406485",
    "latitude": "29.917807114215616",
    "geocoded_column": {
      "latitude": "29.917807114215616",
      "longitude": "-90.0041251406485"
    }
  },
  {
    "service_request": "2023-1056872",
    "request_type": "Trash/Recycling",
    "request_reason": "Dead Animal Pick Up",
    "date_created": "2023-12-20T14:45:23.000",
    "date_modified": "2023-12-20T14:45:52.000",
    "case_close_date": "2023-12-20T08:45:52.000",
    "request_status": "Closed",
    "responsible_agency": "Department of Sanitation",
    "final_address": "700 BLK Toulouse St",
    "address_councildis": "C",
    "status": "Assigned to Contractor",
    "contractor": "Empire Services",
    "contractor_action": "Completed",
    "rowid": "1056872",
    "final_x": "3682175.15235",
    "final_y": "532264.511702",
    "longitude": "-90.06591243203843",
    "latitude": "29.957522320311337",
    "geocoded_column": {
      "latitude": "29.957522320311337",
      "longitude": "-90.06591243203843"
    }
  },
  {
    "service_request": "2023-1056871",
    "request_type": "Trash/Recycling",
    "request_reason": "Order Trash Cart",
    "date_created": "2023-12-20T14:44:14.000",
    "date_modified": "2023-12-20T14:44:15.000",
    "request_status": "Pending",
    "responsible_agency": "Department of Sanitation",
    "final_address": "7650 Mackenzie St",
    "address_councildis": "E",
    "status": "Assigned to Contractor",
    "contractor": "Waste Pro",
    "rowid": "1056871",
    "final_x": "3710932.44229",
    "final_y": "566150.440675",
    "longitude": "-89.97383679919646",
    "latitude": "30.049789646800086",
    "geocoded_column": {
      "latitude": "30.049789646800086",
      "longitude": "-89.97383679919646"
    }
  },
  {
    "service_request": "2023-1056870",
    "request_type": "Trash/Recycling",
    "request_reason": "Illegal Dumping",
    "date_created": "2023-12-20T14:44:10.000",
    "date_modified": "2023-12-20T14:44:10.000",
    "request_status": "Pending",
    "responsible_agency": "Department of Sanitation",
    "final_address": "1 Clinton Dr",
    "address_councildis": "E",
    "status": "Pending",
    "rowid": "1056870",
    "final_x": "3784815.10149",
    "final_y": "606448.574728",
    "longitude": "-89.73855700134851",
    "latitude": "30.157971980703692",
    "geocoded_column": {
      "latitude": "30.157971980703692",
      "longitude": "-89.73855700134851"
    }
  },
  {
    "service_request": "2023-1056869",
    "request_type": "Trash/Recycling",
    "request_reason": "Illegal Dumping",
    "date_created": "2023-12-20T14:41:44.000",
    "date_modified": "2023-12-20T14:41:44.000",
    "request_status": "Pending",
    "responsible_agency": "Department of Sanitation",
    "final_address": "306 Dauphine St",
    "address_councildis": "C",
    "status": "Pending",
    "rowid": "1056869",
    "final_x": "3681147.83797",
    "final_y": "531765.183235",
    "longitude": "-90.06917378032723",
    "latitude": "29.95618054138094",
    "geocoded_column": {
      "latitude": "29.95618054138094",
      "longitude": "-90.06917378032723"
    }
  },
  {
    "service_request": "2023-1056868",
    "request_type": "Traffic Signals/Signs/Striping/Streetlights",
    "request_reason": "Traffic Sign Missing/Damaged",
    "date_created": "2023-12-20T14:41:16.000",
    "date_modified": "2023-12-20T14:41:17.000",
    "request_status": "Pending",
    "responsible_agency": "Department of Public Works",
    "final_address": "POYDRAS ST & S RAMPART ST",
    "address_councildis": "B",
    "status": "Pending",
    "rowid": "1056868",
    "final_x": "3679345.5",
    "final_y": "529731.08",
    "longitude": "-90.07493549297178",
    "latitude": "29.95064199445319",
    "geocoded_column": {
      "latitude": "29.95064199445319",
      "longitude": "-90.07493549297178"
    }
  },
  {
    "service_request": "2023-1056867",
    "request_type": "Roads/Drainage",
    "request_reason": "Pothole",
    "date_created": "2023-12-20T14:40:19.000",
    "date_modified": "2023-12-20T14:40:19.000",
    "request_status": "Pending",
    "responsible_agency": "Department of Public Works",
    "final_address": "5312 Wilton Dr",
    "address_councildis": "D",
    "status": "Pending",
    "rowid": "1056867",
    "final_x": "3681845.3862",
    "final_y": "552464.31791",
    "longitude": "-90.06624839250364",
    "latitude": "30.013074717112026",
    "geocoded_column": {
      "latitude": "30.013074717112026",
      "longitude": "-90.06624839250364"
    }
  },
  {
    "service_request": "2023-1056866",
    "request_type": "Trash/Recycling",
    "request_reason": "Illegal Dumping",
    "date_created": "2023-12-20T14:39:42.000",
    "date_modified": "2023-12-20T14:39:42.000",
    "request_status": "Pending",
    "responsible_agency": "Department of Sanitation",
    "final_address": "1001 Bienville St",
    "address_councildis": "C",
    "status": "Pending",
    "rowid": "1056866",
    "final_x": "3680778.36283",
    "final_y": "532010.867203",
    "longitude": "-90.07033190612033",
    "latitude": "29.95686729223023",
    "geocoded_column": {
      "latitude": "29.95686729223023",
      "longitude": "-90.07033190612033"
    }
  },
  {
    "service_request": "2023-1056865",
    "request_type": "Tax and Revenue",
    "request_reason": "Business Renewal",
    "date_created": "2023-12-20T14:36:54.000",
    "date_modified": "2023-12-20T14:36:54.000",
    "request_status": "Pending",
    "responsible_agency": "Bureau of Revenue",
    "final_address": "1458 N Broad St",
    "address_councildis": "D",
    "status": "Pending",
    "rowid": "1056865",
    "final_x": "3678543.48917",
    "final_y": "539306.353226",
    "longitude": "-90.0771363753484",
    "latitude": "29.976994936031407",
    "geocoded_column": {
      "latitude": "29.976994936031407",
      "longitude": "-90.0771363753484"
    }
  },
  {
    "service_request": "2023-1056864",
    "request_type": "Safety & Permits",
    "request_reason": "Healthy Homes",
    "date_created": "2023-12-20T14:33:53.000",
    "date_modified": "2023-12-20T14:33:53.000",
    "request_status": "Pending",
    "responsible_agency": "Safety and Permits",
    "final_address": "5909 St Claude Ave Apt 209",
    "address_councildis": "E",
    "status": "Pending",
    "rowid": "1056864",
    "final_x": "3699083.2689",
    "final_y": "533726.602117",
    "longitude": "-90.01246871127637",
    "latitude": "29.961017472006713",
    "geocoded_column": {
      "latitude": "29.961017472006713",
      "longitude": "-90.01246871127637"
    }
  },
  {
    "service_request": "2023-1056863",
    "request_type": "Trash/Recycling",
    "request_reason": "Dead Animal Pick Up",
    "date_created": "2023-12-20T14:32:49.000",
    "date_modified": "2023-12-20T14:33:05.000",
    "case_close_date": "2023-12-20T08:33:05.000",
    "request_status": "Closed",
    "responsible_agency": "Department of Sanitation",
    "final_address": "727 Barracks St",
    "address_councildis": "C",
    "status": "Assigned to Contractor",
    "contractor": "Empire Services",
    "contractor_action": "Completed",
    "rowid": "1056863",
    "final_x": "3683722.57679",
    "final_y": "534346.183237",
    "longitude": "-90.0609531382493",
    "latitude": "29.96319904906756",
    "geocoded_column": {
      "latitude": "29.96319904906756",
      "longitude": "-90.0609531382493"
    }
  },
  {
    "service_request": "2023-1056862",
    "request_type": "Trash/Recycling",
    "request_reason": "Request a Large Item Pick Up",
    "date_created": "2023-12-20T14:32:13.000",
    "date_modified": "2023-12-20T14:32:14.000",
    "request_status": "Pending",
    "responsible_agency": "Department of Sanitation",
    "final_address": "5472 Grand Bayou Dr",
    "address_councildis": "E",
    "status": "Assigned to Contractor",
    "contractor": "Waste Pro",
    "rowid": "1056862",
    "final_x": "3725513.15852",
    "final_y": "563428.62672",
    "longitude": "-89.92785880504294",
    "latitude": "30.04182206024453",
    "geocoded_column": {
      "latitude": "30.04182206024453",
      "longitude": "-89.92785880504294"
    }
  },
  {
    "service_request": "2023-1056861",
    "request_type": "Trash/Recycling",
    "request_reason": "Dead Animal Pick Up",
    "date_created": "2023-12-20T14:29:33.000",
    "date_modified": "2023-12-20T14:29:33.000",
    "request_status": "Pending",
    "responsible_agency": "Department of Sanitation",
    "final_address": "900 BLK Philip St",
    "address_councildis": "B",
    "status": "Assigned to Contractor",
    "contractor": "Richards Disposal",
    "rowid": "1056861",
    "final_x": "3678882.28754",
    "final_y": "521402.336248",
    "longitude": "-90.0766864900132",
    "latitude": "29.927754683975785",
    "geocoded_column": {
      "latitude": "29.927754683975785",
      "longitude": "-90.0766864900132"
    }
  },
  {
    "service_request": "2023-1056860",
    "request_type": "Roads/Drainage",
    "request_reason": "Damaged Sidewalk",
    "date_created": "2023-12-20T14:26:40.000",
    "date_modified": "2023-12-20T14:26:40.000",
    "request_status": "Pending",
    "responsible_agency": "Department of Public Works",
    "final_address": "3228 Chestnut St",
    "address_councildis": "B",
    "status": "Pending",
    "rowid": "1056860",
    "final_x": "3675263.14216",
    "final_y": "520511.74444",
    "longitude": "-90.08814183715248",
    "latitude": "29.925414486296614",
    "geocoded_column": {
      "latitude": "29.925414486296614",
      "longitude": "-90.08814183715248"
    }
  },
  {
    "service_request": "2023-1056859",
    "request_type": "Trash/Recycling",
    "request_reason": "Dead Animal Pick Up",
    "date_created": "2023-12-20T14:26:18.000",
    "date_modified": "2023-12-20T14:28:12.000",
    "case_close_date": "2023-12-20T08:28:12.000",
    "request_status": "Closed",
    "responsible_agency": "Department of Sanitation",
    "final_address": "628 Toulouse St",
    "address_councildis": "C",
    "status": "Assigned to Contractor",
    "contractor": "Empire Services",
    "contractor_action": "Completed",
    "rowid": "1056859",
    "final_x": "3682386.75279",
    "final_y": "532046.980163",
    "longitude": "-90.0652518629234",
    "latitude": "29.956917745298313",
    "geocoded_column": {
      "latitude": "29.956917745298313",
      "longitude": "-90.0652518629234"
    }
  },
  {
    "service_request": "2023-1056858",
    "request_type": "Trash/Recycling",
    "request_reason": "Dead Animal Pick Up",
    "date_created": "2023-12-20T14:24:15.000",
    "date_modified": "2023-12-20T14:25:05.000",
    "case_close_date": "2023-12-20T08:25:05.000",
    "request_status": "Closed",
    "responsible_agency": "Department of Sanitation",
    "final_address": "923 Barracks St",
    "address_councildis": "C",
    "status": "Assigned to Contractor",
    "contractor": "Empire Services",
    "contractor_action": "Completed",
    "rowid": "1056858",
    "final_x": "3683182.07503",
    "final_y": "534772.594822",
    "longitude": "-90.06264504510952",
    "latitude": "29.96438802651592",
    "geocoded_column": {
      "latitude": "29.96438802651592",
      "longitude": "-90.06264504510952"
    }
  },
  {
    "service_request": "2023-1056857",
    "request_type": "Abandoned Vehicles",
    "request_reason": "Abandoned/Junk Vehicles",
    "date_created": "2023-12-20T14:21:20.000",
    "date_modified": "2023-12-20T14:21:20.000",
    "request_status": "Pending",
    "responsible_agency": "Department of Public Works",
    "final_address": "6332 Louis Xiv St",
    "address_councildis": "A",
    "status": "Pending",
    "rowid": "1056857",
    "final_x": "3668218.68858",
    "final_y": "549627.028628",
    "longitude": "-90.10939733265697",
    "latitude": "30.00568045748069",
    "geocoded_column": {
      "latitude": "30.00568045748069",
      "longitude": "-90.10939733265697"
    }
  },
  {
    "service_request": "2023-1056856",
    "request_type": "Trash/Recycling",
    "request_reason": "Dead Animal Pick Up",
    "date_created": "2023-12-20T14:17:56.000",
    "date_modified": "2023-12-20T14:18:22.000",
    "case_close_date": "2023-12-20T08:18:22.000",
    "request_status": "Closed",
    "responsible_agency": "Department of Sanitation",
    "final_address": "317 Burgundy St",
    "address_councildis": "C",
    "status": "Assigned to Contractor",
    "contractor": "Empire Services",
    "contractor_action": "Completed",
    "rowid": "1056856",
    "final_x": "3680899.59823",
    "final_y": "532116.752387",
    "longitude": "-90.0699453968019",
    "latitude": "29.95715476560049",
    "geocoded_column": {
      "latitude": "29.95715476560049",
      "longitude": "-90.0699453968019"
    }
  },
  {
    "service_request": "2023-1056855",
    "request_type": "Trash/Recycling",
    "request_reason": "Missed Trash Pick-Up",
    "date_created": "2023-12-20T14:11:31.000",
    "date_modified": "2023-12-20T14:11:32.000",
    "request_status": "Pending",
    "responsible_agency": "Department of Sanitation",
    "final_address": "707 St Maurice Ave",
    "address_councildis": "E",
    "status": "Assigned to Contractor",
    "contractor": "Waste Pro",
    "rowid": "1056855",
    "final_x": "3699335.77712",
    "final_y": "531818.661507",
    "longitude": "-90.01174083236916",
    "latitude": "29.95576330744722",
    "geocoded_column": {
      "latitude": "29.95576330744722",
      "longitude": "-90.01174083236916"
    }
  },
  {
    "service_request": "2023-1056854",
    "request_type": "Trash/Recycling",
    "request_reason": "Replace Trash Cart",
    "date_created": "2023-12-20T14:06:56.000",
    "date_modified": "2023-12-20T14:06:57.000",
    "request_status": "Pending",
    "responsible_agency": "Department of Sanitation",
    "final_address": "8029 Trapier Ave",
    "address_councildis": "E",
    "status": "Assigned to Contractor",
    "contractor": "Waste Pro",
    "rowid": "1056854",
    "final_x": "3706005.39275",
    "final_y": "564753.685538",
    "longitude": "-89.98946100667037",
    "latitude": "30.0461089431844",
    "geocoded_column": {
      "latitude": "30.0461089431844",
      "longitude": "-89.98946100667037"
    }
  },
  {
    "service_request": "2023-1056853",
    "request_type": "Trash/Recycling",
    "request_reason": "Missed Trash Pick-Up",
    "date_created": "2023-12-20T14:05:56.000",
    "date_modified": "2023-12-20T14:37:52.000",
    "case_close_date": "2023-12-20T08:37:52.000",
    "request_status": "Closed",
    "responsible_agency": "Department of Sanitation",
    "final_address": "6143 Pratt Dr",
    "address_councildis": "D",
    "status": "Assigned to Contractor",
    "contractor": "IV Waste",
    "contractor_action": "Completed",
    "rowid": "1056853",
    "final_x": "3680218.05103",
    "final_y": "555315.503577",
    "longitude": "-90.07129067827766",
    "latitude": "30.020963822295766",
    "geocoded_column": {
      "latitude": "30.020963822295766",
      "longitude": "-90.07129067827766"
    }
  },
  {
    "service_request": "2023-1056852",
    "request_type": "Trash/Recycling",
    "request_reason": "Replace Recycling Cart",
    "date_created": "2023-12-20T14:02:14.000",
    "date_modified": "2023-12-20T14:02:15.000",
    "request_status": "Pending",
    "responsible_agency": "Department of Sanitation",
    "final_address": "3162 N Villere St",
    "address_councildis": "C",
    "status": "Pending",
    "rowid": "1056852",
    "final_x": "3689761.28713",
    "final_y": "536952.231176",
    "longitude": "-90.04179089493041",
    "latitude": "29.97017900536987",
    "geocoded_column": {
      "latitude": "29.97017900536987",
      "longitude": "-90.04179089493041"
    }
  },
  {
    "service_request": "2023-1056851",
    "request_type": "Trash/Recycling",
    "request_reason": "Missed Trash Pick-Up",
    "date_created": "2023-12-20T14:01:50.000",
    "date_modified": "2023-12-20T14:45:32.000",
    "case_close_date": "2023-12-20T08:45:32.000",
    "request_status": "Closed",
    "responsible_agency": "Department of Sanitation",
    "final_address": "2510 Madrid St",
    "address_councildis": "D",
    "status": "Invalid Request",
    "contractor": "IV Waste",
    "contractor_action": "Invalid Pick-Up",
    "rowid": "1056851",
    "final_x": "3685786.43586",
    "final_y": "555462.387289",
    "longitude": "-90.05369103395849",
    "latitude": "30.02119788519782",
    "geocoded_column": {
      "latitude": "30.02119788519782",
      "longitude": "-90.05369103395849"
    }
  },
  {
    "service_request": "2023-1056850",
    "request_type": "Trash/Recycling",
    "request_reason": "Repair Recycling Cart",
    "date_created": "2023-12-20T14:01:38.000",
    "date_modified": "2023-12-20T14:01:39.000",
    "request_status": "Pending",
    "responsible_agency": "Department of Sanitation",
    "final_address": "3164 N Villere St",
    "address_councildis": "C",
    "status": "Pending",
    "rowid": "1056850",
    "final_x": "3689771.26864",
    "final_y": "536950.494792",
    "longitude": "-90.04175943419142",
    "latitude": "29.970173921564754",
    "geocoded_column": {
      "latitude": "29.970173921564754",
      "longitude": "-90.04175943419142"
    }
  },
  {
    "service_request": "2023-1056849",
    "request_type": "Trash/Recycling",
    "request_reason": "Missed Trash Pick-Up",
    "date_created": "2023-12-20T14:00:48.000",
    "date_modified": "2023-12-20T14:09:30.000",
    "case_close_date": "2023-12-20T08:09:30.000",
    "request_status": "Closed",
    "responsible_agency": "Department of Sanitation",
    "final_address": "7400 BLK Sardonyx St",
    "address_councildis": "D",
    "status": "Invalid Request",
    "contractor": "IV Waste",
    "contractor_action": "Additional information required from resident",
    "rowid": "1056849",
    "final_x": "3669656.88375",
    "final_y": "556318.339579",
    "longitude": "-90.10462705066324",
    "latitude": "30.024036878027278",
    "geocoded_column": {
      "latitude": "30.024036878027278",
      "longitude": "-90.10462705066324"
    }
  },
  {
    "service_request": "2023-1056848",
    "request_type": "Trash/Recycling",
    "request_reason": "MIssed Recycling Pick-Up",
    "date_created": "2023-12-20T13:46:15.000",
    "date_modified": "2023-12-20T14:47:36.000",
    "case_close_date": "2023-12-20T08:47:36.000",
    "request_status": "Closed",
    "responsible_agency": "Department of Sanitation",
    "final_address": "5921 Louisville St",
    "address_councildis": "A",
    "status": "Invalid Request",
    "contractor": "IV Waste",
    "contractor_action": "Invalid Request",
    "rowid": "1056848",
    "final_x": "3667763.65575",
    "final_y": "546862.427857",
    "longitude": "-90.11092806652502",
    "latitude": "29.998092119883914",
    "geocoded_column": {
      "latitude": "29.998092119883914",
      "longitude": "-90.11092806652502"
    }
  },
  {
    "service_request": "2023-1056847",
    "request_type": "Trash/Recycling",
    "request_reason": "Replace Trash Cart",
    "date_created": "2023-12-20T13:44:43.000",
    "date_modified": "2023-12-20T13:44:44.000",
    "request_status": "Pending",
    "responsible_agency": "Department of Sanitation",
    "final_address": "2227 Chestnut St",
    "address_councildis": "B",
    "status": "Assigned to Contractor",
    "contractor": "Richards Disposal",
    "rowid": "1056847",
    "final_x": "3678179.64302",
    "final_y": "522525.489594",
    "longitude": "-90.07886575599632",
    "latitude": "29.93086415896054",
    "geocoded_column": {
      "latitude": "29.93086415896054",
      "longitude": "-90.07886575599632"
    }
  },
  {
    "service_request": "2023-1056846",
    "request_type": "Trash/Recycling",
    "request_reason": "Request a Large Item Pick Up",
    "date_created": "2023-12-20T13:42:45.000",
    "date_modified": "2023-12-20T13:42:46.000",
    "request_status": "Pending",
    "responsible_agency": "Department of Sanitation",
    "final_address": "13 Pointe Coupee Pl",
    "address_councildis": "E",
    "status": "Assigned to Contractor",
    "contractor": "Waste Pro",
    "rowid": "1056846",
    "final_x": "3725495.20908",
    "final_y": "564595.172897",
    "longitude": "-89.92787031083031",
    "latitude": "30.04503018354516",
    "geocoded_column": {
      "latitude": "30.04503018354516",
      "longitude": "-89.92787031083031"
    }
  },
  {
    "service_request": "2023-1056845",
    "request_type": "Trash/Recycling",
    "request_reason": "Missed Trash Pick-Up",
    "date_created": "2023-12-20T13:35:51.000",
    "date_modified": "2023-12-20T13:35:51.000",
    "request_status": "Pending",
    "responsible_agency": "Department of Sanitation",
    "final_address": "2328 Ursulines Ave",
    "address_councildis": "D",
    "status": "Assigned to Contractor",
    "contractor": "Richards Disposal",
    "rowid": "1056845",
    "final_x": "3678749.15656",
    "final_y": "537195.416264",
    "longitude": "-90.07655993649146",
    "latitude": "29.971184384275006",
    "geocoded_column": {
      "latitude": "29.971184384275006",
      "longitude": "-90.07655993649146"
    }
  },
  {
    "service_request": "2023-1056844",
    "request_type": "Property Maintenance",
    "request_reason": "Property Maintenance",
    "date_created": "2023-12-20T13:31:49.000",
    "date_modified": "2023-12-20T13:31:49.000",
    "request_status": "Pending",
    "responsible_agency": "Department of Code Enforcement",
    "final_address": "4961 Tulip St",
    "address_councildis": "E",
    "status": "Pending",
    "rowid": "1056844",
    "final_x": "3701993.67869",
    "final_y": "555585.537881",
    "longitude": "-90.00247652432215",
    "latitude": "30.021028866156612",
    "geocoded_column": {
      "latitude": "30.021028866156612",
      "longitude": "-90.00247652432215"
    }
  },
  {
    "service_request": "2023-1056843",
    "request_type": "Trash/Recycling",
    "request_reason": "Request a Large Item Pick Up",
    "date_created": "2023-12-20T13:20:57.000",
    "date_modified": "2023-12-20T13:20:58.000",
    "request_status": "Pending",
    "responsible_agency": "Department of Sanitation",
    "final_address": "1002 Delery St",
    "address_councildis": "E",
    "status": "Assigned to Contractor",
    "contractor": "Waste Pro",
    "rowid": "1056843",
    "final_x": "3700239.02404",
    "final_y": "532581.428676",
    "longitude": "-90.00886087456489",
    "latitude": "29.957831969362832",
    "geocoded_column": {
      "latitude": "29.957831969362832",
      "longitude": "-90.00886087456489"
    }
  },
  {
    "service_request": "2023-1056842",
    "request_type": "Trash/Recycling",
    "request_reason": "Start Trash Service",
    "date_created": "2023-12-20T13:19:31.000",
    "date_modified": "2023-12-20T13:19:32.000",
    "request_status": "Pending",
    "responsible_agency": "Department of Sanitation",
    "final_address": "7919 Willow St",
    "address_councildis": "A",
    "status": "Assigned to Contractor",
    "contractor": "Richards Disposal",
    "rowid": "1056842",
    "final_x": "3662926.16397",
    "final_y": "528505.553792",
    "longitude": "-90.12682031898166",
    "latitude": "29.947757804071237",
    "geocoded_column": {
      "latitude": "29.947757804071237",
      "longitude": "-90.12682031898166"
    }
  },
  {
    "service_request": "2023-1056841",
    "request_type": "Trash/Recycling",
    "request_reason": "Order Trash Cart",
    "date_created": "2023-12-20T13:18:29.000",
    "date_modified": "2023-12-20T13:18:30.000",
    "request_status": "Pending",
    "responsible_agency": "Department of Sanitation",
    "final_address": "2010 Clouet St Apt B",
    "address_councildis": "D",
    "status": "Assigned to Contractor",
    "contractor": "IV Waste",
    "rowid": "1056841",
    "final_x": "3689798.76816",
    "final_y": "539505.977674",
    "longitude": "-90.04158160645275",
    "latitude": "29.977199744521947",
    "geocoded_column": {
      "latitude": "29.977199744521947",
      "longitude": "-90.04158160645275"
    }
  },
  {
    "service_request": "2023-1056840",
    "request_type": "Trash/Recycling",
    "request_reason": "Order Recycling Cart",
    "date_created": "2023-12-20T13:17:26.000",
    "date_modified": "2023-12-20T13:17:26.000",
    "request_status": "Pending",
    "responsible_agency": "Department of Sanitation",
    "final_address": "8013 Lafourche St",
    "address_councildis": "E",
    "status": "Pending",
    "rowid": "1056840",
    "final_x": "3709507.18808",
    "final_y": "566764.837155",
    "longitude": "-89.97831848856349",
    "latitude": "30.05152540833414",
    "geocoded_column": {
      "latitude": "30.05152540833414",
      "longitude": "-89.97831848856349"
    }
  },
  {
    "service_request": "2023-1056839",
    "request_type": "Roads/Drainage",
    "request_reason": "Culvert Issue",
    "date_created": "2023-12-20T13:04:40.000",
    "date_modified": "2023-12-20T13:04:40.000",
    "request_status": "Pending",
    "responsible_agency": "Department of Public Works",
    "final_address": "3701 Jackson St",
    "address_councildis": "C",
    "status": "Pending",
    "rowid": "1056839",
    "final_x": "3712904.00722",
    "final_y": "515900.907636",
    "longitude": "-89.96949583411298",
    "latitude": "29.911557907773698",
    "geocoded_column": {
      "latitude": "29.911557907773698",
      "longitude": "-89.96949583411298"
    }
  },
  {
    "service_request": "2023-1056838",
    "request_type": "Trash/Recycling",
    "request_reason": "Request a Large Item Pick Up",
    "date_created": "2023-12-20T13:03:02.000",
    "date_modified": "2023-12-20T13:03:03.000",
    "request_status": "Pending",
    "responsible_agency": "Department of Sanitation",
    "final_address": "6409 Louis Xiv St",
    "address_councildis": "A",
    "status": "Assigned to Contractor",
    "contractor": "IV Waste",
    "rowid": "1056838",
    "final_x": "3668393.85735",
    "final_y": "550184.316564",
    "longitude": "-90.1088251179191",
    "latitude": "30.00720765891034",
    "geocoded_column": {
      "latitude": "30.00720765891034",
      "longitude": "-90.1088251179191"
    }
  },
  {
    "service_request": "2023-1056837",
    "request_type": "Roads/Drainage",
    "request_reason": "Culvert Issue",
    "date_created": "2023-12-20T13:01:34.000",
    "date_modified": "2023-12-20T13:01:34.000",
    "request_status": "Pending",
    "responsible_agency": "Department of Public Works",
    "final_address": "3701 Jackson St",
    "address_councildis": "C",
    "status": "Pending",
    "rowid": "1056837",
    "final_x": "3712904.00722",
    "final_y": "515900.907636",
    "longitude": "-89.96949583411298",
    "latitude": "29.911557907773698",
    "geocoded_column": {
      "latitude": "29.911557907773698",
      "longitude": "-89.96949583411298"
    }
  },
  {
    "service_request": "2023-1056836",
    "request_type": "Trash/Recycling",
    "request_reason": "Request a Large Item Pick Up",
    "date_created": "2023-12-20T12:54:14.000",
    "date_modified": "2023-12-20T12:54:15.000",
    "request_status": "Pending",
    "responsible_agency": "Department of Sanitation",
    "final_address": "1830 Martin Luther King, Jr. Blvd",
    "address_councildis": "B",
    "status": "Assigned to Contractor",
    "contractor": "Richards Disposal",
    "rowid": "1056836",
    "final_x": "3678140.59259",
    "final_y": "526149.686078",
    "longitude": "-90.07886377546969",
    "latitude": "29.94083068271841",
    "geocoded_column": {
      "latitude": "29.94083068271841",
      "longitude": "-90.07886377546969"
    }
  },
  {
    "service_request": "2023-1056835",
    "request_type": "Safety & Permits",
    "request_reason": "Licenses & Permits",
    "date_created": "2023-12-20T12:51:49.000",
    "date_modified": "2023-12-20T12:51:50.000",
    "request_status": "Pending",
    "responsible_agency": "Safety and Permits",
    "final_address": "3187 Desaix Blvd",
    "address_councildis": "D",
    "status": "Pending",
    "rowid": "1056835",
    "final_x": "3678383.99182",
    "final_y": "543669.473742",
    "longitude": "-90.07748908855194",
    "latitude": "29.98899680898177",
    "geocoded_column": {
      "latitude": "29.98899680898177",
      "longitude": "-90.07748908855194"
    }
  },
  {
    "service_request": "2023-1056834",
    "request_type": "Abandoned Vehicles",
    "request_reason": "Abandoned/Junk Vehicles",
    "date_created": "2023-12-20T12:47:50.000",
    "date_modified": "2023-12-20T12:47:51.000",
    "request_status": "Pending",
    "responsible_agency": "Department of Public Works",
    "final_address": "2185 N Tonti St",
    "address_councildis": "D",
    "status": "Pending",
    "rowid": "1056834",
    "final_x": "3684323.52348",
    "final_y": "540731.609675",
    "longitude": "-90.05883113547657",
    "latitude": "29.980738387887214",
    "geocoded_column": {
      "latitude": "29.980738387887214",
      "longitude": "-90.05883113547657"
    }
  },
  {
    "service_request": "2023-1056833",
    "request_type": "Trash/Recycling",
    "request_reason": "Replace Trash Cart",
    "date_created": "2023-12-20T12:43:02.000",
    "date_modified": "2023-12-20T12:43:02.000",
    "request_status": "Pending",
    "responsible_agency": "Department of Sanitation",
    "final_address": "4105 Elba St",
    "address_councildis": "B",
    "status": "Assigned to Contractor",
    "contractor": "Richards Disposal",
    "rowid": "1056833",
    "final_x": "3670597.78823",
    "final_y": "529964.734081",
    "longitude": "-90.10254842019313",
    "latitude": "29.951545728057816",
    "geocoded_column": {
      "latitude": "29.951545728057816",
      "longitude": "-90.10254842019313"
    }
  },
  {
    "service_request": "2023-1056832",
    "request_type": "Trash/Recycling",
    "request_reason": "Repair Trash Cart",
    "date_created": "2023-12-20T12:41:52.000",
    "date_modified": "2023-12-20T12:41:53.000",
    "request_status": "Pending",
    "responsible_agency": "Department of Sanitation",
    "final_address": "4105 Elba St",
    "address_councildis": "B",
    "status": "Assigned to Contractor",
    "contractor": "Richards Disposal",
    "rowid": "1056832",
    "final_x": "3670597.78823",
    "final_y": "529964.734081",
    "longitude": "-90.10254842019313",
    "latitude": "29.951545728057816",
    "geocoded_column": {
      "latitude": "29.951545728057816",
      "longitude": "-90.10254842019313"
    }
  },
  {
    "service_request": "2023-1056831",
    "request_type": "Roads/Drainage",
    "request_reason": "Catch Basin - Clogged",
    "date_created": "2023-12-20T12:41:00.000",
    "date_modified": "2023-12-20T12:41:00.000",
    "request_status": "Pending",
    "responsible_agency": "Department of Public Works",
    "final_address": "2026 Chestnut St",
    "address_councildis": "B",
    "status": "Pending",
    "rowid": "1056831",
    "final_x": "3678886.36078",
    "final_y": "522995.002299",
    "longitude": "-90.07661849018102",
    "latitude": "29.932133871368038",
    "geocoded_column": {
      "latitude": "29.932133871368038",
      "longitude": "-90.07661849018102"
    }
  },
  {
    "service_request": "2023-1056830",
    "request_type": "Trash/Recycling",
    "request_reason": "Missed Trash Pick-Up",
    "date_created": "2023-12-20T12:36:57.000",
    "date_modified": "2023-12-20T14:46:43.000",
    "case_close_date": "2023-12-20T08:46:43.000",
    "request_status": "Closed",
    "responsible_agency": "Department of Sanitation",
    "final_address": "745 Jewel St",
    "address_councildis": "D",
    "status": "Assigned to Contractor",
    "contractor": "IV Waste",
    "contractor_action": "Completed",
    "rowid": "1056830",
    "final_x": "3669780.80852",
    "final_y": "555976.179737",
    "longitude": "-90.10424706789549",
    "latitude": "30.02309240627486",
    "geocoded_column": {
      "latitude": "30.02309240627486",
      "longitude": "-90.10424706789549"
    }
  },
  {
    "service_request": "2023-1056829",
    "request_type": "Trash/Recycling",
    "request_reason": "Request a Large Item Pick Up",
    "date_created": "2023-12-20T12:31:11.000",
    "date_modified": "2023-12-20T12:31:12.000",
    "request_status": "Pending",
    "responsible_agency": "Department of Sanitation",
    "final_address": "6080 Brighton Pl",
    "address_councildis": "C",
    "status": "Assigned to Contractor",
    "contractor": "Richards Disposal",
    "rowid": "1056829",
    "final_x": "3706615.05233",
    "final_y": "520145.827384",
    "longitude": "-89.98918801222887",
    "latitude": "29.923434291759634",
    "geocoded_column": {
      "latitude": "29.923434291759634",
      "longitude": "-89.98918801222887"
    }
  },
  {
    "service_request": "2023-1056828",
    "request_type": "Trash/Recycling",
    "request_reason": "MIssed Recycling Pick-Up",
    "date_created": "2023-12-20T12:30:39.000",
    "date_modified": "2023-12-20T12:30:40.000",
    "request_status": "Pending",
    "responsible_agency": "Department of Sanitation",
    "final_address": "5236 Revel St",
    "address_councildis": "E",
    "status": "Assigned to Contractor",
    "contractor": "Waste Pro",
    "rowid": "1056828",
    "final_x": "3725040.1687",
    "final_y": "562683.318944",
    "longitude": "-89.9293824679228",
    "latitude": "30.03978871568909",
    "geocoded_column": {
      "latitude": "30.03978871568909",
      "longitude": "-89.9293824679228"
    }
  },
  {
    "service_request": "2023-1056827",
    "request_type": "Roads/Drainage",
    "request_reason": "Man hole cover issue",
    "date_created": "2023-12-20T12:25:27.000",
    "date_modified": "2023-12-20T12:25:28.000",
    "request_status": "Pending",
    "responsible_agency": "Department of Public Works",
    "final_address": "3100 Napoleon Ave",
    "address_councildis": "B",
    "status": "Pending",
    "rowid": "1056827",
    "final_x": "3670175.66708",
    "final_y": "526283.43155",
    "longitude": "-90.10400598460193",
    "latitude": "29.941435808045775",
    "geocoded_column": {
      "latitude": "29.941435808045775",
      "longitude": "-90.10400598460193"
    }
  },
  {
    "service_request": "2023-1056826",
    "request_type": "Trash/Recycling",
    "request_reason": "MIssed Recycling Pick-Up",
    "date_created": "2023-12-20T12:23:50.000",
    "date_modified": "2023-12-20T12:23:51.000",
    "request_status": "Pending",
    "responsible_agency": "Department of Sanitation",
    "final_address": "2504 St Ann St",
    "address_councildis": "D",
    "status": "Assigned to Contractor",
    "contractor": "Richards Disposal",
    "rowid": "1056826",
    "final_x": "3677663.45966",
    "final_y": "536615.768583",
    "longitude": "-90.08000874022649",
    "latitude": "29.969623249663062",
    "geocoded_column": {
      "latitude": "29.969623249663062",
      "longitude": "-90.08000874022649"
    }
  },
  {
    "service_request": "2023-1056825",
    "request_type": "Roads/Drainage",
    "request_reason": "Damaged Sidewalk",
    "date_created": "2023-12-20T12:22:00.000",
    "date_modified": "2023-12-20T12:22:01.000",
    "request_status": "Pending",
    "responsible_agency": "Department of Public Works",
    "final_address": "3100 Napoleon Ave",
    "address_councildis": "B",
    "status": "Pending",
    "rowid": "1056825",
    "final_x": "3670175.66708",
    "final_y": "526283.43155",
    "longitude": "-90.10400598460193",
    "latitude": "29.941435808045775",
    "geocoded_column": {
      "latitude": "29.941435808045775",
      "longitude": "-90.10400598460193"
    }
  },
  {
    "service_request": "2023-1056824",
    "request_type": "Abandoned Vehicles",
    "request_reason": "Abandoned/Junk Vehicles",
    "date_created": "2023-12-20T12:18:06.000",
    "date_modified": "2023-12-20T12:18:06.000",
    "request_status": "Pending",
    "responsible_agency": "Department of Public Works",
    "final_address": "2300 BLK Saint Ann St",
    "address_councildis": "D",
    "status": "Pending",
    "rowid": "1056824",
    "final_x": "3678151.98618",
    "final_y": "536282.851763",
    "longitude": "-90.07847744458155",
    "latitude": "29.968693140235214",
    "geocoded_column": {
      "latitude": "29.968693140235214",
      "longitude": "-90.07847744458155"
    }
  },
  {
    "service_request": "2023-1056823",
    "request_type": "Traffic Signals/Signs/Striping/Streetlights",
    "request_reason": "Street Light Outage/Malfunction",
    "date_created": "2023-12-20T12:15:56.000",
    "date_modified": "2023-12-20T12:15:57.000",
    "request_status": "Pending",
    "responsible_agency": "Department of Public Works",
    "final_address": "6000 BLK Warwick Ct",
    "address_councildis": "C",
    "status": "Assigned to Contractor",
    "contractor": "Legacy Professional Services",
    "rowid": "1056823",
    "final_x": "3706353.14369",
    "final_y": "515883.207523",
    "longitude": "-89.99017247843945",
    "latitude": "29.911722009872022",
    "geocoded_column": {
      "latitude": "29.911722009872022",
      "longitude": "-89.99017247843945"
    }
  },
  {
    "service_request": "2023-1056822",
    "request_type": "Trash/Recycling",
    "request_reason": "MIssed Recycling Pick-Up",
    "date_created": "2023-12-20T12:11:19.000",
    "date_modified": "2023-12-20T12:11:20.000",
    "request_status": "Pending",
    "responsible_agency": "Department of Sanitation",
    "final_address": "217 Broadway St",
    "address_councildis": "A",
    "status": "Assigned to Contractor",
    "contractor": "Richards Disposal",
    "rowid": "1056822",
    "final_x": "3661214.5417",
    "final_y": "522003.855866",
    "longitude": "-90.1324397633527",
    "latitude": "29.92992963627772",
    "geocoded_column": {
      "latitude": "29.92992963627772",
      "longitude": "-90.1324397633527"
    }
  },
  {
    "service_request": "2023-1056821",
    "request_type": "Trash/Recycling",
    "request_reason": "Missed Trash Pick-Up",
    "date_created": "2023-12-20T12:10:55.000",
    "date_modified": "2023-12-20T12:10:56.000",
    "request_status": "Pending",
    "responsible_agency": "Department of Sanitation",
    "final_address": "217 Broadway St",
    "address_councildis": "A",
    "status": "Assigned to Contractor",
    "contractor": "Richards Disposal",
    "rowid": "1056821",
    "final_x": "3661214.5417",
    "final_y": "522003.855866",
    "longitude": "-90.1324397633527",
    "latitude": "29.92992963627772",
    "geocoded_column": {
      "latitude": "29.92992963627772",
      "longitude": "-90.1324397633527"
    }
  },
  {
    "service_request": "2023-1056820",
    "request_type": "Abandoned Vehicles",
    "request_reason": "Abandoned/Junk Vehicles",
    "date_created": "2023-12-20T12:10:05.000",
    "date_modified": "2023-12-20T12:10:05.000",
    "request_status": "Pending",
    "responsible_agency": "Department of Public Works",
    "final_address": "2230 St Ann St",
    "address_councildis": "D",
    "status": "Pending",
    "rowid": "1056820",
    "final_x": "3678336.1396",
    "final_y": "536066.446791",
    "longitude": "-90.0779033651563",
    "latitude": "29.968092553830004",
    "geocoded_column": {
      "latitude": "29.968092553830004",
      "longitude": "-90.0779033651563"
    }
  },
  {
    "service_request": "2023-1056819",
    "request_type": "Trash/Recycling",
    "request_reason": "Repair Recycling Cart",
    "date_created": "2023-12-20T12:07:19.000",
    "date_modified": "2023-12-20T12:07:20.000",
    "request_status": "Pending",
    "responsible_agency": "Department of Sanitation",
    "final_address": "4800 Mithra St",
    "address_councildis": "D",
    "status": "Pending",
    "rowid": "1056819",
    "final_x": "3691436.44028",
    "final_y": "553541.454871",
    "longitude": "-90.03590739360872",
    "latitude": "30.015741332444673",
    "geocoded_column": {
      "latitude": "30.015741332444673",
      "longitude": "-90.03590739360872"
    }
  },
  {
    "service_request": "2023-1056818",
    "request_type": "Trash/Recycling",
    "request_reason": "Repair Trash Cart",
    "date_created": "2023-12-20T12:02:42.000",
    "date_modified": "2023-12-20T12:02:43.000",
    "request_status": "Pending",
    "responsible_agency": "Department of Sanitation",
    "final_address": "2027 Short St",
    "address_councildis": "A",
    "status": "Assigned to Contractor",
    "contractor": "Richards Disposal",
    "rowid": "1056818",
    "final_x": "3664376.53127",
    "final_y": "530292.699713",
    "longitude": "-90.1221812726259",
    "latitude": "29.952629806367412",
    "geocoded_column": {
      "latitude": "29.952629806367412",
      "longitude": "-90.1221812726259"
    }
  },
  {
    "service_request": "2023-1056817",
    "request_type": "Trash/Recycling",
    "request_reason": "Order Trash Cart",
    "date_created": "2023-12-20T12:01:05.000",
    "date_modified": "2023-12-20T12:01:05.000",
    "request_status": "Pending",
    "responsible_agency": "Department of Sanitation",
    "final_address": "4835 Bienville Ave",
    "address_councildis": "A",
    "status": "Assigned to Contractor",
    "contractor": "Richards Disposal",
    "rowid": "1056817",
    "final_x": "3669100.60954",
    "final_y": "540919.459723",
    "longitude": "-90.10690557385293",
    "latitude": "29.981711707567023",
    "geocoded_column": {
      "latitude": "29.981711707567023",
      "longitude": "-90.10690557385293"
    }
  },
  {
    "service_request": "2023-1056816",
    "request_type": "Trash/Recycling",
    "request_reason": "Replace Trash Cart",
    "date_created": "2023-12-20T11:56:21.000",
    "date_modified": "2023-12-20T11:56:22.000",
    "request_status": "Pending",
    "responsible_agency": "Department of Sanitation",
    "final_address": "3408 Mistletoe St",
    "address_councildis": "A",
    "status": "Assigned to Contractor",
    "contractor": "Richards Disposal",
    "rowid": "1056816",
    "final_x": "3664406.03008",
    "final_y": "536873.95092",
    "longitude": "-90.12186842025237",
    "latitude": "29.97072523459014",
    "geocoded_column": {
      "latitude": "29.97072523459014",
      "longitude": "-90.12186842025237"
    }
  },
  {
    "service_request": "2023-1056815",
    "request_type": "Trash/Recycling",
    "request_reason": "Request a Large Item Pick Up",
    "date_created": "2023-12-20T11:52:38.000",
    "date_modified": "2023-12-20T11:52:39.000",
    "request_status": "Pending",
    "responsible_agency": "Department of Sanitation",
    "final_address": "1638 Gentilly Blvd",
    "address_councildis": "D",
    "status": "Assigned to Contractor",
    "contractor": "IV Waste",
    "rowid": "1056815",
    "final_x": "3678549.02549",
    "final_y": "540950.679115",
    "longitude": "-90.07706195171528",
    "latitude": "29.981516096456573",
    "geocoded_column": {
      "latitude": "29.981516096456573",
      "longitude": "-90.07706195171528"
    }
  },
  {
    "service_request": "2023-1056814",
    "request_type": "Roads/Drainage",
    "request_reason": "Debris in Roadway",
    "date_created": "2023-12-20T11:46:59.000",
    "date_modified": "2023-12-20T11:46:59.000",
    "request_status": "Pending",
    "responsible_agency": "Department of Public Works",
    "final_address": "622 Dumaine St",
    "address_councildis": "C",
    "status": "Pending",
    "rowid": "1056814",
    "final_x": "3683119.80546",
    "final_y": "532919.60762",
    "longitude": "-90.06290656551317",
    "latitude": "29.9592948456913",
    "geocoded_column": {
      "latitude": "29.9592948456913",
      "longitude": "-90.06290656551317"
    }
  },
  {
    "service_request": "2023-1056812",
    "request_type": "Roads/Drainage",
    "request_reason": "Street Flooding / Drainage",
    "date_created": "2023-12-20T11:42:29.000",
    "date_modified": "2023-12-20T11:42:29.000",
    "request_status": "Pending",
    "responsible_agency": "Department of Public Works",
    "final_address": "7320 Shubrick Ave",
    "address_councildis": "E",
    "status": "Pending",
    "rowid": "1056812",
    "final_x": "3707142.78846",
    "final_y": "562915.41904",
    "longitude": "-89.98593460624575",
    "latitude": "30.041017714375638",
    "geocoded_column": {
      "latitude": "30.041017714375638",
      "longitude": "-89.98593460624575"
    }
  },
  {
    "service_request": "2023-1056811",
    "request_type": "Trash/Recycling",
    "request_reason": "Request a Large Item Pick Up",
    "date_created": "2023-12-20T11:26:19.000",
    "date_modified": "2023-12-20T11:26:20.000",
    "request_status": "Pending",
    "responsible_agency": "Department of Sanitation",
    "final_address": "2220 St Andrew St",
    "address_councildis": "B",
    "status": "Assigned to Contractor",
    "contractor": "Richards Disposal",
    "rowid": "1056811",
    "final_x": "3676624.0027",
    "final_y": "526069.447038",
    "longitude": "-90.08365468318925",
    "latitude": "29.940655619263502",
    "geocoded_column": {
      "latitude": "29.940655619263502",
      "longitude": "-90.08365468318925"
    }
  },
  {
    "service_request": "2023-1056810",
    "request_type": "Trash/Recycling",
    "request_reason": "Missed Trash Pick-Up",
    "date_created": "2023-12-20T11:20:19.000",
    "date_modified": "2023-12-20T12:05:41.000",
    "case_close_date": "2023-12-20T06:05:41.000",
    "request_status": "Closed",
    "responsible_agency": "Department of Sanitation",
    "final_address": "5647 Pauline Dr",
    "address_councildis": "D",
    "status": "Invalid Request",
    "contractor": "IV Waste",
    "contractor_action": "Invalid Pick-Up",
    "rowid": "1056810",
    "final_x": "3691964.32553",
    "final_y": "554933.643672",
    "longitude": "-90.03418964990033",
    "latitude": "30.019552886110638",
    "geocoded_column": {
      "latitude": "30.019552886110638",
      "longitude": "-90.03418964990033"
    }
  },
  {
    "service_request": "2023-1056809",
    "request_type": "Abandoned Vehicles",
    "request_reason": "Abandoned/Junk Vehicles",
    "date_created": "2023-12-20T11:18:53.000",
    "date_modified": "2023-12-20T12:02:43.000",
    "request_status": "Pending",
    "responsible_agency": "Department of Public Works",
    "final_address": "3232 Laurel St",
    "address_councildis": "B",
    "status": "Inspected",
    "rowid": "1056809",
    "final_x": "3675870.474",
    "final_y": "519171.087287",
    "longitude": "-90.08627073676406",
    "latitude": "29.9217099500363",
    "geocoded_column": {
      "latitude": "29.9217099500363",
      "longitude": "-90.08627073676406"
    }
  },
  {
    "service_request": "2023-1056808",
    "request_type": "Trash/Recycling",
    "request_reason": "Missed Trash Pick-Up",
    "date_created": "2023-12-20T11:14:36.000",
    "date_modified": "2023-12-20T11:14:36.000",
    "request_status": "Pending",
    "responsible_agency": "Department of Sanitation",
    "final_address": "9015 Morrison Rd",
    "address_councildis": "E",
    "status": "Assigned to Contractor",
    "contractor": "Waste Pro",
    "rowid": "1056808",
    "final_x": "3705994.47217",
    "final_y": "562164.155423",
    "longitude": "-89.98959149829138",
    "latitude": "30.038989115045116",
    "geocoded_column": {
      "latitude": "30.038989115045116",
      "longitude": "-89.98959149829138"
    }
  },
  {
    "service_request": "2023-1056807",
    "request_type": "Trash/Recycling",
    "request_reason": "Request a Large Item Pick Up",
    "date_created": "2023-12-20T11:12:30.000",
    "date_modified": "2023-12-20T11:12:31.000",
    "request_status": "Pending",
    "responsible_agency": "Department of Sanitation",
    "final_address": "4516 Citrus Dr",
    "address_councildis": "E",
    "status": "Assigned to Contractor",
    "contractor": "Waste Pro",
    "rowid": "1056807",
    "final_x": "3710675.84651",
    "final_y": "554865.600856",
    "longitude": "-89.97507058658634",
    "latitude": "30.018769188829157",
    "geocoded_column": {
      "latitude": "30.018769188829157",
      "longitude": "-89.97507058658634"
    }
  },
  {
    "service_request": "2023-1056806",
    "request_type": "Trash/Recycling",
    "request_reason": "Request a Large Item Pick Up",
    "date_created": "2023-12-20T11:08:40.000",
    "date_modified": "2023-12-20T11:08:41.000",
    "request_status": "Pending",
    "responsible_agency": "Department of Sanitation",
    "final_address": "1216 St Roch Ave",
    "address_councildis": "C",
    "status": "Assigned to Contractor",
    "contractor": "IV Waste",
    "rowid": "1056806",
    "final_x": "3686360.80412",
    "final_y": "536934.102536",
    "longitude": "-90.05253059235685",
    "latitude": "29.970234110718675",
    "geocoded_column": {
      "latitude": "29.970234110718675",
      "longitude": "-90.05253059235685"
    }
  },
  {
    "service_request": "2023-1056805",
    "request_type": "Trash/Recycling",
    "request_reason": "Request a Large Item Pick Up",
    "date_created": "2023-12-20T11:01:17.000",
    "date_modified": "2023-12-20T11:01:18.000",
    "request_status": "Pending",
    "responsible_agency": "Department of Sanitation",
    "final_address": "916 Lyons St",
    "address_councildis": "B",
    "status": "Assigned to Contractor",
    "contractor": "Richards Disposal",
    "rowid": "1056805",
    "final_x": "3669157.11969",
    "final_y": "518760.842423",
    "longitude": "-90.10747583566132",
    "latitude": "29.920781101973933",
    "geocoded_column": {
      "latitude": "29.920781101973933",
      "longitude": "-90.10747583566132"
    }
  },
  {
    "service_request": "2023-1056804",
    "request_type": "Trash/Recycling",
    "request_reason": "Request a Large Item Pick Up",
    "date_created": "2023-12-20T10:58:50.000",
    "date_modified": "2023-12-20T11:17:10.000",
    "request_status": "Pending",
    "responsible_agency": "Department of Sanitation",
    "final_address": "2560 N Tonti St",
    "address_councildis": "D",
    "status": "Assigned to Contractor",
    "contractor": "IV Waste",
    "rowid": "1056804",
    "final_x": "3687024.8477",
    "final_y": "540873.849099",
    "longitude": "-90.0502941581447",
    "latitude": "29.981046602203964",
    "geocoded_column": {
      "latitude": "29.981046602203964",
      "longitude": "-90.0502941581447"
    }
  },
  {
    "service_request": "2023-1056803",
    "request_type": "Trash/Recycling",
    "request_reason": "Illegal Dumping",
    "date_created": "2023-12-20T10:57:24.000",
    "date_modified": "2023-12-20T10:57:24.000",
    "request_status": "Pending",
    "responsible_agency": "Department of Sanitation",
    "final_address": "1128 Leboeuf St",
    "address_councildis": "C",
    "status": "Pending",
    "rowid": "1056803",
    "final_x": "3689785.34774",
    "final_y": "527147.528447",
    "longitude": "-90.0420638512203",
    "latitude": "29.94321872518187",
    "geocoded_column": {
      "latitude": "29.94321872518187",
      "longitude": "-90.0420638512203"
    }
  },
  {
    "service_request": "2023-1056802",
    "request_type": "Trash/Recycling",
    "request_reason": "Request a Large Item Pick Up",
    "date_created": "2023-12-20T10:54:03.000",
    "date_modified": "2023-12-20T10:54:05.000",
    "request_status": "Pending",
    "responsible_agency": "Department of Sanitation",
    "final_address": "3227 Jena St",
    "address_councildis": "B",
    "status": "Assigned to Contractor",
    "contractor": "Richards Disposal",
    "rowid": "1056802",
    "final_x": "3669908.77479",
    "final_y": "526744.486014",
    "longitude": "-90.10483301148392",
    "latitude": "29.942711428890053",
    "geocoded_column": {
      "latitude": "29.942711428890053",
      "longitude": "-90.10483301148392"
    }
  },
  {
    "service_request": "2023-1056801",
    "request_type": "Trash/Recycling",
    "request_reason": "Request a Large Item Pick Up",
    "date_created": "2023-12-20T10:53:59.000",
    "date_modified": "2023-12-20T10:54:00.000",
    "request_status": "Pending",
    "responsible_agency": "Department of Sanitation",
    "final_address": "4917 Maid Marion Dr",
    "address_councildis": "E",
    "status": "Assigned to Contractor",
    "contractor": "Waste Pro",
    "rowid": "1056801",
    "final_x": "3716974.96856",
    "final_y": "557721.900123",
    "longitude": "-89.95505929153268",
    "latitude": "30.026416060093403",
    "geocoded_column": {
      "latitude": "30.026416060093403",
      "longitude": "-89.95505929153268"
    }
  },
  {
    "service_request": "2023-1056800",
    "request_type": "Trash/Recycling",
    "request_reason": "Illegal Dumping",
    "date_created": "2023-12-20T10:52:55.000",
    "date_modified": "2023-12-20T10:52:56.000",
    "request_status": "Pending",
    "responsible_agency": "Department of Sanitation",
    "final_address": "ANNETTE ST & N ROMAN ST",
    "address_councildis": "D",
    "status": "Pending",
    "rowid": "1056800",
    "final_x": "3682939.8",
    "final_y": "538727.28",
    "longitude": "-90.06327170497366",
    "latitude": "29.97526942829095",
    "geocoded_column": {
      "latitude": "29.97526942829095",
      "longitude": "-90.06327170497366"
    }
  },
  {
    "service_request": "2023-1056799",
    "request_type": "Trash/Recycling",
    "request_reason": "Request a Large Item Pick Up",
    "date_created": "2023-12-20T10:50:30.000",
    "date_modified": "2023-12-20T11:13:49.000",
    "case_close_date": "2023-12-20T05:13:49.000",
    "request_status": "Closed",
    "responsible_agency": "Department of Sanitation",
    "final_address": "6049 Warrington Dr",
    "address_councildis": "D",
    "status": "Assigned to Contractor",
    "contractor": "IV Waste",
    "contractor_action": "Completed",
    "rowid": "1056799",
    "final_x": "3680773.63189",
    "final_y": "555160.991065",
    "longitude": "-90.06954058789954",
    "latitude": "30.020522131955993",
    "geocoded_column": {
      "latitude": "30.020522131955993",
      "longitude": "-90.06954058789954"
    }
  },
  {
    "service_request": "2023-1056798",
    "request_type": "Roads/Drainage",
    "request_reason": "Pothole",
    "date_created": "2023-12-20T10:47:06.000",
    "date_modified": "2023-12-20T10:47:37.000",
    "case_close_date": "2023-12-20T04:47:37.000",
    "request_status": "Closed",
    "responsible_agency": "Department of Public Works",
    "final_address": "6592 Bellaire Dr",
    "address_councildis": "A",
    "status": "Resolved",
    "rowid": "1056798",
    "final_x": "3664469.26183",
    "final_y": "551905.61391",
    "longitude": "-90.12116652805119",
    "latitude": "30.012055366456856",
    "geocoded_column": {
      "latitude": "30.012055366456856",
      "longitude": "-90.12116652805119"
    }
  },
  {
    "service_request": "2023-1056797",
    "request_type": "Trash/Recycling",
    "request_reason": "Request a Large Item Pick Up",
    "date_created": "2023-12-20T10:46:47.000",
    "date_modified": "2023-12-20T11:09:27.000",
    "case_close_date": "2023-12-20T05:09:27.000",
    "request_status": "Closed",
    "responsible_agency": "Department of Sanitation",
    "final_address": "4954 Marigny St",
    "address_councildis": "D",
    "status": "Invalid Request",
    "contractor": "IV Waste",
    "contractor_action": "Invalid Pick-Up",
    "rowid": "1056797",
    "final_x": "3684300.56841",
    "final_y": "551192.527381",
    "longitude": "-90.05853605151043",
    "latitude": "30.00950287581917",
    "geocoded_column": {
      "latitude": "30.00950287581917",
      "longitude": "-90.05853605151043"
    }
  },
  {
    "service_request": "2023-1056796",
    "request_type": "Trash/Recycling",
    "request_reason": "Missed Trash Pick-Up",
    "date_created": "2023-12-20T10:46:25.000",
    "date_modified": "2023-12-20T12:03:17.000",
    "case_close_date": "2023-12-20T06:03:17.000",
    "request_status": "Closed",
    "responsible_agency": "Department of Sanitation",
    "final_address": "4954 Marigny St",
    "address_councildis": "D",
    "status": "Invalid Request",
    "contractor": "IV Waste",
    "contractor_action": "Invalid Pick-Up",
    "rowid": "1056796",
    "final_x": "3684300.56841",
    "final_y": "551192.527381",
    "longitude": "-90.05853605151043",
    "latitude": "30.00950287581917",
    "geocoded_column": {
      "latitude": "30.00950287581917",
      "longitude": "-90.05853605151043"
    }
  },
  {
    "service_request": "2023-1056795",
    "request_type": "Trash/Recycling",
    "request_reason": "Missed Trash Pick-Up",
    "date_created": "2023-12-20T10:41:22.000",
    "date_modified": "2023-12-20T15:36:35.000",
    "case_close_date": "2023-12-20T09:36:35.000",
    "request_status": "Closed",
    "responsible_agency": "Department of Sanitation",
    "final_address": "2240 Reynes St",
    "address_councildis": "E",
    "status": "Assigned to Contractor",
    "contractor": "Waste Pro",
    "contractor_action": "Completed",
    "rowid": "1056795",
    "final_x": "3697182.08861",
    "final_y": "538733.472649",
    "longitude": "-90.01829079816399",
    "latitude": "29.974844700914826",
    "geocoded_column": {
      "latitude": "29.974844700914826",
      "longitude": "-90.01829079816399"
    }
  },
  {
    "service_request": "2023-1056794",
    "request_type": "Trash/Recycling",
    "request_reason": "Order Trash Cart",
    "date_created": "2023-12-20T10:41:10.000",
    "date_modified": "2023-12-20T10:41:11.000",
    "request_status": "Pending",
    "responsible_agency": "Department of Sanitation",
    "final_address": "2458 Madrid St",
    "address_councildis": "D",
    "status": "Assigned to Contractor",
    "contractor": "IV Waste",
    "rowid": "1056794",
    "final_x": "3685485.09692",
    "final_y": "555445.899033",
    "longitude": "-90.05464376024523",
    "latitude": "30.02116179839907",
    "geocoded_column": {
      "latitude": "30.02116179839907",
      "longitude": "-90.05464376024523"
    }
  },
  {
    "service_request": "2023-1056793",
    "request_type": "Trash/Recycling",
    "request_reason": "Request a Large Item Pick Up",
    "date_created": "2023-12-20T10:40:17.000",
    "date_modified": "2023-12-20T10:40:18.000",
    "request_status": "Pending",
    "responsible_agency": "Department of Sanitation",
    "final_address": "4700 N Rampart St",
    "address_councildis": "E",
    "status": "Assigned to Contractor",
    "contractor": "Waste Pro",
    "rowid": "1056793",
    "final_x": "3694554.24285",
    "final_y": "534108.696005",
    "longitude": "-90.02675670992451",
    "latitude": "29.96221087296592",
    "geocoded_column": {
      "latitude": "29.96221087296592",
      "longitude": "-90.02675670992451"
    }
  },
  {
    "service_request": "2023-1056792",
    "request_type": "Trash/Recycling",
    "request_reason": "Order Trash Cart",
    "date_created": "2023-12-20T10:39:21.000",
    "date_modified": "2023-12-20T10:39:22.000",
    "request_status": "Pending",
    "responsible_agency": "Department of Sanitation",
    "final_address": "4700 N Rampart St",
    "address_councildis": "E",
    "status": "Assigned to Contractor",
    "contractor": "Waste Pro",
    "rowid": "1056792",
    "final_x": "3694554.24285",
    "final_y": "534108.696005",
    "longitude": "-90.02675670992451",
    "latitude": "29.96221087296592",
    "geocoded_column": {
      "latitude": "29.96221087296592",
      "longitude": "-90.02675670992451"
    }
  },
  {
    "service_request": "2023-1056791",
    "request_type": "Trash/Recycling",
    "request_reason": "Repair Trash Cart",
    "date_created": "2023-12-20T10:38:44.000",
    "date_modified": "2023-12-20T10:38:46.000",
    "request_status": "Pending",
    "responsible_agency": "Department of Sanitation",
    "final_address": "4035 Vincennes Pl",
    "address_councildis": "B",
    "status": "Assigned to Contractor",
    "contractor": "Richards Disposal",
    "rowid": "1056791",
    "final_x": "3668588.98106",
    "final_y": "530354.506498",
    "longitude": "-90.10887812739806",
    "latitude": "29.952676652076203",
    "geocoded_column": {
      "latitude": "29.952676652076203",
      "longitude": "-90.10887812739806"
    }
  },
  {
    "service_request": "2023-1056790",
    "request_type": "Traffic Signals/Signs/Striping/Streetlights",
    "request_reason": "Striping/Road Surface Markings",
    "date_created": "2023-12-20T10:32:19.000",
    "date_modified": "2023-12-20T10:32:20.000",
    "request_status": "Pending",
    "responsible_agency": "Department of Public Works",
    "final_address": "ST ANDREW ST & BARONNE ST",
    "address_councildis": "B",
    "status": "Pending",
    "rowid": "1056790",
    "final_x": "3677582.9",
    "final_y": "524879.68",
    "longitude": "-90.08066834441078",
    "latitude": "29.937355361354708",
    "geocoded_column": {
      "latitude": "29.937355361354708",
      "longitude": "-90.08066834441078"
    }
  },
  {
    "service_request": "2023-1056789",
    "request_type": "Trash/Recycling",
    "request_reason": "Request a Large Item Pick Up",
    "date_created": "2023-12-20T10:27:33.000",
    "date_modified": "2023-12-20T10:27:34.000",
    "request_status": "Pending",
    "responsible_agency": "Department of Sanitation",
    "final_address": "3734 Calhoun St",
    "address_councildis": "B",
    "status": "Assigned to Contractor",
    "contractor": "Richards Disposal",
    "rowid": "1056789",
    "final_x": "3668027.06042",
    "final_y": "530315.71309",
    "longitude": "-90.11065373329396",
    "latitude": "29.95258648193989",
    "geocoded_column": {
      "latitude": "29.95258648193989",
      "longitude": "-90.11065373329396"
    }
  },
  {
    "service_request": "2023-1056788",
    "request_type": "Trash/Recycling",
    "request_reason": "Request a Large Item Pick Up",
    "date_created": "2023-12-20T10:26:16.000",
    "date_modified": "2023-12-20T10:26:17.000",
    "request_status": "Pending",
    "responsible_agency": "Department of Sanitation",
    "final_address": "1439 Alvar St",
    "address_councildis": "D",
    "status": "Assigned to Contractor",
    "contractor": "IV Waste",
    "rowid": "1056788",
    "final_x": "3691886.03574",
    "final_y": "536776.363336",
    "longitude": "-90.03508703561715",
    "latitude": "29.969629407737468",
    "geocoded_column": {
      "latitude": "29.969629407737468",
      "longitude": "-90.03508703561715"
    }
  },