[
  {
    "service_request": "2022-955030",
    "request_type": "Roads/Drainage",
    "request_reason": "Debris in Roadway",
    "date_created": "2022-12-21T01:19:11.000",
    "date_modified": "2022-12-21T01:19:11.000",
    "request_status": "Pending",
    "responsible_agency": "Department of Public Works",
    "final_address": "2403 Laharpe St",
    "address_councildis": "D",
    "status": "Pending",
    "rowid": "955030",
    "final_x": "3679695.54543",
    "final_y": "539266.095562",
    "longitude": "-90.07349921116158",
    "latitude": "29.97684946263879",
    "geocoded_column": {
      "latitude": "29.97684946263879",
      "longitude": "-90.07349921116158"
    }
  },
  {
    "service_request": "2022-955029",
    "request_type": "Roads/Drainage",
    "request_reason": "Debris in Roadway",
    "date_created": "2022-12-21T01:09:18.000",
    "date_modified": "2022-12-21T01:09:18.000",
    "request_status": "Pending",
    "responsible_agency": "Department of Public Works",
    "final_address": "2601 St Ann St",
    "address_councildis": "D",
    "status": "Pending",
    "rowid": "955029",
    "final_x": "3677358.74242",
    "final_y": "536937.055176",
    "longitude": "-90.08095997443978",
    "latitude": "29.9705158392504",
    "geocoded_column": {
      "latitude": "29.9705158392504",
      "longitude": "-90.08095997443978"
    }
  },
  {
    "service_request": "2022-955028",
    "request_type": "Trash/Recycling",
    "request_reason": "Missed Trash Pick-Up",
    "date_created": "2022-12-21T00:06:40.000",
    "date_modified": "2022-12-21T00:06:41.000",
    "request_status": "Pending",
    "responsible_agency": "Department of Sanitation",
    "final_address": "1325 Cadiz St",
    "address_councildis": "B",
    "status": "Assigned to Contractor",
    "contractor": "Richards Disposal",
    "rowid": "955028",
    "final_x": "3670202.99815",
    "final_y": "520152.030456",
    "longitude": "-90.10412735924173",
    "latitude": "29.92457561918239",
    "geocoded_column": {
      "latitude": "29.92457561918239",
      "longitude": "-90.10412735924173"
    }
  },
  {
    "service_request": "2022-955027",
    "request_type": "Trash/Recycling",
    "request_reason": "Request a Large Item Pick Up",
    "date_created": "2022-12-20T22:51:42.000",
    "date_modified": "2022-12-20T22:51:43.000",
    "request_status": "Pending",
    "responsible_agency": "Department of Sanitation",
    "final_address": "1934 Valentine Ct",
    "address_councildis": "C",
    "status": "Assigned to Contractor",
    "contractor": "Richards Disposal",
    "rowid": "955027",
    "final_x": "3699809.35703",
    "final_y": "524056.6951",
    "longitude": "-90.01052839081646",
    "latitude": "29.934405595222206",
    "geocoded_column": {
      "latitude": "29.934405595222206",
      "longitude": "-90.01052839081646"
    }
  },
  {
    "service_request": "2022-955025",
    "request_type": "Safety & Permits",
    "request_reason": "Construction permit",
    "date_created": "2022-12-20T22:26:46.000",
    "date_modified": "2022-12-20T22:26:47.000",
    "request_status": "Pending",
    "responsible_agency": "Department of Code Enforcement",
    "final_address": "2200 Baronne St",
    "address_councildis": "B",
    "status": "Pending",
    "rowid": "955025",
    "final_x": "3676977.60642",
    "final_y": "524412.098748",
    "longitude": "-90.0825954107399",
    "latitude": "29.936087847754848",
    "geocoded_column": {
      "latitude": "29.936087847754848",
      "longitude": "-90.0825954107399"
    }
  },
  {
    "service_request": "2022-955024",
    "request_type": "Trash/Recycling",
    "request_reason": "Missed Trash Pick-Up",
    "date_created": "2022-12-20T22:14:12.000",
    "date_modified": "2022-12-20T22:14:13.000",
    "request_status": "Pending",
    "responsible_agency": "Department of Sanitation",
    "final_address": "1319 Jefferson Ave",
    "address_councildis": "B",
    "status": "Assigned to Contractor",
    "contractor": "Richards Disposal",
    "rowid": "955024",
    "final_x": "3667172.79169",
    "final_y": "520198.914104",
    "longitude": "-90.11369115540957",
    "latitude": "29.924793569520368",
    "geocoded_column": {
      "latitude": "29.924793569520368",
      "longitude": "-90.11369115540957"
    }
  },
  {
    "service_request": "2022-955023",
    "request_type": "Traffic Signals/Signs/Striping/Streetlights",
    "request_reason": "Street Light Outage/Malfunction",
    "date_created": "2022-12-20T22:13:24.000",
    "date_modified": "2022-12-20T22:13:25.000",
    "request_status": "Pending",
    "responsible_agency": "Department of Public Works",
    "final_address": "1511 Ursulines Ave",
    "address_councildis": "C",
    "status": "Pending",
    "contractor": "Legacy Professional Services",
    "rowid": "955023",
    "final_x": "3681139.95035",
    "final_y": "535473.471046",
    "longitude": "-90.06906948972902",
    "latitude": "29.966377307557888",
    "geocoded_column": {
      "latitude": "29.966377307557888",
      "longitude": "-90.06906948972902"
    }
  },
  {
    "service_request": "2022-955022",
    "request_type": "Trash/Recycling",
    "request_reason": "Missed Trash Pick-Up",
    "date_created": "2022-12-20T22:11:16.000",
    "date_modified": "2022-12-20T22:11:17.000",
    "request_status": "Pending",
    "responsible_agency": "Department of Sanitation",
    "final_address": "2205 Valmont St",
    "address_councildis": "B",
    "status": "Assigned to Contractor",
    "contractor": "Richards Disposal",
    "rowid": "955022",
    "final_x": "3668244.38061",
    "final_y": "523649.721275",
    "longitude": "-90.11019221378436",
    "latitude": "29.93425078360176",
    "geocoded_column": {
      "latitude": "29.93425078360176",
      "longitude": "-90.11019221378436"
    }
  },
  {
    "service_request": "2022-955021",
    "request_type": "Roads/Drainage",
    "request_reason": "Pothole",
    "date_created": "2022-12-20T22:10:39.000",
    "date_modified": "2022-12-20T22:10:39.000",
    "request_status": "Pending",
    "responsible_agency": "Department of Public Works",
    "final_address": "1511 Ursulines Ave",
    "address_councildis": "C",
    "status": "Pending",
    "rowid": "955021",
    "final_x": "3681139.95035",
    "final_y": "535473.471046",
    "longitude": "-90.06906948972902",
    "latitude": "29.966377307557888",
    "geocoded_column": {
      "latitude": "29.966377307557888",
      "longitude": "-90.06906948972902"
    }
  },
  {
    "service_request": "2022-955020",
    "request_type": "Trash/Recycling",
    "request_reason": "Order Recycling Cart",
    "date_created": "2022-12-20T22:10:33.000",
    "date_modified": "2022-12-20T22:10:33.000",
    "request_status": "Pending",
    "responsible_agency": "Department of Sanitation",
    "final_address": "11101 N Parkwood Ct",
    "address_councildis": "E",
    "status": "Pending",
    "rowid": "955020",
    "final_x": "3716127.63352",
    "final_y": "559007.929372",
    "longitude": "-89.95768795503048",
    "latitude": "30.029980124226192",
    "geocoded_column": {
      "latitude": "30.029980124226192",
      "longitude": "-89.95768795503048"
    }
  },
  {
    "service_request": "2022-955019",
    "request_type": "Trash/Recycling",
    "request_reason": "Missed Trash Pick-Up",
    "date_created": "2022-12-20T22:07:55.000",
    "date_modified": "2022-12-20T22:07:56.000",
    "request_status": "Pending",
    "responsible_agency": "Department of Sanitation",
    "final_address": "2205 Valmont St",
    "address_councildis": "B",
    "status": "Assigned to Contractor",
    "contractor": "Richards Disposal",
    "rowid": "955019",
    "final_x": "3668244.38061",
    "final_y": "523649.721275",
    "longitude": "-90.11019221378436",
    "latitude": "29.93425078360176",
    "geocoded_column": {
      "latitude": "29.93425078360176",
      "longitude": "-90.11019221378436"
    }
  },
  {
    "service_request": "2022-955018",
    "request_type": "Trash/Recycling",
    "request_reason": "Missed Trash Pick-Up",
    "date_created": "2022-12-20T22:07:37.000",
    "date_modified": "2022-12-20T22:07:37.000",
    "request_status": "Pending",
    "responsible_agency": "Department of Sanitation",
    "final_address": "1511 Ursulines Ave",
    "address_councildis": "C",
    "status": "Assigned to Contractor",
    "contractor": "Richards Disposal",
    "rowid": "955018",
    "final_x": "3681139.95035",
    "final_y": "535473.471046",
    "longitude": "-90.06906948972902",
    "latitude": "29.966377307557888",
    "geocoded_column": {
      "latitude": "29.966377307557888",
      "longitude": "-90.06906948972902"
    }
  },
  {
    "service_request": "2022-955017",
    "request_type": "Trash/Recycling",
    "request_reason": "Order Recycling Cart",
    "date_created": "2022-12-20T21:43:55.000",
    "date_modified": "2022-12-20T21:43:55.000",
    "request_status": "Pending",
    "responsible_agency": "Department of Sanitation",
    "final_address": "862 Polk St",
    "address_councildis": "A",
    "status": "Pending",
    "rowid": "955017",
    "final_x": "3669623.61934",
    "final_y": "547083.008977",
    "longitude": "-90.10504497697622",
    "latitude": "29.998643950621393",
    "geocoded_column": {
      "latitude": "29.998643950621393",
      "longitude": "-90.10504497697622"
    }
  },
  {
    "service_request": "2022-955014",
    "request_type": "Trash/Recycling",
    "request_reason": "Request a Large Item Pick Up",
    "date_created": "2022-12-20T21:00:56.000",
    "date_modified": "2022-12-20T21:00:56.000",
    "request_status": "Pending",
    "responsible_agency": "Department of Sanitation",
    "final_address": "7134 Tudor Ct",
    "address_councildis": "E",
    "status": "Assigned to Contractor",
    "contractor": "Waste Pro",
    "rowid": "955014",
    "final_x": "3703641.15505",
    "final_y": "559852.243613",
    "longitude": "-89.99711379395829",
    "latitude": "30.03270793618484",
    "geocoded_column": {
      "latitude": "30.03270793618484",
      "longitude": "-89.99711379395829"
    }
  },
  {
    "service_request": "2022-955013",
    "request_type": "Trash/Recycling",
    "request_reason": "Request a Large Item Pick Up",
    "date_created": "2022-12-20T20:57:03.000",
    "date_modified": "2022-12-20T20:57:03.000",
    "request_status": "Pending",
    "responsible_agency": "Department of Sanitation",
    "final_address": "11220 N Parkwood Ct",
    "address_councildis": "E",
    "status": "Assigned to Contractor",
    "contractor": "Waste Pro",
    "rowid": "955013",
    "final_x": "3716593.71896",
    "final_y": "559158.478172",
    "longitude": "-89.95620942566758",
    "latitude": "30.030378679034335",
    "geocoded_column": {
      "latitude": "30.030378679034335",
      "longitude": "-89.95620942566758"
    }
  },
  {
    "service_request": "2022-955012",
    "request_type": "Trash/Recycling",
    "request_reason": "Missed Trash Pick-Up",
    "date_created": "2022-12-20T20:52:47.000",
    "date_modified": "2022-12-20T20:52:48.000",
    "request_status": "Pending",
    "responsible_agency": "Department of Sanitation",
    "final_address": "4024 Constance St",
    "address_councildis": "B",
    "status": "Assigned to Contractor",
    "contractor": "Richards Disposal",
    "rowid": "955012",
    "final_x": "3672339.00116",
    "final_y": "518500.723255",
    "longitude": "-90.09744092892",
    "latitude": "29.91997187242374",
    "geocoded_column": {
      "latitude": "29.91997187242374",
      "longitude": "-90.09744092892"
    }
  },
  {
    "service_request": "2022-955011",
    "request_type": "Trash/Recycling",
    "request_reason": "Replace Recycling Cart",
    "date_created": "2022-12-20T20:47:15.000",
    "date_modified": "2022-12-20T20:47:16.000",
    "request_status": "Pending",
    "responsible_agency": "Department of Sanitation",
    "final_address": "914 St Roch Ave",
    "address_councildis": "C",
    "status": "Pending",
    "rowid": "955011",
    "final_x": "3686504.02281",
    "final_y": "535842.690247",
    "longitude": "-90.0521168336854",
    "latitude": "29.967228704582183",
    "geocoded_column": {
      "latitude": "29.967228704582183",
      "longitude": "-90.0521168336854"
    }
  },
  {
    "service_request": "2022-955010",
    "request_type": "Trash/Recycling",
    "request_reason": "Replace Trash Cart",
    "date_created": "2022-12-20T20:46:41.000",
    "date_modified": "2022-12-20T20:46:42.000",
    "request_status": "Pending",
    "responsible_agency": "Department of Sanitation",
    "final_address": "914 St Roch Ave",
    "address_councildis": "C",
    "status": "Assigned to Contractor",
    "contractor": "IV Waste",
    "rowid": "955010",
    "final_x": "3686504.02281",
    "final_y": "535842.690247",
    "longitude": "-90.0521168336854",
    "latitude": "29.967228704582183",
    "geocoded_column": {
      "latitude": "29.967228704582183",
      "longitude": "-90.0521168336854"
    }
  },
  {
    "service_request": "2022-955009",
    "request_type": "Property Maintenance",
    "request_reason": "Property Maintenance",
    "date_created": "2022-12-20T20:44:21.000",
    "date_modified": "2022-12-20T20:44:21.000",
    "request_status": "Pending",
    "responsible_agency": "Department of Code Enforcement",
    "final_address": "9701 Lake Forest Blvd Ste 116",
    "address_councildis": "E",
    "status": "Pending",
    "rowid": "955009",
    "final_x": "3708893.37048",
    "final_y": "559076.94838",
    "longitude": "-89.980545426907",
    "latitude": "30.03040672354622",
    "geocoded_column": {
      "latitude": "30.03040672354622",
      "longitude": "-89.980545426907"
    }
  },
  {
    "service_request": "2022-955008",
    "request_type": "Trash/Recycling",
    "request_reason": "Missed Trash Pick-Up",
    "date_created": "2022-12-20T20:43:41.000",
    "date_modified": "2022-12-20T20:43:41.000",
    "request_status": "Pending",
    "responsible_agency": "Department of Sanitation",
    "final_address": "3965 Constance St",
    "address_councildis": "B",
    "status": "Assigned to Contractor",
    "contractor": "Richards Disposal",
    "rowid": "955008",
    "final_x": "3672630.12603",
    "final_y": "518611.610039",
    "longitude": "-90.09651820865471",
    "latitude": "29.920268138418123",
    "geocoded_column": {
      "latitude": "29.920268138418123",
      "longitude": "-90.09651820865471"
    }
  },
  {
    "service_request": "2022-955007",
    "request_type": "Trash/Recycling",
    "request_reason": "Missed Trash Pick-Up",
    "date_created": "2022-12-20T20:36:23.000",
    "date_modified": "2022-12-20T20:36:24.000",
    "request_status": "Pending",
    "responsible_agency": "Department of Sanitation",
    "final_address": "4819 Carondelet St",
    "address_councildis": "B",
    "status": "Assigned to Contractor",
    "contractor": "Richards Disposal",
    "rowid": "955007",
    "final_x": "3669166.86868",
    "final_y": "521163.278585",
    "longitude": "-90.10736392540642",
    "latitude": "29.927386752325763",
    "geocoded_column": {
      "latitude": "29.927386752325763",
      "longitude": "-90.10736392540642"
    }
  },
  {
    "service_request": "2022-955005",
    "request_type": "Trash/Recycling",
    "request_reason": "Return Trash Cart",
    "date_created": "2022-12-20T20:23:48.000",
    "date_modified": "2022-12-20T20:23:48.000",
    "request_status": "Pending",
    "responsible_agency": "Department of Sanitation",
    "final_address": "13118 Dwyer Blvd",
    "address_councildis": "E",
    "status": "Assigned to Contractor",
    "contractor": "Waste Pro",
    "rowid": "955005",
    "final_x": "3724198.54828",
    "final_y": "561238.55683",
    "longitude": "-89.93209804600616",
    "latitude": "30.035844541176957",
    "geocoded_column": {
      "latitude": "30.035844541176957",
      "longitude": "-89.93209804600616"
    }
  },
  {
    "service_request": "2022-955003",
    "request_type": "Trash/Recycling",
    "request_reason": "Missed Trash Pick-Up",
    "date_created": "2022-12-20T20:15:39.000",
    "date_modified": "2022-12-20T20:15:40.000",
    "request_status": "Pending",
    "responsible_agency": "Department of Sanitation",
    "final_address": "1657 Valmont St",
    "address_councildis": "B",
    "status": "Assigned to Contractor",
    "contractor": "Richards Disposal",
    "rowid": "955003",
    "final_x": "3667973.22317",
    "final_y": "521710.997305",
    "longitude": "-90.11111353672626",
    "latitude": "29.92892786736696",
    "geocoded_column": {
      "latitude": "29.92892786736696",
      "longitude": "-90.11111353672626"
    }
  },
  {
    "service_request": "2022-955002",
    "request_type": "Trash/Recycling",
    "request_reason": "Order Recycling Cart",
    "date_created": "2022-12-20T20:15:29.000",
    "date_modified": "2022-12-20T20:15:29.000",
    "request_status": "Pending",
    "responsible_agency": "Department of Sanitation",
    "final_address": "6559 Memphis St",
    "address_councildis": "A",
    "status": "Pending",
    "rowid": "955002",
    "final_x": "3669630.51969",
    "final_y": "551096.586517",
    "longitude": "-90.10488724894134",
    "latitude": "30.009679684974746",
    "geocoded_column": {
      "latitude": "30.009679684974746",
      "longitude": "-90.10488724894134"
    }
  },
  {
    "service_request": "2022-955000",
    "request_type": "Roads/Drainage",
    "request_reason": "Man hole cover issue",
    "date_created": "2022-12-20T19:59:09.000",
    "date_modified": "2022-12-20T19:59:09.000",
    "request_status": "Pending",
    "responsible_agency": "Department of Public Works",
    "final_address": "6151 Pratt Dr",
    "address_councildis": "D",
    "status": "Pending",
    "rowid": "955000",
    "final_x": "3680198.41813",
    "final_y": "555380.684313",
    "longitude": "-90.07135044430619",
    "latitude": "30.021143640097932",
    "geocoded_column": {
      "latitude": "30.021143640097932",
      "longitude": "-90.07135044430619"
    }
  },
  {
    "service_request": "2022-954998",
    "request_type": "Trash/Recycling",
    "request_reason": "Illegal Dumping",
    "date_created": "2022-12-20T19:38:22.000",
    "date_modified": "2022-12-20T19:38:23.000",
    "request_status": "Pending",
    "responsible_agency": "Department of Sanitation",
    "final_address": "12301 Six Flags Prkwy",
    "address_councildis": "E",
    "status": "Pending",
    "rowid": "954998",
    "final_x": "3723545.58534",
    "final_y": "567766.645412",
    "longitude": "-89.93390954575591",
    "latitude": "30.05381602307878",
    "geocoded_column": {
      "latitude": "30.05381602307878",
      "longitude": "-89.93390954575591"
    }
  },
  {
    "service_request": "2022-954997",
    "request_type": "Trash/Recycling",
    "request_reason": "Missed Trash Pick-Up",
    "date_created": "2022-12-20T19:27:11.000",
    "date_modified": "2022-12-20T19:27:12.000",
    "request_status": "Pending",
    "responsible_agency": "Department of Sanitation",
    "final_address": "2319 Upperline St",
    "address_councildis": "B",
    "status": "Assigned to Contractor",
    "contractor": "Richards Disposal",
    "rowid": "954997",
    "final_x": "3669227.1458",
    "final_y": "523354.657915",
    "longitude": "-90.10709961506116",
    "latitude": "29.933410571603417",
    "geocoded_column": {
      "latitude": "29.933410571603417",
      "longitude": "-90.10709961506116"
    }
  },
  {
    "service_request": "2022-954996",
    "request_type": "Trash/Recycling",
    "request_reason": "Missed Trash Pick-Up",
    "date_created": "2022-12-20T19:12:03.000",
    "date_modified": "2022-12-20T19:12:04.000",
    "request_status": "Pending",
    "responsible_agency": "Department of Sanitation",
    "final_address": "2234 Upperline St",
    "address_councildis": "B",
    "status": "Assigned to Contractor",
    "contractor": "Richards Disposal",
    "rowid": "954996",
    "final_x": "3669058.16033",
    "final_y": "523103.464955",
    "longitude": "-90.10764157652953",
    "latitude": "29.93272484293292",
    "geocoded_column": {
      "latitude": "29.93272484293292",
      "longitude": "-90.10764157652953"
    }
  },
  {
    "service_request": "2022-954995",
    "request_type": "Trash/Recycling",
    "request_reason": "Replace Trash Cart",
    "date_created": "2022-12-20T18:59:17.000",
    "date_modified": "2022-12-20T18:59:17.000",
    "request_status": "Pending",
    "responsible_agency": "Department of Sanitation",
    "final_address": "5865 General Diaz St",
    "address_councildis": "A",
    "status": "Assigned to Contractor",
    "contractor": "IV Waste",
    "rowid": "954995",
    "final_x": "3669517.35886",
    "final_y": "546368.938896",
    "longitude": "-90.1054048289777",
    "latitude": "29.996683636638533",
    "geocoded_column": {
      "latitude": "29.996683636638533",
      "longitude": "-90.1054048289777"
    }
  },
  {
    "service_request": "2022-954992",
    "request_type": "Trash/Recycling",
    "request_reason": "Missed Trash Pick-Up",
    "date_created": "2022-12-20T18:49:39.000",
    "date_modified": "2022-12-20T18:49:40.000",
    "request_status": "Pending",
    "responsible_agency": "Department of Sanitation",
    "final_address": "4323 Loyola Ave",
    "address_councildis": "B",
    "status": "Assigned to Contractor",
    "contractor": "Richards Disposal",
    "rowid": "954992",
    "final_x": "3670848.19489",
    "final_y": "523068.723003",
    "longitude": "-90.10199174587272",
    "latitude": "29.932576542210953",
    "geocoded_column": {
      "latitude": "29.932576542210953",
      "longitude": "-90.10199174587272"
    }
  },
  {
    "service_request": "2022-954991",
    "request_type": "Roads/Drainage",
    "request_reason": "Catch Basin - Clogged",
    "date_created": "2022-12-20T18:48:27.000",
    "date_modified": "2022-12-20T18:48:28.000",
    "request_status": "Pending",
    "responsible_agency": "Department of Public Works",
    "final_address": "1931 Second St",
    "address_councildis": "B",
    "status": "Pending",
    "rowid": "954991",
    "final_x": "3675986.89109",
    "final_y": "524178.657212",
    "longitude": "-90.08573115208942",
    "latitude": "29.935475657974237",
    "geocoded_column": {
      "latitude": "29.935475657974237",
      "longitude": "-90.08573115208942"
    }
  },
  {
    "service_request": "2022-954990",
    "request_type": "Roads/Drainage",
    "request_reason": "Pothole",
    "date_created": "2022-12-20T18:41:37.000",
    "date_modified": "2022-12-20T18:41:37.000",
    "request_status": "Pending",
    "responsible_agency": "Department of Public Works",
    "final_address": "8300 Palmetto St",
    "address_councildis": "A",
    "status": "Pending",
    "rowid": "954990",
    "final_x": "3667417.87937",
    "final_y": "535699.412999",
    "longitude": "-90.11239612413482",
    "latitude": "29.967407743776906",
    "geocoded_column": {
      "latitude": "29.967407743776906",
      "longitude": "-90.11239612413482"
    }
  },
  {
    "service_request": "2022-954989",
    "request_type": "Roads/Drainage",
    "request_reason": "Street Flooding / Drainage",
    "date_created": "2022-12-20T18:41:11.000",
    "date_modified": "2022-12-20T18:41:11.000",
    "request_status": "Pending",
    "responsible_agency": "Department of Public Works",
    "final_address": "436 Fairway Dr",
    "address_councildis": "A",
    "status": "Pending",
    "rowid": "954989",
    "final_x": "3664188.0704",
    "final_y": "542583.169293",
    "longitude": "-90.12236621415789",
    "latitude": "29.9864300129331",
    "geocoded_column": {
      "latitude": "29.9864300129331",
      "longitude": "-90.12236621415789"
    }
  },
  {
    "service_request": "2022-954988",
    "request_type": "Trash/Recycling",
    "request_reason": "Missed Trash Pick-Up",
    "date_created": "2022-12-20T18:41:00.000",
    "date_modified": "2022-12-20T18:41:01.000",
    "request_status": "Pending",
    "responsible_agency": "Department of Sanitation",
    "final_address": "4834 St Charles Ave",
    "address_councildis": "B",
    "status": "Assigned to Contractor",
    "contractor": "Richards Disposal",
    "rowid": "954988",
    "final_x": "3669105.06145",
    "final_y": "520638.678904",
    "longitude": "-90.10757675132766",
    "latitude": "29.925946088319",
    "geocoded_column": {
      "latitude": "29.925946088319",
      "longitude": "-90.10757675132766"
    }
  },
  {
    "service_request": "2022-954987",
    "request_type": "Trash/Recycling",
    "request_reason": "Replace Trash Cart",
    "date_created": "2022-12-20T18:39:58.000",
    "date_modified": "2022-12-20T18:39:59.000",
    "request_status": "Pending",
    "responsible_agency": "Department of Sanitation",
    "final_address": "4761 Western St",
    "address_councildis": "D",
    "status": "Assigned to Contractor",
    "contractor": "IV Waste",
    "rowid": "954987",
    "final_x": "3684187.8598",
    "final_y": "550583.197204",
    "longitude": "-90.0589135479593",
    "latitude": "30.00783088634367",
    "geocoded_column": {
      "latitude": "30.00783088634367",
      "longitude": "-90.0589135479593"
    }
  },
  {
    "service_request": "2022-954986",
    "request_type": "Property Maintenance",
    "request_reason": "Property Maintenance",
    "date_created": "2022-12-20T18:36:13.000",
    "date_modified": "2022-12-20T18:36:13.000",
    "request_status": "Pending",
    "responsible_agency": "Department of Code Enforcement",
    "final_address": "4100 Fontainebleau Dr",
    "address_councildis": "B",
    "status": "Pending",
    "rowid": "954986",
    "final_x": "3669901.82292",
    "final_y": "528998.839104",
    "longitude": "-90.10477864703935",
    "latitude": "29.948910370252857",
    "geocoded_column": {
      "latitude": "29.948910370252857",
      "longitude": "-90.10477864703935"
    }
  },
  {
    "service_request": "2022-954985",
    "request_type": "Trash/Recycling",
    "request_reason": "Order Recycling Cart",
    "date_created": "2022-12-20T18:27:47.000",
    "date_modified": "2022-12-20T18:27:47.000",
    "request_status": "Pending",
    "responsible_agency": "Department of Sanitation",
    "final_address": "923 Port St",
    "address_councildis": "C",
    "status": "Pending",
    "rowid": "954985",
    "final_x": "3687292.54959",
    "final_y": "535784.599815",
    "longitude": "-90.0496287186683",
    "latitude": "29.967044709195868",
    "geocoded_column": {
      "latitude": "29.967044709195868",
      "longitude": "-90.0496287186683"
    }
  },
  {
    "service_request": "2022-954984",
    "request_type": "Roads/Drainage",
    "request_reason": "Man hole cover issue",
    "date_created": "2022-12-20T18:25:47.000",
    "date_modified": "2022-12-20T18:25:48.000",
    "request_status": "Pending",
    "responsible_agency": "Department of Public Works",
    "final_address": "ROYAL ST & GOVERNOR NICHOLLS ST",
    "address_councildis": "C",
    "status": "Pending",
    "rowid": "954984",
    "final_x": "3683658.9",
    "final_y": "533908.38",
    "longitude": "-90.06116957135539",
    "latitude": "29.96199718470995",
    "geocoded_column": {
      "latitude": "29.96199718470995",
      "longitude": "-90.06116957135539"
    }
  },
  {
    "service_request": "2022-954983",
    "request_type": "Trash/Recycling",
    "request_reason": "Request a Large Item Pick Up",
    "date_created": "2022-12-20T18:20:07.000",
    "date_modified": "2022-12-20T18:20:08.000",
    "request_status": "Pending",
    "responsible_agency": "Department of Sanitation",
    "final_address": "2327 Franklin Ave",
    "address_councildis": "D",
    "status": "Assigned to Contractor",
    "contractor": "IV Waste",
    "rowid": "954983",
    "final_x": "3687631.09961",
    "final_y": "541168.60558",
    "longitude": "-90.04836890752634",
    "latitude": "29.981838398323543",
    "geocoded_column": {
      "latitude": "29.981838398323543",
      "longitude": "-90.04836890752634"
    }
  },
  {
    "service_request": "2022-954982",
    "request_type": "Trash/Recycling",
    "request_reason": "Missed Trash Pick-Up",
    "date_created": "2022-12-20T18:17:19.000",
    "date_modified": "2022-12-20T18:17:20.000",
    "request_status": "Pending",
    "responsible_agency": "Department of Sanitation",
    "final_address": "714 Bordeaux St",
    "address_councildis": "B",
    "status": "Assigned to Contractor",
    "contractor": "Richards Disposal",
    "rowid": "954982",
    "final_x": "3669614.75047",
    "final_y": "518031.758902",
    "longitude": "-90.10605595028083",
    "latitude": "29.918762882743955",
    "geocoded_column": {
      "latitude": "29.918762882743955",
      "longitude": "-90.10605595028083"
    }
  },
  {
    "service_request": "2022-954981",
    "request_type": "Trash/Recycling",
    "request_reason": "Missed Trash Pick-Up",
    "date_created": "2022-12-20T18:13:37.000",
    "date_modified": "2022-12-20T18:13:38.000",
    "request_status": "Pending",
    "responsible_agency": "Department of Sanitation",
    "final_address": "9 Blanc Pl",
    "address_councildis": "B",
    "status": "Assigned to Contractor",
    "contractor": "Richards Disposal",
    "rowid": "954981",
    "final_x": "3667874.285",
    "final_y": "520921.573625",
    "longitude": "-90.111452440078",
    "latitude": "29.92676010442122",
    "geocoded_column": {
      "latitude": "29.92676010442122",
      "longitude": "-90.111452440078"
    }
  },
  {
    "service_request": "2022-954979",
    "request_type": "Trash/Recycling",
    "request_reason": "Illegal Dumping",
    "date_created": "2022-12-20T17:57:57.000",
    "date_modified": "2022-12-20T17:57:57.000",
    "request_status": "Pending",
    "responsible_agency": "Department of Sanitation",
    "final_address": "2514 N Galvez St",
    "address_councildis": "D",
    "status": "Pending",
    "rowid": "954979",
    "final_x": "3687063.84079",
    "final_y": "540130.716491",
    "longitude": "-90.0501972845821",
    "latitude": "29.97900204956419",
    "geocoded_column": {
      "latitude": "29.97900204956419",
      "longitude": "-90.0501972845821"
    }
  },
  {
    "service_request": "2022-954978",
    "request_type": "Trash/Recycling",
    "request_reason": "Missed Trash Pick-Up",
    "date_created": "2022-12-20T17:57:10.000",
    "date_modified": "2022-12-20T17:57:11.000",
    "request_status": "Pending",
    "responsible_agency": "Department of Sanitation",
    "final_address": "2116 S Gayoso St",
    "address_councildis": "B",
    "status": "Assigned to Contractor",
    "contractor": "Richards Disposal",
    "rowid": "954978",
    "final_x": "3669734.53646",
    "final_y": "528996.19968",
    "longitude": "-90.10530693339675",
    "latitude": "29.948908043506567",
    "geocoded_column": {
      "latitude": "29.948908043506567",
      "longitude": "-90.10530693339675"
    }
  },
  {
    "service_request": "2022-954976",
    "request_type": "Property Maintenance",
    "request_reason": "Property Maintenance",
    "date_created": "2022-12-20T17:55:22.000",
    "date_modified": "2022-12-20T17:55:22.000",
    "request_status": "Pending",
    "responsible_agency": "Department of Code Enforcement",
    "final_address": "2514 N Galvez St",
    "address_councildis": "D",
    "status": "Pending",
    "rowid": "954976",
    "final_x": "3687063.84079",
    "final_y": "540130.716491",
    "longitude": "-90.0501972845821",
    "latitude": "29.97900204956419",
    "geocoded_column": {
      "latitude": "29.97900204956419",
      "longitude": "-90.0501972845821"
    }
  },
  {
    "service_request": "2022-954975",
    "request_type": "Trash/Recycling",
    "request_reason": "Missed Trash Pick-Up",
    "date_created": "2022-12-20T17:53:37.000",
    "date_modified": "2022-12-20T17:53:38.000",
    "request_status": "Pending",
    "responsible_agency": "Department of Sanitation",
    "final_address": "1921 Soniat St",
    "address_councildis": "B",
    "status": "Assigned to Contractor",
    "contractor": "Richards Disposal",
    "rowid": "954975",
    "final_x": "3668516.1899",
    "final_y": "522693.833722",
    "longitude": "-90.1093663525099",
    "latitude": "29.931614417811204",
    "geocoded_column": {
      "latitude": "29.931614417811204",
      "longitude": "-90.1093663525099"
    }
  },
  {
    "service_request": "2022-954974",
    "request_type": "Trash/Recycling",
    "request_reason": "Missed Trash Pick-Up",
    "date_created": "2022-12-20T17:52:57.000",
    "date_modified": "2022-12-20T17:52:58.000",
    "request_status": "Pending",
    "responsible_agency": "Department of Sanitation",
    "final_address": "522 Napoleon Ave",
    "address_councildis": "B",
    "status": "Assigned to Contractor",
    "contractor": "Richards Disposal",
    "rowid": "954974",
    "final_x": "3671051.50849",
    "final_y": "517584.827702",
    "longitude": "-90.10153600960744",
    "latitude": "29.91749157130745",
    "geocoded_column": {
      "latitude": "29.91749157130745",
      "longitude": "-90.10153600960744"
    }
  },
  {
    "service_request": "2022-954973",
    "request_type": "Trash/Recycling",
    "request_reason": "Missed Trash Pick-Up",
    "date_created": "2022-12-20T17:43:46.000",
    "date_modified": "2022-12-20T17:43:47.000",
    "request_status": "Pending",
    "responsible_agency": "Department of Sanitation",
    "final_address": "5026 Loyola Ave",
    "address_councildis": "B",
    "status": "Assigned to Contractor",
    "contractor": "Richards Disposal",
    "rowid": "954973",
    "final_x": "3668572.8779",
    "final_y": "522828.316283",
    "longitude": "-90.10918285886576",
    "latitude": "29.93198253673753",
    "geocoded_column": {
      "latitude": "29.93198253673753",
      "longitude": "-90.10918285886576"
    }
  },
  {
    "service_request": "2022-954972",
    "request_type": "Trash/Recycling",
    "request_reason": "Replace Trash Cart",
    "date_created": "2022-12-20T17:36:50.000",
    "date_modified": "2022-12-20T17:36:51.000",
    "request_status": "Pending",
    "responsible_agency": "Department of Sanitation",
    "final_address": "6037 Catina St",
    "address_councildis": "A",
    "status": "Assigned to Contractor",
    "contractor": "IV Waste",
    "rowid": "954972",
    "final_x": "3666847.46836",
    "final_y": "547885.592658",
    "longitude": "-90.1137879016508",
    "latitude": "30.000932313818968",
    "geocoded_column": {
      "latitude": "30.000932313818968",
      "longitude": "-90.1137879016508"
    }
  },
  {
    "service_request": "2022-954971",
    "request_type": "Trash/Recycling",
    "request_reason": "Missed Trash Pick-Up",
    "date_created": "2022-12-20T17:35:34.000",
    "date_modified": "2022-12-20T17:35:35.000",
    "request_status": "Pending",
    "responsible_agency": "Department of Sanitation",
    "final_address": "5336 Dryades St",
    "address_councildis": "B",
    "status": "Assigned to Contractor",
    "contractor": "Richards Disposal",
    "rowid": "954971",
    "final_x": "3667609.66049",
    "final_y": "521793.283898",
    "longitude": "-90.11225846699281",
    "latitude": "29.929164787498774",
    "geocoded_column": {
      "latitude": "29.929164787498774",
      "longitude": "-90.11225846699281"
    }
  },
  {
    "service_request": "2022-954970",
    "request_type": "Trash/Recycling",
    "request_reason": "Missed Trash Pick-Up",
    "date_created": "2022-12-20T17:27:13.000",
    "date_modified": "2022-12-20T17:27:13.000",
    "request_status": "Pending",
    "responsible_agency": "Department of Sanitation",
    "final_address": "5825 S Robertson St",
    "address_councildis": "A",
    "status": "Assigned to Contractor",
    "contractor": "Richards Disposal",
    "rowid": "954970",
    "final_x": "3666780.60321",
    "final_y": "524780.603324",
    "longitude": "-90.11477536170202",
    "latitude": "29.937403231002165",
    "geocoded_column": {
      "latitude": "29.937403231002165",
      "longitude": "-90.11477536170202"
    }
  },
  {
    "service_request": "2022-954969",
    "request_type": "Trash/Recycling",
    "request_reason": "Request a Large Item Pick Up",
    "date_created": "2022-12-20T17:26:55.000",
    "date_modified": "2022-12-20T17:26:55.000",
    "request_status": "Pending",
    "responsible_agency": "Department of Sanitation",
    "final_address": "2207 S Gayoso St",
    "address_councildis": "A",
    "status": "Assigned to Contractor",
    "contractor": "Richards Disposal",
    "rowid": "954969",
    "final_x": "3669445.89614",
    "final_y": "528809.724864",
    "longitude": "-90.10622460349789",
    "latitude": "29.948403801409494",
    "geocoded_column": {
      "latitude": "29.948403801409494",
      "longitude": "-90.10622460349789"
    }
  },
  {
    "service_request": "2022-954968",
    "request_type": "Trash/Recycling",
    "request_reason": "Order Trash Cart",
    "date_created": "2022-12-20T17:24:43.000",
    "date_modified": "2022-12-20T17:24:43.000",
    "request_status": "Pending",
    "responsible_agency": "Department of Sanitation",
    "final_address": "6559 Canal Blvd",
    "address_councildis": "A",
    "status": "Assigned to Contractor",
    "contractor": "IV Waste",
    "rowid": "954968",
    "final_x": "3668992.20487",
    "final_y": "551144.049877",
    "longitude": "-90.10690231339277",
    "latitude": "30.009828993811674",
    "geocoded_column": {
      "latitude": "30.009828993811674",
      "longitude": "-90.10690231339277"
    }
  },
  {
    "service_request": "2022-954967",
    "request_type": "Trash/Recycling",
    "request_reason": "Missed Trash Pick-Up",
    "date_created": "2022-12-20T17:23:07.000",
    "date_modified": "2022-12-20T17:23:07.000",
    "request_status": "Pending",
    "responsible_agency": "Department of Sanitation",
    "final_address": "1721 Robert St",
    "address_councildis": "B",
    "status": "Assigned to Contractor",
    "contractor": "Richards Disposal",
    "rowid": "954967",
    "final_x": "3668804.12609",
    "final_y": "521971.424698",
    "longitude": "-90.10848174660215",
    "latitude": "29.929619563428524",
    "geocoded_column": {
      "latitude": "29.929619563428524",
      "longitude": "-90.10848174660215"
    }
  },
  {
    "service_request": "2022-954966",
    "request_type": "Trash/Recycling",
    "request_reason": "Missed Trash Pick-Up",
    "date_created": "2022-12-20T17:16:01.000",
    "date_modified": "2022-12-20T17:16:02.000",
    "request_status": "Pending",
    "responsible_agency": "Department of Sanitation",
    "final_address": "2323 Napoleon Ave",
    "address_councildis": "B",
    "status": "Assigned to Contractor",
    "contractor": "Richards Disposal",
    "rowid": "954966",
    "final_x": "3670678.14228",
    "final_y": "523545.080315",
    "longitude": "-90.10251243535163",
    "latitude": "29.933891395218257",
    "geocoded_column": {
      "latitude": "29.933891395218257",
      "longitude": "-90.10251243535163"
    }
  },
  {
    "service_request": "2022-954965",
    "request_type": "Trash/Recycling",
    "request_reason": "Missed Trash Pick-Up",
    "date_created": "2022-12-20T17:14:01.000",
    "date_modified": "2022-12-20T17:14:02.000",
    "request_status": "Pending",
    "responsible_agency": "Department of Sanitation",
    "final_address": "4900 Carondelet St",
    "address_councildis": "B",
    "status": "Assigned to Contractor",
    "contractor": "Richards Disposal",
    "rowid": "954965",
    "final_x": "3669013.15508",
    "final_y": "521008.061497",
    "longitude": "-90.10785440277594",
    "latitude": "29.9269644760373",
    "geocoded_column": {
      "latitude": "29.9269644760373",
      "longitude": "-90.10785440277594"
    }
  },
  {
    "service_request": "2022-954964",
    "request_type": "Trash/Recycling",
    "request_reason": "Replace Trash Cart",
    "date_created": "2022-12-20T17:10:25.000",
    "date_modified": "2022-12-20T17:10:26.000",
    "request_status": "Pending",
    "responsible_agency": "Department of Sanitation",
    "final_address": "6662 Canal Blvd",
    "address_councildis": "A",
    "status": "Assigned to Contractor",
    "contractor": "IV Waste",
    "rowid": "954964",
    "final_x": "3668731.91751",
    "final_y": "551882.607318",
    "longitude": "-90.1076996988328",
    "latitude": "30.011867425275394",
    "geocoded_column": {
      "latitude": "30.011867425275394",
      "longitude": "-90.1076996988328"
    }
  },
  {
    "service_request": "2022-954963",
    "request_type": "Abandoned Vehicles",
    "request_reason": "Abandoned/Junk Vehicles",
    "date_created": "2022-12-20T17:02:49.000",
    "date_modified": "2022-12-20T17:02:49.000",
    "request_status": "Pending",
    "responsible_agency": "Department of Public Works",
    "final_address": "MARAIS ST & FRANCE ST",
    "address_councildis": "D",
    "status": "Pending",
    "rowid": "954963",
    "final_x": "3692473.4",
    "final_y": "535511.88",
    "longitude": "-90.03327740360804",
    "latitude": "29.966134213481375",
    "geocoded_column": {
      "latitude": "29.966134213481375",
      "longitude": "-90.03327740360804"
    }
  },
  {
    "service_request": "2022-954962",
    "request_type": "Traffic Signals/Signs/Striping/Streetlights",
    "request_reason": "Request for Stop Sign",
    "date_created": "2022-12-20T17:01:20.000",
    "date_modified": "2022-12-20T17:01:21.000",
    "request_status": "Pending",
    "responsible_agency": "Department of Public Works",
    "final_address": "MARAIS ST & FRANCE ST",
    "address_councildis": "D",
    "status": "Pending",
    "rowid": "954962",
    "final_x": "3692473.4",
    "final_y": "535511.88",
    "longitude": "-90.03327740360804",
    "latitude": "29.966134213481375",
    "geocoded_column": {
      "latitude": "29.966134213481375",
      "longitude": "-90.03327740360804"
    }
  },
  {
    "service_request": "2022-954961",
    "request_type": "Trash/Recycling",
    "request_reason": "Missed Trash Pick-Up",
    "date_created": "2022-12-20T17:00:58.000",
    "date_modified": "2022-12-20T17:30:23.000",
    "request_status": "Pending",
    "responsible_agency": "Department of Sanitation",
    "final_address": "8742 Morrison Rd",
    "address_councildis": "E",
    "contractor": "Waste Pro",
    "rowid": "954961",
    "final_x": "3705394.25841",
    "final_y": "561597.157087",
    "longitude": "-89.99150931216971",
    "latitude": "30.037449433508947",
    "geocoded_column": {
      "latitude": "30.037449433508947",
      "longitude": "-89.99150931216971"
    }
  },
  {
    "service_request": "2022-954960",
    "request_type": "Trash/Recycling",
    "request_reason": "Missed Trash Pick-Up",
    "date_created": "2022-12-20T17:00:26.000",
    "date_modified": "2022-12-20T17:00:26.000",
    "request_status": "Pending",
    "responsible_agency": "Department of Sanitation",
    "final_address": "8001 Sheephead St",
    "address_councildis": "E",
    "status": "Assigned to Contractor",
    "contractor": "Waste Pro",
    "rowid": "954960",
    "final_x": "3699302.17956",
    "final_y": "561423.32067",
    "longitude": "-90.0107679347218",
    "latitude": "30.037166203437682",
    "geocoded_column": {
      "latitude": "30.037166203437682",
      "longitude": "-90.0107679347218"
    }
  },
  {
    "service_request": "2022-954958",
    "request_type": "Trash/Recycling",
    "request_reason": "Replace Trash Cart",
    "date_created": "2022-12-20T16:55:43.000",
    "date_modified": "2022-12-20T16:55:44.000",
    "request_status": "Pending",
    "responsible_agency": "Department of Sanitation",
    "final_address": "2820 Louisiana Ave",
    "address_councildis": "B",
    "status": "Assigned to Contractor",
    "contractor": "Richards Disposal",
    "rowid": "954958",
    "final_x": "3672349.60686",
    "final_y": "525636.450941",
    "longitude": "-90.09716445516692",
    "latitude": "29.939592511646122",
    "geocoded_column": {
      "latitude": "29.939592511646122",
      "longitude": "-90.09716445516692"
    }
  },
  {
    "service_request": "2022-954956",
    "request_type": "Trash/Recycling",
    "request_reason": "Order Trash Cart",
    "date_created": "2022-12-20T16:47:10.000",
    "date_modified": "2022-12-20T16:47:10.000",
    "request_status": "Pending",
    "responsible_agency": "Department of Sanitation",
    "final_address": "6763 Avenue A",
    "address_councildis": "A",
    "status": "Assigned to Contractor",
    "contractor": "IV Waste",
    "rowid": "954956",
    "final_x": "3666140.47456",
    "final_y": "553131.712343",
    "longitude": "-90.11584526699352",
    "latitude": "30.015377989579953",
    "geocoded_column": {
      "latitude": "30.015377989579953",
      "longitude": "-90.11584526699352"
    }
  },
  {
    "service_request": "2022-954955",
    "request_type": "Roads/Drainage",
    "request_reason": "Street Flooding / Drainage",
    "date_created": "2022-12-20T16:45:19.000",
    "date_modified": "2022-12-20T18:58:47.000",
    "request_status": "Pending",
    "responsible_agency": "Department of Public Works",
    "final_address": "New Orleans,LA",
    "address_councildis": "A",
    "rowid": "954955",
    "final_x": "3663242.13722",
    "final_y": "528050.063935",
    "longitude": "-90.12583781735201",
    "latitude": "29.946496201117256",
    "geocoded_column": {
      "latitude": "29.946496201117256",
      "longitude": "-90.12583781735201"
    }
  },
  {
    "service_request": "2022-954953",
    "request_type": "Trash/Recycling",
    "request_reason": "Missed Trash Pick-Up",
    "date_created": "2022-12-20T16:43:55.000",
    "date_modified": "2022-12-20T16:43:55.000",
    "request_status": "Pending",
    "responsible_agency": "Department of Sanitation",
    "final_address": "802 Bordeaux St",
    "address_councildis": "B",
    "status": "Assigned to Contractor",
    "contractor": "Richards Disposal",
    "rowid": "954953",
    "final_x": "3669575.55143",
    "final_y": "518312.305782",
    "longitude": "-90.10617019765091",
    "latitude": "29.91953545243739",
    "geocoded_column": {
      "latitude": "29.91953545243739",
      "longitude": "-90.10617019765091"
    }
  },
  {
    "service_request": "2022-954952",
    "request_type": "Abandoned Vehicles",
    "request_reason": "Abandoned/Junk Vehicles",
    "date_created": "2022-12-20T16:41:42.000",
    "date_modified": "2022-12-20T16:43:24.000",
    "request_status": "Pending",
    "responsible_agency": "Department of Public Works",
    "final_address": "MARIGNY ST & MEXICO ST",
    "address_councildis": "D",
    "status": "Pending",
    "rowid": "954952",
    "final_x": "3683822.5",
    "final_y": "556174.48",
    "longitude": "-90.0598715068219",
    "latitude": "30.0232160383869",
    "geocoded_column": {
      "latitude": "30.0232160383869",
      "longitude": "-90.0598715068219"
    }
  },
  {
    "service_request": "2022-954951",
    "request_type": "Trash/Recycling",
    "request_reason": "Request a Large Item Pick Up",
    "date_created": "2022-12-20T16:41:01.000",
    "date_modified": "2022-12-20T16:41:02.000",
    "request_status": "Pending",
    "responsible_agency": "Department of Sanitation",
    "final_address": "86 Fontainebleau Dr",
    "address_councildis": "A",
    "status": "Assigned to Contractor",
    "contractor": "Richards Disposal",
    "rowid": "954951",
    "final_x": "3666910.29447",
    "final_y": "530715.840898",
    "longitude": "-90.11416654538185",
    "latitude": "29.953719422193565",
    "geocoded_column": {
      "latitude": "29.953719422193565",
      "longitude": "-90.11416654538185"
    }
  },
  {
    "service_request": "2022-954950",
    "request_type": "Trash/Recycling",
    "request_reason": "Missed Trash Pick-Up",
    "date_created": "2022-12-20T16:40:54.000",
    "date_modified": "2022-12-20T16:40:55.000",
    "request_status": "Pending",
    "responsible_agency": "Department of Sanitation",
    "final_address": "4917 S Tonti St",
    "address_councildis": "B",
    "status": "Assigned to Contractor",
    "contractor": "Richards Disposal",
    "rowid": "954950",
    "final_x": "3669143.91143",
    "final_y": "528098.536575",
    "longitude": "-90.10720212623686",
    "latitude": "29.946457154399866",
    "geocoded_column": {
      "latitude": "29.946457154399866",
      "longitude": "-90.10720212623686"
    }
  },
  {
    "service_request": "2022-954949",
    "request_type": "Traffic Signals/Signs/Striping/Streetlights",
    "request_reason": "Street Light Outage/Malfunction",
    "date_created": "2022-12-20T16:40:04.000",
    "date_modified": "2022-12-20T16:40:04.000",
    "request_status": "Pending",
    "responsible_agency": "Department of Public Works",
    "final_address": "Banks St & S Hennessey St, New Orleans, Louisiana, 70119",
    "status": "Pending",
    "contractor": "Legacy Professional Services",
    "rowid": "954949",
    "longitude": "0.0",
    "latitude": "0.0",
    "geocoded_column": {
      "latitude": "0.0",
      "longitude": "0.0"
    }
  },
  {
    "service_request": "2022-954947",
    "request_type": "Trash/Recycling",
    "request_reason": "Illegal Dumping",
    "date_created": "2022-12-20T16:36:07.000",
    "date_modified": "2022-12-20T16:36:07.000",
    "request_status": "Pending",
    "responsible_agency": "Department of Sanitation",
    "final_address": "1726 Laharpe St",
    "address_councildis": "D",
    "status": "Pending",
    "rowid": "954947",
    "final_x": "3681469.26767",
    "final_y": "537805.792008",
    "longitude": "-90.06794817293122",
    "latitude": "29.97278039157533",
    "geocoded_column": {
      "latitude": "29.97278039157533",
      "longitude": "-90.06794817293122"
    }
  },
  {
    "service_request": "2022-954946",
    "request_type": "Trash/Recycling",
    "request_reason": "Missed Trash Pick-Up",
    "date_created": "2022-12-20T16:36:06.000",
    "date_modified": "2022-12-20T16:36:06.000",
    "request_status": "Pending",
    "responsible_agency": "Department of Sanitation",
    "final_address": "804 Valence St",
    "address_councildis": "B",
    "status": "Assigned to Contractor",
    "contractor": "Richards Disposal",
    "rowid": "954946",
    "final_x": "3669922.6187",
    "final_y": "518367.50047",
    "longitude": "-90.10507280836849",
    "latitude": "29.919676995270354",
    "geocoded_column": {
      "latitude": "29.919676995270354",
      "longitude": "-90.10507280836849"
    }
  },
  {
    "service_request": "2022-954945",
    "request_type": "Traffic Signals/Signs/Striping/Streetlights",
    "request_reason": "Traffic Sign Missing/Damaged",
    "date_created": "2022-12-20T16:35:54.000",
    "date_modified": "2022-12-20T16:35:55.000",
    "request_status": "Pending",
    "responsible_agency": "Department of Public Works",
    "final_address": "I 510 N & CHEF MENTEUR EXIT",
    "address_councildis": "E",
    "status": "Pending",
    "rowid": "954945",
    "final_x": "3721995.72",
    "final_y": "557105.99",
    "longitude": "-89.93921818735681",
    "latitude": "30.02455554467257",
    "geocoded_column": {
      "latitude": "30.02455554467257",
      "longitude": "-89.93921818735681"
    }
  },
  {
    "service_request": "2022-954944",
    "request_type": "Trash/Recycling",
    "request_reason": "Missed Trash Pick-Up",
    "date_created": "2022-12-20T16:34:50.000",
    "date_modified": "2022-12-20T16:34:50.000",
    "request_status": "Pending",
    "responsible_agency": "Department of Sanitation",
    "final_address": "2427 Napoleon Ave",
    "address_councildis": "B",
    "status": "Assigned to Contractor",
    "contractor": "Richards Disposal",
    "rowid": "954944",
    "final_x": "3670643.28673",
    "final_y": "523928.028604",
    "longitude": "-90.1026094879799",
    "latitude": "29.934945409062212",
    "geocoded_column": {
      "latitude": "29.934945409062212",
      "longitude": "-90.1026094879799"
    }
  },
  {
    "service_request": "2022-954943",
    "request_type": "Roads/Drainage",
    "request_reason": "Pothole",
    "date_created": "2022-12-20T16:31:18.000",
    "date_modified": "2022-12-20T16:31:18.000",
    "request_status": "Pending",
    "responsible_agency": "Department of Public Works",
    "final_address": "WEST ROADWAY & N ROADWAY ST & WEST END PARK",
    "address_councildis": "A",
    "status": "Pending",
    "rowid": "954943",
    "final_x": "3664741.0",
    "final_y": "556628.78",
    "longitude": "-90.12014999091376",
    "latitude": "30.025034507416837",
    "geocoded_column": {
      "latitude": "30.025034507416837",
      "longitude": "-90.12014999091376"
    }
  },
  {
    "service_request": "2022-954942",
    "request_type": "Trash/Recycling",
    "request_reason": "Request a Large Item Pick Up",
    "date_created": "2022-12-20T16:31:11.000",
    "date_modified": "2022-12-20T16:31:11.000",
    "request_status": "Pending",
    "responsible_agency": "Department of Sanitation",
    "final_address": "13211 Dwyer Blvd",
    "address_councildis": "E",
    "status": "Assigned to Contractor",
    "contractor": "Waste Pro",
    "rowid": "954942",
    "final_x": "3724365.33728",
    "final_y": "561532.289055",
    "longitude": "-89.93155961390502",
    "latitude": "30.036646574891197",
    "geocoded_column": {
      "latitude": "30.036646574891197",
      "longitude": "-89.93155961390502"
    }
  },
  {
    "service_request": "2022-954941",
    "request_type": "Trash/Recycling",
    "request_reason": "Repair Recycling Cart",
    "date_created": "2022-12-20T16:28:59.000",
    "date_modified": "2022-12-20T16:28:59.000",
    "request_status": "Pending",
    "responsible_agency": "Department of Sanitation",
    "final_address": "8110 Breakwater Dr",
    "address_councildis": "A",
    "status": "Pending",
    "rowid": "954941",
    "final_x": "3665909.28282",
    "final_y": "557869.318107",
    "longitude": "-90.1164167568915",
    "latitude": "30.028411482707586",
    "geocoded_column": {
      "latitude": "30.028411482707586",
      "longitude": "-90.1164167568915"
    }
  },
  {
    "service_request": "2022-954939",
    "request_type": "Trash/Recycling",
    "request_reason": "Request a Large Item Pick Up",
    "date_created": "2022-12-20T16:28:25.000",
    "date_modified": "2022-12-20T16:28:26.000",
    "request_status": "Pending",
    "responsible_agency": "Department of Sanitation",
    "final_address": "1536 Painters St",
    "address_councildis": "C",
    "status": "Assigned to Contractor",
    "contractor": "IV Waste",
    "rowid": "954939",
    "final_x": "3687390.50806",
    "final_y": "538235.898185",
    "longitude": "-90.04923261324863",
    "latitude": "29.973781904141617",
    "geocoded_column": {
      "latitude": "29.973781904141617",
      "longitude": "-90.04923261324863"
    }
  },
  {
    "service_request": "2022-954936",
    "request_type": "Trash/Recycling",
    "request_reason": "Missed Trash Pick-Up",
    "date_created": "2022-12-20T16:26:48.000",
    "date_modified": "2022-12-20T16:26:49.000",
    "request_status": "Pending",
    "responsible_agency": "Department of Sanitation",
    "final_address": "4928 Werner Dr",
    "address_councildis": "E",
    "status": "Assigned to Contractor",
    "contractor": "Waste Pro",
    "rowid": "954936",
    "final_x": "3704626.41719",
    "final_y": "556262.266906",
    "longitude": "-89.99413289664025",
    "latitude": "30.02280526748643",
    "geocoded_column": {
      "latitude": "30.02280526748643",
      "longitude": "-89.99413289664025"
    }
  },
  {
    "service_request": "2022-954935",
    "request_type": "Trash/Recycling",
    "request_reason": "Request a Large Item Pick Up",
    "date_created": "2022-12-20T16:26:32.000",
    "date_modified": "2022-12-20T16:26:34.000",
    "request_status": "Pending",
    "responsible_agency": "Department of Sanitation",
    "final_address": "4601 Cardenas Dr",
    "address_councildis": "E",
    "status": "Assigned to Contractor",
    "contractor": "Waste Pro",
    "rowid": "954935",
    "final_x": "3713831.42911",
    "final_y": "555555.851673",
    "longitude": "-89.96507413775986",
    "latitude": "30.020563877347563",
    "geocoded_column": {
      "latitude": "30.020563877347563",
      "longitude": "-89.96507413775986"
    }
  },
  {
    "service_request": "2022-954932",
    "request_type": "Trash/Recycling",
    "request_reason": "Order Trash Cart",
    "date_created": "2022-12-20T16:23:05.000",
    "date_modified": "2022-12-20T16:23:06.000",
    "request_status": "Pending",
    "responsible_agency": "Department of Sanitation",
    "final_address": "6896 Milne Blvd",
    "address_councildis": "A",
    "status": "Assigned to Contractor",
    "contractor": "IV Waste",
    "rowid": "954932",
    "final_x": "3667509.87681",
    "final_y": "553489.789527",
    "longitude": "-90.11150651262227",
    "latitude": "30.016322496542067",
    "geocoded_column": {
      "latitude": "30.016322496542067",
      "longitude": "-90.11150651262227"
    }
  },
  {
    "service_request": "2022-954931",
    "request_type": "Trash/Recycling",
    "request_reason": "Order Recycling Cart",
    "date_created": "2022-12-20T16:22:41.000",
    "date_modified": "2022-12-20T16:22:42.000",
    "request_status": "Pending",
    "responsible_agency": "Department of Sanitation",
    "final_address": "2615 Jefferson Ave",
    "address_councildis": "B",
    "status": "Pending",
    "rowid": "954931",
    "final_x": "3668262.49095",
    "final_y": "525076.200125",
    "longitude": "-90.11008696412392",
    "latitude": "29.93817261101718",
    "geocoded_column": {
      "latitude": "29.93817261101718",
      "longitude": "-90.11008696412392"
    }
  },
  {
    "service_request": "2022-954930",
    "request_type": "Trash/Recycling",
    "request_reason": "Order Trash Cart",
    "date_created": "2022-12-20T16:22:08.000",
    "date_modified": "2022-12-20T16:22:09.000",
    "request_status": "Pending",
    "responsible_agency": "Department of Sanitation",
    "final_address": "2615 Jefferson Ave",
    "address_councildis": "B",
    "status": "Assigned to Contractor",
    "contractor": "Richards Disposal",
    "rowid": "954930",
    "final_x": "3668262.49095",
    "final_y": "525076.200125",
    "longitude": "-90.11008696412392",
    "latitude": "29.93817261101718",
    "geocoded_column": {
      "latitude": "29.93817261101718",
      "longitude": "-90.11008696412392"
    }
  },
  {
    "service_request": "2022-954928",
    "request_type": "Trash/Recycling",
    "request_reason": "Missed Trash Pick-Up",
    "date_created": "2022-12-20T16:19:48.000",
    "date_modified": "2022-12-20T16:19:49.000",
    "request_status": "Pending",
    "responsible_agency": "Department of Sanitation",
    "final_address": "1822 Cadiz St",
    "address_councildis": "B",
    "status": "Assigned to Contractor",
    "contractor": "Richards Disposal",
    "rowid": "954928",
    "final_x": "3669934.14196",
    "final_y": "521716.378298",
    "longitude": "-90.10492311002272",
    "latitude": "29.92888500470879",
    "geocoded_column": {
      "latitude": "29.92888500470879",
      "longitude": "-90.10492311002272"
    }
  },
  {
    "service_request": "2022-954927",
    "request_type": "Trash/Recycling",
    "request_reason": "Order Trash Cart",
    "date_created": "2022-12-20T16:18:34.000",
    "date_modified": "2022-12-20T16:18:35.000",
    "request_status": "Pending",
    "responsible_agency": "Department of Sanitation",
    "final_address": "5411 Pratt Dr",
    "address_councildis": "D",
    "status": "Assigned to Contractor",
    "contractor": "IV Waste",
    "rowid": "954927",
    "final_x": "3680476.06767",
    "final_y": "552455.96655",
    "longitude": "-90.07057499260952",
    "latitude": "30.013093318116198",
    "geocoded_column": {
      "latitude": "30.013093318116198",
      "longitude": "-90.07057499260952"
    }
  },
  {
    "service_request": "2022-954925",
    "request_type": "Abandoned Vehicles",
    "request_reason": "Vehicle Blocking Your Driveway",
    "date_created": "2022-12-20T16:15:09.000",
    "date_modified": "2022-12-20T16:15:09.000",
    "request_status": "Pending",
    "responsible_agency": "Department of Public Works",
    "final_address": "2213 Governor Nicholls St",
    "address_councildis": "D",
    "status": "Pending",
    "rowid": "954925",
    "final_x": "3679379.30927",
    "final_y": "537274.64852",
    "longitude": "-90.07456707952565",
    "latitude": "29.971383226189374",
    "geocoded_column": {
      "latitude": "29.971383226189374",
      "longitude": "-90.07456707952565"
    }
  },
  {
    "service_request": "2022-954924",
    "request_type": "Trash/Recycling",
    "request_reason": "Missed Trash Pick-Up",
    "date_created": "2022-12-20T16:12:47.000",
    "date_modified": "2022-12-20T16:12:48.000",
    "request_status": "Pending",
    "responsible_agency": "Department of Sanitation",
    "final_address": "8742 Morrison Rd",
    "address_councildis": "E",
    "status": "Assigned to Contractor",
    "contractor": "Waste Pro",
    "rowid": "954924",
    "final_x": "3705394.25841",
    "final_y": "561597.157087",
    "longitude": "-89.99150931216971",
    "latitude": "30.037449433508947",
    "geocoded_column": {
      "latitude": "30.037449433508947",
      "longitude": "-89.99150931216971"
    }
  },
  {
    "service_request": "2022-954923",
    "request_type": "Trash/Recycling",
    "request_reason": "Missed Trash Pick-Up",
    "date_created": "2022-12-20T16:06:54.000",
    "date_modified": "2022-12-20T16:06:55.000",
    "request_status": "Pending",
    "responsible_agency": "Department of Sanitation",
    "final_address": "7570 Pebble Dr",
    "address_councildis": "E",
    "status": "Assigned to Contractor",
    "contractor": "Waste Pro",
    "rowid": "954923",
    "final_x": "3715270.01669",
    "final_y": "568638.873445",
    "longitude": "-89.96003324174454",
    "latitude": "30.056489597969772",
    "geocoded_column": {
      "latitude": "30.056489597969772",
      "longitude": "-89.96003324174454"
    }
  },
  {
    "service_request": "2022-954922",
    "request_type": "Trash/Recycling",
    "request_reason": "Request a Large Item Pick Up",
    "date_created": "2022-12-20T16:04:24.000",
    "date_modified": "2022-12-20T16:06:09.000",
    "request_status": "Pending",
    "responsible_agency": "Department of Sanitation",
    "final_address": "2000 Cambronne St",
    "address_councildis": "A",
    "status": "Assigned to Contractor",
    "contractor": "Richards Disposal",
    "rowid": "954922",
    "final_x": "3663052.2352",
    "final_y": "531227.027714",
    "longitude": "-90.1263317460385",
    "latitude": "29.95523732904449",
    "geocoded_column": {
      "latitude": "29.95523732904449",
      "longitude": "-90.1263317460385"
    }
  },
  {
    "service_request": "2022-954921",
    "request_type": "Trash/Recycling",
    "request_reason": "Order Recycling Cart",
    "date_created": "2022-12-20T16:02:34.000",
    "date_modified": "2022-12-20T16:02:35.000",
    "request_status": "Pending",
    "responsible_agency": "Department of Sanitation",
    "final_address": "8022 Arcadia Ln",
    "address_councildis": "E",
    "status": "Pending",
    "rowid": "954921",
    "final_x": "3711627.11307",
    "final_y": "568130.138405",
    "longitude": "-89.97156686526893",
    "latitude": "30.05521033032866",
    "geocoded_column": {
      "latitude": "30.05521033032866",
      "longitude": "-89.97156686526893"
    }
  },
  {
    "service_request": "2022-954920",
    "request_type": "Trash/Recycling",
    "request_reason": "Missed Trash Pick-Up",
    "date_created": "2022-12-20T16:01:06.000",
    "date_modified": "2022-12-20T16:01:07.000",
    "request_status": "Pending",
    "responsible_agency": "Department of Sanitation",
    "final_address": "3400 BLK Chestnut St",
    "address_councildis": "B",
    "status": "Assigned to Contractor",
    "contractor": "Richards Disposal",
    "rowid": "954920",
    "final_x": "3674543.17745",
    "final_y": "520229.181114",
    "longitude": "-90.0904242198453",
    "latitude": "29.924659021691024",
    "geocoded_column": {
      "latitude": "29.924659021691024",
      "longitude": "-90.0904242198453"
    }
  },
  {
    "service_request": "2022-954919",
    "request_type": "Trash/Recycling",
    "request_reason": "Missed Trash Pick-Up",
    "date_created": "2022-12-20T15:59:58.000",
    "date_modified": "2022-12-20T15:59:59.000",
    "request_status": "Pending",
    "responsible_agency": "Department of Sanitation",
    "final_address": "8022 Arcadia Ln",
    "address_councildis": "E",
    "status": "Assigned to Contractor",
    "contractor": "Waste Pro",
    "rowid": "954919",
    "final_x": "3711627.11307",
    "final_y": "568130.138405",
    "longitude": "-89.97156686526893",
    "latitude": "30.05521033032866",
    "geocoded_column": {
      "latitude": "30.05521033032866",
      "longitude": "-89.97156686526893"
    }
  },
  {
    "service_request": "2022-954918",
    "request_type": "Trash/Recycling",
    "request_reason": "Replace Trash Cart",
    "date_created": "2022-12-20T15:58:06.000",
    "date_modified": "2022-12-20T15:58:07.000",
    "request_status": "Pending",
    "responsible_agency": "Department of Sanitation",
    "final_address": "1215 Annette St",
    "address_councildis": "C",
    "status": "Assigned to Contractor",
    "contractor": "IV Waste",
    "rowid": "954918",
    "final_x": "3683168.46223",
    "final_y": "536285.108551",
    "longitude": "-90.06263506457903",
    "latitude": "29.968547332933174",
    "geocoded_column": {
      "latitude": "29.968547332933174",
      "longitude": "-90.06263506457903"
    }
  },
  {
    "service_request": "2022-954917",
    "request_type": "Trash/Recycling",
    "request_reason": "Order Trash Cart",
    "date_created": "2022-12-20T15:56:48.000",
    "date_modified": "2022-12-20T15:56:49.000",
    "request_status": "Pending",
    "responsible_agency": "Department of Sanitation",
    "final_address": "7038 Orleans Ave",
    "address_councildis": "A",
    "status": "Assigned to Contractor",
    "contractor": "IV Waste",
    "rowid": "954917",
    "final_x": "3671430.63502",
    "final_y": "554085.368664",
    "longitude": "-90.09909832112142",
    "latitude": "30.017844588458775",
    "geocoded_column": {
      "latitude": "30.017844588458775",
      "longitude": "-90.09909832112142"
    }
  },
  {
    "service_request": "2022-954916",
    "request_type": "Trash/Recycling",
    "request_reason": "Repair Trash Cart",
    "date_created": "2022-12-20T15:56:35.000",
    "date_modified": "2022-12-20T15:56:35.000",
    "request_status": "Pending",
    "responsible_agency": "Department of Sanitation",
    "final_address": "8022 Arcadia Ln",
    "address_councildis": "E",
    "status": "Assigned to Contractor",
    "contractor": "Waste Pro",
    "rowid": "954916",
    "final_x": "3711627.11307",
    "final_y": "568130.138405",
    "longitude": "-89.97156686526893",
    "latitude": "30.05521033032866",
    "geocoded_column": {
      "latitude": "30.05521033032866",
      "longitude": "-89.97156686526893"
    }
  },
  {
    "service_request": "2022-954915",
    "request_type": "Mosquito, Termite & Rodent Control",
    "request_reason": "Rodent Complaint (Rats)",
    "date_created": "2022-12-20T15:54:36.000",
    "date_modified": "2022-12-20T15:54:37.000",
    "request_status": "Pending",
    "responsible_agency": "Mosquito, Termite & Rodent Control Board",
    "final_address": "3339 Delachaise St",
    "address_councildis": "B",
    "status": "Pending",
    "rowid": "954915",
    "final_x": "3671521.58606",
    "final_y": "527391.465279",
    "longitude": "-90.09971898346097",
    "latitude": "29.94444276607142",
    "geocoded_column": {
      "latitude": "29.94444276607142",
      "longitude": "-90.09971898346097"
    }
  },
  {
    "service_request": "2022-954914",
    "request_type": "Abandoned Vehicles",
    "request_reason": "Abandoned/Junk Vehicles",
    "date_created": "2022-12-20T15:53:17.000",
    "date_modified": "2022-12-20T15:53:17.000",
    "request_status": "Pending",
    "responsible_agency": "Department of Public Works",
    "final_address": "1042 Desire St",
    "address_councildis": "C",
    "status": "Pending",
    "rowid": "954914",
    "final_x": "3690113.09398",
    "final_y": "535580.058694",
    "longitude": "-90.04072874089687",
    "latitude": "29.96639510492585",
    "geocoded_column": {
      "latitude": "29.96639510492585",
      "longitude": "-90.04072874089687"
    }
  },
  {
    "service_request": "2022-954913",
    "request_type": "Trash/Recycling",
    "request_reason": "Request a Large Item Pick Up",
    "date_created": "2022-12-20T15:53:02.000",
    "date_modified": "2022-12-20T15:53:02.000",
    "request_status": "Pending",
    "responsible_agency": "Department of Sanitation",
    "final_address": "100 Eastpoint Ct",
    "address_councildis": "E",
    "status": "Assigned to Contractor",
    "contractor": "Waste Pro",
    "rowid": "954913",
    "final_x": "3720442.87583",
    "final_y": "563177.534688",
    "longitude": "-89.94389220519953",
    "latitude": "30.04130168776992",
    "geocoded_column": {
      "latitude": "30.04130168776992",
      "longitude": "-89.94389220519953"
    }
  },
  {
    "service_request": "2022-954912",
    "request_type": "Abandoned Vehicles",
    "request_reason": "Abandoned/Junk Vehicles",
    "date_created": "2022-12-20T15:50:08.000",
    "date_modified": "2022-12-20T15:50:08.000",
    "request_status": "Pending",
    "responsible_agency": "Department of Public Works",
    "final_address": "7513 Jonlee Dr",
    "address_councildis": "E",
    "status": "Pending",
    "rowid": "954912",
    "final_x": "3717540.93407",
    "final_y": "570052.753063",
    "longitude": "-89.95280148188189",
    "latitude": "30.060302148714964",
    "geocoded_column": {
      "latitude": "30.060302148714964",
      "longitude": "-89.95280148188189"
    }
  },
  {
    "service_request": "2022-954911",
    "request_type": "Trash/Recycling",
    "request_reason": "Missed Trash Pick-Up",
    "date_created": "2022-12-20T15:49:50.000",
    "date_modified": "2022-12-20T15:49:50.000",
    "request_status": "Pending",
    "responsible_agency": "Department of Sanitation",
    "final_address": "600 BLK N Murat St",
    "address_councildis": "A",
    "status": "Assigned to Contractor",
    "contractor": "Richards Disposal",
    "rowid": "954911",
    "final_x": "3670890.94886",
    "final_y": "540964.840758",
    "longitude": "-90.10124928617505",
    "latitude": "29.98178367809629",
    "geocoded_column": {
      "latitude": "29.98178367809629",
      "longitude": "-90.10124928617505"
    }
  },
  {
    "service_request": "2022-954910",
    "request_type": "Roads/Drainage",
    "request_reason": "Pothole",
    "date_created": "2022-12-20T15:49:46.000",
    "date_modified": "2022-12-20T15:51:02.000",
    "request_status": "Pending",
    "responsible_agency": "Department of Public Works",
    "final_address": "633 N Murat St, New Orleans, Louisiana, 70119",
    "address_councildis": "A",
    "rowid": "954910",
    "final_x": "3670930.99367",
    "final_y": "541065.819148",
    "longitude": "-90.1011193756622",
    "latitude": "29.982060150227834",
    "geocoded_column": {
      "latitude": "29.982060150227834",
      "longitude": "-90.1011193756622"
    }
  },
  {
    "service_request": "2022-954909",
    "request_type": "Abandoned Vehicles",
    "request_reason": "Abandoned/Junk Vehicles",
    "date_created": "2022-12-20T15:49:40.000",
    "date_modified": "2022-12-20T15:49:40.000",
    "request_status": "Pending",
    "responsible_agency": "Department of Public Works",
    "final_address": "5702 N Derbigny St",
    "address_councildis": "E",
    "status": "Pending",
    "rowid": "954909",
    "final_x": "3698988.87799",
    "final_y": "535833.145095",
    "longitude": "-90.01269010986171",
    "latitude": "29.96681270406851",
    "geocoded_column": {
      "latitude": "29.96681270406851",
      "longitude": "-90.01269010986171"
    }
  },
  {
    "service_request": "2022-954908",
    "request_type": "Roads/Drainage",
    "request_reason": "Street Flooding / Drainage",
    "date_created": "2022-12-20T15:49:30.000",
    "date_modified": "2022-12-20T15:49:30.000",
    "request_status": "Pending",
    "responsible_agency": "Department of Public Works",
    "final_address": "2505 St Maurice Ave",
    "address_councildis": "E",
    "status": "Pending",
    "rowid": "954908",
    "final_x": "3701929.52151",
    "final_y": "538214.396681",
    "longitude": "-90.00331634227632",
    "latitude": "29.97326676301305",
    "geocoded_column": {
      "latitude": "29.97326676301305",
      "longitude": "-90.00331634227632"
    }
  },
  {
    "service_request": "2022-954907",
    "request_type": "Abandoned Vehicles",
    "request_reason": "Abandoned/Junk Vehicles",
    "date_created": "2022-12-20T15:48:52.000",
    "date_modified": "2022-12-20T15:48:52.000",
    "request_status": "Pending",
    "responsible_agency": "Department of Public Works",
    "final_address": "7513 Jonlee Dr",
    "address_councildis": "E",
    "status": "Pending",
    "rowid": "954907",
    "final_x": "3717540.93407",
    "final_y": "570052.753063",
    "longitude": "-89.95280148188189",
    "latitude": "30.060302148714964",
    "geocoded_column": {
      "latitude": "30.060302148714964",
      "longitude": "-89.95280148188189"
    }
  },
  {
    "service_request": "2022-954906",
    "request_type": "Abandoned Vehicles",
    "request_reason": "Abandoned/Junk Vehicles",
    "date_created": "2022-12-20T15:48:10.000",
    "date_modified": "2022-12-20T15:48:10.000",
    "request_status": "Pending",
    "responsible_agency": "Department of Public Works",
    "final_address": "7513 Jonlee Dr",
    "address_councildis": "E",
    "status": "Pending",
    "rowid": "954906",
    "final_x": "3717540.93407",
    "final_y": "570052.753063",
    "longitude": "-89.95280148188189",
    "latitude": "30.060302148714964",
    "geocoded_column": {
      "latitude": "30.060302148714964",
      "longitude": "-89.95280148188189"
    }
  },
  {
    "service_request": "2022-954905",
    "request_type": "Roads/Drainage",
    "request_reason": "Street Flooding / Drainage",
    "date_created": "2022-12-20T15:47:46.000",
    "date_modified": "2022-12-20T15:47:46.000",
    "request_status": "Pending",
    "responsible_agency": "Department of Public Works",
    "final_address": "2542 St Maurice Ave",
    "address_councildis": "E",
    "status": "Pending",
    "rowid": "954905",
    "final_x": "3701945.93181",
    "final_y": "538508.293129",
    "longitude": "-90.00325374135386",
    "latitude": "29.974074347580324",
    "geocoded_column": {
      "latitude": "29.974074347580324",
      "longitude": "-90.00325374135386"
    }
  },
  {
    "service_request": "2022-954904",
    "request_type": "Abandoned Vehicles",
    "request_reason": "Abandoned/Junk Vehicles",
    "date_created": "2022-12-20T15:46:14.000",
    "date_modified": "2022-12-20T15:46:14.000",
    "request_status": "Pending",
    "responsible_agency": "Department of Public Works",
    "final_address": "7513 Jonlee Dr",
    "address_councildis": "E",
    "status": "Pending",
    "rowid": "954904",
    "final_x": "3717540.93407",
    "final_y": "570052.753063",
    "longitude": "-89.95280148188189",
    "latitude": "30.060302148714964",
    "geocoded_column": {
      "latitude": "30.060302148714964",
      "longitude": "-89.95280148188189"
    }
  },
  {
    "service_request": "2022-954903",
    "request_type": "Roads/Drainage",
    "request_reason": "Man hole cover issue",
    "date_created": "2022-12-20T15:45:04.000",
    "date_modified": "2022-12-20T15:45:04.000",
    "request_status": "Pending",
    "responsible_agency": "Department of Public Works",
    "final_address": "2619 Tricou St",
    "address_councildis": "E",
    "status": "Pending",
    "rowid": "954903",
    "final_x": "3702403.52657",
    "final_y": "538548.822601",
    "longitude": "-90.00180707583904",
    "latitude": "29.974171175584363",
    "geocoded_column": {
      "latitude": "29.974171175584363",
      "longitude": "-90.00180707583904"
    }
  },
  {
    "service_request": "2022-954902",
    "request_type": "Trash/Recycling",
    "request_reason": "MIssed Recycling Pick-Up",
    "date_created": "2022-12-20T15:44:15.000",
    "date_modified": "2022-12-20T15:44:15.000",
    "request_status": "Pending",
    "responsible_agency": "Department of Sanitation",
    "final_address": "436 S Gayoso St",
    "address_councildis": "B",
    "status": "Assigned to Contractor",
    "contractor": "Richards Disposal",
    "rowid": "954902",
    "final_x": "3673433.09844",
    "final_y": "534604.912517",
    "longitude": "-90.09343732954409",
    "latitude": "29.964220626513818",
    "geocoded_column": {
      "latitude": "29.964220626513818",
      "longitude": "-90.09343732954409"
    }
  },
  {
    "service_request": "2022-954901",
    "request_type": "Roads/Drainage",
    "request_reason": "Catch Basin - Clogged",
    "date_created": "2022-12-20T15:43:37.000",
    "date_modified": "2022-12-20T15:43:38.000",
    "request_status": "Pending",
    "responsible_agency": "Department of Public Works",
    "final_address": "5861 Kensington Blvd",
    "address_councildis": "E",
    "status": "Pending",
    "rowid": "954901",
    "final_x": "3713234.78821",
    "final_y": "561211.780318",
    "longitude": "-89.96674618549075",
    "latitude": "30.03613501265572",
    "geocoded_column": {
      "latitude": "30.03613501265572",
      "longitude": "-89.96674618549075"
    }
  },
  {
    "service_request": "2022-954900",
    "request_type": "Trash/Recycling",
    "request_reason": "Request a Large Item Pick Up",
    "date_created": "2022-12-20T15:43:12.000",
    "date_modified": "2022-12-20T15:43:13.000",
    "request_status": "Pending",
    "responsible_agency": "Department of Sanitation",
    "final_address": "7933 Birch St",
    "address_councildis": "A",
    "status": "Assigned to Contractor",
    "contractor": "Richards Disposal",
    "rowid": "954900",
    "final_x": "3663309.23763",
    "final_y": "529107.803392",
    "longitude": "-90.12559075568633",
    "latitude": "29.94940270024249",
    "geocoded_column": {
      "latitude": "29.94940270024249",
      "longitude": "-90.12559075568633"
    }
  },
  {
    "service_request": "2022-954899",
    "request_type": "Trash/Recycling",
    "request_reason": "MIssed Recycling Pick-Up",
    "date_created": "2022-12-20T15:36:27.000",
    "date_modified": "2022-12-20T15:36:28.000",
    "request_status": "Pending",
    "responsible_agency": "Department of Sanitation",
    "final_address": "5642 Canal Blvd",
    "address_councildis": "A",
    "status": "Assigned to Contractor",
    "contractor": "IV Waste",
    "rowid": "954899",
    "final_x": "3668119.51098",
    "final_y": "545187.105615",
    "longitude": "-90.10986042922397",
    "latitude": "29.993475116953185",
    "geocoded_column": {
      "latitude": "29.993475116953185",
      "longitude": "-90.10986042922397"
    }
  },
  {
    "service_request": "2022-954898",
    "request_type": "Trash/Recycling",
    "request_reason": "Missed Trash Pick-Up",
    "date_created": "2022-12-20T15:35:30.000",
    "date_modified": "2022-12-20T15:35:31.000",
    "request_status": "Pending",
    "responsible_agency": "Department of Sanitation",
    "final_address": "4312 Coliseum St, New Orleans, Louisiana, 70115",
    "address_councildis": "B",
    "status": "Assigned to Contractor",
    "contractor": "Richards Disposal",
    "rowid": "954898",
    "final_x": "3671244.94766",
    "final_y": "519766.51916",
    "longitude": "-90.10085135858562",
    "latitude": "29.92348481027771",
    "geocoded_column": {
      "latitude": "29.92348481027771",
      "longitude": "-90.10085135858562"
    }
  },
  {
    "service_request": "2022-954897",
    "request_type": "Roads/Drainage",
    "request_reason": "Street Subsidence (Sinking)",
    "date_created": "2022-12-20T15:35:08.000",
    "date_modified": "2022-12-20T15:35:08.000",
    "request_status": "Pending",
    "responsible_agency": "Department of Public Works",
    "final_address": "4424 Annette St",
    "address_councildis": "D",
    "status": "Pending",
    "rowid": "954897",
    "final_x": "3682053.17352",
    "final_y": "548900.980755",
    "longitude": "-90.06571644393773",
    "latitude": "30.003270506366206",
    "geocoded_column": {
      "latitude": "30.003270506366206",
      "longitude": "-90.06571644393773"
    }
  },
  {
    "service_request": "2022-954896",
    "request_type": "Trash/Recycling",
    "request_reason": "Missed Trash Pick-Up",
    "date_created": "2022-12-20T15:30:44.000",
    "date_modified": "2022-12-20T15:30:45.000",
    "request_status": "Pending",
    "responsible_agency": "Department of Sanitation",
    "final_address": "4515 S Johnson St",
    "address_councildis": "B",
    "status": "Assigned to Contractor",
    "contractor": "Richards Disposal",
    "rowid": "954896",
    "final_x": "3669677.07271",
    "final_y": "527237.719743",
    "longitude": "-90.10554786534615",
    "latitude": "29.944074490071973",
    "geocoded_column": {
      "latitude": "29.944074490071973",
      "longitude": "-90.10554786534615"
    }
  },
  {
    "service_request": "2022-954895",
    "request_type": "Traffic Signals/Signs/Striping/Streetlights",
    "request_reason": "Street Light Outage/Malfunction",
    "date_created": "2022-12-20T15:27:16.000",
    "date_modified": "2022-12-20T15:27:17.000",
    "request_status": "Pending",
    "responsible_agency": "Department of Public Works",
    "final_address": "600 N Murat St",
    "address_councildis": "A",
    "status": "Pending",
    "contractor": "Legacy Professional Services",
    "rowid": "954895",
    "final_x": "3670833.86183",
    "final_y": "540830.812491",
    "longitude": "-90.10143414559589",
    "latitude": "29.981416833725472",
    "geocoded_column": {
      "latitude": "29.981416833725472",
      "longitude": "-90.10143414559589"
    }
  },
  {
    "service_request": "2022-954893",
    "request_type": "Trash/Recycling",
    "request_reason": "Request a Large Item Pick Up",
    "date_created": "2022-12-20T15:16:58.000",
    "date_modified": "2022-12-20T15:16:59.000",
    "request_status": "Pending",
    "responsible_agency": "Department of Sanitation",
    "final_address": "7636 Jeannette St",
    "address_councildis": "A",
    "status": "Assigned to Contractor",
    "contractor": "Richards Disposal",
    "rowid": "954893",
    "final_x": "3663777.2633",
    "final_y": "528029.400447",
    "longitude": "-90.12414891500917",
    "latitude": "29.946423866371518",
    "geocoded_column": {
      "latitude": "29.946423866371518",
      "longitude": "-90.12414891500917"
    }
  },
  {
    "service_request": "2022-954892",
    "request_type": "Abandoned Vehicles",
    "request_reason": "Abandoned/Junk Vehicles",
    "date_created": "2022-12-20T15:16:14.000",
    "date_modified": "2022-12-20T15:19:56.000",
    "request_status": "Pending",
    "responsible_agency": "Department of Public Works",
    "final_address": "500 BLK N Murat St",
    "address_councildis": "A",
    "status": "Pending",
    "rowid": "954892",
    "final_x": "3670692.56573",
    "final_y": "540701.943646",
    "longitude": "-90.10188479922817",
    "latitude": "29.98106666445059",
    "geocoded_column": {
      "latitude": "29.98106666445059",
      "longitude": "-90.10188479922817"
    }
  },
  {
    "service_request": "2022-954891",
    "request_type": "Property Maintenance",
    "request_reason": "Property Maintenance",
    "date_created": "2022-12-20T15:12:37.000",
    "date_modified": "2022-12-20T15:12:37.000",
    "request_status": "Pending",
    "responsible_agency": "Department of Code Enforcement",
    "final_address": "417 Warrington Dr",
    "address_councildis": "D",
    "status": "Pending",
    "rowid": "954891",
    "final_x": "3681561.27669",
    "final_y": "548326.51285",
    "longitude": "-90.06729047194948",
    "latitude": "30.00170587900364",
    "geocoded_column": {
      "latitude": "30.00170587900364",
      "longitude": "-90.06729047194948"
    }
  },
  {
    "service_request": "2022-954890",
    "request_type": "Trash/Recycling",
    "request_reason": "Order Trash Cart",
    "date_created": "2022-12-20T15:11:55.000",
    "date_modified": "2022-12-20T15:11:55.000",
    "request_status": "Pending",
    "responsible_agency": "Department of Sanitation",
    "final_address": "1822 Laharpe St",
    "address_councildis": "D",
    "status": "Assigned to Contractor",
    "contractor": "IV Waste",
    "rowid": "954890",
    "final_x": "3681153.7972",
    "final_y": "537964.895625",
    "longitude": "-90.06893894237224",
    "latitude": "29.97322744709942",
    "geocoded_column": {
      "latitude": "29.97322744709942",
      "longitude": "-90.06893894237224"
    }
  },
  {
    "service_request": "2022-954889",
    "request_type": "Trash/Recycling",
    "request_reason": "Missed Trash Pick-Up",
    "date_created": "2022-12-20T15:11:52.000",
    "date_modified": "2022-12-20T15:11:52.000",
    "request_status": "Pending",
    "responsible_agency": "Department of Sanitation",
    "final_address": "1685 Soniat St",
    "address_councildis": "B",
    "status": "Assigned to Contractor",
    "contractor": "Richards Disposal",
    "rowid": "954889",
    "final_x": "3668529.74599",
    "final_y": "521694.566073",
    "longitude": "-90.10935725424744",
    "latitude": "29.928866352371365",
    "geocoded_column": {
      "latitude": "29.928866352371365",
      "longitude": "-90.10935725424744"
    }
  },
  {
    "service_request": "2022-954888",
    "request_type": "Trash/Recycling",
    "request_reason": "Missed Trash Pick-Up",
    "date_created": "2022-12-20T15:11:12.000",
    "date_modified": "2022-12-20T15:11:12.000",
    "request_status": "Pending",
    "responsible_agency": "Department of Sanitation",
    "final_address": "10301 Willow Dr",
    "address_councildis": "C",
    "status": "Assigned to Contractor",
    "contractor": "Richards Disposal",
    "rowid": "954888",
    "final_x": "3722473.40767",
    "final_y": "516700.422005",
    "longitude": "-89.93926212627677",
    "latitude": "29.913439630372576",
    "geocoded_column": {
      "latitude": "29.913439630372576",
      "longitude": "-89.93926212627677"
    }
  },
  {
    "service_request": "2022-954887",
    "request_type": "Abandoned Vehicles",
    "request_reason": "Abandoned/Junk Vehicles",
    "date_created": "2022-12-20T15:06:51.000",
    "date_modified": "2022-12-20T15:06:51.000",
    "request_status": "Pending",
    "responsible_agency": "Department of Public Works",
    "final_address": "3211 Upperline St",
    "address_councildis": "B",
    "status": "Pending",
    "rowid": "954887",
    "final_x": "3669332.83207",
    "final_y": "526582.592318",
    "longitude": "-90.10665687558176",
    "latitude": "29.942283240095687",
    "geocoded_column": {
      "latitude": "29.942283240095687",
      "longitude": "-90.10665687558176"
    }
  },
  {
    "service_request": "2022-954886",
    "request_type": "Trash/Recycling",
    "request_reason": "Missed Trash Pick-Up",
    "date_created": "2022-12-20T15:05:15.000",
    "date_modified": "2022-12-20T15:05:16.000",
    "request_status": "Pending",
    "responsible_agency": "Department of Sanitation",
    "final_address": "2434 Chartres St",
    "address_councildis": "C",
    "status": "Assigned to Contractor",
    "contractor": "IV Waste",
    "rowid": "954886",
    "final_x": "3686203.5983",
    "final_y": "534571.242437",
    "longitude": "-90.05311043707961",
    "latitude": "29.963741897367576",
    "geocoded_column": {
      "latitude": "29.963741897367576",
      "longitude": "-90.05311043707961"
    }
  },
  {
    "service_request": "2022-954885",
    "request_type": "Trash/Recycling",
    "request_reason": "Illegal Dumping",
    "date_created": "2022-12-20T15:04:52.000",
    "date_modified": "2022-12-20T15:04:53.000",
    "request_status": "Pending",
    "responsible_agency": "Department of Code Enforcement",
    "final_address": "1517 Paula St",
    "address_councildis": "D",
    "status": "Pending",
    "rowid": "954885",
    "final_x": "3678941.87291",
    "final_y": "549362.048467",
    "longitude": "-90.0755295280296",
    "latitude": "30.00463255289357",
    "geocoded_column": {
      "latitude": "30.00463255289357",
      "longitude": "-90.0755295280296"
    }
  },
  {
    "service_request": "2022-954884",
    "request_type": "Trash/Recycling",
    "request_reason": "MIssed Recycling Pick-Up",
    "date_created": "2022-12-20T15:04:29.000",
    "date_modified": "2022-12-20T15:04:29.000",
    "request_status": "Pending",
    "responsible_agency": "Department of Sanitation",
    "final_address": "1 Marywood Ct",
    "address_councildis": "E",
    "status": "Assigned to Contractor",
    "contractor": "Waste Pro",
    "rowid": "954884",
    "final_x": "3712883.22974",
    "final_y": "566309.500835",
    "longitude": "-89.96766516291125",
    "latitude": "30.050163212495477",
    "geocoded_column": {
      "latitude": "30.050163212495477",
      "longitude": "-89.96766516291125"
    }
  },
  {
    "service_request": "2022-954883",
    "request_type": "Property Maintenance",
    "request_reason": "Property Maintenance",
    "date_created": "2022-12-20T15:04:10.000",
    "date_modified": "2022-12-20T15:04:10.000",
    "request_status": "Pending",
    "responsible_agency": "Department of Code Enforcement",
    "final_address": "822 Jena St",
    "address_councildis": "B",
    "status": "Pending",
    "rowid": "954883",
    "final_x": "3670636.04039",
    "final_y": "518561.896055",
    "longitude": "-90.10281429248332",
    "latitude": "29.92019047439104",
    "geocoded_column": {
      "latitude": "29.92019047439104",
      "longitude": "-90.10281429248332"
    }
  },
  {
    "service_request": "2022-954882",
    "request_type": "Trash/Recycling",
    "request_reason": "MIssed Recycling Pick-Up",
    "date_created": "2022-12-20T15:02:06.000",
    "date_modified": "2022-12-20T15:02:07.000",
    "request_status": "Pending",
    "responsible_agency": "Department of Sanitation",
    "final_address": "1244 Gardena Dr",
    "address_councildis": "D",
    "status": "Assigned to Contractor",
    "contractor": "IV Waste",
    "rowid": "954882",
    "final_x": "3677147.06638",
    "final_y": "551311.521685",
    "longitude": "-90.0811323716416",
    "latitude": "30.010046960198842",
    "geocoded_column": {
      "latitude": "30.010046960198842",
      "longitude": "-90.0811323716416"
    }
  },
  {
    "service_request": "2022-954881",
    "request_type": "Trash/Recycling",
    "request_reason": "Repair Trash Cart",
    "date_created": "2022-12-20T15:00:23.000",
    "date_modified": "2022-12-20T15:00:24.000",
    "request_status": "Pending",
    "responsible_agency": "Department of Sanitation",
    "final_address": "4120 S Johnson St",
    "address_councildis": "B",
    "status": "Assigned to Contractor",
    "contractor": "Richards Disposal",
    "rowid": "954881",
    "final_x": "3671045.65345",
    "final_y": "527245.841471",
    "longitude": "-90.10122658842447",
    "latitude": "29.94405642855252",
    "geocoded_column": {
      "latitude": "29.94405642855252",
      "longitude": "-90.10122658842447"
    }
  },
  {
    "service_request": "2022-954880",
    "request_type": "Roads/Drainage",
    "request_reason": "Catch Basin - Clogged",
    "date_created": "2022-12-20T14:59:36.000",
    "date_modified": "2022-12-20T14:59:37.000",
    "request_status": "Pending",
    "responsible_agency": "Department of Public Works",
    "final_address": "I 610 E & TOURO ST & ELYSIAN FIELDS EXIT",
    "address_councildis": "D",
    "status": "Pending",
    "rowid": "954880",
    "final_x": "3683576.5",
    "final_y": "544469.18",
    "longitude": "-90.06105948579389",
    "latitude": "29.991038213216296",
    "geocoded_column": {
      "latitude": "29.991038213216296",
      "longitude": "-90.06105948579389"
    }
  },
  {
    "service_request": "2022-954879",
    "request_type": "Trash/Recycling",
    "request_reason": "MIssed Recycling Pick-Up",
    "date_created": "2022-12-20T14:57:15.000",
    "date_modified": "2022-12-20T14:57:15.000",
    "request_status": "Pending",
    "responsible_agency": "Department of Sanitation",
    "final_address": "2245 Beck St",
    "address_councildis": "C",
    "status": "Assigned to Contractor",
    "contractor": "Richards Disposal",
    "rowid": "954879",
    "final_x": "3700399.11434",
    "final_y": "522519.198522",
    "longitude": "-90.00872266632763",
    "latitude": "29.930159278523185",
    "geocoded_column": {
      "latitude": "29.930159278523185",
      "longitude": "-90.00872266632763"
    }
  },
  {
    "service_request": "2022-954878",
    "request_type": "Property Maintenance",
    "request_reason": "Property Maintenance",
    "date_created": "2022-12-20T14:55:47.000",
    "date_modified": "2022-12-20T14:55:47.000",
    "request_status": "Pending",
    "responsible_agency": "Department of Code Enforcement",
    "final_address": "1660 N Tonti St",
    "address_councildis": "D",
    "status": "Pending",
    "rowid": "954878",
    "final_x": "3680561.82703",
    "final_y": "539688.439626",
    "longitude": "-90.07074852350748",
    "latitude": "29.977984544417247",
    "geocoded_column": {
      "latitude": "29.977984544417247",
      "longitude": "-90.07074852350748"
    }
  },
  {
    "service_request": "2022-954877",
    "request_type": "Trash/Recycling",
    "request_reason": "Missed Trash Pick-Up",
    "date_created": "2022-12-20T14:54:57.000",
    "date_modified": "2022-12-20T14:54:57.000",
    "request_status": "Pending",
    "responsible_agency": "Department of Sanitation",
    "final_address": "1600 BLK Dufossat St",
    "address_councildis": "B",
    "status": "Assigned to Contractor",
    "contractor": "Richards Disposal",
    "rowid": "954877",
    "final_x": "3668128.84087",
    "final_y": "521330.24256",
    "longitude": "-90.11063510712879",
    "latitude": "29.92787634777468",
    "geocoded_column": {
      "latitude": "29.92787634777468",
      "longitude": "-90.11063510712879"
    }
  },
  {
    "service_request": "2022-954876",
    "request_type": "Trash/Recycling",
    "request_reason": "Request a Large Item Pick Up",
    "date_created": "2022-12-20T14:54:15.000",
    "date_modified": "2022-12-20T14:54:16.000",
    "request_status": "Pending",
    "responsible_agency": "Department of Sanitation",
    "final_address": "221 Whitney Ave",
    "address_councildis": "C",
    "status": "Assigned to Contractor",
    "contractor": "Richards Disposal",
    "rowid": "954876",
    "final_x": "3690213.06876",
    "final_y": "530864.66381",
    "longitude": "-90.04058102679797",
    "latitude": "29.953426309256123",
    "geocoded_column": {
      "latitude": "29.953426309256123",
      "longitude": "-90.04058102679797"
    }
  },
  {
    "service_request": "2022-954875",
    "request_type": "Trash/Recycling",
    "request_reason": "Illegal Dumping",
    "date_created": "2022-12-20T14:53:39.000",
    "date_modified": "2022-12-20T14:53:39.000",
    "request_status": "Pending",
    "responsible_agency": "Department of Sanitation",
    "final_address": "1660 N Tonti St",
    "address_councildis": "D",
    "status": "Pending",
    "rowid": "954875",
    "final_x": "3680561.82703",
    "final_y": "539688.439626",
    "longitude": "-90.07074852350748",
    "latitude": "29.977984544417247",
    "geocoded_column": {
      "latitude": "29.977984544417247",
      "longitude": "-90.07074852350748"
    }
  },
  {
    "service_request": "2022-954874",
    "request_type": "Trash/Recycling",
    "request_reason": "Repair Trash Cart",
    "date_created": "2022-12-20T14:53:02.000",
    "date_modified": "2022-12-20T14:53:02.000",
    "request_status": "Pending",
    "responsible_agency": "Department of Sanitation",
    "final_address": "221 Whitney Ave",
    "address_councildis": "C",
    "status": "Assigned to Contractor",
    "contractor": "Richards Disposal",
    "rowid": "954874",
    "final_x": "3690213.06876",
    "final_y": "530864.66381",
    "longitude": "-90.04058102679797",
    "latitude": "29.953426309256123",
    "geocoded_column": {
      "latitude": "29.953426309256123",
      "longitude": "-90.04058102679797"
    }
  },
  {
    "service_request": "2022-954873",
    "request_type": "Trash/Recycling",
    "request_reason": "Missed Trash Pick-Up",
    "date_created": "2022-12-20T14:51:56.000",
    "date_modified": "2022-12-20T14:51:57.000",
    "request_status": "Pending",
    "responsible_agency": "Department of Sanitation",
    "final_address": "822 Jena St",
    "address_councildis": "B",
    "status": "Assigned to Contractor",
    "contractor": "Richards Disposal",
    "rowid": "954873",
    "final_x": "3670636.04039",
    "final_y": "518561.896055",
    "longitude": "-90.10281429248332",
    "latitude": "29.92019047439104",
    "geocoded_column": {
      "latitude": "29.92019047439104",
      "longitude": "-90.10281429248332"
    }
  },
  {
    "service_request": "2022-954871",
    "request_type": "Trash/Recycling",
    "request_reason": "Request a Large Item Pick Up",
    "date_created": "2022-12-20T14:51:04.000",
    "date_modified": "2022-12-20T14:51:04.000",
    "request_status": "Pending",
    "responsible_agency": "Department of Sanitation",
    "final_address": "822 Jena St",
    "address_councildis": "B",
    "status": "Assigned to Contractor",
    "contractor": "Richards Disposal",
    "rowid": "954871",
    "final_x": "3670636.04039",
    "final_y": "518561.896055",
    "longitude": "-90.10281429248332",
    "latitude": "29.92019047439104",
    "geocoded_column": {
      "latitude": "29.92019047439104",
      "longitude": "-90.10281429248332"
    }
  },
  {
    "service_request": "2022-954870",
    "request_type": "Trash/Recycling",
    "request_reason": "Repair Trash Cart",
    "date_created": "2022-12-20T14:50:32.000",
    "date_modified": "2022-12-20T14:50:32.000",
    "request_status": "Pending",
    "responsible_agency": "Department of Sanitation",
    "final_address": "4122 S Johnson St",
    "address_councildis": "B",
    "status": "Assigned to Contractor",
    "contractor": "Richards Disposal",
    "rowid": "954870",
    "final_x": "3671029.43259",
    "final_y": "527244.068607",
    "longitude": "-90.10127786250003",
    "latitude": "29.944052033344008",
    "geocoded_column": {
      "latitude": "29.944052033344008",
      "longitude": "-90.10127786250003"
    }
  },
  {
    "service_request": "2022-954867",
    "request_type": "Trash/Recycling",
    "request_reason": "Missed Trash Pick-Up",
    "date_created": "2022-12-20T14:45:56.000",
    "date_modified": "2022-12-20T15:03:53.000",
    "request_status": "Pending",
    "responsible_agency": "Department of Sanitation",
    "final_address": "1 Marywood Ct",
    "address_councildis": "E",
    "status": "Assigned to Contractor",
    "contractor": "Waste Pro",
    "rowid": "954867",
    "final_x": "3712883.22974",
    "final_y": "566309.500835",
    "longitude": "-89.96766516291125",
    "latitude": "30.050163212495477",
    "geocoded_column": {
      "latitude": "30.050163212495477",
      "longitude": "-89.96766516291125"
    }
  },
  {
    "service_request": "2022-954866",
    "request_type": "Trash/Recycling",
    "request_reason": "Missed Trash Pick-Up",
    "date_created": "2022-12-20T14:45:20.000",
    "date_modified": "2022-12-20T14:45:21.000",
    "request_status": "Pending",
    "responsible_agency": "Department of Sanitation",
    "final_address": "3204 Desaix Blvd",
    "address_councildis": "A",
    "status": "Assigned to Contractor",
    "contractor": "IV Waste",
    "rowid": "954866",
    "final_x": "3678224.21518",
    "final_y": "543461.783822",
    "longitude": "-90.07800096239737",
    "latitude": "29.988430548397922",
    "geocoded_column": {
      "latitude": "29.988430548397922",
      "longitude": "-90.07800096239737"
    }
  },