[
  {
    "service_request": "2022-884067",
    "request_type": "Health Related Questions",
    "request_reason": "Noise Ordinance Complaint",
    "date_created": "2022-05-18T01:41:58.000",
    "date_modified": "2022-05-18T01:41:58.000",
    "request_status": "Pending",
    "responsible_agency": "Health Department",
    "final_address": "Royal St & Franklin Ave, New Orleans, Louisiana, 70117",
    "address_councildis": "C",
    "status": "Pending",
    "rowid": "884067",
    "final_x": "3686748.3",
    "final_y": "534997.68",
    "longitude": "-90.0513752609042",
    "latitude": "29.964897707524585",
    "geocoded_column": {
      "latitude": "29.964897707524585",
      "longitude": "-90.0513752609042"
    }
  },
  {
    "service_request": "2022-884066",
    "request_type": "Trash/Recycling",
    "request_reason": "Request a Large Item Pick Up",
    "date_created": "2022-05-18T01:27:41.000",
    "date_modified": "2022-05-18T01:27:42.000",
    "request_status": "Pending",
    "responsible_agency": "Department of Sanitation",
    "final_address": "3014 Laurel St",
    "address_councildis": "B",
    "status": "Assigned to Contractor",
    "contractor": "Richards Disposal",
    "rowid": "884066",
    "final_x": "3676675.49845",
    "final_y": "519652.258552",
    "longitude": "-90.08371305364308",
    "latitude": "29.923008900141028",
    "geocoded_column": {
      "latitude": "29.923008900141028",
      "longitude": "-90.08371305364308"
    }
  },
  {
    "service_request": "2022-884064",
    "request_type": "Trash/Recycling",
    "request_reason": "Order Recycling Cart",
    "date_created": "2022-05-17T23:03:39.000",
    "date_modified": "2022-05-17T23:03:39.000",
    "request_status": "Pending",
    "responsible_agency": "Department of Sanitation",
    "final_address": "2900 Palmer Ave",
    "address_councildis": "A",
    "status": "Pending",
    "rowid": "884064",
    "final_x": "3666949.74977",
    "final_y": "527176.369919",
    "longitude": "-90.11416087599378",
    "latitude": "29.943985871555252",
    "geocoded_column": {
      "latitude": "29.943985871555252",
      "longitude": "-90.11416087599378"
    }
  },
  {
    "service_request": "2022-884062",
    "request_type": "Trash/Recycling",
    "request_reason": "Missed Trash Pick-Up",
    "date_created": "2022-05-17T22:23:50.000",
    "date_modified": "2022-05-17T22:23:51.000",
    "request_status": "Pending",
    "responsible_agency": "Department of Sanitation",
    "final_address": "1671 N Broad St",
    "address_councildis": "D",
    "status": "Assigned to Contractor",
    "contractor": "Metro Disposal",
    "rowid": "884062",
    "final_x": "3679393.3332",
    "final_y": "540714.832715",
    "longitude": "-90.0744034211551",
    "latitude": "29.980842120846397",
    "geocoded_column": {
      "latitude": "29.980842120846397",
      "longitude": "-90.0744034211551"
    }
  },
  {
    "service_request": "2022-884061",
    "request_type": "Traffic Signals/Signs/Striping/Streetlights",
    "request_reason": "Traffic Signal Malfunctioning/Damaged",
    "date_created": "2022-05-17T22:10:50.000",
    "date_modified": "2022-05-17T22:10:50.000",
    "request_status": "Pending",
    "responsible_agency": "Department of Public Works",
    "final_address": "ESPLANADE AVE & N CLAIBORNE AVE",
    "address_councildis": "D",
    "status": "Pending",
    "rowid": "884061",
    "final_x": "3681231.3",
    "final_y": "536639.18",
    "longitude": "-90.06874038104324",
    "latitude": "29.969579834804723",
    "geocoded_column": {
      "latitude": "29.969579834804723",
      "longitude": "-90.06874038104324"
    }
  },
  {
    "service_request": "2022-884060",
    "request_type": "Tax and Revenue",
    "request_reason": "General Tax Question",
    "date_created": "2022-05-17T21:58:44.000",
    "date_modified": "2022-05-17T21:58:44.000",
    "request_status": "Pending",
    "responsible_agency": "Bureau of Revenue",
    "status": "Pending",
    "rowid": "884060",
    "longitude": "0.0",
    "latitude": "0.0",
    "geocoded_column": {
      "latitude": "0.0",
      "longitude": "0.0"
    }
  },
  {
    "service_request": "2022-884059",
    "request_type": "Roads/Drainage",
    "request_reason": "Street Subsidence (Sinking)",
    "date_created": "2022-05-17T21:41:22.000",
    "date_modified": "2022-05-17T21:41:22.000",
    "request_status": "Pending",
    "responsible_agency": "Department of Public Works",
    "final_address": "228 Poydras St",
    "address_councildis": "B",
    "status": "Pending",
    "rowid": "884059",
    "final_x": "3682272.06844",
    "final_y": "528907.947328",
    "longitude": "-90.06572365399002",
    "latitude": "29.948289957310266",
    "geocoded_column": {
      "latitude": "29.948289957310266",
      "longitude": "-90.06572365399002"
    }
  },
  {
    "service_request": "2022-884058",
    "request_type": "Roads/Drainage",
    "request_reason": "Street Subsidence (Sinking)",
    "date_created": "2022-05-17T21:39:33.000",
    "date_modified": "2022-05-17T21:39:33.000",
    "request_status": "Pending",
    "responsible_agency": "Department of Public Works",
    "final_address": "633 Tchoupitoulas St",
    "address_councildis": "B",
    "status": "Pending",
    "rowid": "884058",
    "final_x": "3681738.73512",
    "final_y": "528390.752256",
    "longitude": "-90.06742564679598",
    "latitude": "29.946884057333076",
    "geocoded_column": {
      "latitude": "29.946884057333076",
      "longitude": "-90.06742564679598"
    }
  },
  {
    "service_request": "2022-884057",
    "request_type": "Trash/Recycling",
    "request_reason": "Missed Trash Pick-Up",
    "date_created": "2022-05-17T21:24:34.000",
    "date_modified": "2022-05-17T21:24:35.000",
    "request_status": "Pending",
    "responsible_agency": "Department of Sanitation",
    "final_address": "1918 Burgundy St",
    "address_councildis": "C",
    "status": "Assigned to Contractor",
    "contractor": "Metro Disposal",
    "rowid": "884057",
    "final_x": "3684116.02709",
    "final_y": "535469.439046",
    "longitude": "-90.05967124184595",
    "latitude": "29.966275596043808",
    "geocoded_column": {
      "latitude": "29.966275596043808",
      "longitude": "-90.05967124184595"
    }
  },
  {
    "service_request": "2022-884056",
    "request_type": "Traffic Signals/Signs/Striping/Streetlights",
    "request_reason": "Street Light Outage/Malfunction",
    "date_created": "2022-05-17T21:19:40.000",
    "date_modified": "2022-05-17T21:19:40.000",
    "request_status": "Pending",
    "responsible_agency": "Department of Public Works",
    "final_address": "1310 Short St",
    "address_councildis": "A",
    "status": "Pending",
    "contractor": "Royal Engineering",
    "rowid": "884056",
    "final_x": "3662584.95021",
    "final_y": "528454.064128",
    "longitude": "-90.12789938122155",
    "latitude": "29.947626098641337",
    "geocoded_column": {
      "latitude": "29.947626098641337",
      "longitude": "-90.12789938122155"
    }
  },
  {
    "service_request": "2022-884055",
    "request_type": "Trash/Recycling",
    "request_reason": "Start Trash Service",
    "date_created": "2022-05-17T20:51:59.000",
    "date_modified": "2022-05-17T20:52:00.000",
    "request_status": "Pending",
    "responsible_agency": "Department of Sanitation",
    "final_address": "1209 Elmira Ave",
    "address_councildis": "C",
    "status": "Assigned to Contractor",
    "contractor": "Richards Disposal",
    "rowid": "884055",
    "final_x": "3688048.56316",
    "final_y": "527091.878527",
    "longitude": "-90.04754927369179",
    "latitude": "29.943119409420706",
    "geocoded_column": {
      "latitude": "29.943119409420706",
      "longitude": "-90.04754927369179"
    }
  },
  {
    "service_request": "2022-884054",
    "request_type": "Traffic Signals/Signs/Striping/Streetlights",
    "request_reason": "Street Light Outage/Malfunction",
    "date_created": "2022-05-17T20:39:10.000",
    "date_modified": "2022-05-17T20:39:11.000",
    "request_status": "Pending",
    "responsible_agency": "Department of Public Works",
    "final_address": "2335 Chartres St",
    "address_councildis": "C",
    "status": "Pending",
    "contractor": "Royal Engineering",
    "rowid": "884054",
    "final_x": "3685854.69622",
    "final_y": "534595.728902",
    "longitude": "-90.05421136981492",
    "latitude": "29.963819940800178",
    "geocoded_column": {
      "latitude": "29.963819940800178",
      "longitude": "-90.05421136981492"
    }
  },
  {
    "service_request": "2022-884053",
    "request_type": "Traffic Signals/Signs/Striping/Streetlights",
    "request_reason": "Street Light Outage/Malfunction",
    "date_created": "2022-05-17T20:29:30.000",
    "date_modified": "2022-05-17T20:29:31.000",
    "request_status": "Pending",
    "responsible_agency": "Department of Public Works",
    "final_address": "6306 Prytania St",
    "address_councildis": "A",
    "status": "Pending",
    "contractor": "Royal Engineering",
    "rowid": "884053",
    "final_x": "3664024.77812",
    "final_y": "521278.310777",
    "longitude": "-90.12359246301736",
    "latitude": "29.927853331549347",
    "geocoded_column": {
      "latitude": "29.927853331549347",
      "longitude": "-90.12359246301736"
    }
  },
  {
    "service_request": "2022-884052",
    "request_type": "Traffic Signals/Signs/Striping/Streetlights",
    "request_reason": "Street Light Outage/Malfunction",
    "date_created": "2022-05-17T20:24:24.000",
    "date_modified": "2022-05-17T20:24:25.000",
    "request_status": "Pending",
    "responsible_agency": "Department of Public Works",
    "final_address": "1306 Calhoun St",
    "address_councildis": "A",
    "status": "Pending",
    "contractor": "Royal Engineering",
    "rowid": "884052",
    "final_x": "3664103.11738",
    "final_y": "521391.034809",
    "longitude": "-90.12334140557269",
    "latitude": "29.928161012734737",
    "geocoded_column": {
      "latitude": "29.928161012734737",
      "longitude": "-90.12334140557269"
    }
  },
  {
    "service_request": "2022-884051",
    "request_type": "Trash/Recycling",
    "request_reason": "Replace Trash Cart",
    "date_created": "2022-05-17T20:24:19.000",
    "date_modified": "2022-05-17T20:24:20.000",
    "request_status": "Pending",
    "responsible_agency": "Department of Sanitation",
    "final_address": "538 Huntlee Dr",
    "address_councildis": "C",
    "status": "Assigned to Contractor",
    "contractor": "Richards Disposal",
    "rowid": "884051",
    "final_x": "3701867.01489",
    "final_y": "521067.971193",
    "longitude": "-90.00414191758847",
    "latitude": "29.926122164854185",
    "geocoded_column": {
      "latitude": "29.926122164854185",
      "longitude": "-90.00414191758847"
    }
  },
  {
    "service_request": "2022-884050",
    "request_type": "Trash/Recycling",
    "request_reason": "Missed Trash Pick-Up",
    "date_created": "2022-05-17T20:19:43.000",
    "date_modified": "2022-05-17T20:19:45.000",
    "request_status": "Pending",
    "responsible_agency": "Department of Sanitation",
    "final_address": "1432 Chartres St",
    "address_councildis": "C",
    "status": "Assigned to Contractor",
    "contractor": "Metro Disposal",
    "rowid": "884050",
    "final_x": "3684565.83516",
    "final_y": "534395.091845",
    "longitude": "-90.0582885121374",
    "latitude": "29.96330775661264",
    "geocoded_column": {
      "latitude": "29.96330775661264",
      "longitude": "-90.0582885121374"
    }
  },
  {
    "service_request": "2022-884049",
    "request_type": "Trash/Recycling",
    "request_reason": "Repair Trash Cart",
    "date_created": "2022-05-17T20:05:34.000",
    "date_modified": "2022-05-17T20:05:34.000",
    "request_status": "Pending",
    "responsible_agency": "Department of Sanitation",
    "final_address": "3236 Coliseum St",
    "address_councildis": "B",
    "status": "Assigned to Contractor",
    "contractor": "Richards Disposal",
    "rowid": "884049",
    "final_x": "3675020.67912",
    "final_y": "520737.369017",
    "longitude": "-90.0888994832778",
    "latitude": "29.926042123862423",
    "geocoded_column": {
      "latitude": "29.926042123862423",
      "longitude": "-90.0888994832778"
    }
  },
  {
    "service_request": "2022-884047",
    "request_type": "Abandoned Vehicles",
    "request_reason": "Abandoned/Junk Vehicles",
    "date_created": "2022-05-17T19:48:55.000",
    "date_modified": "2022-05-17T19:48:55.000",
    "request_status": "Pending",
    "responsible_agency": "Department of Public Works",
    "final_address": "110 Ringold St",
    "address_councildis": "A",
    "status": "Pending",
    "rowid": "884047",
    "final_x": "3666700.19706",
    "final_y": "548424.351442",
    "longitude": "-90.11423503696736",
    "latitude": "30.002418023424237",
    "geocoded_column": {
      "latitude": "30.002418023424237",
      "longitude": "-90.11423503696736"
    }
  },
  {
    "service_request": "2022-884046",
    "request_type": "Abandoned Vehicles",
    "request_reason": "Abandoned/Junk Vehicles",
    "date_created": "2022-05-17T19:48:47.000",
    "date_modified": "2022-05-17T19:48:47.000",
    "request_status": "Pending",
    "responsible_agency": "Department of Public Works",
    "final_address": "2401 Royal St",
    "address_councildis": "C",
    "status": "Pending",
    "rowid": "884046",
    "final_x": "3685938.76412",
    "final_y": "534966.894022",
    "longitude": "-90.05393280482117",
    "latitude": "29.964837935645168",
    "geocoded_column": {
      "latitude": "29.964837935645168",
      "longitude": "-90.05393280482117"
    }
  },
  {
    "service_request": "2022-884045",
    "request_type": "Trash/Recycling",
    "request_reason": "Missed Trash Pick-Up",
    "date_created": "2022-05-17T19:36:45.000",
    "date_modified": "2022-05-17T19:36:46.000",
    "request_status": "Pending",
    "responsible_agency": "Department of Sanitation",
    "final_address": "1519 N Roman St",
    "address_councildis": "D",
    "status": "Assigned to Contractor",
    "contractor": "Metro Disposal",
    "rowid": "884045",
    "final_x": "3681234.46696",
    "final_y": "537786.682184",
    "longitude": "-90.06869038310016",
    "latitude": "29.97273497385699",
    "geocoded_column": {
      "latitude": "29.97273497385699",
      "longitude": "-90.06869038310016"
    }
  },
  {
    "service_request": "2022-884044",
    "request_type": "Traffic Signals/Signs/Striping/Streetlights",
    "request_reason": "Request for Traffic Calming due to Speeding",
    "date_created": "2022-05-17T19:36:37.000",
    "date_modified": "2022-05-17T19:36:37.000",
    "request_status": "Pending",
    "responsible_agency": "Department of Public Works",
    "final_address": "3301 Elysian Fields Ave",
    "address_councildis": "D",
    "status": "Pending",
    "rowid": "884044",
    "final_x": "3684453.61385",
    "final_y": "544821.271759",
    "longitude": "-90.05827651783353",
    "latitude": "29.991979532388754",
    "geocoded_column": {
      "latitude": "29.991979532388754",
      "longitude": "-90.05827651783353"
    }
  },
  {
    "service_request": "2022-884043",
    "request_type": "Trash/Recycling",
    "request_reason": "Request a Large Item Pick Up",
    "date_created": "2022-05-17T19:27:12.000",
    "date_modified": "2022-05-17T19:27:13.000",
    "request_status": "Pending",
    "responsible_agency": "Department of Sanitation",
    "final_address": "351 30Th St",
    "address_councildis": "A",
    "status": "Assigned to Contractor",
    "contractor": "Metro Disposal",
    "rowid": "884043",
    "final_x": "3664921.33703",
    "final_y": "550611.251156",
    "longitude": "-90.11978153292524",
    "latitude": "30.008483161239806",
    "geocoded_column": {
      "latitude": "30.008483161239806",
      "longitude": "-90.11978153292524"
    }
  },
  {
    "service_request": "2022-884041",
    "request_type": "Trash/Recycling",
    "request_reason": "Missed Trash Pick-Up",
    "date_created": "2022-05-17T19:12:20.000",
    "date_modified": "2022-05-17T19:12:21.000",
    "request_status": "Pending",
    "responsible_agency": "Department of Sanitation",
    "final_address": "2124 Burgundy St",
    "address_councildis": "C",
    "status": "Assigned to Contractor",
    "contractor": "Metro Disposal",
    "rowid": "884041",
    "final_x": "3684875.93609",
    "final_y": "535540.749062",
    "longitude": "-90.05726895990139",
    "latitude": "29.96644842625025",
    "geocoded_column": {
      "latitude": "29.96644842625025",
      "longitude": "-90.05726895990139"
    }
  },
  {
    "service_request": "2022-884040",
    "request_type": "Traffic Signals/Signs/Striping/Streetlights",
    "request_reason": "Street Light Outage/Malfunction",
    "date_created": "2022-05-17T19:08:48.000",
    "date_modified": "2022-05-17T19:08:48.000",
    "request_status": "Pending",
    "responsible_agency": "Department of Public Works",
    "final_address": "LOMBARD ST & ANNETTE ST",
    "address_councildis": "D",
    "status": "Pending",
    "contractor": "Royal Engineering",
    "rowid": "884040",
    "final_x": "3682109.1",
    "final_y": "549047.48",
    "longitude": "-90.06553464309583",
    "latitude": "30.00367162537719",
    "geocoded_column": {
      "latitude": "30.00367162537719",
      "longitude": "-90.06553464309583"
    }
  },
  {
    "service_request": "2022-884039",
    "request_type": "Trash/Recycling",
    "request_reason": "Replace Trash Cart",
    "date_created": "2022-05-17T19:06:46.000",
    "date_modified": "2022-05-17T19:06:47.000",
    "request_status": "Pending",
    "responsible_agency": "Department of Sanitation",
    "final_address": "1805 State St",
    "address_councildis": "A",
    "status": "Assigned to Contractor",
    "contractor": "Richards Disposal",
    "rowid": "884039",
    "final_x": "3666158.83905",
    "final_y": "523460.087611",
    "longitude": "-90.11678258308665",
    "latitude": "29.933790400904766",
    "geocoded_column": {
      "latitude": "29.933790400904766",
      "longitude": "-90.11678258308665"
    }
  },
  {
    "service_request": "2022-884037",
    "request_type": "Trash/Recycling",
    "request_reason": "Request a Large Item Pick Up",
    "date_created": "2022-05-17T18:57:00.000",
    "date_modified": "2022-05-17T18:57:01.000",
    "request_status": "Pending",
    "responsible_agency": "Department of Sanitation",
    "final_address": "1223 St Mary St",
    "address_councildis": "B",
    "status": "Assigned to Contractor",
    "contractor": "Richards Disposal",
    "rowid": "884037",
    "final_x": "3679360.03887",
    "final_y": "523289.465275",
    "longitude": "-90.07511292785954",
    "latitude": "29.932929254375523",
    "geocoded_column": {
      "latitude": "29.932929254375523",
      "longitude": "-90.07511292785954"
    }
  },
  {
    "service_request": "2022-884036",
    "request_type": "Trash/Recycling",
    "request_reason": "Order Trash Cart",
    "date_created": "2022-05-17T18:38:59.000",
    "date_modified": "2022-05-17T18:39:01.000",
    "request_status": "Pending",
    "responsible_agency": "Department of Sanitation",
    "final_address": "8424 Birch St",
    "address_councildis": "A",
    "status": "Assigned to Contractor",
    "contractor": "Richards Disposal",
    "rowid": "884036",
    "final_x": "3661939.80263",
    "final_y": "530237.924929",
    "longitude": "-90.12987721909042",
    "latitude": "29.952549789384943",
    "geocoded_column": {
      "latitude": "29.952549789384943",
      "longitude": "-90.12987721909042"
    }
  },
  {
    "service_request": "2022-884035",
    "request_type": "Trash/Recycling",
    "request_reason": "Missed Trash Pick-Up",
    "date_created": "2022-05-17T18:09:42.000",
    "date_modified": "2022-05-17T18:09:42.000",
    "request_status": "Pending",
    "responsible_agency": "Department of Sanitation",
    "final_address": "1729 Kerlerec St",
    "address_councildis": "D",
    "status": "Assigned to Contractor",
    "contractor": "Metro Disposal",
    "rowid": "884035",
    "final_x": "3681043.91432",
    "final_y": "537284.36916",
    "longitude": "-90.06930968354476",
    "latitude": "29.971359567828113",
    "geocoded_column": {
      "latitude": "29.971359567828113",
      "longitude": "-90.06930968354476"
    }
  },
  {
    "service_request": "2022-884034",
    "request_type": "Trash/Recycling",
    "request_reason": "Missed Trash Pick-Up",
    "date_created": "2022-05-17T18:08:52.000",
    "date_modified": "2022-05-17T18:08:53.000",
    "request_status": "Pending",
    "responsible_agency": "Department of Sanitation",
    "final_address": "1731 Kerlerec St",
    "address_councildis": "D",
    "status": "Assigned to Contractor",
    "contractor": "Metro Disposal",
    "rowid": "884034",
    "final_x": "3681034.55919",
    "final_y": "537295.11028",
    "longitude": "-90.0693388541581",
    "latitude": "29.971389385965654",
    "geocoded_column": {
      "latitude": "29.971389385965654",
      "longitude": "-90.0693388541581"
    }
  },
  {
    "service_request": "2022-884033",
    "request_type": "Trash/Recycling",
    "request_reason": "Missed Trash Pick-Up",
    "date_created": "2022-05-17T18:07:49.000",
    "date_modified": "2022-05-17T18:07:50.000",
    "request_status": "Pending",
    "responsible_agency": "Department of Sanitation",
    "final_address": "1442 N Roman St",
    "address_councildis": "D",
    "status": "Assigned to Contractor",
    "contractor": "Metro Disposal",
    "rowid": "884033",
    "final_x": "3681006.51938",
    "final_y": "537328.75316",
    "longitude": "-90.06942623586762",
    "latitude": "29.97148274275327",
    "geocoded_column": {
      "latitude": "29.97148274275327",
      "longitude": "-90.06942623586762"
    }
  },
  {
    "service_request": "2022-884032",
    "request_type": "Abandoned Vehicles",
    "request_reason": "Abandoned/Junk Vehicles",
    "date_created": "2022-05-17T18:04:46.000",
    "date_modified": "2022-05-17T18:06:15.000",
    "request_status": "Pending",
    "responsible_agency": "Department of Public Works",
    "final_address": "2805 Carondelet St",
    "address_councildis": "B",
    "status": "Pending",
    "rowid": "884032",
    "final_x": "3675614.71253",
    "final_y": "522855.212091",
    "longitude": "-90.08695157086846",
    "latitude": "29.931847752664915",
    "geocoded_column": {
      "latitude": "29.931847752664915",
      "longitude": "-90.08695157086846"
    }
  },
  {
    "service_request": "2022-884031",
    "request_type": "Trash/Recycling",
    "request_reason": "Replace Trash Cart",
    "date_created": "2022-05-17T17:48:44.000",
    "date_modified": "2022-05-17T17:48:45.000",
    "request_status": "Pending",
    "responsible_agency": "Department of Sanitation",
    "final_address": "1224 Barracks St",
    "address_councildis": "C",
    "status": "Assigned to Contractor",
    "contractor": "Richards Disposal",
    "rowid": "884031",
    "final_x": "3682202.28034",
    "final_y": "535448.927302",
    "longitude": "-90.06571552887206",
    "latitude": "29.966277548580535",
    "geocoded_column": {
      "latitude": "29.966277548580535",
      "longitude": "-90.06571552887206"
    }
  },
  {
    "service_request": "2022-884030",
    "request_type": "Trash/Recycling",
    "request_reason": "Order Recycling Cart",
    "date_created": "2022-05-17T17:47:05.000",
    "date_modified": "2022-05-17T17:47:05.000",
    "request_status": "Pending",
    "responsible_agency": "Department of Sanitation",
    "final_address": "1224 Barracks St",
    "address_councildis": "C",
    "status": "Pending",
    "rowid": "884030",
    "final_x": "3682202.28034",
    "final_y": "535448.927302",
    "longitude": "-90.06571552887206",
    "latitude": "29.966277548580535",
    "geocoded_column": {
      "latitude": "29.966277548580535",
      "longitude": "-90.06571552887206"
    }
  },
  {
    "service_request": "2022-884029",
    "request_type": "Trash/Recycling",
    "request_reason": "Missed Trash Pick-Up",
    "date_created": "2022-05-17T17:44:39.000",
    "date_modified": "2022-05-17T17:44:39.000",
    "request_status": "Pending",
    "responsible_agency": "Department of Sanitation",
    "final_address": "700 Block of Jefferson Ave, New Orleans, Louisiana, 70115",
    "status": "Assigned to Contractor",
    "rowid": "884029",
    "longitude": "0.0",
    "latitude": "0.0",
    "geocoded_column": {
      "latitude": "0.0",
      "longitude": "0.0"
    }
  },
  {
    "service_request": "2022-884028",
    "request_type": "Property Maintenance",
    "request_reason": "Property Maintenance",
    "date_created": "2022-05-17T17:36:07.000",
    "date_modified": "2022-05-17T17:36:07.000",
    "request_status": "Pending",
    "responsible_agency": "Department of Code Enforcement",
    "final_address": "6110 Mandeville St",
    "address_councildis": "D",
    "status": "Pending",
    "rowid": "884028",
    "final_x": "3684157.40751",
    "final_y": "555526.397209",
    "longitude": "-90.05883605029894",
    "latitude": "30.021423811094312",
    "geocoded_column": {
      "latitude": "30.021423811094312",
      "longitude": "-90.05883605029894"
    }
  },
  {
    "service_request": "2022-884027",
    "request_type": "Trash/Recycling",
    "request_reason": "Request a Large Item Pick Up",
    "date_created": "2022-05-17T17:30:33.000",
    "date_modified": "2022-05-17T17:30:34.000",
    "request_status": "Pending",
    "responsible_agency": "Department of Sanitation",
    "final_address": "1424 Louisa St",
    "address_councildis": "C",
    "status": "Assigned to Contractor",
    "contractor": "Metro Disposal",
    "rowid": "884027",
    "final_x": "3689861.7622",
    "final_y": "537183.879752",
    "longitude": "-90.04146533717136",
    "latitude": "29.97081284301538",
    "geocoded_column": {
      "latitude": "29.97081284301538",
      "longitude": "-90.04146533717136"
    }
  },
  {
    "service_request": "2022-884026",
    "request_type": "Trash/Recycling",
    "request_reason": "MIssed Recycling Pick-Up",
    "date_created": "2022-05-17T17:30:02.000",
    "date_modified": "2022-05-17T17:30:03.000",
    "request_status": "Pending",
    "responsible_agency": "Department of Sanitation",
    "final_address": "1017 Felicity St",
    "address_councildis": "B",
    "status": "Assigned to Contractor",
    "contractor": "Richards Disposal",
    "rowid": "884026",
    "final_x": "3680214.40565",
    "final_y": "522859.497275",
    "longitude": "-90.07243069275788",
    "latitude": "29.9317211600216",
    "geocoded_column": {
      "latitude": "29.9317211600216",
      "longitude": "-90.07243069275788"
    }
  },
  {
    "service_request": "2022-884025",
    "request_type": "Roads/Drainage",
    "request_reason": "Man hole cover issue",
    "date_created": "2022-05-17T17:22:53.000",
    "date_modified": "2022-05-17T17:22:53.000",
    "request_status": "Pending",
    "responsible_agency": "Department of Public Works",
    "final_address": "7766 Briarwood Dr",
    "address_councildis": "E",
    "status": "Pending",
    "rowid": "884025",
    "final_x": "3716877.13208",
    "final_y": "571604.514664",
    "longitude": "-89.95484069846269",
    "latitude": "30.06459082139931",
    "geocoded_column": {
      "latitude": "30.06459082139931",
      "longitude": "-89.95484069846269"
    }
  },
  {
    "service_request": "2022-884024",
    "request_type": "Trash/Recycling",
    "request_reason": "Request a Large Item Pick Up",
    "date_created": "2022-05-17T17:21:46.000",
    "date_modified": "2022-05-17T17:21:47.000",
    "request_status": "Pending",
    "responsible_agency": "Department of Sanitation",
    "final_address": "4943 Eunice Dr",
    "address_councildis": "E",
    "status": "Assigned to Contractor",
    "contractor": "Metro Disposal",
    "rowid": "884024",
    "final_x": "3710485.40069",
    "final_y": "557068.768602",
    "longitude": "-89.9755898359675",
    "latitude": "30.024833243525787",
    "geocoded_column": {
      "latitude": "30.024833243525787",
      "longitude": "-89.9755898359675"
    }
  },
  {
    "service_request": "2022-884023",
    "request_type": "Trash/Recycling",
    "request_reason": "Request a Large Item Pick Up",
    "date_created": "2022-05-17T17:14:36.000",
    "date_modified": "2022-05-17T17:14:37.000",
    "request_status": "Pending",
    "responsible_agency": "Department of Sanitation",
    "final_address": "721 Burdette St, New Orleans, Louisiana, 70118",
    "address_councildis": "A",
    "status": "Assigned to Contractor",
    "contractor": "Richards Disposal",
    "rowid": "884023",
    "final_x": "3666634.53121",
    "final_y": "531680.864579",
    "longitude": "-90.1150048950642",
    "latitude": "29.956380986964035",
    "geocoded_column": {
      "latitude": "29.956380986964035",
      "longitude": "-90.1150048950642"
    }
  },
  {
    "service_request": "2022-884022",
    "request_type": "Trash/Recycling",
    "request_reason": "MIssed Recycling Pick-Up",
    "date_created": "2022-05-17T17:13:37.000",
    "date_modified": "2022-05-17T17:13:37.000",
    "request_status": "Pending",
    "responsible_agency": "Department of Sanitation",
    "final_address": "721 Burdette St, New Orleans, Louisiana, 70118",
    "address_councildis": "A",
    "status": "Assigned to Contractor",
    "contractor": "Richards Disposal",
    "rowid": "884022",
    "final_x": "3666634.53121",
    "final_y": "531680.864579",
    "longitude": "-90.1150048950642",
    "latitude": "29.956380986964035",
    "geocoded_column": {
      "latitude": "29.956380986964035",
      "longitude": "-90.1150048950642"
    }
  },
  {
    "service_request": "2022-884021",
    "request_type": "Trash/Recycling",
    "request_reason": "Request a Large Item Pick Up",
    "date_created": "2022-05-17T17:12:05.000",
    "date_modified": "2022-05-17T17:12:06.000",
    "request_status": "Pending",
    "responsible_agency": "Department of Sanitation",
    "final_address": "7868 S Coronet Ct",
    "address_councildis": "E",
    "status": "Assigned to Contractor",
    "contractor": "Metro Disposal",
    "rowid": "884021",
    "final_x": "3703492.46942",
    "final_y": "557363.993371",
    "longitude": "-89.99767530602426",
    "latitude": "30.02587098165378",
    "geocoded_column": {
      "latitude": "30.02587098165378",
      "longitude": "-89.99767530602426"
    }
  },
  {
    "service_request": "2022-884020",
    "request_type": "Abandoned Vehicles",
    "request_reason": "Abandoned/Junk Vehicles",
    "date_created": "2022-05-17T17:06:07.000",
    "date_modified": "2022-05-17T17:06:08.000",
    "request_status": "Pending",
    "responsible_agency": "Department of Public Works",
    "final_address": "1329 Jackson Ave",
    "address_councildis": "B",
    "status": "Pending",
    "rowid": "884020",
    "final_x": "3678311.30082",
    "final_y": "522903.748795",
    "longitude": "-90.07843705292909",
    "latitude": "29.931900283900767",
    "geocoded_column": {
      "latitude": "29.931900283900767",
      "longitude": "-90.07843705292909"
    }
  },
  {
    "service_request": "2022-884018",
    "request_type": "Trash/Recycling",
    "request_reason": "Missed Trash Pick-Up",
    "date_created": "2022-05-17T16:58:28.000",
    "date_modified": "2022-05-17T16:58:29.000",
    "request_status": "Pending",
    "responsible_agency": "Department of Sanitation",
    "final_address": "3002 Desoto St, New Orleans, Louisiana, 70119",
    "status": "Assigned to Contractor",
    "rowid": "884018",
    "longitude": "0.0",
    "latitude": "0.0",
    "geocoded_column": {
      "latitude": "0.0",
      "longitude": "0.0"
    }
  },
  {
    "service_request": "2022-884017",
    "request_type": "Property Maintenance",
    "request_reason": "Property Maintenance",
    "date_created": "2022-05-17T16:50:02.000",
    "date_modified": "2022-05-17T16:50:02.000",
    "request_status": "Pending",
    "responsible_agency": "Department of Code Enforcement",
    "final_address": "2627 Delachaise St",
    "address_councildis": "B",
    "status": "Pending",
    "rowid": "884017",
    "final_x": "3672410.79182",
    "final_y": "524878.02182",
    "longitude": "-90.09699712123759",
    "latitude": "29.937505263045527",
    "geocoded_column": {
      "latitude": "29.937505263045527",
      "longitude": "-90.09699712123759"
    }
  },
  {
    "service_request": "2022-884016",
    "request_type": "Trash/Recycling",
    "request_reason": "Replace Trash Cart",
    "date_created": "2022-05-17T16:43:11.000",
    "date_modified": "2022-05-17T16:43:11.000",
    "request_status": "Pending",
    "responsible_agency": "Department of Sanitation",
    "final_address": "3528 Camp St",
    "address_councildis": "B",
    "status": "Assigned to Contractor",
    "contractor": "Richards Disposal",
    "rowid": "884016",
    "final_x": "3674124.72193",
    "final_y": "519621.202808",
    "longitude": "-90.09176594073683",
    "latitude": "29.922999750937546",
    "geocoded_column": {
      "latitude": "29.922999750937546",
      "longitude": "-90.09176594073683"
    }
  },
  {
    "service_request": "2022-884015",
    "request_type": "Trash/Recycling",
    "request_reason": "Return Recycling Cart",
    "date_created": "2022-05-17T16:36:25.000",
    "date_modified": "2022-05-17T16:36:26.000",
    "request_status": "Pending",
    "responsible_agency": "Department of Sanitation",
    "final_address": "1335 Calhoun St",
    "address_councildis": "A",
    "status": "Pending",
    "rowid": "884015",
    "final_x": "3664283.05236",
    "final_y": "521525.134457",
    "longitude": "-90.12276891641906",
    "latitude": "29.9285245186824",
    "geocoded_column": {
      "latitude": "29.9285245186824",
      "longitude": "-90.12276891641906"
    }
  },
  {
    "service_request": "2022-884014",
    "request_type": "Trash/Recycling",
    "request_reason": "Return Trash Cart",
    "date_created": "2022-05-17T16:35:58.000",
    "date_modified": "2022-05-17T16:35:58.000",
    "request_status": "Pending",
    "responsible_agency": "Department of Sanitation",
    "final_address": "1335 Calhoun St",
    "address_councildis": "A",
    "status": "Assigned to Contractor",
    "contractor": "Richards Disposal",
    "rowid": "884014",
    "final_x": "3664283.05236",
    "final_y": "521525.134457",
    "longitude": "-90.12276891641906",
    "latitude": "29.9285245186824",
    "geocoded_column": {
      "latitude": "29.9285245186824",
      "longitude": "-90.12276891641906"
    }
  },
  {
    "service_request": "2022-884013",
    "request_type": "Trash/Recycling",
    "request_reason": "Request a Large Item Pick Up",
    "date_created": "2022-05-17T16:35:34.000",
    "date_modified": "2022-05-17T16:35:35.000",
    "request_status": "Pending",
    "responsible_agency": "Department of Sanitation",
    "final_address": "2217 St Andrew St",
    "address_councildis": "B",
    "status": "Assigned to Contractor",
    "contractor": "Richards Disposal",
    "rowid": "884013",
    "final_x": "3676702.24193",
    "final_y": "526084.15827",
    "longitude": "-90.08340716177133",
    "latitude": "29.9406937237957",
    "geocoded_column": {
      "latitude": "29.9406937237957",
      "longitude": "-90.08340716177133"
    }
  },
  {
    "service_request": "2022-884012",
    "request_type": "Trash/Recycling",
    "request_reason": "Missed Trash Pick-Up",
    "date_created": "2022-05-17T16:18:53.000",
    "date_modified": "2022-05-17T16:18:55.000",
    "request_status": "Pending",
    "responsible_agency": "Department of Sanitation",
    "final_address": "1218 Moss St, New Orleans, Louisiana, 70119",
    "address_councildis": "A",
    "status": "Assigned to Contractor",
    "contractor": "Richards Disposal",
    "rowid": "884012",
    "final_x": "3675226.17979",
    "final_y": "539912.11553",
    "longitude": "-90.08759271354526",
    "latitude": "29.97876015725703",
    "geocoded_column": {
      "latitude": "29.97876015725703",
      "longitude": "-90.08759271354526"
    }
  },
  {
    "service_request": "2022-884011",
    "request_type": "Trash/Recycling",
    "request_reason": "Repair Trash Cart",
    "date_created": "2022-05-17T16:17:12.000",
    "date_modified": "2022-05-17T16:17:12.000",
    "request_status": "Pending",
    "responsible_agency": "Department of Sanitation",
    "final_address": "1234 Terry St",
    "address_councildis": "C",
    "status": "Assigned to Contractor",
    "contractor": "Richards Disposal",
    "rowid": "884011",
    "final_x": "3697024.5697",
    "final_y": "526679.078718",
    "longitude": "-90.01922489469567",
    "latitude": "29.94170434786785",
    "geocoded_column": {
      "latitude": "29.94170434786785",
      "longitude": "-90.01922489469567"
    }
  },
  {
    "service_request": "2022-884010",
    "request_type": "Property Maintenance",
    "request_reason": "Property Maintenance",
    "date_created": "2022-05-17T16:15:00.000",
    "date_modified": "2022-05-17T16:15:00.000",
    "request_status": "Pending",
    "responsible_agency": "Department of Code Enforcement",
    "final_address": "400 Royal St",
    "address_councildis": "C",
    "status": "Pending",
    "rowid": "884010",
    "final_x": "3682132.51036",
    "final_y": "531622.623235",
    "longitude": "-90.06606949950942",
    "latitude": "29.95575864215333",
    "geocoded_column": {
      "latitude": "29.95575864215333",
      "longitude": "-90.06606949950942"
    }
  },
  {
    "service_request": "2022-884009",
    "request_type": "Trash/Recycling",
    "request_reason": "Order Recycling Cart",
    "date_created": "2022-05-17T16:14:37.000",
    "date_modified": "2022-05-17T16:14:37.000",
    "request_status": "Pending",
    "responsible_agency": "Department of Sanitation",
    "final_address": "724 Lyons St",
    "address_councildis": "B",
    "status": "Pending",
    "rowid": "884009",
    "final_x": "3669234.61946",
    "final_y": "518056.486902",
    "longitude": "-90.10725499385569",
    "latitude": "29.918842066721535",
    "geocoded_column": {
      "latitude": "29.918842066721535",
      "longitude": "-90.10725499385569"
    }
  },
  {
    "service_request": "2022-884008",
    "request_type": "Trash/Recycling",
    "request_reason": "Order Trash Cart",
    "date_created": "2022-05-17T16:13:48.000",
    "date_modified": "2022-05-17T16:13:49.000",
    "request_status": "Pending",
    "responsible_agency": "Department of Sanitation",
    "final_address": "724 Lyons St",
    "address_councildis": "B",
    "status": "Assigned to Contractor",
    "contractor": "Richards Disposal",
    "rowid": "884008",
    "final_x": "3669234.61946",
    "final_y": "518056.486902",
    "longitude": "-90.10725499385569",
    "latitude": "29.918842066721535",
    "geocoded_column": {
      "latitude": "29.918842066721535",
      "longitude": "-90.10725499385569"
    }
  },
  {
    "service_request": "2022-884007",
    "request_type": "Trash/Recycling",
    "request_reason": "Repair Trash Cart",
    "date_created": "2022-05-17T16:12:38.000",
    "date_modified": "2022-05-17T16:12:39.000",
    "request_status": "Pending",
    "responsible_agency": "Department of Sanitation",
    "final_address": "751 S Genois St",
    "address_councildis": "B",
    "status": "Assigned to Contractor",
    "contractor": "Richards Disposal",
    "rowid": "884007",
    "final_x": "3670876.03803",
    "final_y": "534999.29383",
    "longitude": "-90.10149894272753",
    "latitude": "29.96538087757639",
    "geocoded_column": {
      "latitude": "29.96538087757639",
      "longitude": "-90.10149894272753"
    }
  },
  {
    "service_request": "2022-884006",
    "request_type": "Trash/Recycling",
    "request_reason": "Request a Large Item Pick Up",
    "date_created": "2022-05-17T16:05:41.000",
    "date_modified": "2022-05-17T16:05:41.000",
    "request_status": "Pending",
    "responsible_agency": "Department of Sanitation",
    "final_address": "7320 Briarheath Dr",
    "address_councildis": "E",
    "status": "Assigned to Contractor",
    "contractor": "Metro Disposal",
    "rowid": "884006",
    "final_x": "3714160.76325",
    "final_y": "566393.256995",
    "longitude": "-89.96362422200387",
    "latitude": "30.050351579567433",
    "geocoded_column": {
      "latitude": "30.050351579567433",
      "longitude": "-89.96362422200387"
    }
  },
  {
    "service_request": "2022-884005",
    "request_type": "Property Maintenance",
    "request_reason": "Property Maintenance",
    "date_created": "2022-05-17T16:05:04.000",
    "date_modified": "2022-05-17T16:05:05.000",
    "request_status": "Pending",
    "responsible_agency": "Department of Code Enforcement",
    "final_address": "6245 Cameron Blvd",
    "address_councildis": "D",
    "status": "Pending",
    "rowid": "884005",
    "final_x": "3682260.76015",
    "final_y": "556257.181082",
    "longitude": "-90.06480337002706",
    "latitude": "30.023491068423045",
    "geocoded_column": {
      "latitude": "30.023491068423045",
      "longitude": "-90.06480337002706"
    }
  },
  {
    "service_request": "2022-884004",
    "request_type": "Trash/Recycling",
    "request_reason": "Missed Trash Pick-Up",
    "date_created": "2022-05-17T16:04:07.000",
    "date_modified": "2022-05-17T16:04:08.000",
    "request_status": "Pending",
    "responsible_agency": "Department of Sanitation",
    "final_address": "2016 Governor Nicholls St",
    "address_councildis": "D",
    "status": "Assigned to Contractor",
    "contractor": "Richards Disposal",
    "rowid": "884004",
    "final_x": "3679877.89666",
    "final_y": "536777.054344",
    "longitude": "-90.07300975454918",
    "latitude": "29.96999994323643",
    "geocoded_column": {
      "latitude": "29.96999994323643",
      "longitude": "-90.07300975454918"
    }
  },
  {
    "service_request": "2022-884003",
    "request_type": "Property Maintenance",
    "request_reason": "Property Maintenance",
    "date_created": "2022-05-17T16:02:59.000",
    "date_modified": "2022-05-17T16:03:01.000",
    "request_status": "Pending",
    "responsible_agency": "Department of Code Enforcement",
    "final_address": "1800 Seventh St",
    "address_councildis": "B",
    "status": "Pending",
    "rowid": "884003",
    "final_x": "3674788.70536",
    "final_y": "522713.111418",
    "longitude": "-90.08956405898013",
    "latitude": "29.93148170149192",
    "geocoded_column": {
      "latitude": "29.93148170149192",
      "longitude": "-90.08956405898013"
    }
  },
  {
    "service_request": "2022-884002",
    "request_type": "Trash/Recycling",
    "request_reason": "Illegal Dumping",
    "date_created": "2022-05-17T16:02:05.000",
    "date_modified": "2022-05-17T16:02:06.000",
    "request_status": "Pending",
    "responsible_agency": "Department of Code Enforcement",
    "final_address": "2113 Elysian Fields Ave",
    "address_councildis": "D",
    "status": "Pending",
    "rowid": "884002",
    "final_x": "3684817.96514",
    "final_y": "540129.008331",
    "longitude": "-90.05729066990138",
    "latitude": "29.97906631472758",
    "geocoded_column": {
      "latitude": "29.97906631472758",
      "longitude": "-90.05729066990138"
    }
  },
  {
    "service_request": "2022-884001",
    "request_type": "Trash/Recycling",
    "request_reason": "Missed Trash Pick-Up",
    "date_created": "2022-05-17T16:00:34.000",
    "date_modified": "2022-05-17T16:00:35.000",
    "request_status": "Pending",
    "responsible_agency": "Department of Sanitation",
    "final_address": "3440 Chestnut St",
    "address_councildis": "B",
    "status": "Assigned to Contractor",
    "contractor": "Richards Disposal",
    "rowid": "884001",
    "final_x": "3674434.11988",
    "final_y": "520126.277304",
    "longitude": "-90.09077200102092",
    "latitude": "29.9243793216365",
    "geocoded_column": {
      "latitude": "29.9243793216365",
      "longitude": "-90.09077200102092"
    }
  },
  {
    "service_request": "2022-883999",
    "request_type": "Property Maintenance",
    "request_reason": "Property Maintenance",
    "date_created": "2022-05-17T15:57:49.000",
    "date_modified": "2022-05-17T15:57:49.000",
    "request_status": "Pending",
    "responsible_agency": "Department of Code Enforcement",
    "final_address": "2612 N Tonti St",
    "address_councildis": "D",
    "status": "Pending",
    "rowid": "883999",
    "final_x": "3687342.23337",
    "final_y": "540859.224267",
    "longitude": "-90.04929223195346",
    "latitude": "29.98099661334132",
    "geocoded_column": {
      "latitude": "29.98099661334132",
      "longitude": "-90.04929223195346"
    }
  },
  {
    "service_request": "2022-883998",
    "request_type": "Trash/Recycling",
    "request_reason": "Request a Large Item Pick Up",
    "date_created": "2022-05-17T15:54:19.000",
    "date_modified": "2022-05-17T15:54:19.000",
    "request_status": "Pending",
    "responsible_agency": "Department of Sanitation",
    "final_address": "830 Washington Ave",
    "address_councildis": "B",
    "status": "Assigned to Contractor",
    "contractor": "Richards Disposal",
    "rowid": "883998",
    "final_x": "3677467.62306",
    "final_y": "520064.203128",
    "longitude": "-90.08119841226167",
    "latitude": "29.924117836958832",
    "geocoded_column": {
      "latitude": "29.924117836958832",
      "longitude": "-90.08119841226167"
    }
  },
  {
    "service_request": "2022-883997",
    "request_type": "Trash/Recycling",
    "request_reason": "Request a Large Item Pick Up",
    "date_created": "2022-05-17T15:52:41.000",
    "date_modified": "2022-05-17T15:52:41.000",
    "request_status": "Pending",
    "responsible_agency": "Department of Sanitation",
    "final_address": "2535 Banks St",
    "address_councildis": "B",
    "status": "Assigned to Contractor",
    "contractor": "Richards Disposal",
    "rowid": "883997",
    "final_x": "3675214.37102",
    "final_y": "533767.396293",
    "longitude": "-90.08784096181458",
    "latitude": "29.96186461936535",
    "geocoded_column": {
      "latitude": "29.96186461936535",
      "longitude": "-90.08784096181458"
    }
  },
  {
    "service_request": "2022-883996",
    "request_type": "Roads/Drainage",
    "request_reason": "Catch Basin - Broken/Damage",
    "date_created": "2022-05-17T15:44:25.000",
    "date_modified": "2022-05-17T15:44:25.000",
    "request_status": "Pending",
    "responsible_agency": "Department of Public Works",
    "final_address": "400 Poydras St",
    "address_councildis": "B",
    "status": "Pending",
    "rowid": "883996",
    "final_x": "3681589.68706",
    "final_y": "529065.294848",
    "longitude": "-90.06787272477939",
    "latitude": "29.948743349579406",
    "geocoded_column": {
      "latitude": "29.948743349579406",
      "longitude": "-90.06787272477939"
    }
  },
  {
    "service_request": "2022-883995",
    "request_type": "Trash/Recycling",
    "request_reason": "Repair Trash Cart",
    "date_created": "2022-05-17T15:44:25.000",
    "date_modified": "2022-05-17T15:44:25.000",
    "request_status": "Pending",
    "responsible_agency": "Department of Sanitation",
    "final_address": "1525 L. B. Landry Ave",
    "address_councildis": "C",
    "status": "Assigned to Contractor",
    "contractor": "Richards Disposal",
    "rowid": "883995",
    "final_x": "3689938.86371",
    "final_y": "525749.405373",
    "longitude": "-90.04162892574408",
    "latitude": "29.93936960547407",
    "geocoded_column": {
      "latitude": "29.93936960547407",
      "longitude": "-90.04162892574408"
    }
  },
  {
    "service_request": "2022-883994",
    "request_type": "Trash/Recycling",
    "request_reason": "Request a Large Item Pick Up",
    "date_created": "2022-05-17T15:40:48.000",
    "date_modified": "2022-05-17T15:40:53.000",
    "request_status": "Pending",
    "responsible_agency": "Department of Sanitation",
    "final_address": "419 Second St",
    "address_councildis": "B",
    "status": "Assigned to Contractor",
    "contractor": "Richards Disposal",
    "rowid": "883994",
    "final_x": "3679205.4173",
    "final_y": "519302.407543",
    "longitude": "-90.0757392011216",
    "latitude": "29.921970816065233",
    "geocoded_column": {
      "latitude": "29.921970816065233",
      "longitude": "-90.0757392011216"
    }
  },
  {
    "service_request": "2022-883993",
    "request_type": "Trash/Recycling",
    "request_reason": "Request a Large Item Pick Up",
    "date_created": "2022-05-17T15:37:28.000",
    "date_modified": "2022-05-17T15:37:29.000",
    "request_status": "Pending",
    "responsible_agency": "Department of Sanitation",
    "final_address": "361 Millaudon St",
    "address_councildis": "A",
    "status": "Assigned to Contractor",
    "contractor": "Richards Disposal",
    "rowid": "883993",
    "final_x": "3661824.15021",
    "final_y": "524487.801596",
    "longitude": "-90.13043300340226",
    "latitude": "29.936742123533673",
    "geocoded_column": {
      "latitude": "29.936742123533673",
      "longitude": "-90.13043300340226"
    }
  },
  {
    "service_request": "2022-883992",
    "request_type": "Roads/Drainage",
    "request_reason": "Catch Basin - Broken/Damage",
    "date_created": "2022-05-17T15:37:16.000",
    "date_modified": "2022-05-17T15:37:16.000",
    "request_status": "Pending",
    "responsible_agency": "Department of Public Works",
    "status": "Pending",
    "rowid": "883992",
    "longitude": "0.0",
    "latitude": "0.0",
    "geocoded_column": {
      "latitude": "0.0",
      "longitude": "0.0"
    }
  },
  {
    "service_request": "2022-883991",
    "request_type": "Trash/Recycling",
    "request_reason": "Request a Large Item Pick Up",
    "date_created": "2022-05-17T15:36:46.000",
    "date_modified": "2022-05-17T15:36:47.000",
    "request_status": "Pending",
    "responsible_agency": "Department of Sanitation",
    "final_address": "919 Poland Ave, New Orleans, Louisiana, 70117",
    "address_councildis": "C",
    "status": "Assigned to Contractor",
    "contractor": "Metro Disposal",
    "rowid": "883991",
    "final_x": "3692940.12726",
    "final_y": "534351.905157",
    "longitude": "-90.03184510371813",
    "latitude": "29.96293012245502",
    "geocoded_column": {
      "latitude": "29.96293012245502",
      "longitude": "-90.03184510371813"
    }
  },
  {
    "service_request": "2022-883990",
    "request_type": "Trash/Recycling",
    "request_reason": "Missed Trash Pick-Up",
    "date_created": "2022-05-17T15:36:08.000",
    "date_modified": "2022-05-17T15:36:09.000",
    "request_status": "Pending",
    "responsible_agency": "Department of Sanitation",
    "final_address": "721 Kerlerec St",
    "address_councildis": "C",
    "status": "Assigned to Contractor",
    "contractor": "Metro Disposal",
    "rowid": "883990",
    "final_x": "3684119.74108",
    "final_y": "534809.549702",
    "longitude": "-90.05968267678173",
    "latitude": "29.964461014564904",
    "geocoded_column": {
      "latitude": "29.964461014564904",
      "longitude": "-90.05968267678173"
    }
  },
  {
    "service_request": "2022-883987",
    "request_type": "Safety & Permits",
    "request_reason": "Construction permit",
    "date_created": "2022-05-17T15:21:55.000",
    "date_modified": "2022-05-17T15:21:55.000",
    "request_status": "Pending",
    "responsible_agency": "Department of Code Enforcement",
    "final_address": "3240 Laurel St",
    "address_councildis": "B",
    "status": "Pending",
    "rowid": "883987",
    "final_x": "3675817.8027",
    "final_y": "519138.161207",
    "longitude": "-90.08643812864207",
    "latitude": "29.92162099003982",
    "geocoded_column": {
      "latitude": "29.92162099003982",
      "longitude": "-90.08643812864207"
    }
  },
  {
    "service_request": "2022-883985",
    "request_type": "Trash/Recycling",
    "request_reason": "Order Recycling Cart",
    "date_created": "2022-05-17T15:20:31.000",
    "date_modified": "2022-05-17T15:20:31.000",
    "request_status": "Pending",
    "responsible_agency": "Department of Sanitation",
    "final_address": "New Orleans,LA",
    "status": "Pending",
    "rowid": "883985",
    "longitude": "0.0",
    "latitude": "0.0",
    "geocoded_column": {
      "latitude": "0.0",
      "longitude": "0.0"
    }
  },
  {
    "service_request": "2022-883984",
    "request_type": "Abandoned Vehicles",
    "request_reason": "Abandoned/Junk Vehicles",
    "date_created": "2022-05-17T15:19:58.000",
    "date_modified": "2022-05-17T15:19:58.000",
    "request_status": "Pending",
    "responsible_agency": "Department of Public Works",
    "final_address": "1937 S Gayoso St",
    "address_councildis": "B",
    "status": "Pending",
    "rowid": "883984",
    "final_x": "3669898.87546",
    "final_y": "529530.211457",
    "longitude": "-90.10476996448162",
    "latitude": "29.95037155720818",
    "geocoded_column": {
      "latitude": "29.95037155720818",
      "longitude": "-90.10476996448162"
    }
  },
  {
    "service_request": "2022-883983",
    "request_type": "Traffic Signals/Signs/Striping/Streetlights",
    "request_reason": "Street Light Outage/Malfunction",
    "date_created": "2022-05-17T15:19:13.000",
    "date_modified": "2022-05-17T15:19:14.000",
    "request_status": "Pending",
    "responsible_agency": "Department of Public Works",
    "final_address": "4944 Kendall Dr",
    "address_councildis": "D",
    "status": "Pending",
    "contractor": "Royal Engineering",
    "rowid": "883983",
    "final_x": "3690175.91254",
    "final_y": "551764.147093",
    "longitude": "-90.03995346259613",
    "latitude": "30.01089357857175",
    "geocoded_column": {
      "latitude": "30.01089357857175",
      "longitude": "-90.03995346259613"
    }
  },
  {
    "service_request": "2022-883982",
    "request_type": "Traffic Signals/Signs/Striping/Streetlights",
    "request_reason": "Request for Traffic Calming due to Speeding",
    "date_created": "2022-05-17T15:12:55.000",
    "date_modified": "2022-05-17T15:12:55.000",
    "request_status": "Pending",
    "responsible_agency": "Department of Public Works",
    "final_address": "1600 Gentilly Blvd",
    "address_councildis": "D",
    "status": "Pending",
    "rowid": "883982",
    "final_x": "3678568.73922",
    "final_y": "540356.915531",
    "longitude": "-90.07702024850462",
    "latitude": "29.979882858061806",
    "geocoded_column": {
      "latitude": "29.979882858061806",
      "longitude": "-90.07702024850462"
    }
  },
  {
    "service_request": "2022-883981",
    "request_type": "Traffic Signals/Signs/Striping/Streetlights",
    "request_reason": "Traffic Sign Missing/Damaged",
    "date_created": "2022-05-17T15:09:26.000",
    "date_modified": "2022-05-17T15:09:26.000",
    "request_status": "Pending",
    "responsible_agency": "Department of Public Works",
    "final_address": "2737 Onzaga St",
    "address_councildis": "D",
    "status": "Pending",
    "rowid": "883981",
    "final_x": "3678794.42325",
    "final_y": "540916.424779",
    "longitude": "-90.07628805867859",
    "latitude": "29.981414508750596",
    "geocoded_column": {
      "latitude": "29.981414508750596",
      "longitude": "-90.07628805867859"
    }
  },
  {
    "service_request": "2022-883980",
    "request_type": "Traffic Signals/Signs/Striping/Streetlights",
    "request_reason": "Street Light Outage/Malfunction",
    "date_created": "2022-05-17T15:08:13.000",
    "date_modified": "2022-05-17T15:08:14.000",
    "request_status": "Pending",
    "responsible_agency": "Department of Public Works",
    "final_address": "7315 Dominican St",
    "address_councildis": "A",
    "status": "Pending",
    "contractor": "Royal Engineering",
    "rowid": "883980",
    "final_x": "3662269.10643",
    "final_y": "524437.501052",
    "longitude": "-90.12902991786198",
    "latitude": "29.93659096133756",
    "geocoded_column": {
      "latitude": "29.93659096133756",
      "longitude": "-90.12902991786198"
    }
  },
  {
    "service_request": "2022-883979",
    "request_type": "Trash/Recycling",
    "request_reason": "Repair Trash Cart",
    "date_created": "2022-05-17T15:07:37.000",
    "date_modified": "2022-05-17T15:07:38.000",
    "request_status": "Pending",
    "responsible_agency": "Department of Sanitation",
    "final_address": "1101 Cadiz St",
    "address_councildis": "B",
    "status": "Assigned to Contractor",
    "contractor": "Richards Disposal",
    "rowid": "883979",
    "final_x": "3670274.61703",
    "final_y": "519485.465783",
    "longitude": "-90.1039238578496",
    "latitude": "29.922740665575574",
    "geocoded_column": {
      "latitude": "29.922740665575574",
      "longitude": "-90.1039238578496"
    }
  },
  {
    "service_request": "2022-883978",
    "request_type": "Trash/Recycling",
    "request_reason": "Replace Trash Cart",
    "date_created": "2022-05-17T15:07:21.000",
    "date_modified": "2022-05-17T15:07:21.000",
    "request_status": "Pending",
    "responsible_agency": "Department of Sanitation",
    "final_address": "5530 Garfield St",
    "address_councildis": "A",
    "status": "Assigned to Contractor",
    "contractor": "Richards Disposal",
    "rowid": "883978",
    "final_x": "3666713.60833",
    "final_y": "521137.557241",
    "longitude": "-90.11510914892322",
    "latitude": "29.927387972796637",
    "geocoded_column": {
      "latitude": "29.927387972796637",
      "longitude": "-90.11510914892322"
    }
  },
  {
    "service_request": "2022-883977",
    "request_type": "Traffic Signals/Signs/Striping/Streetlights",
    "request_reason": "Traffic Signal Malfunctioning/Damaged",
    "date_created": "2022-05-17T15:07:15.000",
    "date_modified": "2022-05-17T15:07:15.000",
    "request_status": "Pending",
    "responsible_agency": "Department of Public Works",
    "final_address": "7720 Chef Menteur Hwy",
    "address_councildis": "E",
    "status": "Pending",
    "rowid": "883977",
    "final_x": "3704014.54065",
    "final_y": "552544.642838",
    "longitude": "-89.99620335002828",
    "latitude": "30.012602877919527",
    "geocoded_column": {
      "latitude": "30.012602877919527",
      "longitude": "-89.99620335002828"
    }
  },
  {
    "service_request": "2022-883976",
    "request_type": "Trash/Recycling",
    "request_reason": "Replace Trash Cart",
    "date_created": "2022-05-17T15:04:41.000",
    "date_modified": "2022-05-17T15:04:44.000",
    "request_status": "Pending",
    "responsible_agency": "Department of Sanitation",
    "final_address": "3413 Camp St",
    "address_councildis": "B",
    "status": "Assigned to Contractor",
    "contractor": "Richards Disposal",
    "rowid": "883976",
    "final_x": "3674726.85877",
    "final_y": "519948.705848",
    "longitude": "-90.08985400686382",
    "latitude": "29.923882325219097",
    "geocoded_column": {
      "latitude": "29.923882325219097",
      "longitude": "-90.08985400686382"
    }
  },
  {
    "service_request": "2022-883975",
    "request_type": "Trash/Recycling",
    "request_reason": "Order Trash Cart",
    "date_created": "2022-05-17T15:04:15.000",
    "date_modified": "2022-05-17T15:04:15.000",
    "request_status": "Pending",
    "responsible_agency": "Department of Sanitation",
    "final_address": "4848 Dodt Ave",
    "address_councildis": "E",
    "status": "Assigned to Contractor",
    "contractor": "Metro Disposal",
    "rowid": "883975",
    "final_x": "3705282.76471",
    "final_y": "556063.886682",
    "longitude": "-89.99206634306535",
    "latitude": "30.02223868979049",
    "geocoded_column": {
      "latitude": "30.02223868979049",
      "longitude": "-89.99206634306535"
    }
  },
  {
    "service_request": "2022-883974",
    "request_type": "Trash/Recycling",
    "request_reason": "Replace Trash Cart",
    "date_created": "2022-05-17T15:01:38.000",
    "date_modified": "2022-05-17T15:01:39.000",
    "request_status": "Pending",
    "responsible_agency": "Department of Sanitation",
    "final_address": "4121 S Liberty St",
    "address_councildis": "B",
    "status": "Assigned to Contractor",
    "contractor": "Richards Disposal",
    "rowid": "883974",
    "final_x": "3671501.0331",
    "final_y": "523485.775995",
    "longitude": "-90.09991661416645",
    "latitude": "29.933703996917902",
    "geocoded_column": {
      "latitude": "29.933703996917902",
      "longitude": "-90.09991661416645"
    }
  },
  {
    "service_request": "2022-883973",
    "request_type": "Trash/Recycling",
    "request_reason": "Order Recycling Cart",
    "date_created": "2022-05-17T15:00:40.000",
    "date_modified": "2022-05-17T15:00:42.000",
    "request_status": "Pending",
    "responsible_agency": "Department of Sanitation",
    "final_address": "2627 Delachaise St",
    "address_councildis": "B",
    "status": "Pending",
    "rowid": "883973",
    "final_x": "3672410.79182",
    "final_y": "524878.02182",
    "longitude": "-90.09699712123759",
    "latitude": "29.937505263045527",
    "geocoded_column": {
      "latitude": "29.937505263045527",
      "longitude": "-90.09699712123759"
    }
  },
  {
    "service_request": "2022-883972",
    "request_type": "Trash/Recycling",
    "request_reason": "Order Trash Cart",
    "date_created": "2022-05-17T15:00:13.000",
    "date_modified": "2022-05-17T15:00:13.000",
    "request_status": "Pending",
    "responsible_agency": "Department of Sanitation",
    "final_address": "2627 Delachaise St",
    "address_councildis": "B",
    "status": "Assigned to Contractor",
    "contractor": "Richards Disposal",
    "rowid": "883972",
    "final_x": "3672410.79182",
    "final_y": "524878.02182",
    "longitude": "-90.09699712123759",
    "latitude": "29.937505263045527",
    "geocoded_column": {
      "latitude": "29.937505263045527",
      "longitude": "-90.09699712123759"
    }
  },
  {
    "service_request": "2022-883971",
    "request_type": "Property Maintenance",
    "request_reason": "Property Maintenance",
    "date_created": "2022-05-17T14:55:24.000",
    "date_modified": "2022-05-17T14:55:24.000",
    "request_status": "Pending",
    "responsible_agency": "Department of Code Enforcement",
    "final_address": "COLUMBUS ST & N ROMAN ST",
    "address_councildis": "D",
    "status": "Pending",
    "rowid": "883971",
    "final_x": "3681160.9",
    "final_y": "537626.28",
    "longitude": "-90.06892831104153",
    "latitude": "29.972296155624605",
    "geocoded_column": {
      "latitude": "29.972296155624605",
      "longitude": "-90.06892831104153"
    }
  },
  {
    "service_request": "2022-883970",
    "request_type": "Abandoned Vehicles",
    "request_reason": "Abandoned/Junk Vehicles",
    "date_created": "2022-05-17T14:55:18.000",
    "date_modified": "2022-05-17T14:58:25.000",
    "request_status": "Pending",
    "responsible_agency": "Department of Public Works",
    "final_address": "1716 Fourth St",
    "address_councildis": "B",
    "status": "Pending",
    "rowid": "883970",
    "final_x": "3675856.83931",
    "final_y": "523152.206651",
    "longitude": "-90.08617699723057",
    "latitude": "29.93265714687918",
    "geocoded_column": {
      "latitude": "29.93265714687918",
      "longitude": "-90.08617699723057"
    }
  },
  {
    "service_request": "2022-883969",
    "request_type": "Abandoned Vehicles",
    "request_reason": "Abandoned/Junk Vehicles",
    "date_created": "2022-05-17T14:53:04.000",
    "date_modified": "2022-05-17T14:53:05.000",
    "request_status": "Pending",
    "responsible_agency": "Department of Public Works",
    "final_address": "ST MARY ST & CAMP ST",
    "address_councildis": "B",
    "status": "Pending",
    "rowid": "883969",
    "final_x": "3679464.2",
    "final_y": "523135.98",
    "longitude": "-90.07478942090734",
    "latitude": "29.932504074947023",
    "geocoded_column": {
      "latitude": "29.932504074947023",
      "longitude": "-90.07478942090734"
    }
  },
  {
    "service_request": "2022-883968",
    "request_type": "Property Maintenance",
    "request_reason": "Property Maintenance",
    "date_created": "2022-05-17T14:52:13.000",
    "date_modified": "2022-05-17T14:52:13.000",
    "request_status": "Pending",
    "responsible_agency": "Department of Code Enforcement",
    "final_address": "1447 N Prieur St",
    "address_councildis": "D",
    "status": "Pending",
    "rowid": "883968",
    "final_x": "3680639.85794",
    "final_y": "537654.08916",
    "longitude": "-90.07057288267255",
    "latitude": "29.972388420254166",
    "geocoded_column": {
      "latitude": "29.972388420254166",
      "longitude": "-90.07057288267255"
    }
  },
  {
    "service_request": "2022-883967",
    "request_type": "Property Maintenance",
    "request_reason": "Property Maintenance",
    "date_created": "2022-05-17T14:50:56.000",
    "date_modified": "2022-05-17T14:50:56.000",
    "request_status": "Pending",
    "responsible_agency": "Department of Code Enforcement",
    "final_address": "1823 Laharpe St",
    "address_councildis": "D",
    "status": "Pending",
    "rowid": "883967",
    "final_x": "3681229.19996",
    "final_y": "538089.334345",
    "longitude": "-90.06869646796822",
    "latitude": "29.973567322495995",
    "geocoded_column": {
      "latitude": "29.973567322495995",
      "longitude": "-90.06869646796822"
    }
  },
  {
    "service_request": "2022-883966",
    "request_type": "Roads/Drainage",
    "request_reason": "Pothole",
    "date_created": "2022-05-17T14:49:45.000",
    "date_modified": "2022-05-17T14:49:45.000",
    "request_status": "Pending",
    "responsible_agency": "Department of Public Works",
    "final_address": "100 BLK N Bernadotte St",
    "address_councildis": "A",
    "status": "Pending",
    "rowid": "883966",
    "final_x": "3668967.66793",
    "final_y": "540263.984548",
    "longitude": "-90.10734761824288",
    "latitude": "29.979913284716734",
    "geocoded_column": {
      "latitude": "29.979913284716734",
      "longitude": "-90.10734761824288"
    }
  },
  {
    "service_request": "2022-883965",
    "request_type": "Trash/Recycling",
    "request_reason": "Request a Large Item Pick Up",
    "date_created": "2022-05-17T14:46:50.000",
    "date_modified": "2022-05-17T14:46:51.000",
    "request_status": "Pending",
    "responsible_agency": "Department of Sanitation",
    "final_address": "1040 Montegut St",
    "address_councildis": "C",
    "status": "Assigned to Contractor",
    "contractor": "Metro Disposal",
    "rowid": "883965",
    "final_x": "3688379.06857",
    "final_y": "536038.046215",
    "longitude": "-90.04618850466305",
    "latitude": "29.9677080834166",
    "geocoded_column": {
      "latitude": "29.9677080834166",
      "longitude": "-90.04618850466305"
    }
  },
  {
    "service_request": "2022-883964",
    "request_type": "Trash/Recycling",
    "request_reason": "Dead Animal Pick Up",
    "date_created": "2022-05-17T14:45:31.000",
    "date_modified": "2022-05-17T15:04:02.000",
    "request_status": "Pending",
    "responsible_agency": "Department of Sanitation",
    "final_address": "2002 Robert St, New Orleans, Louisiana, 70115",
    "address_councildis": "B",
    "status": "Assigned to Contractor",
    "contractor": "Richards Disposal",
    "rowid": "883964",
    "final_x": "3668694.51521",
    "final_y": "522901.042875",
    "longitude": "-90.10879640772397",
    "latitude": "29.93217893783565",
    "geocoded_column": {
      "latitude": "29.93217893783565",
      "longitude": "-90.10879640772397"
    }
  },
  {
    "service_request": "2022-883963",
    "request_type": "Mosquito, Termite & Rodent Control",
    "request_reason": "Mosquito Complaint",
    "date_created": "2022-05-17T14:44:59.000",
    "date_modified": "2022-05-17T14:44:59.000",
    "request_status": "Pending",
    "responsible_agency": "Mosquito, Termite & Rodent Control Board",
    "final_address": "2037 Audubon St",
    "address_councildis": "A",
    "status": "Pending",
    "rowid": "883963",
    "final_x": "3666202.49908",
    "final_y": "528908.456896",
    "longitude": "-90.11646208472514",
    "latitude": "29.94877039190224",
    "geocoded_column": {
      "latitude": "29.94877039190224",
      "longitude": "-90.11646208472514"
    }
  },
  {
    "service_request": "2022-883962",
    "request_type": "Trash/Recycling",
    "request_reason": "Repair Trash Cart",
    "date_created": "2022-05-17T14:43:44.000",
    "date_modified": "2022-05-17T14:43:45.000",
    "request_status": "Pending",
    "responsible_agency": "Department of Sanitation",
    "final_address": "518 Lakeshore Prkwy",
    "address_councildis": "D",
    "status": "Assigned to Contractor",
    "contractor": "Metro Disposal",
    "rowid": "883962",
    "final_x": "3668463.33249",
    "final_y": "557033.38729",
    "longitude": "-90.10837430384848",
    "latitude": "30.026038141646165",
    "geocoded_column": {
      "latitude": "30.026038141646165",
      "longitude": "-90.10837430384848"
    }
  },
  {
    "service_request": "2022-883961",
    "request_type": "Trash/Recycling",
    "request_reason": "Replace Recycling Cart",
    "date_created": "2022-05-17T14:43:12.000",
    "date_modified": "2022-05-17T14:43:13.000",
    "request_status": "Pending",
    "responsible_agency": "Department of Sanitation",
    "final_address": "518 Lakeshore Prkwy",
    "address_councildis": "D",
    "status": "Pending",
    "rowid": "883961",
    "final_x": "3668463.33249",
    "final_y": "557033.38729",
    "longitude": "-90.10837430384848",
    "latitude": "30.026038141646165",
    "geocoded_column": {
      "latitude": "30.026038141646165",
      "longitude": "-90.10837430384848"
    }
  },
  {
    "service_request": "2022-883960",
    "request_type": "Trash/Recycling",
    "request_reason": "Order Recycling Cart",
    "date_created": "2022-05-17T14:35:45.000",
    "date_modified": "2022-05-17T14:35:46.000",
    "request_status": "Pending",
    "responsible_agency": "Department of Sanitation",
    "final_address": "2710 St Andrew St",
    "address_councildis": "B",
    "status": "Pending",
    "contractor": "Richards Disposal",
    "rowid": "883960",
    "final_x": "3675521.52417",
    "final_y": "527270.804927",
    "longitude": "-90.08709414736717",
    "latitude": "29.94399197365991",
    "geocoded_column": {
      "latitude": "29.94399197365991",
      "longitude": "-90.08709414736717"
    }
  },
  {
    "service_request": "2022-883959",
    "request_type": "Trash/Recycling",
    "request_reason": "Repair Trash Cart",
    "date_created": "2022-05-17T14:35:16.000",
    "date_modified": "2022-05-17T14:35:16.000",
    "request_status": "Pending",
    "responsible_agency": "Department of Sanitation",
    "final_address": "2710 St Andrew St",
    "address_councildis": "B",
    "status": "Assigned to Contractor",
    "contractor": "Richards Disposal",
    "rowid": "883959",
    "final_x": "3675521.52417",
    "final_y": "527270.804927",
    "longitude": "-90.08709414736717",
    "latitude": "29.94399197365991",
    "geocoded_column": {
      "latitude": "29.94399197365991",
      "longitude": "-90.08709414736717"
    }
  },
  {
    "service_request": "2022-883958",
    "request_type": "Property Maintenance",
    "request_reason": "Property Maintenance",
    "date_created": "2022-05-17T14:28:15.000",
    "date_modified": "2022-05-17T14:28:16.000",
    "request_status": "Pending",
    "responsible_agency": "Department of Code Enforcement",
    "final_address": "1111 N Dorgenois St",
    "address_councildis": "D",
    "status": "Pending",
    "rowid": "883958",
    "final_x": "3678105.6541",
    "final_y": "537950.368521",
    "longitude": "-90.07856609674477",
    "latitude": "29.973279635642474",
    "geocoded_column": {
      "latitude": "29.973279635642474",
      "longitude": "-90.07856609674477"
    }
  },
  {
    "service_request": "2022-883957",
    "request_type": "Traffic Signals/Signs/Striping/Streetlights",
    "request_reason": "Street Light Outage/Malfunction",
    "date_created": "2022-05-17T14:27:56.000",
    "date_modified": "2022-05-17T14:27:57.000",
    "request_status": "Pending",
    "responsible_agency": "Department of Public Works",
    "final_address": "7315 Dominican St",
    "address_councildis": "A",
    "status": "Pending",
    "contractor": "Royal Engineering",
    "rowid": "883957",
    "final_x": "3662269.10643",
    "final_y": "524437.501052",
    "longitude": "-90.12902991786198",
    "latitude": "29.93659096133756",
    "geocoded_column": {
      "latitude": "29.93659096133756",
      "longitude": "-90.12902991786198"
    }
  },
  {
    "service_request": "2022-883956",
    "request_type": "Trash/Recycling",
    "request_reason": "Replace Trash Cart",
    "date_created": "2022-05-17T14:22:05.000",
    "date_modified": "2022-05-17T14:22:05.000",
    "request_status": "Pending",
    "responsible_agency": "Department of Sanitation",
    "final_address": "5881 Marcia Ave",
    "address_councildis": "A",
    "status": "Assigned to Contractor",
    "contractor": "Metro Disposal",
    "rowid": "883956",
    "final_x": "3664885.3225",
    "final_y": "546938.446417",
    "longitude": "-90.12001818342297",
    "latitude": "29.998385263319665",
    "geocoded_column": {
      "latitude": "29.998385263319665",
      "longitude": "-90.12001818342297"
    }
  },
  {
    "service_request": "2022-883955",
    "request_type": "Trash/Recycling",
    "request_reason": "Request a Large Item Pick Up",
    "date_created": "2022-05-17T14:19:18.000",
    "date_modified": "2022-05-17T14:19:19.000",
    "request_status": "Pending",
    "responsible_agency": "Department of Sanitation",
    "final_address": "1714 Elizardi Blvd",
    "address_councildis": "C",
    "status": "Assigned to Contractor",
    "contractor": "Richards Disposal",
    "rowid": "883955",
    "final_x": "3694703.97597",
    "final_y": "524411.201468",
    "longitude": "-90.0266330998021",
    "latitude": "29.935541440396086",
    "geocoded_column": {
      "latitude": "29.935541440396086",
      "longitude": "-90.0266330998021"
    }
  },
  {
    "service_request": "2022-883954",
    "request_type": "Property Maintenance",
    "request_reason": "Property Maintenance",
    "date_created": "2022-05-17T14:17:09.000",
    "date_modified": "2022-05-17T14:17:09.000",
    "request_status": "Pending",
    "responsible_agency": "Department of Code Enforcement",
    "final_address": "2014 Port St",
    "address_councildis": "D",
    "status": "Pending",
    "rowid": "883954",
    "final_x": "3688274.51683",
    "final_y": "539895.077066",
    "longitude": "-90.04638187447478",
    "latitude": "29.97831679086286",
    "geocoded_column": {
      "latitude": "29.97831679086286",
      "longitude": "-90.04638187447478"
    }
  },
  {
    "service_request": "2022-883953",
    "request_type": "Trash/Recycling",
    "request_reason": "Missed Trash Pick-Up",
    "date_created": "2022-05-17T14:13:29.000",
    "date_modified": "2022-05-17T14:13:30.000",
    "request_status": "Pending",
    "responsible_agency": "Department of Sanitation",
    "final_address": "5511 Canal Blvd",
    "address_councildis": "A",
    "status": "Assigned to Contractor",
    "contractor": "Metro Disposal",
    "rowid": "883953",
    "final_x": "3668294.8139",
    "final_y": "543978.194766",
    "longitude": "-90.10934746517076",
    "latitude": "29.990145878424897",
    "geocoded_column": {
      "latitude": "29.990145878424897",
      "longitude": "-90.10934746517076"
    }
  },
  {
    "service_request": "2022-883952",
    "request_type": "Trash/Recycling",
    "request_reason": "Missed Trash Pick-Up",
    "date_created": "2022-05-17T14:03:31.000",
    "date_modified": "2022-05-17T14:03:33.000",
    "request_status": "Pending",
    "responsible_agency": "Department of Sanitation",
    "final_address": "4409 Magazine St",
    "address_councildis": "B",
    "status": "Assigned to Contractor",
    "contractor": "Richards Disposal",
    "rowid": "883952",
    "final_x": "3670793.07335",
    "final_y": "518799.885175",
    "longitude": "-90.10231054240693",
    "latitude": "29.920840231012463",
    "geocoded_column": {
      "latitude": "29.920840231012463",
      "longitude": "-90.10231054240693"
    }
  },
  {
    "service_request": "2022-883951",
    "request_type": "Abandoned Vehicles",
    "request_reason": "Abandoned/Junk Vehicles",
    "date_created": "2022-05-17T14:02:02.000",
    "date_modified": "2022-05-17T14:02:03.000",
    "request_status": "Pending",
    "responsible_agency": "Department of Public Works",
    "final_address": "2130 Franklin Ave",
    "address_councildis": "D",
    "status": "Pending",
    "rowid": "883951",
    "final_x": "3687522.19599",
    "final_y": "540488.318923",
    "longitude": "-90.04873696445483",
    "latitude": "29.979971208551852",
    "geocoded_column": {
      "latitude": "29.979971208551852",
      "longitude": "-90.04873696445483"
    }
  },
  {
    "service_request": "2022-883950",
    "request_type": "Trash/Recycling",
    "request_reason": "Order Recycling Cart",
    "date_created": "2022-05-17T13:55:24.000",
    "date_modified": "2022-05-17T13:55:24.000",
    "request_status": "Pending",
    "responsible_agency": "Department of Sanitation",
    "final_address": "4327 Banks St",
    "address_councildis": "A",
    "status": "Pending",
    "rowid": "883950",
    "final_x": "3669412.31559",
    "final_y": "538190.155529",
    "longitude": "-90.10601339109711",
    "latitude": "29.97419786604557",
    "geocoded_column": {
      "latitude": "29.97419786604557",
      "longitude": "-90.10601339109711"
    }
  },
  {
    "service_request": "2022-883949",
    "request_type": "Trash/Recycling",
    "request_reason": "Order Trash Cart",
    "date_created": "2022-05-17T13:54:59.000",
    "date_modified": "2022-05-17T13:55:00.000",
    "request_status": "Pending",
    "responsible_agency": "Department of Sanitation",
    "final_address": "1410 Prytania St",
    "address_councildis": "B",
    "status": "Assigned to Contractor",
    "contractor": "Richards Disposal",
    "rowid": "883949",
    "final_x": "3679795.89186",
    "final_y": "525412.587389",
    "longitude": "-90.073663288667",
    "latitude": "29.93875397182861",
    "geocoded_column": {
      "latitude": "29.93875397182861",
      "longitude": "-90.073663288667"
    }
  },
  {
    "service_request": "2022-883948",
    "request_type": "Trash/Recycling",
    "request_reason": "Order Recycling Cart",
    "date_created": "2022-05-17T13:54:29.000",
    "date_modified": "2022-05-17T13:54:30.000",
    "request_status": "Pending",
    "responsible_agency": "Department of Sanitation",
    "final_address": "1410 Prytania St",
    "address_councildis": "B",
    "status": "Pending",
    "rowid": "883948",
    "final_x": "3679795.89186",
    "final_y": "525412.587389",
    "longitude": "-90.073663288667",
    "latitude": "29.93875397182861",
    "geocoded_column": {
      "latitude": "29.93875397182861",
      "longitude": "-90.073663288667"
    }
  },
  {
    "service_request": "2022-883947",
    "request_type": "Trash/Recycling",
    "request_reason": "Replace Trash Cart",
    "date_created": "2022-05-17T13:53:35.000",
    "date_modified": "2022-05-17T13:53:36.000",
    "request_status": "Pending",
    "responsible_agency": "Department of Sanitation",
    "final_address": "4327 Banks St",
    "address_councildis": "A",
    "status": "Assigned to Contractor",
    "contractor": "Richards Disposal",
    "rowid": "883947",
    "final_x": "3669412.31559",
    "final_y": "538190.155529",
    "longitude": "-90.10601339109711",
    "latitude": "29.97419786604557",
    "geocoded_column": {
      "latitude": "29.97419786604557",
      "longitude": "-90.10601339109711"
    }
  },
  {
    "service_request": "2022-883946",
    "request_type": "Traffic Signals/Signs/Striping/Streetlights",
    "request_reason": "Street Light Outage/Malfunction",
    "date_created": "2022-05-17T13:50:31.000",
    "date_modified": "2022-05-17T13:50:32.000",
    "request_status": "Pending",
    "responsible_agency": "Department of Public Works",
    "final_address": "322 Socrates St",
    "address_councildis": "C",
    "status": "Pending",
    "contractor": "Royal Engineering",
    "rowid": "883946",
    "final_x": "3686467.82818",
    "final_y": "526422.219006",
    "longitude": "-90.05256366803167",
    "latitude": "29.94132675097001",
    "geocoded_column": {
      "latitude": "29.94132675097001",
      "longitude": "-90.05256366803167"
    }
  },
  {
    "service_request": "2022-883945",
    "request_type": "Trash/Recycling",
    "request_reason": "Request a Large Item Pick Up",
    "date_created": "2022-05-17T13:48:36.000",
    "date_modified": "2022-05-17T14:29:59.000",
    "request_status": "Pending",
    "responsible_agency": "Department of Sanitation",
    "final_address": "New Orleans,LA",
    "address_councildis": "A",
    "status": "Assigned to Contractor",
    "contractor": "Richards Disposal",
    "rowid": "883945",
    "final_x": "3662794.15911",
    "final_y": "528513.815872",
    "longitude": "-90.12723683791944",
    "latitude": "29.947784343371843",
    "geocoded_column": {
      "latitude": "29.947784343371843",
      "longitude": "-90.12723683791944"
    }
  },
  {
    "service_request": "2022-883944",
    "request_type": "Trash/Recycling",
    "request_reason": "Request a Large Item Pick Up",
    "date_created": "2022-05-17T13:48:07.000",
    "date_modified": "2022-05-17T13:48:07.000",
    "request_status": "Pending",
    "responsible_agency": "Department of Sanitation",
    "final_address": "7934 Willow St, New Orleans, Louisiana, 70118",
    "address_councildis": "A",
    "status": "Assigned to Contractor",
    "contractor": "Richards Disposal",
    "rowid": "883944",
    "final_x": "3662794.15911",
    "final_y": "528513.815872",
    "longitude": "-90.12723683791944",
    "latitude": "29.947784343371843",
    "geocoded_column": {
      "latitude": "29.947784343371843",
      "longitude": "-90.12723683791944"
    }
  },
  {
    "service_request": "2022-883942",
    "request_type": "Traffic Signals/Signs/Striping/Streetlights",
    "request_reason": "Additional signage",
    "date_created": "2022-05-17T13:42:06.000",
    "date_modified": "2022-05-17T13:42:06.000",
    "request_status": "Pending",
    "responsible_agency": "Department of Public Works",
    "final_address": "600 Carondelet St",
    "address_councildis": "B",
    "status": "Pending",
    "rowid": "883942",
    "final_x": "3680235.16879",
    "final_y": "528927.008512",
    "longitude": "-90.07215432080176",
    "latitude": "29.94840417190896",
    "geocoded_column": {
      "latitude": "29.94840417190896",
      "longitude": "-90.07215432080176"
    }
  },
  {
    "service_request": "2022-883941",
    "request_type": "Trash/Recycling",
    "request_reason": "Request a Large Item Pick Up",
    "date_created": "2022-05-17T13:39:41.000",
    "date_modified": "2022-05-17T13:39:42.000",
    "request_status": "Pending",
    "responsible_agency": "Department of Sanitation",
    "final_address": "3138 Hudson Pl, New Orleans, Louisiana, 70131",
    "address_councildis": "C",
    "status": "Assigned to Contractor",
    "contractor": "Richards Disposal",
    "rowid": "883941",
    "final_x": "3702991.71818",
    "final_y": "519111.303479",
    "longitude": "-90.00066341805007",
    "latitude": "29.920706082952442",
    "geocoded_column": {
      "latitude": "29.920706082952442",
      "longitude": "-90.00066341805007"
    }
  },
  {
    "service_request": "2022-883940",
    "request_type": "Safety & Permits",
    "request_reason": "Short term Rental (Enforcement)",
    "date_created": "2022-05-17T13:39:10.000",
    "date_modified": "2022-05-17T13:39:10.000",
    "request_status": "Pending",
    "responsible_agency": "Safety and Permits",
    "final_address": "3118 Burgundy St",
    "address_councildis": "C",
    "status": "Pending",
    "rowid": "883940",
    "final_x": "3688935.51369",
    "final_y": "535154.50855",
    "longitude": "-90.04446262678692",
    "latitude": "29.965261464858838",
    "geocoded_column": {
      "latitude": "29.965261464858838",
      "longitude": "-90.04446262678692"
    }
  },
  {
    "service_request": "2022-883938",
    "request_type": "Traffic Signals/Signs/Striping/Streetlights",
    "request_reason": "Traffic Sign Missing/Damaged",
    "date_created": "2022-05-17T13:38:10.000",
    "date_modified": "2022-05-17T13:38:10.000",
    "request_status": "Pending",
    "responsible_agency": "Department of Public Works",
    "final_address": "1535 Sumner St",
    "address_councildis": "C",
    "status": "Pending",
    "rowid": "883938",
    "final_x": "3690958.66768",
    "final_y": "525609.886717",
    "longitude": "-90.03841426177716",
    "latitude": "29.938954326534045",
    "geocoded_column": {
      "latitude": "29.938954326534045",
      "longitude": "-90.03841426177716"
    }
  },
  {
    "service_request": "2022-883937",
    "request_type": "Trash/Recycling",
    "request_reason": "Request a Large Item Pick Up",
    "date_created": "2022-05-17T13:36:02.000",
    "date_modified": "2022-05-17T13:36:04.000",
    "request_status": "Pending",
    "responsible_agency": "Department of Sanitation",
    "final_address": "1731 Kerlerec St, New Orleans, Louisiana, 70116",
    "address_councildis": "D",
    "status": "Assigned to Contractor",
    "contractor": "Metro Disposal",
    "rowid": "883937",
    "final_x": "3681034.55919",
    "final_y": "537295.11028",
    "longitude": "-90.0693388541581",
    "latitude": "29.971389385965654",
    "geocoded_column": {
      "latitude": "29.971389385965654",
      "longitude": "-90.0693388541581"
    }
  },
  {
    "service_request": "2022-883936",
    "request_type": "Abandoned Vehicles",
    "request_reason": "Abandoned/Junk Vehicles",
    "date_created": "2022-05-17T13:33:57.000",
    "date_modified": "2022-05-17T13:41:54.000",
    "request_status": "Pending",
    "responsible_agency": "Department of Public Works",
    "status": "Inspected",
    "rowid": "883936",
    "longitude": "0.0",
    "latitude": "0.0",
    "geocoded_column": {
      "latitude": "0.0",
      "longitude": "0.0"
    }
  },
  {
    "service_request": "2022-883935",
    "request_type": "Trash/Recycling",
    "request_reason": "Request a Large Item Pick Up",
    "date_created": "2022-05-17T13:33:20.000",
    "date_modified": "2022-05-17T13:33:21.000",
    "request_status": "Pending",
    "responsible_agency": "Department of Sanitation",
    "final_address": "1563 N Johnson St",
    "address_councildis": "D",
    "status": "Assigned to Contractor",
    "contractor": "Metro Disposal",
    "rowid": "883935",
    "final_x": "3680901.73019",
    "final_y": "538506.849545",
    "longitude": "-90.06971614497652",
    "latitude": "29.97472527864403",
    "geocoded_column": {
      "latitude": "29.97472527864403",
      "longitude": "-90.06971614497652"
    }
  },
  {
    "service_request": "2022-883934",
    "request_type": "Trash/Recycling",
    "request_reason": "Request a Large Item Pick Up",
    "date_created": "2022-05-17T13:31:36.000",
    "date_modified": "2022-05-17T13:31:37.000",
    "request_status": "Pending",
    "responsible_agency": "Department of Sanitation",
    "final_address": "1033 Casa Calvo St",
    "address_councildis": "C",
    "status": "Assigned to Contractor",
    "contractor": "Richards Disposal",
    "rowid": "883934",
    "final_x": "3692078.39069",
    "final_y": "527511.359679",
    "longitude": "-90.03481114890943",
    "latitude": "29.944147883532167",
    "geocoded_column": {
      "latitude": "29.944147883532167",
      "longitude": "-90.03481114890943"
    }
  },
  {
    "service_request": "2022-883933",
    "request_type": "Roads/Drainage",
    "request_reason": "Pothole",
    "date_created": "2022-05-17T13:31:25.000",
    "date_modified": "2022-05-17T13:31:26.000",
    "request_status": "Pending",
    "responsible_agency": "Department of Public Works",
    "final_address": "1436 Annette St",
    "address_councildis": "C",
    "status": "Pending",
    "rowid": "883933",
    "final_x": "3682948.65173",
    "final_y": "537550.758088",
    "longitude": "-90.06328493441832",
    "latitude": "29.97203413196762",
    "geocoded_column": {
      "latitude": "29.97203413196762",
      "longitude": "-90.06328493441832"
    }
  },
  {
    "service_request": "2022-883932",
    "request_type": "Trash/Recycling",
    "request_reason": "Request a Large Item Pick Up",
    "date_created": "2022-05-17T13:28:01.000",
    "date_modified": "2022-05-17T13:28:02.000",
    "request_status": "Pending",
    "responsible_agency": "Department of Sanitation",
    "final_address": "WISTERIA ST & PEOPLES AVE",
    "address_councildis": "D",
    "status": "Assigned to Contractor",
    "contractor": "Metro Disposal",
    "rowid": "883932",
    "final_x": "3688362.5",
    "final_y": "548493.28",
    "longitude": "-90.04579884918532",
    "latitude": "30.001956047503306",
    "geocoded_column": {
      "latitude": "30.001956047503306",
      "longitude": "-90.04579884918532"
    }
  },
  {
    "service_request": "2022-883931",
    "request_type": "Trash/Recycling",
    "request_reason": "Missed Trash Pick-Up",
    "date_created": "2022-05-17T13:24:07.000",
    "date_modified": "2022-05-17T13:24:08.000",
    "request_status": "Pending",
    "responsible_agency": "Department of Sanitation",
    "final_address": "6805 Catina St, New Orleans, Louisiana, 70124",
    "address_councildis": "A",
    "status": "Assigned to Contractor",
    "contractor": "Metro Disposal",
    "rowid": "883931",
    "final_x": "3667143.10381",
    "final_y": "552812.58575",
    "longitude": "-90.11268815377255",
    "latitude": "30.014471172978432",
    "geocoded_column": {
      "latitude": "30.014471172978432",
      "longitude": "-90.11268815377255"
    }
  },
  {
    "service_request": "2022-883929",
    "request_type": "Roads/Drainage",
    "request_reason": "Pothole",
    "date_created": "2022-05-17T13:20:22.000",
    "date_modified": "2022-05-17T13:20:24.000",
    "request_status": "Pending",
    "responsible_agency": "Department of Public Works",
    "final_address": "MARTIN LUTHER KING JR BLVD & S MIRO ST",
    "address_councildis": "B",
    "status": "Pending",
    "rowid": "883929",
    "final_x": "3673309.9",
    "final_y": "529291.98",
    "longitude": "-90.0940078470197",
    "latitude": "29.949615495540836",
    "geocoded_column": {
      "latitude": "29.949615495540836",
      "longitude": "-90.0940078470197"
    }
  },
  {
    "service_request": "2022-883928",
    "request_type": "Trash/Recycling",
    "request_reason": "Replace Trash Cart",
    "date_created": "2022-05-17T13:19:04.000",
    "date_modified": "2022-05-17T13:19:05.000",
    "request_status": "Pending",
    "responsible_agency": "Department of Sanitation",
    "final_address": "6001 Craigie Rd",
    "address_councildis": "E",
    "status": "Assigned to Contractor",
    "contractor": "Metro Disposal",
    "rowid": "883928",
    "final_x": "3695208.92042",
    "final_y": "558657.125404",
    "longitude": "-90.02380340157256",
    "latitude": "30.029689499112507",
    "geocoded_column": {
      "latitude": "30.029689499112507",
      "longitude": "-90.02380340157256"
    }
  },
  {
    "service_request": "2022-883927",
    "request_type": "Trash/Recycling",
    "request_reason": "Illegal Dumping",
    "date_created": "2022-05-17T13:16:13.000",
    "date_modified": "2022-05-17T13:17:55.000",
    "case_close_date": "2022-05-17T08:17:55.000",
    "request_status": "Closed",
    "responsible_agency": "Department of Sanitation",
    "final_address": "REYNES ST & SELMA ST",
    "address_councildis": "E",
    "status": "Resolved",
    "rowid": "883927",
    "final_x": "3699278.5",
    "final_y": "553589.38",
    "longitude": "-90.01112844198353",
    "latitude": "30.01562662329924",
    "geocoded_column": {
      "latitude": "30.01562662329924",
      "longitude": "-90.01112844198353"
    }
  },
  {
    "service_request": "2022-883926",
    "request_type": "Trash/Recycling",
    "request_reason": "Request a Large Item Pick Up",
    "date_created": "2022-05-17T13:14:13.000",
    "date_modified": "2022-05-17T13:14:14.000",
    "request_status": "Pending",
    "responsible_agency": "Department of Sanitation",
    "final_address": "4171 Toulouse St",
    "address_councildis": "A",
    "status": "Assigned to Contractor",
    "contractor": "Richards Disposal",
    "rowid": "883926",
    "final_x": "3671775.06721",
    "final_y": "540124.927819",
    "longitude": "-90.09848540610675",
    "latitude": "29.97944803429037",
    "geocoded_column": {
      "latitude": "29.97944803429037",
      "longitude": "-90.09848540610675"
    }
  },
  {
    "service_request": "2022-883925",
    "request_type": "Property Maintenance",
    "request_reason": "Property Maintenance",
    "date_created": "2022-05-17T13:13:06.000",
    "date_modified": "2022-05-17T13:13:06.000",
    "request_status": "Pending",
    "responsible_agency": "Department of Code Enforcement",
    "final_address": "537 Jackson Ave",
    "address_councildis": "B",
    "status": "Pending",
    "rowid": "883925",
    "final_x": "3680077.15234",
    "final_y": "520566.819",
    "longitude": "-90.0729435987548",
    "latitude": "29.925421198771062",
    "geocoded_column": {
      "latitude": "29.925421198771062",
      "longitude": "-90.0729435987548"
    }
  },
  {
    "service_request": "2022-883924",
    "request_type": "Trash/Recycling",
    "request_reason": "Missed Trash Pick-Up",
    "date_created": "2022-05-17T13:10:39.000",
    "date_modified": "2022-05-17T13:10:40.000",
    "request_status": "Pending",
    "responsible_agency": "Department of Sanitation",
    "final_address": "1429 Pine St",
    "address_councildis": "A",
    "status": "Assigned to Contractor",
    "contractor": "Richards Disposal",
    "rowid": "883924",
    "final_x": "3664519.608",
    "final_y": "527401.731455",
    "longitude": "-90.12182601409023",
    "latitude": "29.944676417058286",
    "geocoded_column": {
      "latitude": "29.944676417058286",
      "longitude": "-90.12182601409023"
    }
  },
  {
    "service_request": "2022-883923",
    "request_type": "Trash/Recycling",
    "request_reason": "Order Recycling Cart",
    "date_created": "2022-05-17T13:09:51.000",
    "date_modified": "2022-05-17T13:09:52.000",
    "request_status": "Pending",
    "responsible_agency": "Department of Sanitation",
    "final_address": "4171 Toulouse St",
    "address_councildis": "A",
    "status": "Pending",
    "rowid": "883923",
    "final_x": "3671775.06721",
    "final_y": "540124.927819",
    "longitude": "-90.09848540610675",
    "latitude": "29.97944803429037",
    "geocoded_column": {
      "latitude": "29.97944803429037",
      "longitude": "-90.09848540610675"
    }
  },
  {
    "service_request": "2022-883922",
    "request_type": "Abandoned Vehicles",
    "request_reason": "Abandoned/Junk Vehicles",
    "date_created": "2022-05-17T13:07:04.000",
    "date_modified": "2022-05-17T13:07:04.000",
    "request_status": "Pending",
    "responsible_agency": "Department of Public Works",
    "final_address": "1328 Jackson Ave",
    "address_councildis": "B",
    "status": "Pending",
    "rowid": "883922",
    "final_x": "3678229.22261",
    "final_y": "522804.960827",
    "longitude": "-90.07869957990633",
    "latitude": "29.93163112076764",
    "geocoded_column": {
      "latitude": "29.93163112076764",
      "longitude": "-90.07869957990633"
    }
  },
  {
    "service_request": "2022-883921",
    "request_type": "Roads/Drainage",
    "request_reason": "Pothole",
    "date_created": "2022-05-17T13:05:33.000",
    "date_modified": "2022-05-17T13:05:34.000",
    "request_status": "Pending",
    "responsible_agency": "Department of Public Works",
    "final_address": "3500 BLK First St",
    "address_councildis": "B",
    "status": "Pending",
    "rowid": "883921",
    "final_x": "3673147.88529",
    "final_y": "528971.088171",
    "longitude": "-90.09453035595374",
    "latitude": "29.948737966155633",
    "geocoded_column": {
      "latitude": "29.948737966155633",
      "longitude": "-90.09453035595374"
    }
  },
  {
    "service_request": "2022-883918",
    "request_type": "Trash/Recycling",
    "request_reason": "Repair Trash Cart",
    "date_created": "2022-05-17T13:00:08.000",
    "date_modified": "2022-05-17T13:00:09.000",
    "request_status": "Pending",
    "responsible_agency": "Department of Sanitation",
    "final_address": "201 S Dupre St",
    "address_councildis": "B",
    "status": "Assigned to Contractor",
    "contractor": "Richards Disposal",
    "rowid": "883918",
    "final_x": "3674300.89467",
    "final_y": "535318.520134",
    "longitude": "-90.09067245861642",
    "latitude": "29.96615695843576",
    "geocoded_column": {
      "latitude": "29.96615695843576",
      "longitude": "-90.09067245861642"
    }
  },
  {
    "service_request": "2022-883917",
    "request_type": "Trash/Recycling",
    "request_reason": "Request a Large Item Pick Up",
    "date_created": "2022-05-17T12:55:53.000",
    "date_modified": "2022-05-17T12:55:54.000",
    "request_status": "Pending",
    "responsible_agency": "Department of Sanitation",
    "final_address": "1415 Pine St",
    "address_councildis": "A",
    "status": "Assigned to Contractor",
    "contractor": "Richards Disposal",
    "rowid": "883917",
    "final_x": "3664450.03386",
    "final_y": "527297.867711",
    "longitude": "-90.12204914790452",
    "latitude": "29.944392847611393",
    "geocoded_column": {
      "latitude": "29.944392847611393",
      "longitude": "-90.12204914790452"
    }
  },
  {
    "service_request": "2022-883916",
    "request_type": "Trash/Recycling",
    "request_reason": "Missed Trash Pick-Up",
    "date_created": "2022-05-17T12:55:36.000",
    "date_modified": "2022-05-17T12:55:37.000",
    "request_status": "Pending",
    "responsible_agency": "Department of Sanitation",
    "final_address": "993 Crystal St",
    "address_councildis": "D",
    "status": "Assigned to Contractor",
    "contractor": "Metro Disposal",
    "rowid": "883916",
    "final_x": "3671518.51707",
    "final_y": "557163.762267",
    "longitude": "-90.09871584580539",
    "latitude": "30.026306465022707",
    "geocoded_column": {
      "latitude": "30.026306465022707",
      "longitude": "-90.09871584580539"
    }
  },
  {
    "service_request": "2022-883915",
    "request_type": "Trash/Recycling",
    "request_reason": "Missed Trash Pick-Up",
    "date_created": "2022-05-17T12:55:24.000",
    "date_modified": "2022-05-17T12:55:25.000",
    "request_status": "Pending",
    "responsible_agency": "Department of Sanitation",
    "final_address": "2904 Cleveland Ave",
    "address_councildis": "B",
    "status": "Assigned to Contractor",
    "contractor": "Richards Disposal",
    "rowid": "883915",
    "final_x": "3674249.91694",
    "final_y": "535356.76487",
    "longitude": "-90.0908321357242",
    "latitude": "29.96626363861962",
    "geocoded_column": {
      "latitude": "29.96626363861962",
      "longitude": "-90.0908321357242"
    }
  },
  {
    "service_request": "2022-883911",
    "request_type": "Parks & Parkways",
    "request_reason": "Request Tree Service (Right of Way/Public Property)",
    "date_created": "2022-05-17T12:51:14.000",
    "date_modified": "2022-05-17T12:52:03.000",
    "request_status": "Pending",
    "responsible_agency": "Department of Parks & Parkway",
    "final_address": "7736 Tricia Ct",
    "address_councildis": "E",
    "status": "Pending",
    "rowid": "883911",
    "final_x": "3717206.92306",
    "final_y": "571543.990632",
    "longitude": "-89.95380051364555",
    "latitude": "30.064413492320586",
    "geocoded_column": {
      "latitude": "30.064413492320586",
      "longitude": "-89.95380051364555"
    }
  },