[
  {
    "service_request": "2023-958776",
    "request_type": "Traffic Signals/Signs/Striping/Streetlights",
    "request_reason": "Street Light Outage/Malfunction",
    "date_created": "2023-01-03T01:22:54.000",
    "date_modified": "2023-01-03T01:22:55.000",
    "request_status": "Pending",
    "responsible_agency": "Department of Public Works",
    "final_address": "1309 Marengo St",
    "address_councildis": "B",
    "status": "Assigned to Contractor",
    "contractor": "Legacy Professional Services",
    "rowid": "958776",
    "final_x": "3672072.68142",
    "final_y": "520284.850232",
    "longitude": "-90.09822086943154",
    "latitude": "29.9248855480906",
    "geocoded_column": {
      "latitude": "29.9248855480906",
      "longitude": "-90.09822086943154"
    }
  },
  {
    "service_request": "2023-958775",
    "request_type": "Trash/Recycling",
    "request_reason": "Replace Trash Cart",
    "date_created": "2023-01-02T23:45:41.000",
    "date_modified": "2023-01-02T23:45:41.000",
    "request_status": "Pending",
    "responsible_agency": "Department of Sanitation",
    "final_address": "132 S Telemachus St",
    "address_councildis": "B",
    "status": "Assigned to Contractor",
    "contractor": "Richards Disposal",
    "rowid": "958775",
    "final_x": "3672181.59854",
    "final_y": "537075.8386",
    "longitude": "-90.09730529794084",
    "latitude": "29.97105202012073",
    "geocoded_column": {
      "latitude": "29.97105202012073",
      "longitude": "-90.09730529794084"
    }
  },
  {
    "service_request": "2023-958774",
    "request_type": "Trash/Recycling",
    "request_reason": "Order Recycling Cart",
    "date_created": "2023-01-02T23:40:04.000",
    "date_modified": "2023-01-02T23:40:04.000",
    "request_status": "Pending",
    "responsible_agency": "Department of Sanitation",
    "final_address": "3824 State Street Dr",
    "address_councildis": "A",
    "status": "Pending",
    "rowid": "958774",
    "final_x": "3668058.19553",
    "final_y": "529689.776001",
    "longitude": "-90.11057651336088",
    "latitude": "29.950864445807486",
    "geocoded_column": {
      "latitude": "29.950864445807486",
      "longitude": "-90.11057651336088"
    }
  },
  {
    "service_request": "2023-958773",
    "request_type": "Property Maintenance",
    "request_reason": "Property Maintenance",
    "date_created": "2023-01-02T23:35:26.000",
    "date_modified": "2023-01-02T23:35:26.000",
    "request_status": "Pending",
    "responsible_agency": "Department of Code Enforcement",
    "final_address": "6800 Tara Ln",
    "address_councildis": "E",
    "status": "Pending",
    "rowid": "958773",
    "final_x": "3707263.52107",
    "final_y": "559205.585628",
    "longitude": "-89.98569094436137",
    "latitude": "30.030813233368477",
    "geocoded_column": {
      "latitude": "30.030813233368477",
      "longitude": "-89.98569094436137"
    }
  },
  {
    "service_request": "2023-958772",
    "request_type": "Property Maintenance",
    "request_reason": "Property Maintenance",
    "date_created": "2023-01-02T23:24:52.000",
    "date_modified": "2023-01-02T23:24:52.000",
    "request_status": "Pending",
    "responsible_agency": "Department of Code Enforcement",
    "final_address": "6711 Tara Ln",
    "address_councildis": "E",
    "status": "Pending",
    "rowid": "958772",
    "final_x": "3707667.94161",
    "final_y": "558715.359388",
    "longitude": "-89.98443121334512",
    "latitude": "30.029452219035004",
    "geocoded_column": {
      "latitude": "30.029452219035004",
      "longitude": "-89.98443121334512"
    }
  },
  {
    "service_request": "2023-958771",
    "request_type": "Trash/Recycling",
    "request_reason": "Illegal Dumping",
    "date_created": "2023-01-02T23:20:28.000",
    "date_modified": "2023-01-02T23:20:28.000",
    "request_status": "Pending",
    "responsible_agency": "Department of Sanitation",
    "final_address": "11960 Hayne Blvd",
    "address_councildis": "E",
    "status": "Pending",
    "rowid": "958771",
    "final_x": "3712346.83064",
    "final_y": "568872.409317",
    "longitude": "-89.9692640771719",
    "latitude": "30.057227733625307",
    "geocoded_column": {
      "latitude": "30.057227733625307",
      "longitude": "-89.9692640771719"
    }
  },
  {
    "service_request": "2023-958770",
    "request_type": "Property Maintenance",
    "request_reason": "Property Maintenance",
    "date_created": "2023-01-02T23:15:40.000",
    "date_modified": "2023-01-02T23:15:40.000",
    "request_status": "Pending",
    "responsible_agency": "Department of Code Enforcement",
    "final_address": "9999 Lake Forest Blvd",
    "address_councildis": "E",
    "status": "Pending",
    "rowid": "958770",
    "final_x": "3710976.71409",
    "final_y": "560035.412509",
    "longitude": "-89.97392616951281",
    "latitude": "30.032974325442808",
    "geocoded_column": {
      "latitude": "30.032974325442808",
      "longitude": "-89.97392616951281"
    }
  },
  {
    "service_request": "2023-958769",
    "request_type": "Property Maintenance",
    "request_reason": "Property Maintenance",
    "date_created": "2023-01-02T23:13:10.000",
    "date_modified": "2023-01-02T23:13:10.000",
    "request_status": "Pending",
    "responsible_agency": "Department of Code Enforcement",
    "final_address": "11701 Morrison Rd",
    "address_councildis": "E",
    "status": "Pending",
    "rowid": "958769",
    "final_x": "3713176.1548",
    "final_y": "566535.184099",
    "longitude": "-89.96673083545386",
    "latitude": "30.050774146879714",
    "geocoded_column": {
      "latitude": "30.050774146879714",
      "longitude": "-89.96673083545386"
    }
  },
  {
    "service_request": "2023-958768",
    "request_type": "Property Maintenance",
    "request_reason": "Property Maintenance",
    "date_created": "2023-01-02T23:08:25.000",
    "date_modified": "2023-01-02T23:08:25.000",
    "request_status": "Pending",
    "responsible_agency": "Department of Code Enforcement",
    "final_address": "7001 Lawrence Rd",
    "address_councildis": "E",
    "status": "Pending",
    "rowid": "958768",
    "final_x": "3704372.84279",
    "final_y": "559124.69238",
    "longitude": "-89.99482847374347",
    "latitude": "30.03068397272477",
    "geocoded_column": {
      "latitude": "30.03068397272477",
      "longitude": "-89.99482847374347"
    }
  },
  {
    "service_request": "2023-958766",
    "request_type": "Property Maintenance",
    "request_reason": "Property Maintenance",
    "date_created": "2023-01-02T23:04:25.000",
    "date_modified": "2023-01-02T23:04:25.000",
    "request_status": "Pending",
    "responsible_agency": "Department of Code Enforcement",
    "final_address": "5941 Bullard Ave",
    "address_councildis": "E",
    "status": "Pending",
    "rowid": "958766",
    "final_x": "3716893.75308",
    "final_y": "562979.956192",
    "longitude": "-89.95511607733593",
    "latitude": "30.040876283334807",
    "geocoded_column": {
      "latitude": "30.040876283334807",
      "longitude": "-89.95511607733593"
    }
  },
  {
    "service_request": "2023-958765",
    "request_type": "Property Maintenance",
    "request_reason": "Property Maintenance",
    "date_created": "2023-01-02T22:49:13.000",
    "date_modified": "2023-01-02T22:49:13.000",
    "request_status": "Pending",
    "responsible_agency": "Department of Code Enforcement",
    "final_address": "4766 Bundy Rd",
    "address_councildis": "E",
    "status": "Pending",
    "rowid": "958765",
    "final_x": "3709245.04555",
    "final_y": "555995.856985",
    "longitude": "-89.9795491715839",
    "latitude": "30.021923510129138",
    "geocoded_column": {
      "latitude": "30.021923510129138",
      "longitude": "-89.9795491715839"
    }
  },
  {
    "service_request": "2023-958764",
    "request_type": "Abandoned Vehicles",
    "request_reason": "Abandoned/Junk Vehicles",
    "date_created": "2023-01-02T22:03:08.000",
    "date_modified": "2023-01-02T22:03:08.000",
    "request_status": "Pending",
    "responsible_agency": "Department of Public Works",
    "final_address": "6301 Fleur-De-Lis Dr",
    "address_councildis": "A",
    "status": "Pending",
    "rowid": "958764",
    "final_x": "3665371.51085",
    "final_y": "550030.929556",
    "longitude": "-90.11837872519285",
    "latitude": "30.00687436087157",
    "geocoded_column": {
      "latitude": "30.00687436087157",
      "longitude": "-90.11837872519285"
    }
  },
  {
    "service_request": "2023-958763",
    "request_type": "Trash/Recycling",
    "request_reason": "Order Trash Cart",
    "date_created": "2023-01-02T21:59:51.000",
    "date_modified": "2023-01-02T21:59:52.000",
    "request_status": "Pending",
    "responsible_agency": "Department of Sanitation",
    "final_address": "528 N Alexander St",
    "address_councildis": "A",
    "status": "Assigned to Contractor",
    "contractor": "Richards Disposal",
    "rowid": "958763",
    "final_x": "3671116.83028",
    "final_y": "540521.535883",
    "longitude": "-90.10055090839056",
    "latitude": "29.98055806031624",
    "geocoded_column": {
      "latitude": "29.98055806031624",
      "longitude": "-90.10055090839056"
    }
  },
  {
    "service_request": "2023-958762",
    "request_type": "Trash/Recycling",
    "request_reason": "Order Trash Cart",
    "date_created": "2023-01-02T21:58:45.000",
    "date_modified": "2023-01-02T21:58:46.000",
    "request_status": "Pending",
    "responsible_agency": "Department of Sanitation",
    "final_address": "1321 St Philip St",
    "address_councildis": "C",
    "status": "Assigned to Contractor",
    "contractor": "Richards Disposal",
    "rowid": "958762",
    "final_x": "3681365.31548",
    "final_y": "534821.024518",
    "longitude": "-90.06838053665967",
    "latitude": "29.964576464151815",
    "geocoded_column": {
      "latitude": "29.964576464151815",
      "longitude": "-90.06838053665967"
    }
  },
  {
    "service_request": "2023-958761",
    "request_type": "Trash/Recycling",
    "request_reason": "Order Trash Cart",
    "date_created": "2023-01-02T21:58:44.000",
    "date_modified": "2023-01-02T21:58:45.000",
    "request_status": "Pending",
    "responsible_agency": "Department of Sanitation",
    "final_address": "1321 St Philip St",
    "address_councildis": "C",
    "status": "Assigned to Contractor",
    "contractor": "Richards Disposal",
    "rowid": "958761",
    "final_x": "3681365.31548",
    "final_y": "534821.024518",
    "longitude": "-90.06838053665967",
    "latitude": "29.964576464151815",
    "geocoded_column": {
      "latitude": "29.964576464151815",
      "longitude": "-90.06838053665967"
    }
  },
  {
    "service_request": "2023-958760",
    "request_type": "Trash/Recycling",
    "request_reason": "MIssed Recycling Pick-Up",
    "date_created": "2023-01-02T21:54:18.000",
    "date_modified": "2023-01-02T21:54:19.000",
    "request_status": "Pending",
    "responsible_agency": "Department of Sanitation",
    "final_address": "4600 Baronne St",
    "address_councildis": "B",
    "status": "Assigned to Contractor",
    "contractor": "Richards Disposal",
    "rowid": "958760",
    "final_x": "3669946.5417",
    "final_y": "521485.633337",
    "longitude": "-90.10489177569625",
    "latitude": "29.928250164271446",
    "geocoded_column": {
      "latitude": "29.928250164271446",
      "longitude": "-90.10489177569625"
    }
  },
  {
    "service_request": "2023-958759",
    "request_type": "Trash/Recycling",
    "request_reason": "Order Trash Cart",
    "date_created": "2023-01-02T21:52:09.000",
    "date_modified": "2023-01-02T21:52:10.000",
    "request_status": "Pending",
    "responsible_agency": "Department of Sanitation",
    "final_address": "303 Morgan St",
    "address_councildis": "C",
    "status": "Assigned to Contractor",
    "contractor": "Richards Disposal",
    "rowid": "958759",
    "final_x": "3686112.61724",
    "final_y": "531088.49453",
    "longitude": "-90.05352058640548",
    "latitude": "29.954168334472755",
    "geocoded_column": {
      "latitude": "29.954168334472755",
      "longitude": "-90.05352058640548"
    }
  },
  {
    "service_request": "2023-958758",
    "request_type": "Trash/Recycling",
    "request_reason": "Order Trash Cart",
    "date_created": "2023-01-02T21:51:03.000",
    "date_modified": "2023-01-02T21:51:04.000",
    "request_status": "Pending",
    "responsible_agency": "Department of Sanitation",
    "final_address": "2223 St Philip St",
    "address_councildis": "D",
    "status": "Assigned to Contractor",
    "contractor": "Richards Disposal",
    "rowid": "958758",
    "final_x": "3678908.82498",
    "final_y": "536741.299655",
    "longitude": "-90.0760714179991",
    "latitude": "29.969930902921597",
    "geocoded_column": {
      "latitude": "29.969930902921597",
      "longitude": "-90.0760714179991"
    }
  },
  {
    "service_request": "2023-958757",
    "request_type": "Trash/Recycling",
    "request_reason": "Request a Large Item Pick Up",
    "date_created": "2023-01-02T21:24:56.000",
    "date_modified": "2023-01-02T21:24:57.000",
    "request_status": "Pending",
    "responsible_agency": "Department of Sanitation",
    "final_address": "932 Philip St",
    "address_councildis": "B",
    "status": "Assigned to Contractor",
    "contractor": "Richards Disposal",
    "rowid": "958757",
    "final_x": "3678771.01819",
    "final_y": "521448.345977",
    "longitude": "-90.07703614853055",
    "latitude": "29.927884550649317",
    "geocoded_column": {
      "latitude": "29.927884550649317",
      "longitude": "-90.07703614853055"
    }
  },
  {
    "service_request": "2023-958756",
    "request_type": "Trash/Recycling",
    "request_reason": "Return Recycling Cart",
    "date_created": "2023-01-02T21:18:04.000",
    "date_modified": "2023-01-02T21:18:04.000",
    "request_status": "Pending",
    "responsible_agency": "Department of Sanitation",
    "final_address": "3935 Hamburg St",
    "address_councildis": "D",
    "status": "Pending",
    "rowid": "958756",
    "final_x": "3679202.73506",
    "final_y": "546874.520657",
    "longitude": "-90.07479172883089",
    "latitude": "29.99778485965441",
    "geocoded_column": {
      "latitude": "29.99778485965441",
      "longitude": "-90.07479172883089"
    }
  },
  {
    "service_request": "2023-958755",
    "request_type": "Trash/Recycling",
    "request_reason": "Replace Trash Cart",
    "date_created": "2023-01-02T21:16:28.000",
    "date_modified": "2023-01-02T21:16:29.000",
    "request_status": "Pending",
    "responsible_agency": "Department of Sanitation",
    "final_address": "904 Fourth St",
    "address_councildis": "B",
    "status": "Assigned to Contractor",
    "contractor": "Richards Disposal",
    "rowid": "958755",
    "final_x": "3677649.52187",
    "final_y": "520412.587832",
    "longitude": "-90.08061219851758",
    "latitude": "29.92507031500947",
    "geocoded_column": {
      "latitude": "29.92507031500947",
      "longitude": "-90.08061219851758"
    }
  },
  {
    "service_request": "2023-958754",
    "request_type": "Abandoned Vehicles",
    "request_reason": "Vehicle Blocking Your Driveway",
    "date_created": "2023-01-02T21:11:34.000",
    "date_modified": "2023-01-02T21:11:34.000",
    "request_status": "Pending",
    "responsible_agency": "Department of Public Works",
    "final_address": "1531 St Philip St",
    "address_councildis": "C",
    "status": "Pending",
    "rowid": "958754",
    "final_x": "3680798.85064",
    "final_y": "535255.268998",
    "longitude": "-90.07015427314855",
    "latitude": "29.965787670683376",
    "geocoded_column": {
      "latitude": "29.965787670683376",
      "longitude": "-90.07015427314855"
    }
  },
  {
    "service_request": "2023-958751",
    "request_type": "Trash/Recycling",
    "request_reason": "Missed Trash Pick-Up",
    "date_created": "2023-01-02T20:55:44.000",
    "date_modified": "2023-01-02T20:55:45.000",
    "request_status": "Pending",
    "responsible_agency": "Department of Sanitation",
    "final_address": "4137 General Ogden St, New Orleans, Louisiana, 70118",
    "address_councildis": "A",
    "status": "Assigned to Contractor",
    "contractor": "Richards Disposal",
    "rowid": "958751",
    "final_x": "3667022.69581",
    "final_y": "538069.887625",
    "longitude": "-90.11356443502756",
    "latitude": "29.973937331843185",
    "geocoded_column": {
      "latitude": "29.973937331843185",
      "longitude": "-90.11356443502756"
    }
  },
  {
    "service_request": "2023-958750",
    "request_type": "Trash/Recycling",
    "request_reason": "Order Trash Cart",
    "date_created": "2023-01-02T20:35:07.000",
    "date_modified": "2023-01-02T20:35:07.000",
    "request_status": "Pending",
    "responsible_agency": "Department of Sanitation",
    "final_address": "3725 Frenchmen St",
    "address_councildis": "D",
    "status": "Assigned to Contractor",
    "contractor": "IV Waste",
    "rowid": "958750",
    "final_x": "3683809.72188",
    "final_y": "546440.650321",
    "longitude": "-90.06025360446243",
    "latitude": "29.996451931739273",
    "geocoded_column": {
      "latitude": "29.996451931739273",
      "longitude": "-90.06025360446243"
    }
  },
  {
    "service_request": "2023-958749",
    "request_type": "Abandoned Vehicles",
    "request_reason": "Abandoned/Junk Vehicles",
    "date_created": "2023-01-02T20:34:42.000",
    "date_modified": "2023-01-02T20:34:42.000",
    "request_status": "Pending",
    "responsible_agency": "Department of Public Works",
    "final_address": "7518 Garfield St",
    "address_councildis": "A",
    "status": "Pending",
    "rowid": "958749",
    "final_x": "3660853.52038",
    "final_y": "524242.056892",
    "longitude": "-90.13350546748408",
    "latitude": "29.936094385558107",
    "geocoded_column": {
      "latitude": "29.936094385558107",
      "longitude": "-90.13350546748408"
    }
  },
  {
    "service_request": "2023-958748",
    "request_type": "Trash/Recycling",
    "request_reason": "Order Trash Cart",
    "date_created": "2023-01-02T20:33:32.000",
    "date_modified": "2023-01-02T20:33:33.000",
    "request_status": "Pending",
    "responsible_agency": "Department of Sanitation",
    "final_address": "3727 Frenchmen St",
    "address_councildis": "D",
    "status": "Assigned to Contractor",
    "contractor": "IV Waste",
    "rowid": "958748",
    "final_x": "3683808.14485",
    "final_y": "546453.600913",
    "longitude": "-90.06025813166528",
    "latitude": "29.996487589416176",
    "geocoded_column": {
      "latitude": "29.996487589416176",
      "longitude": "-90.06025813166528"
    }
  },
  {
    "service_request": "2023-958747",
    "request_type": "Trash/Recycling",
    "request_reason": "Request a Large Item Pick Up",
    "date_created": "2023-01-02T20:32:09.000",
    "date_modified": "2023-01-02T20:32:10.000",
    "request_status": "Pending",
    "responsible_agency": "Department of Sanitation",
    "final_address": "4810 Dauphine St",
    "address_councildis": "E",
    "status": "Assigned to Contractor",
    "contractor": "Waste Pro",
    "rowid": "958747",
    "final_x": "3694811.78538",
    "final_y": "533313.754628",
    "longitude": "-90.02597207417128",
    "latitude": "29.960016987023565",
    "geocoded_column": {
      "latitude": "29.960016987023565",
      "longitude": "-90.02597207417128"
    }
  },
  {
    "service_request": "2023-958746",
    "request_type": "Trash/Recycling",
    "request_reason": "Request a Large Item Pick Up",
    "date_created": "2023-01-02T20:32:08.000",
    "date_modified": "2023-01-02T20:32:09.000",
    "request_status": "Pending",
    "responsible_agency": "Department of Sanitation",
    "final_address": "4810 Dauphine St",
    "address_councildis": "E",
    "status": "Assigned to Contractor",
    "contractor": "Waste Pro",
    "rowid": "958746",
    "final_x": "3694811.78538",
    "final_y": "533313.754628",
    "longitude": "-90.02597207417128",
    "latitude": "29.960016987023565",
    "geocoded_column": {
      "latitude": "29.960016987023565",
      "longitude": "-90.02597207417128"
    }
  },
  {
    "service_request": "2023-958745",
    "request_type": "Traffic Signals/Signs/Striping/Streetlights",
    "request_reason": "Street Light Outage/Malfunction",
    "date_created": "2023-01-02T20:31:40.000",
    "date_modified": "2023-01-02T20:31:40.000",
    "request_status": "Pending",
    "responsible_agency": "Department of Public Works",
    "final_address": "523 Diana St",
    "address_councildis": "C",
    "status": "Assigned to Contractor",
    "contractor": "Legacy Professional Services",
    "rowid": "958745",
    "final_x": "3687182.19599",
    "final_y": "527518.415167",
    "longitude": "-90.05026952377469",
    "latitude": "29.944318943616384",
    "geocoded_column": {
      "latitude": "29.944318943616384",
      "longitude": "-90.05026952377469"
    }
  },
  {
    "service_request": "2023-958744",
    "request_type": "Trash/Recycling",
    "request_reason": "Missed Trash Pick-Up",
    "date_created": "2023-01-02T20:26:42.000",
    "date_modified": "2023-01-02T20:26:42.000",
    "request_status": "Pending",
    "responsible_agency": "Department of Sanitation",
    "final_address": "4713 Baudin St",
    "address_councildis": "A",
    "status": "Assigned to Contractor",
    "contractor": "Richards Disposal",
    "rowid": "958744",
    "final_x": "3668069.05716",
    "final_y": "538675.029385",
    "longitude": "-90.11023938073886",
    "latitude": "29.975570599468433",
    "geocoded_column": {
      "latitude": "29.975570599468433",
      "longitude": "-90.11023938073886"
    }
  },
  {
    "service_request": "2023-958743",
    "request_type": "Traffic Signals/Signs/Striping/Streetlights",
    "request_reason": "Street Light Outage/Malfunction",
    "date_created": "2023-01-02T20:25:35.000",
    "date_modified": "2023-01-02T20:25:35.000",
    "request_status": "Pending",
    "responsible_agency": "Department of Public Works",
    "final_address": "523 Diana St",
    "address_councildis": "C",
    "status": "Assigned to Contractor",
    "contractor": "Legacy Professional Services",
    "rowid": "958743",
    "final_x": "3687182.19599",
    "final_y": "527518.415167",
    "longitude": "-90.05026952377469",
    "latitude": "29.944318943616384",
    "geocoded_column": {
      "latitude": "29.944318943616384",
      "longitude": "-90.05026952377469"
    }
  },
  {
    "service_request": "2023-958742",
    "request_type": "Trash/Recycling",
    "request_reason": "Missed Trash Pick-Up",
    "date_created": "2023-01-02T20:17:21.000",
    "date_modified": "2023-01-02T20:17:22.000",
    "request_status": "Pending",
    "responsible_agency": "Department of Sanitation",
    "final_address": "3430 Bienville Ave",
    "address_councildis": "B",
    "status": "Assigned to Contractor",
    "contractor": "Richards Disposal",
    "rowid": "958742",
    "final_x": "3673371.61659",
    "final_y": "537511.879368",
    "longitude": "-90.09353215706241",
    "latitude": "29.97221563401953",
    "geocoded_column": {
      "latitude": "29.97221563401953",
      "longitude": "-90.09353215706241"
    }
  },
  {
    "service_request": "2023-958741",
    "request_type": "Mosquito, Termite & Rodent Control",
    "request_reason": "Non-Rodent Complaint (Mice, Possums, Snakes)",
    "date_created": "2023-01-02T19:44:58.000",
    "date_modified": "2023-01-02T19:44:58.000",
    "request_status": "Pending",
    "responsible_agency": "Mosquito, Termite & Rodent Control Board",
    "final_address": "6100 Milne Blvd",
    "address_councildis": "A",
    "status": "Pending",
    "rowid": "958741",
    "final_x": "3667011.81185",
    "final_y": "548081.70773",
    "longitude": "-90.11326212902844",
    "latitude": "30.001466751934892",
    "geocoded_column": {
      "latitude": "30.001466751934892",
      "longitude": "-90.11326212902844"
    }
  },
  {
    "service_request": "2023-958740",
    "request_type": "Roads/Drainage",
    "request_reason": "Pothole",
    "date_created": "2023-01-02T19:41:44.000",
    "date_modified": "2023-01-02T19:41:44.000",
    "request_status": "Pending",
    "responsible_agency": "Department of Public Works",
    "final_address": "1030 Independence St",
    "address_councildis": "C",
    "status": "Pending",
    "rowid": "958740",
    "final_x": "3690873.8463",
    "final_y": "535330.588998",
    "longitude": "-90.03833520896933",
    "latitude": "29.965685531579314",
    "geocoded_column": {
      "latitude": "29.965685531579314",
      "longitude": "-90.03833520896933"
    }
  },
  {
    "service_request": "2023-958739",
    "request_type": "Traffic Signals/Signs/Striping/Streetlights",
    "request_reason": "Street Light Outage/Malfunction",
    "date_created": "2023-01-02T19:40:58.000",
    "date_modified": "2023-01-02T19:40:59.000",
    "request_status": "Pending",
    "responsible_agency": "Department of Public Works",
    "final_address": "1900 Magazine St",
    "address_councildis": "B",
    "status": "Assigned to Contractor",
    "contractor": "Legacy Professional Services",
    "rowid": "958739",
    "final_x": "3679759.41224",
    "final_y": "522756.516026",
    "longitude": "-90.0738706290495",
    "latitude": "29.93145175472281",
    "geocoded_column": {
      "latitude": "29.93145175472281",
      "longitude": "-90.0738706290495"
    }
  },
  {
    "service_request": "2023-958738",
    "request_type": "Traffic Signals/Signs/Striping/Streetlights",
    "request_reason": "Traffic Signal Malfunctioning/Damaged",
    "date_created": "2023-01-02T19:35:51.000",
    "date_modified": "2023-01-02T19:35:51.000",
    "request_status": "Pending",
    "responsible_agency": "Department of Public Works",
    "final_address": "2801 Magazine St",
    "address_councildis": "B",
    "status": "Pending",
    "rowid": "958738",
    "final_x": "3676983.25518",
    "final_y": "520833.333881",
    "longitude": "-90.08270089273896",
    "latitude": "29.926247242413407",
    "geocoded_column": {
      "latitude": "29.926247242413407",
      "longitude": "-90.08270089273896"
    }
  },
  {
    "service_request": "2023-958737",
    "request_type": "Traffic Signals/Signs/Striping/Streetlights",
    "request_reason": "Street Light Outage/Malfunction",
    "date_created": "2023-01-02T19:33:48.000",
    "date_modified": "2023-01-02T19:33:48.000",
    "request_status": "Pending",
    "responsible_agency": "Department of Public Works",
    "final_address": "63 Eugenie Ct",
    "address_councildis": "C",
    "status": "Assigned to Contractor",
    "contractor": "Legacy Professional Services",
    "rowid": "958737",
    "final_x": "3700543.41597",
    "final_y": "511705.719152",
    "longitude": "-90.00866177221631",
    "latitude": "29.900421306588303",
    "geocoded_column": {
      "latitude": "29.900421306588303",
      "longitude": "-90.00866177221631"
    }
  },
  {
    "service_request": "2023-958736",
    "request_type": "Trash/Recycling",
    "request_reason": "Order Recycling Cart",
    "date_created": "2023-01-02T19:33:36.000",
    "date_modified": "2023-01-02T19:33:36.000",
    "request_status": "Pending",
    "responsible_agency": "Department of Sanitation",
    "final_address": "3210 St Ann St",
    "address_councildis": "A",
    "status": "Pending",
    "rowid": "958736",
    "final_x": "3675069.13787",
    "final_y": "538579.494537",
    "longitude": "-90.08813445047801",
    "latitude": "29.97510059913399",
    "geocoded_column": {
      "latitude": "29.97510059913399",
      "longitude": "-90.08813445047801"
    }
  },
  {
    "service_request": "2023-958735",
    "request_type": "Traffic Signals/Signs/Striping/Streetlights",
    "request_reason": "Street Light Outage/Malfunction",
    "date_created": "2023-01-02T19:32:40.000",
    "date_modified": "2023-01-02T19:32:41.000",
    "request_status": "Pending",
    "responsible_agency": "Department of Public Works",
    "final_address": "47 Eugenie Ct",
    "address_councildis": "C",
    "status": "Assigned to Contractor",
    "contractor": "Legacy Professional Services",
    "rowid": "958735",
    "final_x": "3700505.13194",
    "final_y": "511189.037936",
    "longitude": "-90.00880144068867",
    "latitude": "29.899001823398272",
    "geocoded_column": {
      "latitude": "29.899001823398272",
      "longitude": "-90.00880144068867"
    }
  },
  {
    "service_request": "2023-958734",
    "request_type": "Traffic Signals/Signs/Striping/Streetlights",
    "request_reason": "Street Light Outage/Malfunction",
    "date_created": "2023-01-02T19:31:13.000",
    "date_modified": "2023-01-02T19:31:14.000",
    "request_status": "Pending",
    "responsible_agency": "Department of Public Works",
    "final_address": "41 Eugenie Ct",
    "address_councildis": "C",
    "status": "Assigned to Contractor",
    "contractor": "Legacy Professional Services",
    "rowid": "958734",
    "final_x": "3700323.32906",
    "final_y": "511293.490224",
    "longitude": "-90.00937137139103",
    "latitude": "29.899294809529195",
    "geocoded_column": {
      "latitude": "29.899294809529195",
      "longitude": "-90.00937137139103"
    }
  },
  {
    "service_request": "2023-958733",
    "request_type": "Traffic Signals/Signs/Striping/Streetlights",
    "request_reason": "Street Light Outage/Malfunction",
    "date_created": "2023-01-02T19:29:34.000",
    "date_modified": "2023-01-02T19:29:34.000",
    "request_status": "Pending",
    "responsible_agency": "Department of Public Works",
    "final_address": "18 Eugenie Ct",
    "address_councildis": "C",
    "status": "Assigned to Contractor",
    "contractor": "Legacy Professional Services",
    "rowid": "958733",
    "final_x": "3700172.697",
    "final_y": "511799.900016",
    "longitude": "-90.00982828285903",
    "latitude": "29.90069205166559",
    "geocoded_column": {
      "latitude": "29.90069205166559",
      "longitude": "-90.00982828285903"
    }
  },
  {
    "service_request": "2023-958732",
    "request_type": "Trash/Recycling",
    "request_reason": "Missed Trash Pick-Up",
    "date_created": "2023-01-02T19:23:13.000",
    "date_modified": "2023-01-02T19:23:14.000",
    "request_status": "Pending",
    "responsible_agency": "Department of Sanitation",
    "final_address": "4011 DHemecourt St",
    "address_councildis": "A",
    "status": "Assigned to Contractor",
    "contractor": "Richards Disposal",
    "rowid": "958732",
    "final_x": "3670180.48948",
    "final_y": "536661.804807",
    "longitude": "-90.1036391146166",
    "latitude": "29.969972768916328",
    "geocoded_column": {
      "latitude": "29.969972768916328",
      "longitude": "-90.1036391146166"
    }
  },
  {
    "service_request": "2023-958730",
    "request_type": "Abandoned Vehicles",
    "request_reason": "Abandoned/Junk Vehicles",
    "date_created": "2023-01-02T19:18:24.000",
    "date_modified": "2023-01-02T19:18:24.000",
    "request_status": "Pending",
    "responsible_agency": "Department of Public Works",
    "final_address": "2234 Kraft Pl",
    "address_councildis": "C",
    "status": "Pending",
    "rowid": "958730",
    "final_x": "3692499.60905",
    "final_y": "523141.350011",
    "longitude": "-90.03363774898993",
    "latitude": "29.93211871887617",
    "geocoded_column": {
      "latitude": "29.93211871887617",
      "longitude": "-90.03363774898993"
    }
  },
  {
    "service_request": "2023-958729",
    "request_type": "Trash/Recycling",
    "request_reason": "Missed Trash Pick-Up",
    "date_created": "2023-01-02T19:17:00.000",
    "date_modified": "2023-01-02T19:17:00.000",
    "request_status": "Pending",
    "responsible_agency": "Department of Sanitation",
    "final_address": "1036 Arabella St",
    "address_councildis": "A",
    "status": "Assigned to Contractor",
    "contractor": "Richards Disposal",
    "rowid": "958729",
    "final_x": "3666000.47456",
    "final_y": "519906.65292",
    "longitude": "-90.1174015768668",
    "latitude": "29.92402420237604",
    "geocoded_column": {
      "latitude": "29.92402420237604",
      "longitude": "-90.1174015768668"
    }
  },
  {
    "service_request": "2023-958728",
    "request_type": "Traffic Signals/Signs/Striping/Streetlights",
    "request_reason": "Street Light Outage/Malfunction",
    "date_created": "2023-01-02T19:08:23.000",
    "date_modified": "2023-01-02T19:08:24.000",
    "request_status": "Pending",
    "responsible_agency": "Department of Public Works",
    "final_address": "5030 Alcee Fortier Blvd",
    "address_councildis": "E",
    "status": "Assigned to Contractor",
    "contractor": "Legacy Professional Services",
    "rowid": "958728",
    "final_x": "3729777.2569",
    "final_y": "563714.483617",
    "longitude": "-89.91437169268",
    "latitude": "30.042463544880803",
    "geocoded_column": {
      "latitude": "30.042463544880803",
      "longitude": "-89.91437169268"
    }
  },
  {
    "service_request": "2023-958727",
    "request_type": "Trash/Recycling",
    "request_reason": "Missed Trash Pick-Up",
    "date_created": "2023-01-02T19:08:04.000",
    "date_modified": "2023-01-02T19:08:05.000",
    "request_status": "Pending",
    "responsible_agency": "Department of Sanitation",
    "final_address": "321 Alonzo St",
    "address_councildis": "A",
    "status": "Assigned to Contractor",
    "contractor": "Richards Disposal",
    "rowid": "958727",
    "final_x": "3664633.28365",
    "final_y": "517570.918774",
    "longitude": "-90.12179528947192",
    "latitude": "29.91764148554684",
    "geocoded_column": {
      "latitude": "29.91764148554684",
      "longitude": "-90.12179528947192"
    }
  },
  {
    "service_request": "2023-958726",
    "request_type": "Trash/Recycling",
    "request_reason": "Missed Trash Pick-Up",
    "date_created": "2023-01-02T19:07:22.000",
    "date_modified": "2023-01-02T19:07:22.000",
    "request_status": "Pending",
    "responsible_agency": "Department of Sanitation",
    "final_address": "1228 N Rendon St",
    "address_councildis": "A",
    "status": "Assigned to Contractor",
    "contractor": "Richards Disposal",
    "rowid": "958726",
    "final_x": "3676061.83925",
    "final_y": "539765.39169",
    "longitude": "-90.08495843287199",
    "latitude": "29.978331709583653",
    "geocoded_column": {
      "latitude": "29.978331709583653",
      "longitude": "-90.08495843287199"
    }
  },
  {
    "service_request": "2023-958725",
    "request_type": "Trash/Recycling",
    "request_reason": "Replace Recycling Cart",
    "date_created": "2023-01-02T18:52:53.000",
    "date_modified": "2023-01-02T18:52:53.000",
    "request_status": "Pending",
    "responsible_agency": "Department of Sanitation",
    "final_address": "2610 St Philip St",
    "address_councildis": "D",
    "status": "Pending",
    "rowid": "958725",
    "final_x": "3677723.6491",
    "final_y": "537559.304584",
    "longitude": "-90.0797860580372",
    "latitude": "29.97221584064073",
    "geocoded_column": {
      "latitude": "29.97221584064073",
      "longitude": "-90.0797860580372"
    }
  },
  {
    "service_request": "2023-958724",
    "request_type": "Abandoned Vehicles",
    "request_reason": "Abandoned/Junk Vehicles",
    "date_created": "2023-01-02T18:50:27.000",
    "date_modified": "2023-01-02T18:50:27.000",
    "request_status": "Pending",
    "responsible_agency": "Department of Public Works",
    "final_address": "4967 Alsace St",
    "address_councildis": "E",
    "status": "Pending",
    "rowid": "958724",
    "final_x": "3730428.33357",
    "final_y": "563244.946528",
    "longitude": "-89.91233247041475",
    "latitude": "30.04115032926058",
    "geocoded_column": {
      "latitude": "30.04115032926058",
      "longitude": "-89.91233247041475"
    }
  },
  {
    "service_request": "2023-958723",
    "request_type": "Property Maintenance",
    "request_reason": "Property Maintenance",
    "date_created": "2023-01-02T18:47:06.000",
    "date_modified": "2023-01-02T18:47:06.000",
    "request_status": "Pending",
    "responsible_agency": "Department of Code Enforcement",
    "final_address": "1449 Arabella St",
    "address_councildis": "A",
    "status": "Pending",
    "rowid": "958723",
    "final_x": "3666409.44449",
    "final_y": "521310.314425",
    "longitude": "-90.11606352854005",
    "latitude": "29.92787188875004",
    "geocoded_column": {
      "latitude": "29.92787188875004",
      "longitude": "-90.11606352854005"
    }
  },
  {
    "service_request": "2023-958722",
    "request_type": "Trash/Recycling",
    "request_reason": "Request a Large Item Pick Up",
    "date_created": "2023-01-02T18:45:22.000",
    "date_modified": "2023-01-02T18:45:22.000",
    "request_status": "Pending",
    "responsible_agency": "Department of Sanitation",
    "final_address": "6660 Coventry St",
    "address_councildis": "E",
    "status": "Assigned to Contractor",
    "contractor": "Waste Pro",
    "rowid": "958722",
    "final_x": "3697928.46755",
    "final_y": "559339.361181",
    "longitude": "-90.01518491138906",
    "latitude": "30.031479645164193",
    "geocoded_column": {
      "latitude": "30.031479645164193",
      "longitude": "-90.01518491138906"
    }
  },
  {
    "service_request": "2023-958721",
    "request_type": "Roads/Drainage",
    "request_reason": "Road Shoulder Repair",
    "date_created": "2023-01-02T18:44:25.000",
    "date_modified": "2023-01-02T18:44:25.000",
    "request_status": "Pending",
    "responsible_agency": "Department of Public Works",
    "final_address": "8708 Palmetto St",
    "address_councildis": "A",
    "status": "Pending",
    "rowid": "958721",
    "final_x": "3666435.47482",
    "final_y": "536592.881479",
    "longitude": "-90.11546859656065",
    "latitude": "29.96989323222852",
    "geocoded_column": {
      "latitude": "29.96989323222852",
      "longitude": "-90.11546859656065"
    }
  },
  {
    "service_request": "2023-958720",
    "request_type": "Trash/Recycling",
    "request_reason": "Replace Trash Cart",
    "date_created": "2023-01-02T18:42:49.000",
    "date_modified": "2023-01-02T18:42:49.000",
    "request_status": "Pending",
    "responsible_agency": "Department of Sanitation",
    "final_address": "1807 Second St",
    "address_councildis": "B",
    "status": "Assigned to Contractor",
    "contractor": "Richards Disposal",
    "rowid": "958720",
    "final_x": "3676273.79585",
    "final_y": "523742.390459",
    "longitude": "-90.08484039792874",
    "latitude": "29.93426747439861",
    "geocoded_column": {
      "latitude": "29.93426747439861",
      "longitude": "-90.08484039792874"
    }
  },
  {
    "service_request": "2023-958718",
    "request_type": "Traffic Signals/Signs/Striping/Streetlights",
    "request_reason": "Street Light Outage/Malfunction",
    "date_created": "2023-01-02T18:28:47.000",
    "date_modified": "2023-01-02T18:28:47.000",
    "request_status": "Pending",
    "responsible_agency": "Department of Public Works",
    "final_address": "4525 S Galvez St",
    "address_councildis": "B",
    "status": "Assigned to Contractor",
    "contractor": "Legacy Professional Services",
    "rowid": "958718",
    "final_x": "3669564.44167",
    "final_y": "527567.676415",
    "longitude": "-90.10589231438797",
    "latitude": "29.944985081635526",
    "geocoded_column": {
      "latitude": "29.944985081635526",
      "longitude": "-90.10589231438797"
    }
  },
  {
    "service_request": "2023-958717",
    "request_type": "Roads/Drainage",
    "request_reason": "Alley Way",
    "date_created": "2023-01-02T18:28:39.000",
    "date_modified": "2023-01-02T18:28:39.000",
    "request_status": "Pending",
    "responsible_agency": "Department of Public Works",
    "final_address": "6650 Orleans Ave",
    "address_councildis": "A",
    "status": "Pending",
    "rowid": "958717",
    "final_x": "3671198.02727",
    "final_y": "551547.655957",
    "longitude": "-90.09991958365087",
    "latitude": "30.010873665567754",
    "geocoded_column": {
      "latitude": "30.010873665567754",
      "longitude": "-90.09991958365087"
    }
  },
  {
    "service_request": "2023-958716",
    "request_type": "Trash/Recycling",
    "request_reason": "Missed Trash Pick-Up",
    "date_created": "2023-01-02T18:28:25.000",
    "date_modified": "2023-01-02T18:28:25.000",
    "request_status": "Pending",
    "responsible_agency": "Department of Sanitation",
    "final_address": "8500 BLK Sycamore St",
    "address_councildis": "A",
    "status": "Assigned to Contractor",
    "contractor": "Richards Disposal",
    "rowid": "958716",
    "final_x": "3663139.01161",
    "final_y": "532051.838899",
    "longitude": "-90.1260302952257",
    "latitude": "29.95750277852316",
    "geocoded_column": {
      "latitude": "29.95750277852316",
      "longitude": "-90.1260302952257"
    }
  },
  {
    "service_request": "2023-958715",
    "request_type": "Traffic Signals/Signs/Striping/Streetlights",
    "request_reason": "Street Light Outage/Malfunction",
    "date_created": "2023-01-02T18:22:36.000",
    "date_modified": "2023-01-02T18:22:36.000",
    "request_status": "Pending",
    "responsible_agency": "Department of Public Works",
    "final_address": "10980 Hayne Blvd",
    "address_councildis": "E",
    "status": "Assigned to Contractor",
    "contractor": "Legacy Professional Services",
    "rowid": "958715",
    "final_x": "3709653.54814",
    "final_y": "567057.859044",
    "longitude": "-89.97784493951129",
    "latitude": "30.05232634024064",
    "geocoded_column": {
      "latitude": "30.05232634024064",
      "longitude": "-89.97784493951129"
    }
  },
  {
    "service_request": "2023-958714",
    "request_type": "Trash/Recycling",
    "request_reason": "Missed Trash Pick-Up",
    "date_created": "2023-01-02T18:20:28.000",
    "date_modified": "2023-01-02T18:20:29.000",
    "request_status": "Pending",
    "responsible_agency": "Department of Sanitation",
    "final_address": "1521 Dublin St",
    "address_councildis": "A",
    "status": "Assigned to Contractor",
    "contractor": "Richards Disposal",
    "rowid": "958714",
    "final_x": "3662565.88487",
    "final_y": "529494.769473",
    "longitude": "-90.12792501083638",
    "latitude": "29.950488255587455",
    "geocoded_column": {
      "latitude": "29.950488255587455",
      "longitude": "-90.12792501083638"
    }
  },
  {
    "service_request": "2023-958713",
    "request_type": "Trash/Recycling",
    "request_reason": "Missed Trash Pick-Up",
    "date_created": "2023-01-02T18:14:17.000",
    "date_modified": "2023-01-02T18:14:18.000",
    "request_status": "Pending",
    "responsible_agency": "Department of Sanitation",
    "final_address": "813 Olga St",
    "address_councildis": "A",
    "status": "Assigned to Contractor",
    "contractor": "Richards Disposal",
    "rowid": "958713",
    "final_x": "3673271.97723",
    "final_y": "539919.26081",
    "longitude": "-90.09376458724816",
    "latitude": "29.978838078234144",
    "geocoded_column": {
      "latitude": "29.978838078234144",
      "longitude": "-90.09376458724816"
    }
  },
  {
    "service_request": "2023-958712",
    "request_type": "Trash/Recycling",
    "request_reason": "Repair Trash Cart",
    "date_created": "2023-01-02T18:13:41.000",
    "date_modified": "2023-01-02T18:13:41.000",
    "request_status": "Pending",
    "responsible_agency": "Department of Sanitation",
    "final_address": "915 Fats Domino Ave",
    "address_councildis": "E",
    "status": "Assigned to Contractor",
    "contractor": "Waste Pro",
    "rowid": "958712",
    "final_x": "3697905.72727",
    "final_y": "533104.873796",
    "longitude": "-90.01620971571067",
    "latitude": "29.959345211282823",
    "geocoded_column": {
      "latitude": "29.959345211282823",
      "longitude": "-90.01620971571067"
    }
  },
  {
    "service_request": "2023-958711",
    "request_type": "Trash/Recycling",
    "request_reason": "Replace Trash Cart",
    "date_created": "2023-01-02T18:11:26.000",
    "date_modified": "2023-01-02T18:11:26.000",
    "request_status": "Pending",
    "responsible_agency": "Department of Sanitation",
    "final_address": "913 Fats Domino Ave",
    "address_councildis": "E",
    "status": "Assigned to Contractor",
    "contractor": "Waste Pro",
    "rowid": "958711",
    "final_x": "3697904.67779",
    "final_y": "533100.25434",
    "longitude": "-90.01621319737512",
    "latitude": "29.959332542587426",
    "geocoded_column": {
      "latitude": "29.959332542587426",
      "longitude": "-90.01621319737512"
    }
  },
  {
    "service_request": "2023-958710",
    "request_type": "Trash/Recycling",
    "request_reason": "Missed Trash Pick-Up",
    "date_created": "2023-01-02T18:03:00.000",
    "date_modified": "2023-01-02T18:03:01.000",
    "request_status": "Pending",
    "responsible_agency": "Department of Sanitation",
    "final_address": "3200 Ursulines Avenue",
    "address_councildis": "A",
    "status": "Assigned to Contractor",
    "contractor": "Richards Disposal",
    "rowid": "958710",
    "final_x": "3675813.22273",
    "final_y": "539479.653962",
    "longitude": "-90.08575348073632",
    "latitude": "29.977553474363674",
    "geocoded_column": {
      "latitude": "29.977553474363674",
      "longitude": "-90.08575348073632"
    }
  },
  {
    "service_request": "2023-958709",
    "request_type": "Trash/Recycling",
    "request_reason": "Missed Trash Pick-Up",
    "date_created": "2023-01-02T18:00:28.000",
    "date_modified": "2023-01-02T18:00:29.000",
    "request_status": "Pending",
    "responsible_agency": "Department of Sanitation",
    "final_address": "307 S Pierce St",
    "address_councildis": "A",
    "status": "Assigned to Contractor",
    "contractor": "Richards Disposal",
    "rowid": "958709",
    "final_x": "3670901.54734",
    "final_y": "537369.43956",
    "longitude": "-90.10133790940915",
    "latitude": "29.971897229209855",
    "geocoded_column": {
      "latitude": "29.971897229209855",
      "longitude": "-90.10133790940915"
    }
  },
  {
    "service_request": "2023-958708",
    "request_type": "Trash/Recycling",
    "request_reason": "Missed Trash Pick-Up",
    "date_created": "2023-01-02T17:55:10.000",
    "date_modified": "2023-01-02T17:55:11.000",
    "request_status": "Pending",
    "responsible_agency": "Department of Sanitation",
    "final_address": "2622 S Carrollton Ave",
    "address_councildis": "A",
    "status": "Assigned to Contractor",
    "contractor": "Richards Disposal",
    "rowid": "958708",
    "final_x": "3665495.05639",
    "final_y": "532282.801923",
    "longitude": "-90.11858284251693",
    "latitude": "29.958069382715017",
    "geocoded_column": {
      "latitude": "29.958069382715017",
      "longitude": "-90.11858284251693"
    }
  },
  {
    "service_request": "2023-958706",
    "request_type": "Property Maintenance",
    "request_reason": "Property Maintenance",
    "date_created": "2023-01-02T17:50:14.000",
    "date_modified": "2023-01-02T17:50:14.000",
    "request_status": "Pending",
    "responsible_agency": "Department of Code Enforcement",
    "final_address": "3215 Cherry St",
    "address_councildis": "A",
    "status": "Pending",
    "rowid": "958706",
    "final_x": "3663758.11635",
    "final_y": "536570.515207",
    "longitude": "-90.12392473466345",
    "latitude": "29.9699097064629",
    "geocoded_column": {
      "latitude": "29.9699097064629",
      "longitude": "-90.12392473466345"
    }
  },
  {
    "service_request": "2023-958705",
    "request_type": "Trash/Recycling",
    "request_reason": "MIssed Recycling Pick-Up",
    "date_created": "2023-01-02T17:48:32.000",
    "date_modified": "2023-01-02T17:48:32.000",
    "request_status": "Pending",
    "responsible_agency": "Department of Sanitation",
    "final_address": "634 Port St",
    "address_councildis": "C",
    "status": "Assigned to Contractor",
    "contractor": "IV Waste",
    "rowid": "958705",
    "final_x": "3686994.49462",
    "final_y": "534825.753222",
    "longitude": "-90.05060387350812",
    "latitude": "29.964417392614596",
    "geocoded_column": {
      "latitude": "29.964417392614596",
      "longitude": "-90.05060387350812"
    }
  },
  {
    "service_request": "2023-958704",
    "request_type": "Trash/Recycling",
    "request_reason": "Missed Trash Pick-Up",
    "date_created": "2023-01-02T17:48:01.000",
    "date_modified": "2023-01-02T17:48:02.000",
    "request_status": "Pending",
    "responsible_agency": "Department of Sanitation",
    "final_address": "517 Second St 70130",
    "status": "Assigned to Contractor",
    "rowid": "958704",
    "longitude": "0.0",
    "latitude": "0.0",
    "geocoded_column": {
      "latitude": "0.0",
      "longitude": "0.0"
    }
  },
  {
    "service_request": "2023-958703",
    "request_type": "Trash/Recycling",
    "request_reason": "MIssed Recycling Pick-Up",
    "date_created": "2023-01-02T17:37:55.000",
    "date_modified": "2023-01-02T17:37:56.000",
    "request_status": "Pending",
    "responsible_agency": "Department of Sanitation",
    "final_address": "7724 Dominican St",
    "address_councildis": "A",
    "status": "Assigned to Contractor",
    "contractor": "Richards Disposal",
    "rowid": "958703",
    "final_x": "3660956.46266",
    "final_y": "525441.609085",
    "longitude": "-90.13314080767398",
    "latitude": "29.939389811085764",
    "geocoded_column": {
      "latitude": "29.939389811085764",
      "longitude": "-90.13314080767398"
    }
  },
  {
    "service_request": "2023-958702",
    "request_type": "Trash/Recycling",
    "request_reason": "Replace Trash Cart",
    "date_created": "2023-01-02T17:36:54.000",
    "date_modified": "2023-01-02T17:36:54.000",
    "request_status": "Pending",
    "responsible_agency": "Department of Sanitation",
    "final_address": "1324 Toledano St",
    "address_councildis": "B",
    "status": "Assigned to Contractor",
    "contractor": "Richards Disposal",
    "rowid": "958702",
    "final_x": "3674985.79528",
    "final_y": "520631.600249",
    "longitude": "-90.08901322729068",
    "latitude": "29.925752335561743",
    "geocoded_column": {
      "latitude": "29.925752335561743",
      "longitude": "-90.08901322729068"
    }
  },
  {
    "service_request": "2023-958701",
    "request_type": "Trash/Recycling",
    "request_reason": "Missed Trash Pick-Up",
    "date_created": "2023-01-02T17:36:14.000",
    "date_modified": "2023-01-02T17:36:15.000",
    "request_status": "Pending",
    "responsible_agency": "Department of Sanitation",
    "final_address": "3211 Bienville St, New Orleans, Louisiana, 70119",
    "status": "Assigned to Contractor",
    "rowid": "958701",
    "longitude": "0.0",
    "latitude": "0.0",
    "geocoded_column": {
      "latitude": "0.0",
      "longitude": "0.0"
    }
  },
  {
    "service_request": "2023-958700",
    "request_type": "Trash/Recycling",
    "request_reason": "MIssed Recycling Pick-Up",
    "date_created": "2023-01-02T17:34:15.000",
    "date_modified": "2023-01-02T17:34:15.000",
    "request_status": "Pending",
    "responsible_agency": "Department of Sanitation",
    "final_address": "441 Audubon St, New Orleans, Louisiana, 70118",
    "address_councildis": "A",
    "status": "Assigned to Contractor",
    "contractor": "Richards Disposal",
    "rowid": "958700",
    "final_x": "3662365.72871",
    "final_y": "523172.159099",
    "longitude": "-90.1287668705638",
    "latitude": "29.93310887776141",
    "geocoded_column": {
      "latitude": "29.93310887776141",
      "longitude": "-90.1287668705638"
    }
  },
  {
    "service_request": "2023-958699",
    "request_type": "Trash/Recycling",
    "request_reason": "Repair Trash Cart",
    "date_created": "2023-01-02T17:31:44.000",
    "date_modified": "2023-01-02T17:31:45.000",
    "request_status": "Pending",
    "responsible_agency": "Department of Sanitation",
    "final_address": "4826 Camp St",
    "address_councildis": "B",
    "status": "Assigned to Contractor",
    "contractor": "Richards Disposal",
    "rowid": "958699",
    "final_x": "3669335.38106",
    "final_y": "518932.110455",
    "longitude": "-90.10690735816345",
    "latitude": "29.92124678977141",
    "geocoded_column": {
      "latitude": "29.92124678977141",
      "longitude": "-90.10690735816345"
    }
  },
  {
    "service_request": "2023-958698",
    "request_type": "Trash/Recycling",
    "request_reason": "Order Trash Cart",
    "date_created": "2023-01-02T17:23:52.000",
    "date_modified": "2023-01-02T17:23:53.000",
    "request_status": "Pending",
    "responsible_agency": "Department of Sanitation",
    "final_address": "24300 Chef Menteur Hwy",
    "address_councildis": "E",
    "status": "Assigned to Contractor",
    "contractor": "Waste Pro",
    "rowid": "958698",
    "final_x": "3777816.47377",
    "final_y": "592231.342651",
    "longitude": "-89.76131747851046",
    "latitude": "30.11914786509662",
    "geocoded_column": {
      "latitude": "30.11914786509662",
      "longitude": "-89.76131747851046"
    }
  },
  {
    "service_request": "2023-958697",
    "request_type": "Abandoned Vehicles",
    "request_reason": "Abandoned/Junk Vehicles",
    "date_created": "2023-01-02T17:16:11.000",
    "date_modified": "2023-01-02T17:16:11.000",
    "request_status": "Pending",
    "responsible_agency": "Department of Public Works",
    "final_address": "4835 Laurel St",
    "address_councildis": "B",
    "status": "Pending",
    "rowid": "958697",
    "final_x": "3669375.0978",
    "final_y": "517950.39455",
    "longitude": "-90.10681515997646",
    "latitude": "29.918546212294377",
    "geocoded_column": {
      "latitude": "29.918546212294377",
      "longitude": "-90.10681515997646"
    }
  },
  {
    "service_request": "2023-958696",
    "request_type": "Trash/Recycling",
    "request_reason": "Order Recycling Cart",
    "date_created": "2023-01-02T17:15:25.000",
    "date_modified": "2023-01-02T17:15:25.000",
    "request_status": "Pending",
    "responsible_agency": "Department of Sanitation",
    "final_address": "1201 France St",
    "address_councildis": "D",
    "status": "Pending",
    "rowid": "958696",
    "final_x": "3692512.02806",
    "final_y": "535531.658822",
    "longitude": "-90.0331547088587",
    "latitude": "29.966187393123523",
    "geocoded_column": {
      "latitude": "29.966187393123523",
      "longitude": "-90.0331547088587"
    }
  },
  {
    "service_request": "2023-958695",
    "request_type": "Trash/Recycling",
    "request_reason": "Request a Large Item Pick Up",
    "date_created": "2023-01-02T17:14:28.000",
    "date_modified": "2023-01-02T17:14:29.000",
    "request_status": "Pending",
    "responsible_agency": "Department of Sanitation",
    "final_address": "930 Germain St",
    "address_councildis": "A",
    "status": "Assigned to Contractor",
    "contractor": "IV Waste",
    "rowid": "958695",
    "final_x": "3670128.78606",
    "final_y": "547698.503122",
    "longitude": "-90.1034282780798",
    "latitude": "30.00032144627672",
    "geocoded_column": {
      "latitude": "30.00032144627672",
      "longitude": "-90.1034282780798"
    }
  },
  {
    "service_request": "2023-958692",
    "request_type": "Trash/Recycling",
    "request_reason": "Missed Trash Pick-Up",
    "date_created": "2023-01-02T17:11:21.000",
    "date_modified": "2023-01-02T17:11:22.000",
    "request_status": "Pending",
    "responsible_agency": "Department of Sanitation",
    "final_address": "4730 Pontchartrain Blvd",
    "address_councildis": "A",
    "status": "Assigned to Contractor",
    "contractor": "Richards Disposal",
    "rowid": "958692",
    "final_x": "3667497.33172",
    "final_y": "538483.786121",
    "longitude": "-90.11205149100157",
    "latitude": "29.975061512618705",
    "geocoded_column": {
      "latitude": "29.975061512618705",
      "longitude": "-90.11205149100157"
    }
  },
  {
    "service_request": "2023-958691",
    "request_type": "Trash/Recycling",
    "request_reason": "Missed Trash Pick-Up",
    "date_created": "2023-01-02T17:07:36.000",
    "date_modified": "2023-01-02T17:07:36.000",
    "request_status": "Pending",
    "responsible_agency": "Department of Sanitation",
    "final_address": "1637 Shirley Dr",
    "address_councildis": "C",
    "status": "Assigned to Contractor",
    "contractor": "Richards Disposal",
    "rowid": "958691",
    "final_x": "3692939.26",
    "final_y": "524400.777404",
    "longitude": "-90.03220467353877",
    "latitude": "29.93556799566488",
    "geocoded_column": {
      "latitude": "29.93556799566488",
      "longitude": "-90.03220467353877"
    }
  },
  {
    "service_request": "2023-958690",
    "request_type": "Trash/Recycling",
    "request_reason": "Missed Trash Pick-Up",
    "date_created": "2023-01-02T17:06:39.000",
    "date_modified": "2023-01-02T17:06:40.000",
    "request_status": "Pending",
    "responsible_agency": "Department of Sanitation",
    "final_address": "3001 Lafitte Ave",
    "address_councildis": "A",
    "status": "Assigned to Contractor",
    "contractor": "Richards Disposal",
    "rowid": "958690",
    "final_x": "3675264.68577",
    "final_y": "537175.236808",
    "longitude": "-90.08756507643518",
    "latitude": "29.97123352437133",
    "geocoded_column": {
      "latitude": "29.97123352437133",
      "longitude": "-90.08756507643518"
    }
  },
  {
    "service_request": "2023-958689",
    "request_type": "Trash/Recycling",
    "request_reason": "Repair Trash Cart",
    "date_created": "2023-01-02T17:05:41.000",
    "date_modified": "2023-01-02T17:05:41.000",
    "request_status": "Pending",
    "responsible_agency": "Department of Sanitation",
    "final_address": "926 Mazant St",
    "address_councildis": "C",
    "status": "Assigned to Contractor",
    "contractor": "IV Waste",
    "rowid": "958689",
    "final_x": "3691930.39881",
    "final_y": "534662.46599",
    "longitude": "-90.03502257553771",
    "latitude": "29.963815552570033",
    "geocoded_column": {
      "latitude": "29.963815552570033",
      "longitude": "-90.03502257553771"
    }
  },
  {
    "service_request": "2023-958688",
    "request_type": "Trash/Recycling",
    "request_reason": "Repair Trash Cart",
    "date_created": "2023-01-02T17:03:55.000",
    "date_modified": "2023-01-02T17:03:56.000",
    "request_status": "Pending",
    "responsible_agency": "Department of Sanitation",
    "final_address": "926 Mazant St",
    "address_councildis": "C",
    "status": "Assigned to Contractor",
    "contractor": "IV Waste",
    "rowid": "958688",
    "final_x": "3691930.39881",
    "final_y": "534662.46599",
    "longitude": "-90.03502257553771",
    "latitude": "29.963815552570033",
    "geocoded_column": {
      "latitude": "29.963815552570033",
      "longitude": "-90.03502257553771"
    }
  },
  {
    "service_request": "2023-958687",
    "request_type": "Trash/Recycling",
    "request_reason": "Replace Trash Cart",
    "date_created": "2023-01-02T17:03:22.000",
    "date_modified": "2023-01-02T17:03:22.000",
    "request_status": "Pending",
    "responsible_agency": "Department of Sanitation",
    "final_address": "9010 Quince St",
    "address_councildis": "A",
    "status": "Assigned to Contractor",
    "contractor": "Richards Disposal",
    "rowid": "958687",
    "final_x": "3667144.14445",
    "final_y": "538928.124426",
    "longitude": "-90.11315200808153",
    "latitude": "29.976293640132575",
    "geocoded_column": {
      "latitude": "29.976293640132575",
      "longitude": "-90.11315200808153"
    }
  },
  {
    "service_request": "2023-958686",
    "request_type": "Mosquito, Termite & Rodent Control",
    "request_reason": "Non-Rodent Complaint (Mice, Possums, Snakes)",
    "date_created": "2023-01-02T17:01:40.000",
    "date_modified": "2023-01-02T17:01:40.000",
    "request_status": "Pending",
    "responsible_agency": "Mosquito, Termite & Rodent Control Board",
    "final_address": "6100 Milne Blvd",
    "address_councildis": "A",
    "status": "Pending",
    "rowid": "958686",
    "final_x": "3667011.81185",
    "final_y": "548081.70773",
    "longitude": "-90.11326212902844",
    "latitude": "30.001466751934892",
    "geocoded_column": {
      "latitude": "30.001466751934892",
      "longitude": "-90.11326212902844"
    }
  },
  {
    "service_request": "2023-958685",
    "request_type": "Trash/Recycling",
    "request_reason": "MIssed Recycling Pick-Up",
    "date_created": "2023-01-02T17:01:40.000",
    "date_modified": "2023-01-02T17:01:41.000",
    "request_status": "Pending",
    "responsible_agency": "Department of Sanitation",
    "final_address": "4321 Jena St",
    "address_councildis": "A",
    "status": "Assigned to Contractor",
    "contractor": "Richards Disposal",
    "rowid": "958685",
    "final_x": "3669181.7858",
    "final_y": "529210.61728",
    "longitude": "-90.10704496553845",
    "latitude": "29.949513899264065",
    "geocoded_column": {
      "latitude": "29.949513899264065",
      "longitude": "-90.10704496553845"
    }
  },
  {
    "service_request": "2023-958684",
    "request_type": "Trash/Recycling",
    "request_reason": "Replace Trash Cart",
    "date_created": "2023-01-02T17:00:21.000",
    "date_modified": "2023-01-02T17:00:21.000",
    "request_status": "Pending",
    "responsible_agency": "Department of Sanitation",
    "final_address": "4321 Jena St",
    "address_councildis": "A",
    "status": "Assigned to Contractor",
    "contractor": "Richards Disposal",
    "rowid": "958684",
    "final_x": "3669181.7858",
    "final_y": "529210.61728",
    "longitude": "-90.10704496553845",
    "latitude": "29.949513899264065",
    "geocoded_column": {
      "latitude": "29.949513899264065",
      "longitude": "-90.10704496553845"
    }
  },
  {
    "service_request": "2023-958683",
    "request_type": "Trash/Recycling",
    "request_reason": "MIssed Recycling Pick-Up",
    "date_created": "2023-01-02T16:58:32.000",
    "date_modified": "2023-01-02T16:58:33.000",
    "request_status": "Pending",
    "responsible_agency": "Department of Sanitation",
    "final_address": "3217 Chartres St",
    "address_councildis": "C",
    "status": "Assigned to Contractor",
    "contractor": "IV Waste",
    "rowid": "958683",
    "final_x": "3689252.80316",
    "final_y": "534011.767941",
    "longitude": "-90.04350126792819",
    "latitude": "29.962109509560356",
    "geocoded_column": {
      "latitude": "29.962109509560356",
      "longitude": "-90.04350126792819"
    }
  },
  {
    "service_request": "2023-958682",
    "request_type": "Trash/Recycling",
    "request_reason": "Missed Trash Pick-Up",
    "date_created": "2023-01-02T16:53:48.000",
    "date_modified": "2023-01-02T16:53:48.000",
    "request_status": "Pending",
    "responsible_agency": "Department of Sanitation",
    "final_address": "3508 Camphor St",
    "address_councildis": "A",
    "status": "Assigned to Contractor",
    "contractor": "Richards Disposal",
    "rowid": "958682",
    "final_x": "3663671.00979",
    "final_y": "538044.094985",
    "longitude": "-90.12415071709988",
    "latitude": "29.97396409096055",
    "geocoded_column": {
      "latitude": "29.97396409096055",
      "longitude": "-90.12415071709988"
    }
  },
  {
    "service_request": "2023-958680",
    "request_type": "Trash/Recycling",
    "request_reason": "Missed Trash Pick-Up",
    "date_created": "2023-01-02T16:44:37.000",
    "date_modified": "2023-01-02T16:44:38.000",
    "request_status": "Pending",
    "responsible_agency": "Department of Sanitation",
    "final_address": "8300 Panola St",
    "address_councildis": "A",
    "status": "Assigned to Contractor",
    "contractor": "Richards Disposal",
    "rowid": "958680",
    "final_x": "3663491.07335",
    "final_y": "531209.551106",
    "longitude": "-90.12494663228509",
    "latitude": "29.955176556079877",
    "geocoded_column": {
      "latitude": "29.955176556079877",
      "longitude": "-90.12494663228509"
    }
  },
  {
    "service_request": "2023-958679",
    "request_type": "Trash/Recycling",
    "request_reason": "MIssed Recycling Pick-Up",
    "date_created": "2023-01-02T16:43:47.000",
    "date_modified": "2023-01-02T16:43:48.000",
    "request_status": "Pending",
    "responsible_agency": "Department of Sanitation",
    "final_address": "603 Lang St",
    "address_councildis": "C",
    "status": "Assigned to Contractor",
    "contractor": "Richards Disposal",
    "rowid": "958679",
    "final_x": "3702007.58628",
    "final_y": "520790.892089",
    "longitude": "-90.0037083269661",
    "latitude": "29.925355808598677",
    "geocoded_column": {
      "latitude": "29.925355808598677",
      "longitude": "-90.0037083269661"
    }
  },
  {
    "service_request": "2023-958678",
    "request_type": "Abandoned Vehicles",
    "request_reason": "Abandoned/Junk Vehicles",
    "date_created": "2023-01-02T16:43:29.000",
    "date_modified": "2023-01-02T16:43:29.000",
    "request_status": "Pending",
    "responsible_agency": "Department of Public Works",
    "final_address": "1439 N Prieur St",
    "address_councildis": "D",
    "status": "Pending",
    "rowid": "958678",
    "final_x": "3680602.13141",
    "final_y": "537523.870664",
    "longitude": "-90.07069656130655",
    "latitude": "29.9720315074421",
    "geocoded_column": {
      "latitude": "29.9720315074421",
      "longitude": "-90.07069656130655"
    }
  },
  {
    "service_request": "2023-958677",
    "request_type": "Trash/Recycling",
    "request_reason": "Missed Trash Pick-Up",
    "date_created": "2023-01-02T16:31:50.000",
    "date_modified": "2023-01-02T16:31:51.000",
    "request_status": "Pending",
    "responsible_agency": "Department of Sanitation",
    "final_address": "621 N Murat St",
    "address_councildis": "A",
    "status": "Assigned to Contractor",
    "contractor": "Richards Disposal",
    "rowid": "958677",
    "final_x": "3670866.73236",
    "final_y": "540979.575883",
    "longitude": "-90.10132527309715",
    "latitude": "29.98182491063595",
    "geocoded_column": {
      "latitude": "29.98182491063595",
      "longitude": "-90.10132527309715"
    }
  },
  {
    "service_request": "2023-958676",
    "request_type": "Trash/Recycling",
    "request_reason": "Order Recycling Cart",
    "date_created": "2023-01-02T16:28:53.000",
    "date_modified": "2023-01-02T16:28:53.000",
    "request_status": "Pending",
    "responsible_agency": "Department of Sanitation",
    "final_address": "4524 Perrier St",
    "address_councildis": "B",
    "status": "Pending",
    "rowid": "958676",
    "final_x": "3670299.62887",
    "final_y": "519960.127288",
    "longitude": "-90.10382882796866",
    "latitude": "29.924045095855618",
    "geocoded_column": {
      "latitude": "29.924045095855618",
      "longitude": "-90.10382882796866"
    }
  },
  {
    "service_request": "2023-958675",
    "request_type": "Trash/Recycling",
    "request_reason": "Repair Trash Cart",
    "date_created": "2023-01-02T16:28:37.000",
    "date_modified": "2023-01-02T16:28:38.000",
    "request_status": "Pending",
    "responsible_agency": "Department of Sanitation",
    "final_address": "5011 Cardenas Dr",
    "address_councildis": "E",
    "status": "Assigned to Contractor",
    "contractor": "Waste Pro",
    "rowid": "958675",
    "final_x": "3713612.18251",
    "final_y": "557726.359131",
    "longitude": "-89.96568502671315",
    "latitude": "30.026539112110626",
    "geocoded_column": {
      "latitude": "30.026539112110626",
      "longitude": "-89.96568502671315"
    }
  },
  {
    "service_request": "2023-958674",
    "request_type": "Abandoned Vehicles",
    "request_reason": "Abandoned/Junk Vehicles",
    "date_created": "2023-01-02T16:28:11.000",
    "date_modified": "2023-01-02T16:28:12.000",
    "request_status": "Pending",
    "responsible_agency": "Department of Public Works",
    "final_address": "800 BLK Desire St",
    "address_councildis": "C",
    "status": "Pending",
    "rowid": "958674",
    "final_x": "3689942.05249",
    "final_y": "534740.560884",
    "longitude": "-90.04129877920762",
    "latitude": "29.964092084101402",
    "geocoded_column": {
      "latitude": "29.964092084101402",
      "longitude": "-90.04129877920762"
    }
  },
  {
    "service_request": "2023-958673",
    "request_type": "Trash/Recycling",
    "request_reason": "Order Recycling Cart",
    "date_created": "2023-01-02T16:27:58.000",
    "date_modified": "2023-01-02T16:27:59.000",
    "request_status": "Pending",
    "responsible_agency": "Department of Sanitation",
    "final_address": "5011 Cardenas Dr",
    "address_councildis": "E",
    "status": "Pending",
    "rowid": "958673",
    "final_x": "3713612.18251",
    "final_y": "557726.359131",
    "longitude": "-89.96568502671315",
    "latitude": "30.026539112110626",
    "geocoded_column": {
      "latitude": "30.026539112110626",
      "longitude": "-89.96568502671315"
    }
  },
  {
    "service_request": "2023-958672",
    "request_type": "Trash/Recycling",
    "request_reason": "Missed Trash Pick-Up",
    "date_created": "2023-01-02T16:25:06.000",
    "date_modified": "2023-01-02T16:25:06.000",
    "request_status": "Pending",
    "responsible_agency": "Department of Sanitation",
    "final_address": "5612 Chestnut St",
    "address_councildis": "A",
    "status": "Assigned to Contractor",
    "contractor": "Richards Disposal",
    "rowid": "958672",
    "final_x": "3666078.69076",
    "final_y": "519529.868151",
    "longitude": "-90.11716729891765",
    "latitude": "29.92298588031543",
    "geocoded_column": {
      "latitude": "29.92298588031543",
      "longitude": "-90.11716729891765"
    }
  },
  {
    "service_request": "2023-958671",
    "request_type": "Trash/Recycling",
    "request_reason": "Replace Recycling Cart",
    "date_created": "2023-01-02T16:22:52.000",
    "date_modified": "2023-01-02T16:22:53.000",
    "request_status": "Pending",
    "responsible_agency": "Department of Sanitation",
    "final_address": "4136 St Peter St",
    "address_councildis": "A",
    "status": "Pending",
    "rowid": "958671",
    "final_x": "3672260.3451",
    "final_y": "540116.785227",
    "longitude": "-90.09695297970951",
    "latitude": "29.979411256039466",
    "geocoded_column": {
      "latitude": "29.979411256039466",
      "longitude": "-90.09695297970951"
    }
  },
  {
    "service_request": "2023-958670",
    "request_type": "Trash/Recycling",
    "request_reason": "Request a Large Item Pick Up",
    "date_created": "2023-01-02T16:20:47.000",
    "date_modified": "2023-01-02T16:20:48.000",
    "request_status": "Pending",
    "responsible_agency": "Department of Sanitation",
    "final_address": "7080 E Renaissance Ct",
    "address_councildis": "E",
    "status": "Assigned to Contractor",
    "contractor": "Waste Pro",
    "rowid": "958670",
    "final_x": "3717333.32703",
    "final_y": "567669.870244",
    "longitude": "-89.95354841137805",
    "latitude": "30.053757082754377",
    "geocoded_column": {
      "latitude": "30.053757082754377",
      "longitude": "-89.95354841137805"
    }
  },
  {
    "service_request": "2023-958669",
    "request_type": "Property Maintenance",
    "request_reason": "Property Maintenance",
    "date_created": "2023-01-02T16:20:11.000",
    "date_modified": "2023-01-02T16:20:11.000",
    "request_status": "Pending",
    "responsible_agency": "Department of Code Enforcement",
    "final_address": "2629 Baronne St",
    "address_councildis": "B",
    "status": "Pending",
    "rowid": "958669",
    "final_x": "3675789.14133",
    "final_y": "523376.634107",
    "longitude": "-90.08638300420638",
    "latitude": "29.93327627512949",
    "geocoded_column": {
      "latitude": "29.93327627512949",
      "longitude": "-90.08638300420638"
    }
  },
  {
    "service_request": "2023-958668",
    "request_type": "Trash/Recycling",
    "request_reason": "Missed Trash Pick-Up",
    "date_created": "2023-01-02T16:19:22.000",
    "date_modified": "2023-01-02T16:19:23.000",
    "request_status": "Pending",
    "responsible_agency": "Department of Sanitation",
    "final_address": "4701 S Carrollton Ave",
    "address_councildis": "A",
    "status": "Assigned to Contractor",
    "contractor": "Richards Disposal",
    "rowid": "958668",
    "final_x": "3670792.26491",
    "final_y": "538089.481545",
    "longitude": "-90.10165859802525",
    "latitude": "29.973880332368783",
    "geocoded_column": {
      "latitude": "29.973880332368783",
      "longitude": "-90.10165859802525"
    }
  },
  {
    "service_request": "2023-958667",
    "request_type": "Roads/Drainage",
    "request_reason": "Damaged Sidewalk",
    "date_created": "2023-01-02T16:15:14.000",
    "date_modified": "2023-01-02T16:15:15.000",
    "request_status": "Pending",
    "responsible_agency": "Department of Public Works",
    "final_address": "3210 Jackson Ave",
    "address_councildis": "B",
    "status": "Pending",
    "rowid": "958667",
    "final_x": "3673830.54593",
    "final_y": "528570.36224",
    "longitude": "-90.09238860474616",
    "latitude": "29.947615790621345",
    "geocoded_column": {
      "latitude": "29.947615790621345",
      "longitude": "-90.09238860474616"
    }
  },
  {
    "service_request": "2023-958666",
    "request_type": "Trash/Recycling",
    "request_reason": "Order Recycling Cart",
    "date_created": "2023-01-02T16:14:34.000",
    "date_modified": "2023-01-02T16:14:34.000",
    "request_status": "Pending",
    "responsible_agency": "Department of Sanitation",
    "final_address": "1930 St Claude Ave",
    "address_councildis": "C",
    "status": "Pending",
    "rowid": "958666",
    "final_x": "3684141.82479",
    "final_y": "536139.367431",
    "longitude": "-90.05956625515046",
    "latitude": "29.968116878910255",
    "geocoded_column": {
      "latitude": "29.968116878910255",
      "longitude": "-90.05956625515046"
    }
  },
  {
    "service_request": "2023-958665",
    "request_type": "Trash/Recycling",
    "request_reason": "Missed Trash Pick-Up",
    "date_created": "2023-01-02T16:13:21.000",
    "date_modified": "2023-01-02T16:13:22.000",
    "request_status": "Pending",
    "responsible_agency": "Department of Sanitation",
    "final_address": "8722 Pear St",
    "address_councildis": "A",
    "status": "Assigned to Contractor",
    "contractor": "Richards Disposal",
    "rowid": "958665",
    "final_x": "3667387.93428",
    "final_y": "537773.86772",
    "longitude": "-90.11242088773186",
    "latitude": "29.973112680310237",
    "geocoded_column": {
      "latitude": "29.973112680310237",
      "longitude": "-90.11242088773186"
    }
  },
  {
    "service_request": "2023-958664",
    "request_type": "Trash/Recycling",
    "request_reason": "MIssed Recycling Pick-Up",
    "date_created": "2023-01-02T16:12:17.000",
    "date_modified": "2023-01-02T16:12:17.000",
    "request_status": "Pending",
    "responsible_agency": "Department of Sanitation",
    "final_address": "4814 Walmsley Ave, New Orleans, Louisiana, 70125",
    "address_councildis": "B",
    "status": "Assigned to Contractor",
    "contractor": "Richards Disposal",
    "rowid": "958664",
    "final_x": "3668219.68052",
    "final_y": "530542.170818",
    "longitude": "-90.11003789024738",
    "latitude": "29.953203513614355",
    "geocoded_column": {
      "latitude": "29.953203513614355",
      "longitude": "-90.11003789024738"
    }
  },
  {
    "service_request": "2023-958663",
    "request_type": "Property Maintenance",
    "request_reason": "Property Maintenance",
    "date_created": "2023-01-02T16:11:30.000",
    "date_modified": "2023-01-02T16:11:31.000",
    "request_status": "Pending",
    "responsible_agency": "Department of Code Enforcement",
    "final_address": "3200 Jackson Ave",
    "address_councildis": "B",
    "status": "Pending",
    "rowid": "958663",
    "final_x": "3673863.71988",
    "final_y": "528526.870336",
    "longitude": "-90.09228534876996",
    "latitude": "29.94749521430131",
    "geocoded_column": {
      "latitude": "29.94749521430131",
      "longitude": "-90.09228534876996"
    }
  },
  {
    "service_request": "2023-958662",
    "request_type": "Trash/Recycling",
    "request_reason": "MIssed Recycling Pick-Up",
    "date_created": "2023-01-02T16:11:19.000",
    "date_modified": "2023-01-02T16:11:19.000",
    "request_status": "Pending",
    "responsible_agency": "Department of Sanitation",
    "final_address": "4072 State Street Dr, New Orleans, Louisiana, 70125",
    "address_councildis": "B",
    "status": "Assigned to Contractor",
    "contractor": "Richards Disposal",
    "rowid": "958662",
    "final_x": "3668233.31969",
    "final_y": "530506.583618",
    "longitude": "-90.109996023198",
    "latitude": "29.953105260071304",
    "geocoded_column": {
      "latitude": "29.953105260071304",
      "longitude": "-90.109996023198"
    }
  },
  {
    "service_request": "2023-958661",
    "request_type": "Trash/Recycling",
    "request_reason": "Illegal Dumping",
    "date_created": "2023-01-02T16:09:07.000",
    "date_modified": "2023-01-02T16:09:07.000",
    "request_status": "Pending",
    "responsible_agency": "Department of Sanitation",
    "final_address": "1334 Clouet St",
    "address_councildis": "C",
    "status": "Pending",
    "rowid": "958661",
    "final_x": "3689220.0943",
    "final_y": "537025.222728",
    "longitude": "-90.04349743840184",
    "latitude": "29.970396468543253",
    "geocoded_column": {
      "latitude": "29.970396468543253",
      "longitude": "-90.04349743840184"
    }
  },
  {
    "service_request": "2023-958660",
    "request_type": "Roads/Drainage",
    "request_reason": "Pothole",
    "date_created": "2023-01-02T16:09:06.000",
    "date_modified": "2023-01-02T16:09:06.000",
    "request_status": "Pending",
    "responsible_agency": "Department of Public Works",
    "final_address": "4919 Laine Ave",
    "address_councildis": "E",
    "status": "Pending",
    "rowid": "958660",
    "final_x": "3705760.74481",
    "final_y": "556302.527514",
    "longitude": "-89.99054722001532",
    "latitude": "30.02287946671912",
    "geocoded_column": {
      "latitude": "30.02287946671912",
      "longitude": "-89.99054722001532"
    }
  },
  {
    "service_request": "2023-958659",
    "request_type": "Trash/Recycling",
    "request_reason": "Return Trash Cart",
    "date_created": "2023-01-02T16:07:36.000",
    "date_modified": "2023-01-02T16:07:37.000",
    "request_status": "Pending",
    "responsible_agency": "Department of Sanitation",
    "final_address": "7421 Benson St",
    "address_councildis": "E",
    "status": "Assigned to Contractor",
    "contractor": "Waste Pro",
    "rowid": "958659",
    "final_x": "3704758.26622",
    "final_y": "561933.935327",
    "longitude": "-89.99350673621443",
    "latitude": "30.038395904180657",
    "geocoded_column": {
      "latitude": "30.038395904180657",
      "longitude": "-89.99350673621443"
    }
  },
  {
    "service_request": "2023-958658",
    "request_type": "Trash/Recycling",
    "request_reason": "Repair Trash Cart",
    "date_created": "2023-01-02T16:06:27.000",
    "date_modified": "2023-01-02T16:06:28.000",
    "request_status": "Pending",
    "responsible_agency": "Department of Sanitation",
    "final_address": "7421 Benson St",
    "address_councildis": "E",
    "status": "Assigned to Contractor",
    "contractor": "Waste Pro",
    "rowid": "958658",
    "final_x": "3704758.26622",
    "final_y": "561933.935327",
    "longitude": "-89.99350673621443",
    "latitude": "30.038395904180657",
    "geocoded_column": {
      "latitude": "30.038395904180657",
      "longitude": "-89.99350673621443"
    }
  },
  {
    "service_request": "2023-958657",
    "request_type": "Trash/Recycling",
    "request_reason": "Missed Trash Pick-Up",
    "date_created": "2023-01-02T16:04:26.000",
    "date_modified": "2023-01-02T16:04:26.000",
    "request_status": "Pending",
    "responsible_agency": "Department of Sanitation",
    "final_address": "5015 St Claude Ave",
    "address_councildis": "E",
    "status": "Assigned to Contractor",
    "contractor": "Waste Pro",
    "rowid": "958657",
    "final_x": "3696113.05085",
    "final_y": "534351.361221",
    "longitude": "-90.02182547915295",
    "latitude": "29.962829149857008",
    "geocoded_column": {
      "latitude": "29.962829149857008",
      "longitude": "-90.02182547915295"
    }
  },
  {
    "service_request": "2023-958656",
    "request_type": "Trash/Recycling",
    "request_reason": "Missed Trash Pick-Up",
    "date_created": "2023-01-02T16:03:32.000",
    "date_modified": "2023-01-02T16:03:34.000",
    "request_status": "Pending",
    "responsible_agency": "Department of Sanitation",
    "final_address": "8300 BLK Belfast St",
    "address_councildis": "A",
    "status": "Assigned to Contractor",
    "contractor": "Richards Disposal",
    "rowid": "958656",
    "final_x": "3664926.96637",
    "final_y": "532967.736674",
    "longitude": "-90.12035382445559",
    "latitude": "29.959969277162656",
    "geocoded_column": {
      "latitude": "29.959969277162656",
      "longitude": "-90.12035382445559"
    }
  },
  {
    "service_request": "2023-958655",
    "request_type": "Abandoned Vehicles",
    "request_reason": "Abandoned/Junk Vehicles",
    "date_created": "2023-01-02T16:01:46.000",
    "date_modified": "2023-01-02T16:01:46.000",
    "request_status": "Pending",
    "responsible_agency": "Department of Public Works",
    "final_address": "8342 Belfast St",
    "address_councildis": "A",
    "status": "Pending",
    "rowid": "958655",
    "final_x": "3664799.85684",
    "final_y": "533039.383812",
    "longitude": "-90.12075281604884",
    "latitude": "29.9601699826163",
    "geocoded_column": {
      "latitude": "29.9601699826163",
      "longitude": "-90.12075281604884"
    }
  },
  {
    "service_request": "2023-958654",
    "request_type": "Trash/Recycling",
    "request_reason": "Missed Trash Pick-Up",
    "date_created": "2023-01-02T16:01:11.000",
    "date_modified": "2023-01-02T16:01:12.000",
    "request_status": "Pending",
    "responsible_agency": "Department of Sanitation",
    "final_address": "2801 St Bernard Ave",
    "address_councildis": "D",
    "status": "Assigned to Contractor",
    "contractor": "IV Waste",
    "rowid": "958654",
    "final_x": "3679817.21685",
    "final_y": "542687.738445",
    "longitude": "-90.07299606980254",
    "latitude": "29.98625411107394",
    "geocoded_column": {
      "latitude": "29.98625411107394",
      "longitude": "-90.07299606980254"
    }
  },
  {
    "service_request": "2023-958653",
    "request_type": "Trash/Recycling",
    "request_reason": "Order Trash Cart",
    "date_created": "2023-01-02T15:59:13.000",
    "date_modified": "2023-01-02T15:59:14.000",
    "request_status": "Pending",
    "responsible_agency": "Department of Sanitation",
    "final_address": "2117 Josephine St",
    "address_councildis": "B",
    "status": "Assigned to Contractor",
    "contractor": "Richards Disposal",
    "rowid": "958653",
    "final_x": "3676688.89928",
    "final_y": "525586.447933",
    "longitude": "-90.0834664269873",
    "latitude": "29.93932558443707",
    "geocoded_column": {
      "latitude": "29.93932558443707",
      "longitude": "-90.0834664269873"
    }
  },
  {
    "service_request": "2023-958651",
    "request_type": "Abandoned Vehicles",
    "request_reason": "Vehicle Blocking Your Driveway",
    "date_created": "2023-01-02T15:56:42.000",
    "date_modified": "2023-01-02T15:56:42.000",
    "request_status": "Pending",
    "responsible_agency": "Department of Public Works",
    "final_address": "3012 Baudin Street New Orleans la",
    "address_councildis": "B",
    "status": "Pending",
    "rowid": "958651",
    "final_x": "3673255.56635",
    "final_y": "534635.989702",
    "longitude": "-90.09399690050252",
    "latitude": "29.96431135937533",
    "geocoded_column": {
      "latitude": "29.96431135937533",
      "longitude": "-90.09399690050252"
    }
  },
  {
    "service_request": "2023-958650",
    "request_type": "Trash/Recycling",
    "request_reason": "Request a Large Item Pick Up",
    "date_created": "2023-01-02T15:55:42.000",
    "date_modified": "2023-01-02T15:55:43.000",
    "request_status": "Pending",
    "responsible_agency": "Department of Sanitation",
    "final_address": "1713 Nie Prkwy",
    "address_councildis": "C",
    "status": "Assigned to Contractor",
    "contractor": "Richards Disposal",
    "rowid": "958650",
    "final_x": "3701153.66615",
    "final_y": "524521.30662",
    "longitude": "-90.00626748509221",
    "latitude": "29.935640373910648",
    "geocoded_column": {
      "latitude": "29.935640373910648",
      "longitude": "-90.00626748509221"
    }
  },
  {
    "service_request": "2023-958649",
    "request_type": "Property Maintenance",
    "request_reason": "Property Maintenance",
    "date_created": "2023-01-02T15:54:58.000",
    "date_modified": "2023-01-02T15:54:58.000",
    "request_status": "Pending",
    "responsible_agency": "Department of Code Enforcement",
    "final_address": "2300 Alvar St",
    "address_councildis": "D",
    "status": "Pending",
    "rowid": "958649",
    "final_x": "3692579.54237",
    "final_y": "539954.664714",
    "longitude": "-90.0327829645876",
    "latitude": "29.97834698237606",
    "geocoded_column": {
      "latitude": "29.97834698237606",
      "longitude": "-90.0327829645876"
    }
  },
  {
    "service_request": "2023-958648",
    "request_type": "Trash/Recycling",
    "request_reason": "Illegal Dumping",
    "date_created": "2023-01-02T15:54:03.000",
    "date_modified": "2023-01-02T15:54:04.000",
    "request_status": "Pending",
    "responsible_agency": "Department of Sanitation",
    "final_address": "CHEF MENTEUR HWY & MICHOUD BLVD",
    "address_councildis": "E",
    "status": "Pending",
    "rowid": "958648",
    "final_x": "3725588.8",
    "final_y": "559495.18",
    "longitude": "-89.92777224107155",
    "latitude": "30.03100415036799",
    "geocoded_column": {
      "latitude": "30.03100415036799",
      "longitude": "-89.92777224107155"
    }
  },
  {
    "service_request": "2023-958647",
    "request_type": "Trash/Recycling",
    "request_reason": "Repair Trash Cart",
    "date_created": "2023-01-02T15:51:41.000",
    "date_modified": "2023-01-02T15:51:42.000",
    "request_status": "Pending",
    "responsible_agency": "Department of Sanitation",
    "final_address": "37 Grand Canyon Dr",
    "address_councildis": "C",
    "status": "Assigned to Contractor",
    "contractor": "Richards Disposal",
    "rowid": "958647",
    "final_x": "3699562.45092",
    "final_y": "516875.493109",
    "longitude": "-90.01156937689063",
    "latitude": "29.9146675887694",
    "geocoded_column": {
      "latitude": "29.9146675887694",
      "longitude": "-90.01156937689063"
    }
  },
  {
    "service_request": "2023-958646",
    "request_type": "Trash/Recycling",
    "request_reason": "Missed Trash Pick-Up",
    "date_created": "2023-01-02T15:50:19.000",
    "date_modified": "2023-01-02T15:50:19.000",
    "request_status": "Pending",
    "responsible_agency": "Department of Sanitation",
    "final_address": "316 N Prieur St",
    "address_councildis": "B",
    "status": "Assigned to Contractor",
    "contractor": "Richards Disposal",
    "rowid": "958646",
    "final_x": "3678139.68494",
    "final_y": "534187.918021",
    "longitude": "-90.07858873981021",
    "latitude": "29.96293315572712",
    "geocoded_column": {
      "latitude": "29.96293315572712",
      "longitude": "-90.07858873981021"
    }
  },
  {
    "service_request": "2023-958645",
    "request_type": "Trash/Recycling",
    "request_reason": "MIssed Recycling Pick-Up",
    "date_created": "2023-01-02T15:43:30.000",
    "date_modified": "2023-01-02T15:43:31.000",
    "request_status": "Pending",
    "responsible_agency": "Department of Sanitation",
    "final_address": "8706 Marks St",
    "address_councildis": "A",
    "status": "Assigned to Contractor",
    "contractor": "Richards Disposal",
    "rowid": "958645",
    "final_x": "3667200.41549",
    "final_y": "537420.306824",
    "longitude": "-90.11302500306172",
    "latitude": "29.97214599855037",
    "geocoded_column": {
      "latitude": "29.97214599855037",
      "longitude": "-90.11302500306172"
    }
  },
  {
    "service_request": "2023-958644",
    "request_type": "Abandoned Vehicles",
    "request_reason": "Abandoned/Junk Vehicles",
    "date_created": "2023-01-02T15:38:38.000",
    "date_modified": "2023-01-02T15:38:38.000",
    "request_status": "Pending",
    "responsible_agency": "Department of Public Works",
    "final_address": "4040 Ulloa St",
    "address_councildis": "A",
    "status": "Pending",
    "rowid": "958644",
    "final_x": "3669759.87713",
    "final_y": "536342.901703",
    "longitude": "-90.10497824994674",
    "latitude": "29.969108297243295",
    "geocoded_column": {
      "latitude": "29.969108297243295",
      "longitude": "-90.10497824994674"
    }
  },
  {
    "service_request": "2023-958643",
    "request_type": "Trash/Recycling",
    "request_reason": "Missed Trash Pick-Up",
    "date_created": "2023-01-02T15:37:36.000",
    "date_modified": "2023-01-02T15:37:37.000",
    "request_status": "Pending",
    "responsible_agency": "Department of Sanitation",
    "final_address": "3612 Second St",
    "address_councildis": "B",
    "status": "Assigned to Contractor",
    "contractor": "Richards Disposal",
    "rowid": "958643",
    "final_x": "3672724.45012",
    "final_y": "528997.608192",
    "longitude": "-90.09586641949977",
    "latitude": "29.94882346835226",
    "geocoded_column": {
      "latitude": "29.94882346835226",
      "longitude": "-90.09586641949977"
    }
  },
  {
    "service_request": "2023-958642",
    "request_type": "Trash/Recycling",
    "request_reason": "Request a Large Item Pick Up",
    "date_created": "2023-01-02T15:36:42.000",
    "date_modified": "2023-01-02T15:36:43.000",
    "request_status": "Pending",
    "responsible_agency": "Department of Sanitation",
    "final_address": "2620 Laurel St",
    "address_councildis": "B",
    "status": "Assigned to Contractor",
    "contractor": "Richards Disposal",
    "rowid": "958642",
    "final_x": "3677831.14306",
    "final_y": "520418.890296",
    "longitude": "-90.08003866114964",
    "latitude": "29.925082183672874",
    "geocoded_column": {
      "latitude": "29.925082183672874",
      "longitude": "-90.08003866114964"
    }
  },
  {
    "service_request": "2023-958641",
    "request_type": "Trash/Recycling",
    "request_reason": "Order Trash Cart",
    "date_created": "2023-01-02T15:36:32.000",
    "date_modified": "2023-01-02T15:36:33.000",
    "request_status": "Pending",
    "responsible_agency": "Department of Sanitation",
    "final_address": "10219 Springwood St",
    "address_councildis": "E",
    "status": "Assigned to Contractor",
    "contractor": "Waste Pro",
    "rowid": "958641",
    "final_x": "3713352.89291",
    "final_y": "555771.520537",
    "longitude": "-89.96657802404157",
    "latitude": "30.021172585180313",
    "geocoded_column": {
      "latitude": "30.021172585180313",
      "longitude": "-89.96657802404157"
    }
  },
  {
    "service_request": "2023-958640",
    "request_type": "Abandoned Vehicles",
    "request_reason": "Vehicle Blocking Your Driveway",
    "date_created": "2023-01-02T15:36:02.000",
    "date_modified": "2023-01-02T15:36:02.000",
    "request_status": "Pending",
    "responsible_agency": "Department of Public Works",
    "final_address": "5250 Michoud Blvd",
    "address_councildis": "E",
    "status": "Pending",
    "rowid": "958640",
    "final_x": "3724684.86675",
    "final_y": "562762.714976",
    "longitude": "-89.93050224371382",
    "latitude": "30.040018987315147",
    "geocoded_column": {
      "latitude": "30.040018987315147",
      "longitude": "-89.93050224371382"
    }
  },
  {
    "service_request": "2023-958639",
    "request_type": "Trash/Recycling",
    "request_reason": "Replace Recycling Cart",
    "date_created": "2023-01-02T15:35:23.000",
    "date_modified": "2023-01-02T15:35:23.000",
    "request_status": "Pending",
    "responsible_agency": "Department of Sanitation",
    "final_address": "5966 Colbert St",
    "address_councildis": "A",
    "status": "Pending",
    "rowid": "958639",
    "final_x": "3667346.95873",
    "final_y": "547259.000337",
    "longitude": "-90.11223106163747",
    "latitude": "29.999194774207208",
    "geocoded_column": {
      "latitude": "29.999194774207208",
      "longitude": "-90.11223106163747"
    }
  },
  {
    "service_request": "2023-958638",
    "request_type": "Property Maintenance",
    "request_reason": "Property Maintenance",
    "date_created": "2023-01-02T15:33:58.000",
    "date_modified": "2023-01-02T15:33:58.000",
    "request_status": "Pending",
    "responsible_agency": "Department of Code Enforcement",
    "final_address": "6070 Colbert St",
    "address_councildis": "A",
    "status": "Pending",
    "rowid": "958638",
    "final_x": "3667371.189",
    "final_y": "547932.485586",
    "longitude": "-90.11213184252318",
    "latitude": "30.0010459159919",
    "geocoded_column": {
      "latitude": "30.0010459159919",
      "longitude": "-90.11213184252318"
    }
  },
  {
    "service_request": "2023-958637",
    "request_type": "Trash/Recycling",
    "request_reason": "Repair Trash Cart",
    "date_created": "2023-01-02T15:33:55.000",
    "date_modified": "2023-01-02T15:33:56.000",
    "request_status": "Pending",
    "responsible_agency": "Department of Sanitation",
    "final_address": "1500 Touro St",
    "address_councildis": "C",
    "status": "Assigned to Contractor",
    "contractor": "IV Waste",
    "rowid": "958637",
    "final_x": "3684082.39369",
    "final_y": "537740.373064",
    "longitude": "-90.05969774128104",
    "latitude": "29.97252090527442",
    "geocoded_column": {
      "latitude": "29.97252090527442",
      "longitude": "-90.05969774128104"
    }
  },
  {
    "service_request": "2023-958636",
    "request_type": "Trash/Recycling",
    "request_reason": "Missed Trash Pick-Up",
    "date_created": "2023-01-02T15:33:40.000",
    "date_modified": "2023-01-02T15:33:40.000",
    "request_status": "Pending",
    "responsible_agency": "Department of Sanitation",
    "final_address": "137 N Norman C Francis Prkwy",
    "address_councildis": "B",
    "status": "Assigned to Contractor",
    "contractor": "Richards Disposal",
    "rowid": "958636",
    "final_x": "3673312.05236",
    "final_y": "537102.60244",
    "longitude": "-90.09373425461202",
    "latitude": "29.971092033030175",
    "geocoded_column": {
      "latitude": "29.971092033030175",
      "longitude": "-90.09373425461202"
    }
  },
  {
    "service_request": "2023-958635",
    "request_type": "Trash/Recycling",
    "request_reason": "Order Trash Cart",
    "date_created": "2023-01-02T15:33:13.000",
    "date_modified": "2023-01-02T15:33:13.000",
    "request_status": "Pending",
    "responsible_agency": "Department of Sanitation",
    "final_address": "6400 Maumus Ave",
    "address_councildis": "C",
    "status": "Assigned to Contractor",
    "contractor": "Richards Disposal",
    "rowid": "958635",
    "final_x": "3707620.32606",
    "final_y": "516773.807797",
    "longitude": "-89.98613991366754",
    "latitude": "29.914129948034436",
    "geocoded_column": {
      "latitude": "29.914129948034436",
      "longitude": "-89.98613991366754"
    }
  },
  {
    "service_request": "2023-958634",
    "request_type": "Property Maintenance",
    "request_reason": "Property Maintenance",
    "date_created": "2023-01-02T15:31:23.000",
    "date_modified": "2023-01-02T15:31:23.000",
    "request_status": "Pending",
    "responsible_agency": "Department of Code Enforcement",
    "final_address": "1947 Pace Blvd",
    "address_councildis": "C",
    "status": "Pending",
    "rowid": "958634",
    "final_x": "3694381.19043",
    "final_y": "523190.721211",
    "longitude": "-90.0276960357981",
    "latitude": "29.93219565459455",
    "geocoded_column": {
      "latitude": "29.93219565459455",
      "longitude": "-90.0276960357981"
    }
  },
  {
    "service_request": "2023-958633",
    "request_type": "Abandoned Vehicles",
    "request_reason": "Vehicle Blocking Your Driveway",
    "date_created": "2023-01-02T15:30:31.000",
    "date_modified": "2023-01-02T15:30:31.000",
    "request_status": "Pending",
    "responsible_agency": "Department of Public Works",
    "final_address": "5250 Michoud Blvd",
    "address_councildis": "E",
    "status": "Pending",
    "rowid": "958633",
    "final_x": "3724684.86675",
    "final_y": "562762.714976",
    "longitude": "-89.93050224371382",
    "latitude": "30.040018987315147",
    "geocoded_column": {
      "latitude": "30.040018987315147",
      "longitude": "-89.93050224371382"
    }
  },
  {
    "service_request": "2023-958632",
    "request_type": "Trash/Recycling",
    "request_reason": "Request a Large Item Pick Up",
    "date_created": "2023-01-02T15:29:57.000",
    "date_modified": "2023-01-02T15:29:58.000",
    "request_status": "Pending",
    "responsible_agency": "Department of Sanitation",
    "final_address": "2941 Marigny St",
    "address_councildis": "D",
    "status": "Assigned to Contractor",
    "contractor": "IV Waste",
    "rowid": "958632",
    "final_x": "3684868.13282",
    "final_y": "543670.609038",
    "longitude": "-90.0570076259156",
    "latitude": "29.988802929658412",
    "geocoded_column": {
      "latitude": "29.988802929658412",
      "longitude": "-90.0570076259156"
    }
  },
  {
    "service_request": "2023-958631",
    "request_type": "Trash/Recycling",
    "request_reason": "Request a Large Item Pick Up",
    "date_created": "2023-01-02T15:28:55.000",
    "date_modified": "2023-01-02T15:29:27.000",
    "request_status": "Pending",
    "responsible_agency": "Department of Sanitation",
    "final_address": "13171 Linden St",
    "address_councildis": "E",
    "status": "Assigned to Contractor",
    "contractor": "Waste Pro",
    "rowid": "958631",
    "final_x": "3716405.3573",
    "final_y": "570842.292583",
    "longitude": "-89.95636096070511",
    "latitude": "30.062510625062963",
    "geocoded_column": {
      "latitude": "30.062510625062963",
      "longitude": "-89.95636096070511"
    }
  },
  {
    "service_request": "2023-958630",
    "request_type": "Trash/Recycling",
    "request_reason": "Order Recycling Cart",
    "date_created": "2023-01-02T15:28:15.000",
    "date_modified": "2023-01-02T15:28:15.000",
    "request_status": "Pending",
    "responsible_agency": "Department of Sanitation",
    "final_address": "6020 Colbert St",
    "address_councildis": "A",
    "status": "Pending",
    "rowid": "958630",
    "final_x": "3667369.17082",
    "final_y": "547559.45621",
    "longitude": "-90.11215077730948",
    "latitude": "30.000020273257668",
    "geocoded_column": {
      "latitude": "30.000020273257668",
      "longitude": "-90.11215077730948"
    }
  },
  {
    "service_request": "2023-958629",
    "request_type": "Trash/Recycling",
    "request_reason": "Request a Large Item Pick Up",
    "date_created": "2023-01-02T15:27:41.000",
    "date_modified": "2023-01-02T15:27:42.000",
    "request_status": "Pending",
    "responsible_agency": "Department of Sanitation",
    "final_address": "8403 Willow St",
    "address_councildis": "A",
    "status": "Assigned to Contractor",
    "contractor": "Richards Disposal",
    "rowid": "958629",
    "final_x": "3661609.17459",
    "final_y": "529686.332417",
    "longitude": "-90.13093947443666",
    "latitude": "29.951042631442142",
    "geocoded_column": {
      "latitude": "29.951042631442142",
      "longitude": "-90.13093947443666"
    }
  },