[
  {
    "service_request": "2026-1302080",
    "request_type": "Trash/Recycling",
    "request_reason": "Missed Trash Pick-Up",
    "date_created": "2026-07-20T23:40:06.000",
    "date_modified": "2026-07-20T23:40:09.000",
    "request_status": "Pending",
    "responsible_agency": "Department of Sanitation",
    "final_address": "6022 Pontchartrain Blvd, New Orleans, Louisiana, 70124",
    "address_councildis": "A",
    "status": "Assigned to Contractor",
    "contractor": "IV Waste",
    "rowid": "1302080",
    "final_x": "3666003.45472",
    "final_y": "547670.999506",
    "longitude": "-90.11646141666989",
    "latitude": "30.000366929778536",
    "geocoded_column": {
      "latitude": "30.000366929778536",
      "longitude": "-90.11646141666989"
    }
  },
  {
    "service_request": "2026-1302079",
    "request_type": "Streetlights",
    "request_reason": "Streetlight Knocked Down/Leaning",
    "date_created": "2026-07-20T23:08:46.000",
    "date_modified": "2026-07-20T23:08:49.000",
    "request_status": "Pending",
    "responsible_agency": "Department of Public Works",
    "final_address": "5138 Van Chu Dr",
    "address_councildis": "E",
    "status": "Pending",
    "rowid": "1302079",
    "final_x": "3727536.89709",
    "final_y": "563549.66032",
    "longitude": "-89.92145842099222",
    "latitude": "30.042086443502875",
    "geocoded_column": {
      "latitude": "30.042086443502875",
      "longitude": "-89.92145842099222"
    }
  },
  {
    "service_request": "2026-1302078",
    "request_type": "Drainage",
    "request_reason": "Catch Basin Not Draining",
    "date_created": "2026-07-20T23:04:34.000",
    "date_modified": "2026-07-20T23:04:38.000",
    "request_status": "Pending",
    "responsible_agency": "Sewerage & Water Board",
    "final_address": "2202 General Pershing St",
    "address_councildis": "B",
    "status": "Pending",
    "rowid": "1302078",
    "final_x": "3670943.517",
    "final_y": "523100.679163",
    "longitude": "-90.10168973696801",
    "latitude": "29.932661594396585",
    "geocoded_column": {
      "latitude": "29.932661594396585",
      "longitude": "-90.10168973696801"
    }
  },
  {
    "service_request": "2026-1302077",
    "request_type": "Trash/Recycling",
    "request_reason": "Request a Large Item Pick Up",
    "date_created": "2026-07-20T23:03:33.000",
    "date_modified": "2026-07-20T23:03:35.000",
    "request_status": "Pending",
    "responsible_agency": "Department of Sanitation",
    "final_address": "1655 Pratt Dr",
    "address_councildis": "D",
    "status": "Assigned to Contractor",
    "contractor": "IV Waste",
    "rowid": "1302077",
    "final_x": "3679797.69301",
    "final_y": "548869.478483",
    "longitude": "-90.0728429438392",
    "latitude": "30.003252302248036",
    "geocoded_column": {
      "latitude": "30.003252302248036",
      "longitude": "-90.0728429438392"
    }
  },
  {
    "service_request": "2026-1302076",
    "request_type": "Streetlights",
    "request_reason": "Streetlight Knocked Down/Leaning",
    "date_created": "2026-07-20T22:46:09.000",
    "date_modified": "2026-07-20T22:46:11.000",
    "request_status": "Pending",
    "responsible_agency": "Department of Public Works",
    "final_address": "200 BLK Decatur St",
    "address_councildis": "C",
    "status": "Pending",
    "rowid": "1302076",
    "final_x": "3682161.26851",
    "final_y": "530695.637215",
    "longitude": "-90.06601106571894",
    "latitude": "29.953208870498003",
    "geocoded_column": {
      "latitude": "29.953208870498003",
      "longitude": "-90.06601106571894"
    }
  },
  {
    "service_request": "2026-1302075",
    "request_type": "Trash/Recycling",
    "request_reason": "Replace Trash Cart",
    "date_created": "2026-07-20T22:13:30.000",
    "date_modified": "2026-07-20T22:13:34.000",
    "request_status": "Pending",
    "responsible_agency": "Department of Sanitation",
    "final_address": "8944 Bunker Hill Rd",
    "address_councildis": "E",
    "status": "Assigned to Contractor",
    "contractor": "Waste Pro",
    "rowid": "1302075",
    "final_x": "3706083.95646",
    "final_y": "561647.888287",
    "longitude": "-89.98932784201334",
    "latitude": "30.037566698571325",
    "geocoded_column": {
      "latitude": "30.037566698571325",
      "longitude": "-89.98932784201334"
    }
  },
  {
    "service_request": "2026-1302074",
    "request_type": "Healthy Homes",
    "request_reason": "Healthy Homes",
    "date_created": "2026-07-20T22:12:17.000",
    "date_modified": "2026-07-20T22:12:19.000",
    "request_status": "Pending",
    "responsible_agency": "Department of Code Enforcement",
    "final_address": "1204 St Andrew St",
    "address_councildis": "B",
    "status": "Pending",
    "rowid": "1302074",
    "final_x": "3679204.79842",
    "final_y": "522901.448507",
    "longitude": "-90.07561645587563",
    "latitude": "29.93186702208105",
    "geocoded_column": {
      "latitude": "29.93186702208105",
      "longitude": "-90.07561645587563"
    }
  },
  {
    "service_request": "2026-1302073",
    "request_type": "Trash/Recycling",
    "request_reason": "Request a Large Item Pick Up",
    "date_created": "2026-07-20T22:07:25.000",
    "date_modified": "2026-07-20T22:07:27.000",
    "request_status": "Pending",
    "responsible_agency": "Department of Sanitation",
    "final_address": "3134 Dauphine St",
    "address_councildis": "C",
    "status": "Assigned to Contractor",
    "contractor": "IV Waste",
    "rowid": "1302073",
    "final_x": "3688980.26409",
    "final_y": "534737.451654",
    "longitude": "-90.04433612362386",
    "latitude": "29.964113319776462",
    "geocoded_column": {
      "latitude": "29.964113319776462",
      "longitude": "-90.04433612362386"
    }
  },
  {
    "service_request": "2026-1302072",
    "request_type": "Streetlights",
    "request_reason": "Streetlight Outage/Malfunction",
    "date_created": "2026-07-20T22:02:15.000",
    "date_modified": "2026-07-20T22:02:17.000",
    "request_status": "Pending",
    "responsible_agency": "Department of Public Works",
    "final_address": "14184 Willowbrook Dr",
    "address_councildis": "E",
    "status": "Pending",
    "rowid": "1302072",
    "final_x": "3724859.38195",
    "final_y": "564263.925601",
    "longitude": "-89.92989261995228",
    "latitude": "30.044140819575695",
    "geocoded_column": {
      "latitude": "30.044140819575695",
      "longitude": "-89.92989261995228"
    }
  },
  {
    "service_request": "2026-1302071",
    "request_type": "Trash/Recycling",
    "request_reason": "Request a Large Item Pick Up",
    "date_created": "2026-07-20T21:55:44.000",
    "date_modified": "2026-07-20T21:55:46.000",
    "request_status": "Pending",
    "responsible_agency": "Department of Sanitation",
    "final_address": "4320 General Pershing St",
    "address_councildis": "B",
    "status": "Assigned to Contractor",
    "contractor": "IV Waste",
    "rowid": "1302071",
    "final_x": "3669458.25946",
    "final_y": "529713.152897",
    "longitude": "-90.10615501738499",
    "latitude": "29.950887569075395",
    "geocoded_column": {
      "latitude": "29.950887569075395",
      "longitude": "-90.10615501738499"
    }
  },
  {
    "service_request": "2026-1302070",
    "request_type": "Trash/Recycling",
    "request_reason": "Start Trash Service",
    "date_created": "2026-07-20T21:46:41.000",
    "date_modified": "2026-07-20T21:46:45.000",
    "request_status": "Pending",
    "responsible_agency": "Department of Sanitation",
    "final_address": "1900 Magazine St Apt C",
    "address_councildis": "B",
    "status": "Assigned to Contractor",
    "contractor": "IV Waste",
    "rowid": "1302070",
    "final_x": "3679776.18159",
    "final_y": "522739.543098",
    "longitude": "-90.0738182792156",
    "latitude": "29.931404577913327",
    "geocoded_column": {
      "latitude": "29.931404577913327",
      "longitude": "-90.0738182792156"
    }
  },
  {
    "service_request": "2026-1302069",
    "request_type": "Trash/Recycling",
    "request_reason": "Request a Large Item Pick Up",
    "date_created": "2026-07-20T21:35:04.000",
    "date_modified": "2026-07-20T21:35:06.000",
    "request_status": "Pending",
    "responsible_agency": "Department of Sanitation",
    "final_address": "4505 Dale St",
    "address_councildis": "E",
    "status": "Assigned to Contractor",
    "contractor": "Waste Pro",
    "rowid": "1302069",
    "final_x": "3699597.24029",
    "final_y": "553710.358167",
    "longitude": "-90.01011696045066",
    "latitude": "30.015949150384692",
    "geocoded_column": {
      "latitude": "30.015949150384692",
      "longitude": "-90.01011696045066"
    }
  },
  {
    "service_request": "2026-1302068",
    "request_type": "Tree Service",
    "request_reason": "Tree Trim",
    "date_created": "2026-07-20T21:22:20.000",
    "date_modified": "2026-07-20T21:22:22.000",
    "request_status": "Pending",
    "responsible_agency": "Department of Parks & Parkways",
    "final_address": "6132 Memphis St",
    "address_councildis": "A",
    "status": "Pending",
    "rowid": "1302068",
    "final_x": "3669199.27713",
    "final_y": "548146.037522",
    "longitude": "-90.10634952122939",
    "latitude": "30.001579411027826",
    "geocoded_column": {
      "latitude": "30.001579411027826",
      "longitude": "-90.10634952122939"
    }
  },
  {
    "service_request": "2026-1302067",
    "request_type": "Trash/Recycling",
    "request_reason": "Order Second Trash Cart",
    "date_created": "2026-07-20T21:20:36.000",
    "date_modified": "2026-07-20T21:20:39.000",
    "request_status": "Pending",
    "responsible_agency": "Department of Sanitation",
    "final_address": "6132 Memphis St",
    "address_councildis": "A",
    "status": "Assigned to Contractor",
    "contractor": "IV Waste",
    "rowid": "1302067",
    "final_x": "3669199.27713",
    "final_y": "548146.037522",
    "longitude": "-90.10634952122939",
    "latitude": "30.001579411027826",
    "geocoded_column": {
      "latitude": "30.001579411027826",
      "longitude": "-90.10634952122939"
    }
  },
  {
    "service_request": "2026-1302066",
    "request_type": "Abandoned Vehicles",
    "request_reason": "Abandoned/Junk Vehicles",
    "date_created": "2026-07-20T21:19:45.000",
    "date_modified": "2026-07-20T21:19:48.000",
    "request_status": "Pending",
    "responsible_agency": "Department of Public Works",
    "final_address": "2418 General Taylor St",
    "address_councildis": "B",
    "status": "Pending",
    "rowid": "1302066",
    "final_x": "3671903.39956",
    "final_y": "523986.67846",
    "longitude": "-90.09862932075389",
    "latitude": "29.93506940128738",
    "geocoded_column": {
      "latitude": "29.93506940128738",
      "longitude": "-90.09862932075389"
    }
  },
  {
    "service_request": "2026-1302065",
    "request_type": "Streetlights",
    "request_reason": "Streetlight Outage/Malfunction",
    "date_created": "2026-07-20T21:08:05.000",
    "date_modified": "2026-07-20T21:08:06.000",
    "request_status": "Pending",
    "responsible_agency": "Department of Public Works",
    "final_address": "2318 N Villere St",
    "address_councildis": "C",
    "status": "Pending",
    "rowid": "1302065",
    "final_x": "3685862.44297",
    "final_y": "537454.113928",
    "longitude": "-90.05408613212556",
    "latitude": "29.971679268504797",
    "geocoded_column": {
      "latitude": "29.971679268504797",
      "longitude": "-90.05408613212556"
    }
  },
  {
    "service_request": "2026-1302064",
    "request_type": "Trash/Recycling",
    "request_reason": "Replace Trash Cart",
    "date_created": "2026-07-20T21:07:20.000",
    "date_modified": "2026-07-20T21:07:21.000",
    "request_status": "Pending",
    "responsible_agency": "Department of Sanitation",
    "final_address": "1025 Harmony St Apt 203",
    "address_councildis": "B",
    "status": "Assigned to Contractor",
    "contractor": "IV Waste",
    "rowid": "1302064",
    "final_x": "3675869.72366",
    "final_y": "519922.639224",
    "longitude": "-90.08624728581786",
    "latitude": "29.9237764980882",
    "geocoded_column": {
      "latitude": "29.9237764980882",
      "longitude": "-90.08624728581786"
    }
  },
  {
    "service_request": "2026-1302063",
    "request_type": "General Services",
    "request_reason": "General Service Request",
    "date_created": "2026-07-20T21:07:19.000",
    "date_modified": "2026-07-20T21:07:21.000",
    "request_status": "Pending",
    "responsible_agency": "Orleans Parish Communication District",
    "final_address": "7020 Coventry St",
    "address_councildis": "E",
    "status": "Pending",
    "rowid": "1302063",
    "final_x": "3699204.89834",
    "final_y": "559653.361117",
    "longitude": "-90.01113990681763",
    "latitude": "30.032302587157528",
    "geocoded_column": {
      "latitude": "30.032302587157528",
      "longitude": "-90.01113990681763"
    }
  },
  {
    "service_request": "2026-1302062",
    "request_type": "Trash/Recycling",
    "request_reason": "Request a Large Item Pick Up",
    "date_created": "2026-07-20T20:50:16.000",
    "date_modified": "2026-07-20T20:50:20.000",
    "request_status": "Pending",
    "responsible_agency": "Department of Sanitation",
    "final_address": "2649 Gladiolus St",
    "address_councildis": "D",
    "status": "Assigned to Contractor",
    "contractor": "IV Waste",
    "rowid": "1302062",
    "final_x": "3687468.56226",
    "final_y": "547594.36501",
    "longitude": "-90.04865472884916",
    "latitude": "29.999511946332895",
    "geocoded_column": {
      "latitude": "29.999511946332895",
      "longitude": "-90.04865472884916"
    }
  },
  {
    "service_request": "2026-1302061",
    "request_type": "Trash/Recycling",
    "request_reason": "Request a Large Item Pick Up",
    "date_created": "2026-07-20T20:23:07.000",
    "date_modified": "2026-07-20T20:23:08.000",
    "request_status": "Pending",
    "responsible_agency": "Department of Sanitation",
    "final_address": "5901 Brighton Pl",
    "address_councildis": "C",
    "status": "Assigned to Contractor",
    "contractor": "Richards Disposal",
    "rowid": "1302061",
    "final_x": "3705646.91364",
    "final_y": "520043.987064",
    "longitude": "-89.9922478010014",
    "latitude": "29.923185458500157",
    "geocoded_column": {
      "latitude": "29.923185458500157",
      "longitude": "-89.9922478010014"
    }
  },
  {
    "service_request": "2026-1302060",
    "request_type": "Trash/Recycling",
    "request_reason": "Request a Large Item Pick Up",
    "date_created": "2026-07-20T20:22:01.000",
    "date_modified": "2026-07-20T20:22:03.000",
    "request_status": "Pending",
    "responsible_agency": "Department of Sanitation",
    "final_address": "2720 Dryades St",
    "address_councildis": "B",
    "status": "Assigned to Contractor",
    "contractor": "IV Waste",
    "rowid": "1302060",
    "final_x": "3675451.7515",
    "final_y": "523485.383483",
    "longitude": "-90.08744439093692",
    "latitude": "29.93358539190366",
    "geocoded_column": {
      "latitude": "29.93358539190366",
      "longitude": "-90.08744439093692"
    }
  },
  {
    "service_request": "2026-1302059",
    "request_type": "Trash/Recycling",
    "request_reason": "Request a Large Item Pick Up",
    "date_created": "2026-07-20T20:21:38.000",
    "date_modified": "2026-07-20T20:21:40.000",
    "request_status": "Pending",
    "responsible_agency": "Department of Sanitation",
    "final_address": "4813 Raymond Joseph Dr",
    "address_councildis": "E",
    "status": "Assigned to Contractor",
    "contractor": "Waste Pro",
    "rowid": "1302059",
    "final_x": "3703705.40151",
    "final_y": "555706.936537",
    "longitude": "-89.99706353642048",
    "latitude": "30.021307888941134",
    "geocoded_column": {
      "latitude": "30.021307888941134",
      "longitude": "-89.99706353642048"
    }
  },
  {
    "service_request": "2026-1302058",
    "request_type": "Roads and Streets",
    "request_reason": "Pothole",
    "date_created": "2026-07-20T20:16:50.000",
    "date_modified": "2026-07-20T20:16:53.000",
    "request_status": "Pending",
    "responsible_agency": "Department of Public Works",
    "final_address": "1901 Tchoupitoulas St",
    "address_councildis": "B",
    "status": "Pending",
    "rowid": "1302058",
    "final_x": "3681069.68866",
    "final_y": "520552.67212",
    "longitude": "-90.06981096487615",
    "latitude": "29.925352242341845",
    "geocoded_column": {
      "latitude": "29.925352242341845",
      "longitude": "-90.06981096487615"
    }
  },
  {
    "service_request": "2026-1302057",
    "request_type": "Property Maintenance",
    "request_reason": "Property Maintenance",
    "date_created": "2026-07-20T20:04:58.000",
    "date_modified": "2026-07-20T20:05:01.000",
    "request_status": "Pending",
    "responsible_agency": "Department of Code Enforcement",
    "final_address": "2735 Carver Rams Way",
    "address_councildis": "D",
    "status": "Pending",
    "rowid": "1302057",
    "final_x": "3689684.05078",
    "final_y": "545169.408399",
    "longitude": "-90.04174229865404",
    "latitude": "29.992775708813426",
    "geocoded_column": {
      "latitude": "29.992775708813426",
      "longitude": "-90.04174229865404"
    }
  },
  {
    "service_request": "2026-1302056",
    "request_type": "Abandoned Vehicles",
    "request_reason": "Abandoned/Junk Vehicles",
    "date_created": "2026-07-20T19:58:31.000",
    "date_modified": "2026-07-20T19:58:32.000",
    "request_status": "Pending",
    "responsible_agency": "Department of Public Works",
    "final_address": "3300 BLK Almonaster Ave",
    "address_councildis": "D",
    "status": "Pending",
    "rowid": "1302056",
    "final_x": "3689429.29729",
    "final_y": "545810.088614",
    "longitude": "-90.04252421816963",
    "latitude": "29.99454524146893",
    "geocoded_column": {
      "latitude": "29.99454524146893",
      "longitude": "-90.04252421816963"
    }
  },
  {
    "service_request": "2026-1302055",
    "request_type": "Property Maintenance",
    "request_reason": "Property Maintenance",
    "date_created": "2026-07-20T19:53:15.000",
    "date_modified": "2026-07-20T19:53:17.000",
    "request_status": "Pending",
    "responsible_agency": "Department of Code Enforcement",
    "final_address": "438 Vallette St",
    "address_councildis": "C",
    "status": "Pending",
    "rowid": "1302055",
    "final_x": "3687573.65762",
    "final_y": "530034.487425",
    "longitude": "-90.04894452560644",
    "latitude": "29.951225224929786",
    "geocoded_column": {
      "latitude": "29.951225224929786",
      "longitude": "-90.04894452560644"
    }
  },
  {
    "service_request": "2026-1302054",
    "request_type": "General Services",
    "request_reason": "General Service Request",
    "date_created": "2026-07-20T19:47:04.000",
    "date_modified": "2026-07-20T19:47:12.000",
    "request_status": "Pending",
    "responsible_agency": "Orleans Parish Communication District",
    "final_address": "4618 Cardenas Dr",
    "address_councildis": "E",
    "status": "Pending",
    "rowid": "1302054",
    "final_x": "3713682.30047",
    "final_y": "555661.887833",
    "longitude": "-89.965541335007",
    "latitude": "30.020860330598527",
    "geocoded_column": {
      "latitude": "30.020860330598527",
      "longitude": "-89.965541335007"
    }
  },
  {
    "service_request": "2026-1302053",
    "request_type": "Trash/Recycling",
    "request_reason": "Request a Large Item Pick Up",
    "date_created": "2026-07-20T19:41:44.000",
    "date_modified": "2026-07-20T19:41:46.000",
    "request_status": "Pending",
    "responsible_agency": "Department of Sanitation",
    "final_address": "316 Olivier St",
    "address_councildis": "C",
    "status": "Assigned to Contractor",
    "contractor": "Richards Disposal",
    "rowid": "1302053",
    "final_x": "3687326.83606",
    "final_y": "530616.80173",
    "longitude": "-90.04970326631673",
    "latitude": "29.95283399479289",
    "geocoded_column": {
      "latitude": "29.95283399479289",
      "longitude": "-90.04970326631673"
    }
  },
  {
    "service_request": "2026-1302052",
    "request_type": "General Services",
    "request_reason": "General Service Request",
    "date_created": "2026-07-20T19:39:53.000",
    "date_modified": "2026-07-20T19:39:57.000",
    "request_status": "Pending",
    "responsible_agency": "Orleans Parish Communication District",
    "final_address": "1254 Granada Dr, New Orleans, Louisiana, 70122",
    "address_councildis": "D",
    "status": "Pending",
    "rowid": "1302052",
    "final_x": "3677158.10146",
    "final_y": "550426.34338",
    "longitude": "-90.08112806979075",
    "latitude": "30.00761270436358",
    "geocoded_column": {
      "latitude": "30.00761270436358",
      "longitude": "-90.08112806979075"
    }
  },
  {
    "service_request": "2026-1302051",
    "request_type": "Roads and Streets",
    "request_reason": "Pothole",
    "date_created": "2026-07-20T19:30:31.000",
    "date_modified": "2026-07-20T19:30:33.000",
    "request_status": "Pending",
    "responsible_agency": "Department of Public Works",
    "final_address": "2020 Joliet St",
    "address_councildis": "A",
    "status": "Pending",
    "rowid": "1302051",
    "final_x": "3662875.73088",
    "final_y": "531554.443395",
    "longitude": "-90.12687819886872",
    "latitude": "29.956142727259152",
    "geocoded_column": {
      "latitude": "29.956142727259152",
      "longitude": "-90.12687819886872"
    }
  },
  {
    "service_request": "2026-1302050",
    "request_type": "Healthy Homes",
    "request_reason": "Healthy Homes",
    "date_created": "2026-07-20T19:23:46.000",
    "date_modified": "2026-07-20T19:23:50.000",
    "request_status": "Pending",
    "responsible_agency": "Department of Code Enforcement",
    "final_address": "2222 Tulane Ave",
    "address_councildis": "B",
    "status": "Pending",
    "rowid": "1302050",
    "final_x": "3675891.51131",
    "final_y": "532857.471172",
    "longitude": "-90.0857339437974",
    "latitude": "29.959342375659908",
    "geocoded_column": {
      "latitude": "29.959342375659908",
      "longitude": "-90.0857339437974"
    }
  },
  {
    "service_request": "2026-1302049",
    "request_type": "Tree Service",
    "request_reason": "Tree Trim",
    "date_created": "2026-07-20T19:17:39.000",
    "date_modified": "2026-07-20T19:17:41.000",
    "request_status": "Pending",
    "responsible_agency": "Department of Parks & Parkways",
    "final_address": "1515 St Charles Ave",
    "address_councildis": "B",
    "status": "Pending",
    "rowid": "1302049",
    "final_x": "3679071.04546",
    "final_y": "525435.617853",
    "longitude": "-90.0759509108928",
    "latitude": "29.93883918892539",
    "geocoded_column": {
      "latitude": "29.93883918892539",
      "longitude": "-90.0759509108928"
    }
  },
  {
    "service_request": "2026-1302048",
    "request_type": "Roads and Streets",
    "request_reason": "Pothole",
    "date_created": "2026-07-20T19:13:57.000",
    "date_modified": "2026-07-20T19:14:00.000",
    "request_status": "Pending",
    "responsible_agency": "Department of Public Works",
    "final_address": "5500 Camp St",
    "address_councildis": "A",
    "status": "Pending",
    "rowid": "1302048",
    "final_x": "3666480.20858",
    "final_y": "519188.756983",
    "longitude": "-90.11591129853882",
    "latitude": "29.92203620774913",
    "geocoded_column": {
      "latitude": "29.92203620774913",
      "longitude": "-90.11591129853882"
    }
  },
  {
    "service_request": "2026-1302047",
    "request_type": "Abandoned Vehicles",
    "request_reason": "Abandoned/Junk Vehicles",
    "date_created": "2026-07-20T18:59:52.000",
    "date_modified": "2026-07-20T18:59:55.000",
    "request_status": "Pending",
    "responsible_agency": "Department of Public Works",
    "final_address": "931 Evelina St",
    "address_councildis": "C",
    "status": "Pending",
    "rowid": "1302047",
    "final_x": "3688446.70831",
    "final_y": "529427.619009",
    "longitude": "-90.04620939622956",
    "latitude": "29.949529607456608",
    "geocoded_column": {
      "latitude": "29.949529607456608",
      "longitude": "-90.04620939622956"
    }
  },
  {
    "service_request": "2026-1302046",
    "request_type": "Tree Service",
    "request_reason": "Street or Sidewalk Blocked",
    "date_created": "2026-07-20T18:42:46.000",
    "date_modified": "2026-07-20T18:42:49.000",
    "request_status": "Pending",
    "responsible_agency": "Department of Parks & Parkways",
    "final_address": "14263 Dwyer Blvd",
    "address_councildis": "E",
    "status": "Pending",
    "rowid": "1302046",
    "final_x": "3729456.60358",
    "final_y": "563340.469664",
    "longitude": "-89.91539969423494",
    "latitude": "30.041446077201535",
    "geocoded_column": {
      "latitude": "30.041446077201535",
      "longitude": "-89.91539969423494"
    }
  },
  {
    "service_request": "2026-1302045",
    "request_type": "Parks & Grass Service",
    "request_reason": "Request Grass Cutting Service (City Owned Property)",
    "date_created": "2026-07-20T18:36:47.000",
    "date_modified": "2026-07-20T18:36:48.000",
    "request_status": "Pending",
    "responsible_agency": "Department of Parks & Parkways",
    "final_address": "5415 Milne St",
    "address_councildis": "A",
    "status": "Pending",
    "rowid": "1302045",
    "final_x": "3666721.44276",
    "final_y": "543642.037838",
    "longitude": "-90.11432864508848",
    "latitude": "29.989267680214894",
    "geocoded_column": {
      "latitude": "29.989267680214894",
      "longitude": "-90.11432864508848"
    }
  },
  {
    "service_request": "2026-1302044",
    "request_type": "Property Maintenance",
    "request_reason": "Property Maintenance",
    "date_created": "2026-07-20T18:32:31.000",
    "date_modified": "2026-07-20T18:32:33.000",
    "request_status": "Pending",
    "responsible_agency": "Department of Code Enforcement",
    "final_address": "5672 Rosemary Pl",
    "address_councildis": "A",
    "status": "Pending",
    "rowid": "1302044",
    "final_x": "3667130.47092",
    "final_y": "545366.638416",
    "longitude": "-90.11297862186501",
    "latitude": "29.99399777124545",
    "geocoded_column": {
      "latitude": "29.99399777124545",
      "longitude": "-90.11297862186501"
    }
  },
  {
    "service_request": "2026-1302043",
    "request_type": "Abandoned Vehicles",
    "request_reason": "Abandoned/Junk Vehicles",
    "date_created": "2026-07-20T18:25:19.000",
    "date_modified": "2026-07-20T18:25:20.000",
    "request_status": "Pending",
    "responsible_agency": "Department of Public Works",
    "final_address": "6751 Cindy Pl",
    "address_councildis": "E",
    "status": "Pending",
    "rowid": "1302043",
    "final_x": "3707213.76843",
    "final_y": "558933.492572",
    "longitude": "-89.98585827377242",
    "latitude": "30.030066693082198",
    "geocoded_column": {
      "latitude": "30.030066693082198",
      "longitude": "-89.98585827377242"
    }
  },
  {
    "service_request": "2026-1302042",
    "request_type": "Trash/Recycling",
    "request_reason": "Start Trash Service",
    "date_created": "2026-07-20T18:24:38.000",
    "date_modified": "2026-07-20T18:24:41.000",
    "request_status": "Pending",
    "responsible_agency": "Department of Sanitation",
    "final_address": "1557 Gentilly Blvd",
    "address_councildis": "A",
    "status": "Assigned to Contractor",
    "contractor": "IV Waste",
    "rowid": "1302042",
    "final_x": "3678316.58747",
    "final_y": "540414.149707",
    "longitude": "-90.07781466704236",
    "latitude": "29.980047831581732",
    "geocoded_column": {
      "latitude": "29.980047831581732",
      "longitude": "-90.07781466704236"
    }
  },
  {
    "service_request": "2026-1302041",
    "request_type": "Drainage",
    "request_reason": "Catch Basin Not Draining",
    "date_created": "2026-07-20T18:22:44.000",
    "date_modified": "2026-07-20T18:22:47.000",
    "request_status": "Pending",
    "responsible_agency": "Sewerage & Water Board",
    "final_address": "1939 Burgundy St Unit 12",
    "address_councildis": "C",
    "status": "Pending",
    "rowid": "1302041",
    "final_x": "3684221.97967",
    "final_y": "535603.855366",
    "longitude": "-90.05933192649974",
    "latitude": "29.966641955718597",
    "geocoded_column": {
      "latitude": "29.966641955718597",
      "longitude": "-90.05933192649974"
    }
  },
  {
    "service_request": "2026-1302040",
    "request_type": "General Services",
    "request_reason": "General Service Request",
    "date_created": "2026-07-20T18:20:37.000",
    "date_modified": "2026-07-20T18:20:41.000",
    "request_status": "Pending",
    "responsible_agency": "Orleans Parish Communication District",
    "final_address": "1936 Iberville St, New Orleans, Louisiana, 70112 S Prieur St, New Orleans, Louisiana, 70118",
    "address_councildis": "B",
    "status": "Pending",
    "rowid": "1302040",
    "final_x": "3677824.23771",
    "final_y": "533719.381573",
    "longitude": "-90.07960107219128",
    "latitude": "29.961654333497183",
    "geocoded_column": {
      "latitude": "29.961654333497183",
      "longitude": "-90.07960107219128"
    }
  },
  {
    "service_request": "2026-1302039",
    "request_type": "Streetlights",
    "request_reason": "Streetlight Outage/Malfunction",
    "date_created": "2026-07-20T18:05:01.000",
    "date_modified": "2026-07-20T18:05:03.000",
    "request_status": "Pending",
    "responsible_agency": "Department of Public Works",
    "final_address": "8427 Beechwood Ct",
    "address_councildis": "E",
    "status": "Pending",
    "rowid": "1302039",
    "final_x": "3704221.10826",
    "final_y": "560703.054366",
    "longitude": "-89.99524970980622",
    "latitude": "30.03502872408201",
    "geocoded_column": {
      "latitude": "30.03502872408201",
      "longitude": "-89.99524970980622"
    }
  },
  {
    "service_request": "2026-1302038",
    "request_type": "Trash/Recycling",
    "request_reason": "Request a Large Item Pick Up",
    "date_created": "2026-07-20T18:03:52.000",
    "date_modified": "2026-07-20T18:03:55.000",
    "request_status": "Pending",
    "responsible_agency": "Department of Sanitation",
    "final_address": "7518 Devine Ave",
    "address_councildis": "E",
    "status": "Assigned to Contractor",
    "contractor": "Waste Pro",
    "rowid": "1302038",
    "final_x": "3705755.53195",
    "final_y": "562735.874208",
    "longitude": "-89.99032543408268",
    "latitude": "30.040568818191048",
    "geocoded_column": {
      "latitude": "30.040568818191048",
      "longitude": "-89.99032543408268"
    }
  },
  {
    "service_request": "2026-1302037",
    "request_type": "Trash/Recycling",
    "request_reason": "Order Recycling Cart",
    "date_created": "2026-07-20T18:03:43.000",
    "date_modified": "2026-07-20T18:03:45.000",
    "request_status": "Pending",
    "responsible_agency": "Department of Sanitation",
    "final_address": "1932 Washington Ave",
    "address_councildis": "B",
    "status": "Pending",
    "rowid": "1302037",
    "final_x": "3675071.68846",
    "final_y": "523598.736187",
    "longitude": "-90.08864034401758",
    "latitude": "29.933908432425113",
    "geocoded_column": {
      "latitude": "29.933908432425113",
      "longitude": "-90.08864034401758"
    }
  },
  {
    "service_request": "2026-1302036",
    "request_type": "Abandoned Vehicles",
    "request_reason": "Abandoned/Junk Vehicles",
    "date_created": "2026-07-20T17:56:54.000",
    "date_modified": "2026-07-20T17:56:57.000",
    "request_status": "Pending",
    "responsible_agency": "Department of Public Works",
    "final_address": "3904 Perrier St",
    "address_councildis": "B",
    "status": "Pending",
    "rowid": "1302036",
    "final_x": "3672710.99726",
    "final_y": "520215.475576",
    "longitude": "-90.09620827637775",
    "latitude": "29.92467585552726",
    "geocoded_column": {
      "latitude": "29.92467585552726",
      "longitude": "-90.09620827637775"
    }
  },
  {
    "service_request": "2026-1302035",
    "request_type": "Drainage",
    "request_reason": "Catch Basin Frame and Cover Missing or Damaged",
    "date_created": "2026-07-20T17:44:22.000",
    "date_modified": "2026-07-20T17:44:25.000",
    "request_status": "Pending",
    "responsible_agency": "Sewerage & Water Board",
    "final_address": "2316 Jena St",
    "address_councildis": "B",
    "status": "Pending",
    "rowid": "1302035",
    "final_x": "3670139.67841",
    "final_y": "523451.011067",
    "longitude": "-90.1042155325179",
    "latitude": "29.93364862812841",
    "geocoded_column": {
      "latitude": "29.93364862812841",
      "longitude": "-90.1042155325179"
    }
  },
  {
    "service_request": "2026-1302034",
    "request_type": "Trash/Recycling",
    "request_reason": "Replace Trash Cart",
    "date_created": "2026-07-20T17:30:56.000",
    "date_modified": "2026-07-20T17:30:57.000",
    "request_status": "Pending",
    "responsible_agency": "Department of Sanitation",
    "final_address": "1950 Pace Blvd",
    "address_councildis": "C",
    "status": "Assigned to Contractor",
    "contractor": "Richards Disposal",
    "rowid": "1302034",
    "final_x": "3694520.73923",
    "final_y": "523241.526843",
    "longitude": "-90.02725366770001",
    "latitude": "29.93233097974988",
    "geocoded_column": {
      "latitude": "29.93233097974988",
      "longitude": "-90.02725366770001"
    }
  },
  {
    "service_request": "2026-1302033",
    "request_type": "Abandoned Vehicles",
    "request_reason": "Abandoned/Junk Vehicles",
    "date_created": "2026-07-20T17:27:42.000",
    "date_modified": "2026-07-20T17:27:45.000",
    "request_status": "Pending",
    "responsible_agency": "Department of Public Works",
    "final_address": "1 Julia St",
    "address_councildis": "B",
    "status": "Pending",
    "rowid": "1302033",
    "final_x": "3683253.04335",
    "final_y": "527350.419647",
    "longitude": "-90.06268085017655",
    "latitude": "29.943977404597607",
    "geocoded_column": {
      "latitude": "29.943977404597607",
      "longitude": "-90.06268085017655"
    }
  },
  {
    "service_request": "2026-1302032",
    "request_type": "Traffic Safety",
    "request_reason": "Request for Traffic Calming due to Speeding",
    "date_created": "2026-07-20T17:19:53.000",
    "date_modified": "2026-07-20T17:19:55.000",
    "request_status": "Pending",
    "responsible_agency": "Department of Public Works",
    "final_address": "2616 Hyman Pl",
    "address_councildis": "C",
    "status": "Pending",
    "rowid": "1302032",
    "final_x": "3701110.99524",
    "final_y": "521483.137273",
    "longitude": "-90.00651326119099",
    "latitude": "29.927287821017426",
    "geocoded_column": {
      "latitude": "29.927287821017426",
      "longitude": "-90.00651326119099"
    }
  },
  {
    "service_request": "2026-1302031",
    "request_type": "Roads and Streets",
    "request_reason": "Sidewalk Damaged or Missing",
    "date_created": "2026-07-20T17:17:35.000",
    "date_modified": "2026-07-20T17:17:37.000",
    "request_status": "Pending",
    "responsible_agency": "Department of Public Works",
    "final_address": "801 Jena St",
    "address_councildis": "B",
    "status": "Pending",
    "rowid": "1302031",
    "final_x": "3670728.44955",
    "final_y": "518413.313014",
    "longitude": "-90.10252763792063",
    "latitude": "29.91977918908989",
    "geocoded_column": {
      "latitude": "29.91977918908989",
      "longitude": "-90.10252763792063"
    }
  },
  {
    "service_request": "2026-1302030",
    "request_type": "Trash/Recycling",
    "request_reason": "Replace Trash Cart",
    "date_created": "2026-07-20T17:16:43.000",
    "date_modified": "2026-07-20T17:16:45.000",
    "request_status": "Pending",
    "responsible_agency": "Department of Sanitation",
    "final_address": "1626 St Anthony St",
    "address_councildis": "C",
    "status": "Assigned to Contractor",
    "contractor": "IV Waste",
    "rowid": "1302030",
    "final_x": "3683316.84578",
    "final_y": "538247.302793",
    "longitude": "-90.06209771358131",
    "latitude": "29.97393816125937",
    "geocoded_column": {
      "latitude": "29.97393816125937",
      "longitude": "-90.06209771358131"
    }
  },
  {
    "service_request": "2026-1302029",
    "request_type": "Drainage",
    "request_reason": "Catch Basin Not Draining",
    "date_created": "2026-07-20T17:16:37.000",
    "date_modified": "2026-07-20T17:16:39.000",
    "request_status": "Pending",
    "responsible_agency": "Sewerage & Water Board",
    "final_address": "2600 Hyman Pl",
    "address_councildis": "C",
    "status": "Pending",
    "rowid": "1302029",
    "final_x": "3701112.89521",
    "final_y": "521593.388409",
    "longitude": "-90.00650323343132",
    "latitude": "29.92759091305914",
    "geocoded_column": {
      "latitude": "29.92759091305914",
      "longitude": "-90.00650323343132"
    }
  },
  {
    "service_request": "2026-1302028",
    "request_type": "Drainage",
    "request_reason": "Catch Basin Not Draining",
    "date_created": "2026-07-20T17:15:30.000",
    "date_modified": "2026-07-20T17:15:32.000",
    "request_status": "Pending",
    "responsible_agency": "Sewerage & Water Board",
    "final_address": "2600 Hyman Pl",
    "address_councildis": "C",
    "status": "Pending",
    "rowid": "1302028",
    "final_x": "3701112.89521",
    "final_y": "521593.388409",
    "longitude": "-90.00650323343132",
    "latitude": "29.92759091305914",
    "geocoded_column": {
      "latitude": "29.92759091305914",
      "longitude": "-90.00650323343132"
    }
  },
  {
    "service_request": "2026-1302027",
    "request_type": "Drainage",
    "request_reason": "Catch Basin Not Draining",
    "date_created": "2026-07-20T17:14:16.000",
    "date_modified": "2026-07-20T17:14:17.000",
    "request_status": "Pending",
    "responsible_agency": "Sewerage & Water Board",
    "final_address": "2600 Hyman Pl",
    "address_councildis": "C",
    "status": "Pending",
    "rowid": "1302027",
    "final_x": "3701112.89521",
    "final_y": "521593.388409",
    "longitude": "-90.00650323343132",
    "latitude": "29.92759091305914",
    "geocoded_column": {
      "latitude": "29.92759091305914",
      "longitude": "-90.00650323343132"
    }
  },
  {
    "service_request": "2026-1302026",
    "request_type": "Trash/Recycling",
    "request_reason": "Start Trash Service",
    "date_created": "2026-07-20T17:14:07.000",
    "date_modified": "2026-07-20T17:14:17.000",
    "request_status": "Pending",
    "responsible_agency": "Department of Sanitation",
    "final_address": "1626 St Anthony St",
    "address_councildis": "C",
    "status": "Assigned to Contractor",
    "contractor": "IV Waste",
    "rowid": "1302026",
    "final_x": "3683316.84578",
    "final_y": "538247.302793",
    "longitude": "-90.06209771358131",
    "latitude": "29.97393816125937",
    "geocoded_column": {
      "latitude": "29.97393816125937",
      "longitude": "-90.06209771358131"
    }
  },
  {
    "service_request": "2026-1302025",
    "request_type": "Abandoned Vehicles",
    "request_reason": "Abandoned/Junk Vehicles",
    "date_created": "2026-07-20T17:13:20.000",
    "date_modified": "2026-07-20T17:13:21.000",
    "request_status": "Pending",
    "responsible_agency": "Department of Public Works",
    "final_address": "911 Homer St",
    "address_councildis": "C",
    "status": "Pending",
    "rowid": "1302025",
    "final_x": "3688242.82953",
    "final_y": "528278.817152",
    "longitude": "-90.04689385537615",
    "latitude": "29.946377090758457",
    "geocoded_column": {
      "latitude": "29.946377090758457",
      "longitude": "-90.04689385537615"
    }
  },
  {
    "service_request": "2026-1302024",
    "request_type": "Drainage",
    "request_reason": "Catch Basin Not Draining",
    "date_created": "2026-07-20T17:13:07.000",
    "date_modified": "2026-07-20T17:13:11.000",
    "request_status": "Pending",
    "responsible_agency": "Sewerage & Water Board",
    "final_address": "2600 Hyman Pl",
    "address_councildis": "C",
    "status": "Pending",
    "rowid": "1302024",
    "final_x": "3701112.89521",
    "final_y": "521593.388409",
    "longitude": "-90.00650323343132",
    "latitude": "29.92759091305914",
    "geocoded_column": {
      "latitude": "29.92759091305914",
      "longitude": "-90.00650323343132"
    }
  },
  {
    "service_request": "2026-1302023",
    "request_type": "Abandoned Vehicles",
    "request_reason": "Abandoned/Junk Vehicles",
    "date_created": "2026-07-20T17:07:36.000",
    "date_modified": "2026-07-20T17:07:39.000",
    "request_status": "Pending",
    "responsible_agency": "Department of Public Works",
    "final_address": "3490 Vespasian St",
    "address_councildis": "C",
    "status": "Pending",
    "rowid": "1302023",
    "final_x": "3696167.36093",
    "final_y": "522689.657594",
    "longitude": "-90.02207540022494",
    "latitude": "29.930761817414755",
    "geocoded_column": {
      "latitude": "29.930761817414755",
      "longitude": "-90.02207540022494"
    }
  },
  {
    "service_request": "2026-1302022",
    "request_type": "Drainage",
    "request_reason": "Ditch and Culvert Maintenance",
    "date_created": "2026-07-20T16:56:58.000",
    "date_modified": "2026-07-20T16:57:01.000",
    "request_status": "Pending",
    "responsible_agency": "Department of Public Works",
    "final_address": "7901 Devine Ave",
    "address_councildis": "E",
    "status": "Pending",
    "rowid": "1302022",
    "final_x": "3705310.89745",
    "final_y": "563839.626145",
    "longitude": "-89.99168977325742",
    "latitude": "30.04361802092966",
    "geocoded_column": {
      "latitude": "30.04361802092966",
      "longitude": "-89.99168977325742"
    }
  },
  {
    "service_request": "2026-1302021",
    "request_type": "Trash/Recycling",
    "request_reason": "Request a Large Item Pick Up",
    "date_created": "2026-07-20T16:51:03.000",
    "date_modified": "2026-07-20T16:51:06.000",
    "request_status": "Pending",
    "responsible_agency": "Department of Sanitation",
    "final_address": "28 St Claude Ct",
    "address_councildis": "E",
    "status": "Assigned to Contractor",
    "contractor": "Waste Pro",
    "rowid": "1302021",
    "final_x": "3697413.61706",
    "final_y": "533566.957445",
    "longitude": "-90.01774692065975",
    "latitude": "29.960631322418738",
    "geocoded_column": {
      "latitude": "29.960631322418738",
      "longitude": "-90.01774692065975"
    }
  },
  {
    "service_request": "2026-1302020",
    "request_type": "Trash/Recycling",
    "request_reason": "Replace Recycling Cart",
    "date_created": "2026-07-20T16:49:58.000",
    "date_modified": "2026-07-20T16:50:00.000",
    "request_status": "Pending",
    "responsible_agency": "Department of Sanitation",
    "final_address": "4602 Franklin Ave",
    "address_councildis": "D",
    "status": "Pending",
    "rowid": "1302020",
    "final_x": "3686802.65065",
    "final_y": "549714.235284",
    "longitude": "-90.05068339782875",
    "latitude": "30.00536133316424",
    "geocoded_column": {
      "latitude": "30.00536133316424",
      "longitude": "-90.05068339782875"
    }
  },
  {
    "service_request": "2026-1302019",
    "request_type": "Trash/Recycling",
    "request_reason": "Repair Trash Cart",
    "date_created": "2026-07-20T16:49:28.000",
    "date_modified": "2026-07-20T16:49:31.000",
    "request_status": "Pending",
    "responsible_agency": "Department of Sanitation",
    "final_address": "5302 Wingate Dr",
    "address_councildis": "D",
    "status": "Assigned to Contractor",
    "contractor": "IV Waste",
    "rowid": "1302019",
    "final_x": "3681403.45608",
    "final_y": "552152.170262",
    "longitude": "-90.06765554697887",
    "latitude": "30.012229854025456",
    "geocoded_column": {
      "latitude": "30.012229854025456",
      "longitude": "-90.06765554697887"
    }
  },
  {
    "service_request": "2026-1302018",
    "request_type": "Trash/Recycling",
    "request_reason": "Order Trash Cart",
    "date_created": "2026-07-20T16:47:41.000",
    "date_modified": "2026-07-20T16:47:43.000",
    "request_status": "Pending",
    "responsible_agency": "Department of Sanitation",
    "final_address": "2538 Congress St",
    "address_councildis": "D",
    "status": "Assigned to Contractor",
    "contractor": "IV Waste",
    "rowid": "1302018",
    "final_x": "3692074.04886",
    "final_y": "541190.92238",
    "longitude": "-90.03433522588692",
    "latitude": "29.98176201500974",
    "geocoded_column": {
      "latitude": "29.98176201500974",
      "longitude": "-90.03433522588692"
    }
  },
  {
    "service_request": "2026-1302017",
    "request_type": "Trash/Recycling",
    "request_reason": "Request a Large Item Pick Up",
    "date_created": "2026-07-20T16:47:17.000",
    "date_modified": "2026-07-20T16:47:20.000",
    "request_status": "Pending",
    "responsible_agency": "Department of Sanitation",
    "final_address": "5142 Westgrove Park",
    "address_councildis": "C",
    "status": "Assigned to Contractor",
    "contractor": "Richards Disposal",
    "rowid": "1302017",
    "final_x": "3703333.11818",
    "final_y": "511020.75224",
    "longitude": "-89.999882978148",
    "latitude": "29.898448904630122",
    "geocoded_column": {
      "latitude": "29.898448904630122",
      "longitude": "-89.999882978148"
    }
  },
  {
    "service_request": "2026-1302016",
    "request_type": "Trash/Recycling",
    "request_reason": "Order Recycling Cart",
    "date_created": "2026-07-20T16:46:13.000",
    "date_modified": "2026-07-20T16:46:40.000",
    "request_status": "Pending",
    "responsible_agency": "Department of Sanitation",
    "final_address": "2538 Congress St",
    "address_councildis": "D",
    "status": "Pending",
    "rowid": "1302016",
    "final_x": "3692074.04886",
    "final_y": "541190.92238",
    "longitude": "-90.03433522588692",
    "latitude": "29.98176201500974",
    "geocoded_column": {
      "latitude": "29.98176201500974",
      "longitude": "-90.03433522588692"
    }
  },
  {
    "service_request": "2026-1302015",
    "request_type": "Trash/Recycling",
    "request_reason": "Request a Large Item Pick Up",
    "date_created": "2026-07-20T16:45:13.000",
    "date_modified": "2026-07-20T16:45:16.000",
    "request_status": "Pending",
    "responsible_agency": "Department of Sanitation",
    "final_address": "7161 Bunker Hill Rd",
    "address_councildis": "E",
    "status": "Assigned to Contractor",
    "contractor": "Waste Pro",
    "rowid": "1302015",
    "final_x": "3705648.29534",
    "final_y": "561058.241246",
    "longitude": "-89.99072645793701",
    "latitude": "30.035959444968075",
    "geocoded_column": {
      "latitude": "30.035959444968075",
      "longitude": "-89.99072645793701"
    }
  },
  {
    "service_request": "2026-1302014",
    "request_type": "Trash/Recycling",
    "request_reason": "Request a Large Item Pick Up",
    "date_created": "2026-07-20T16:42:20.000",
    "date_modified": "2026-07-20T16:42:22.000",
    "request_status": "Pending",
    "responsible_agency": "Department of Sanitation",
    "final_address": "7810 W Laverne St",
    "address_councildis": "D",
    "status": "Assigned to Contractor",
    "contractor": "Waste Pro",
    "rowid": "1302014",
    "final_x": "3694937.49795",
    "final_y": "559134.482012",
    "longitude": "-90.02464386126871",
    "latitude": "30.031010574094854",
    "geocoded_column": {
      "latitude": "30.031010574094854",
      "longitude": "-90.02464386126871"
    }
  },
  {
    "service_request": "2026-1302013",
    "request_type": "Street and Traffic Signs",
    "request_reason": "Traffic or Parking Sign Damaged or Missing",
    "date_created": "2026-07-20T16:41:51.000",
    "date_modified": "2026-07-20T16:41:52.000",
    "request_status": "Pending",
    "responsible_agency": "Department of Public Works",
    "final_address": "1304 S Claiborne Ave",
    "address_councildis": "B",
    "status": "Pending",
    "rowid": "1302013",
    "final_x": "3675503.74971",
    "final_y": "528367.645056",
    "longitude": "-90.08711260226971",
    "latitude": "29.94700845326293",
    "geocoded_column": {
      "latitude": "29.94700845326293",
      "longitude": "-90.08711260226971"
    }
  },
  {
    "service_request": "2026-1302012",
    "request_type": "Trash/Recycling",
    "request_reason": "Illegal Dumping",
    "date_created": "2026-07-20T16:41:43.000",
    "date_modified": "2026-07-20T16:41:46.000",
    "request_status": "Pending",
    "responsible_agency": "Department of Sanitation",
    "final_address": "David Street & Toulouse Street",
    "address_councildis": "A",
    "status": "Pending",
    "rowid": "1302012",
    "final_x": "3671968.3874",
    "final_y": "539930.295243",
    "longitude": "-90.09788145071518",
    "latitude": "29.978907131012516",
    "geocoded_column": {
      "latitude": "29.978907131012516",
      "longitude": "-90.09788145071518"
    }
  },
  {
    "service_request": "2026-1302011",
    "request_type": "Trash/Recycling",
    "request_reason": "Request a Large Item Pick Up",
    "date_created": "2026-07-20T16:38:57.000",
    "date_modified": "2026-07-20T16:38:59.000",
    "request_status": "Pending",
    "responsible_agency": "Department of Sanitation",
    "final_address": "1626 Paul Morphy St",
    "address_councildis": "D",
    "status": "Assigned to Contractor",
    "contractor": "IV Waste",
    "rowid": "1302011",
    "final_x": "3678964.93506",
    "final_y": "540537.338955",
    "longitude": "-90.07576264465283",
    "latitude": "29.980367009659616",
    "geocoded_column": {
      "latitude": "29.980367009659616",
      "longitude": "-90.07576264465283"
    }
  },
  {
    "service_request": "2026-1302010",
    "request_type": "Street and Traffic Signs",
    "request_reason": "Traffic or Parking Sign Damaged or Missing",
    "date_created": "2026-07-20T16:36:31.000",
    "date_modified": "2026-07-20T16:36:33.000",
    "request_status": "Pending",
    "responsible_agency": "Department of Public Works",
    "final_address": "1432 S Derbigny St",
    "address_councildis": "B",
    "status": "Pending",
    "rowid": "1302010",
    "final_x": "3674834.19777",
    "final_y": "528376.386304",
    "longitude": "-90.08922632951905",
    "latitude": "29.947052495103694",
    "geocoded_column": {
      "latitude": "29.947052495103694",
      "longitude": "-90.08922632951905"
    }
  },
  {
    "service_request": "2026-1302009",
    "request_type": "Trash/Recycling",
    "request_reason": "Request a Large Item Pick Up",
    "date_created": "2026-07-20T16:35:06.000",
    "date_modified": "2026-07-20T16:35:08.000",
    "request_status": "Pending",
    "responsible_agency": "Department of Sanitation",
    "final_address": "8426 Green St",
    "address_councildis": "A",
    "status": "Assigned to Contractor",
    "contractor": "IV Waste",
    "rowid": "1302009",
    "final_x": "3662165.34477",
    "final_y": "530510.060674",
    "longitude": "-90.12915602535547",
    "latitude": "29.95329155954878",
    "geocoded_column": {
      "latitude": "29.95329155954878",
      "longitude": "-90.12915602535547"
    }
  },
  {
    "service_request": "2026-1302008",
    "request_type": "Property Maintenance",
    "request_reason": "Property Maintenance",
    "date_created": "2026-07-20T16:32:31.000",
    "date_modified": "2026-07-20T16:32:33.000",
    "request_status": "Pending",
    "responsible_agency": "Department of Code Enforcement",
    "final_address": "1412 S Derbigny St",
    "address_councildis": "B",
    "status": "Pending",
    "rowid": "1302008",
    "final_x": "3674892.68763",
    "final_y": "528471.20608",
    "longitude": "-90.08903840393435",
    "latitude": "29.947311471824445",
    "geocoded_column": {
      "latitude": "29.947311471824445",
      "longitude": "-90.08903840393435"
    }
  },
  {
    "service_request": "2026-1302007",
    "request_type": "Property Maintenance",
    "request_reason": "Property Maintenance",
    "date_created": "2026-07-20T16:31:14.000",
    "date_modified": "2026-07-20T16:31:16.000",
    "request_status": "Pending",
    "responsible_agency": "Department of Code Enforcement",
    "final_address": "1428 S Derbigny St",
    "address_councildis": "B",
    "status": "Pending",
    "rowid": "1302007",
    "final_x": "3674848.7819",
    "final_y": "528400.666496",
    "longitude": "-90.08917944953133",
    "latitude": "29.947118822196373",
    "geocoded_column": {
      "latitude": "29.947118822196373",
      "longitude": "-90.08917944953133"
    }
  },
  {
    "service_request": "2026-1302005",
    "request_type": "Property Maintenance",
    "request_reason": "Property Maintenance",
    "date_created": "2026-07-20T16:29:58.000",
    "date_modified": "2026-07-20T16:29:59.000",
    "request_status": "Pending",
    "responsible_agency": "Department of Code Enforcement",
    "final_address": "1418 S Derbigny St",
    "address_councildis": "B",
    "status": "Pending",
    "rowid": "1302005",
    "final_x": "3674875.60718",
    "final_y": "528447.322816",
    "longitude": "-90.08909315233585",
    "latitude": "29.947246310739843",
    "geocoded_column": {
      "latitude": "29.947246310739843",
      "longitude": "-90.08909315233585"
    }
  },
  {
    "service_request": "2026-1302004",
    "request_type": "Trash/Recycling",
    "request_reason": "Request a Large Item Pick Up",
    "date_created": "2026-07-20T16:29:47.000",
    "date_modified": "2026-07-20T16:29:49.000",
    "request_status": "Pending",
    "responsible_agency": "Department of Sanitation",
    "final_address": "517 N Lopez St",
    "address_councildis": "A",
    "status": "Assigned to Contractor",
    "contractor": "IV Waste",
    "rowid": "1302004",
    "final_x": "3674805.53237",
    "final_y": "537585.906632",
    "longitude": "-90.08900106379471",
    "latitude": "29.972376444992474",
    "geocoded_column": {
      "latitude": "29.972376444992474",
      "longitude": "-90.08900106379471"
    }
  },
  {
    "service_request": "2026-1302003",
    "request_type": "Property Maintenance",
    "request_reason": "Property Maintenance",
    "date_created": "2026-07-20T16:28:48.000",
    "date_modified": "2026-07-20T16:28:50.000",
    "request_status": "Pending",
    "responsible_agency": "Department of Code Enforcement",
    "final_address": "1416 S Derbigny St",
    "address_councildis": "B",
    "status": "Pending",
    "rowid": "1302003",
    "final_x": "3674881.68411",
    "final_y": "528456.879104",
    "longitude": "-90.08907363749572",
    "latitude": "29.947272405927716",
    "geocoded_column": {
      "latitude": "29.947272405927716",
      "longitude": "-90.08907363749572"
    }
  },
  {
    "service_request": "2026-1302002",
    "request_type": "Roads and Streets",
    "request_reason": "Sidewalk Damaged or Missing",
    "date_created": "2026-07-20T16:27:49.000",
    "date_modified": "2026-07-20T16:28:38.000",
    "request_status": "Pending",
    "responsible_agency": "Department of Public Works",
    "final_address": "6113 Magazine St",
    "address_councildis": "A",
    "status": "Pending",
    "rowid": "1302002",
    "final_x": "3664030.85773",
    "final_y": "519514.640055",
    "longitude": "-90.12363204898045",
    "latitude": "29.923003613743685",
    "geocoded_column": {
      "latitude": "29.923003613743685",
      "longitude": "-90.12363204898045"
    }
  },
  {
    "service_request": "2026-1302001",
    "request_type": "Property Maintenance",
    "request_reason": "Property Maintenance",
    "date_created": "2026-07-20T16:27:16.000",
    "date_modified": "2026-07-20T16:27:18.000",
    "request_status": "Pending",
    "responsible_agency": "Department of Code Enforcement",
    "final_address": "1426 S Derbigny St",
    "address_councildis": "B",
    "status": "Pending",
    "rowid": "1302001",
    "final_x": "3674859.41877",
    "final_y": "528423.939904",
    "longitude": "-90.08914506700175",
    "latitude": "29.947182498801222",
    "geocoded_column": {
      "latitude": "29.947182498801222",
      "longitude": "-90.08914506700175"
    }
  },
  {
    "service_request": "2026-1302000",
    "request_type": "Property Maintenance",
    "request_reason": "Property Maintenance",
    "date_created": "2026-07-20T16:25:46.000",
    "date_modified": "2026-07-20T16:25:47.000",
    "request_status": "Pending",
    "responsible_agency": "Department of Code Enforcement",
    "final_address": "1424 S Derbigny St",
    "address_councildis": "B",
    "status": "Pending",
    "rowid": "1302000",
    "final_x": "3674867.20865",
    "final_y": "528432.929024",
    "longitude": "-90.08912016319552",
    "latitude": "29.947206983328428",
    "geocoded_column": {
      "latitude": "29.947206983328428",
      "longitude": "-90.08912016319552"
    }
  },
  {
    "service_request": "2026-1301999",
    "request_type": "Trash/Recycling",
    "request_reason": "Request a Large Item Pick Up",
    "date_created": "2026-07-20T16:25:03.000",
    "date_modified": "2026-07-20T16:25:04.000",
    "request_status": "Pending",
    "responsible_agency": "Department of Sanitation",
    "final_address": "605 Vallette St",
    "address_councildis": "C",
    "status": "Assigned to Contractor",
    "contractor": "Richards Disposal",
    "rowid": "1301999",
    "final_x": "3687473.24118",
    "final_y": "529437.939265",
    "longitude": "-90.04928269819884",
    "latitude": "29.949588016203595",
    "geocoded_column": {
      "latitude": "29.949588016203595",
      "longitude": "-90.04928269819884"
    }
  },
  {
    "service_request": "2026-1301998",
    "request_type": "Trash/Recycling",
    "request_reason": "Request a Large Item Pick Up",
    "date_created": "2026-07-20T16:23:11.000",
    "date_modified": "2026-07-20T16:23:12.000",
    "request_status": "Pending",
    "responsible_agency": "Department of Sanitation",
    "final_address": "5400 Bundy Rd",
    "address_councildis": "E",
    "status": "Assigned to Contractor",
    "contractor": "Waste Pro",
    "rowid": "1301998",
    "final_x": "3708481.61163",
    "final_y": "557868.105115",
    "longitude": "-89.98189163154923",
    "latitude": "30.027096239584107",
    "geocoded_column": {
      "latitude": "30.027096239584107",
      "longitude": "-89.98189163154923"
    }
  },
  {
    "service_request": "2026-1301997",
    "request_type": "Trash/Recycling",
    "request_reason": "Order Recycling Cart",
    "date_created": "2026-07-20T16:21:20.000",
    "date_modified": "2026-07-20T16:21:22.000",
    "request_status": "Pending",
    "responsible_agency": "Department of Sanitation",
    "final_address": "8515 Jeannette St A",
    "address_councildis": "A",
    "status": "Pending",
    "rowid": "1301997",
    "final_x": "3661554.92902",
    "final_y": "530226.450881",
    "longitude": "-90.13109286196277",
    "latitude": "29.952529348707436",
    "geocoded_column": {
      "latitude": "29.952529348707436",
      "longitude": "-90.13109286196277"
    }
  },
  {
    "service_request": "2026-1301996",
    "request_type": "Trash/Recycling",
    "request_reason": "Illegal Dumping",
    "date_created": "2026-07-20T16:20:29.000",
    "date_modified": "2026-07-20T16:20:31.000",
    "request_status": "Pending",
    "responsible_agency": "Department of Sanitation",
    "final_address": "1430 Elysian Fields Ave",
    "address_councildis": "C",
    "status": "Pending",
    "rowid": "1301996",
    "final_x": "3684808.76668",
    "final_y": "537656.705416",
    "longitude": "-90.05740667185813",
    "latitude": "29.972268628101578",
    "geocoded_column": {
      "latitude": "29.972268628101578",
      "longitude": "-90.05740667185813"
    }
  },
  {
    "service_request": "2026-1301995",
    "request_type": "Property Maintenance",
    "request_reason": "Property Maintenance",
    "date_created": "2026-07-20T16:20:13.000",
    "date_modified": "2026-07-20T16:20:14.000",
    "request_status": "Pending",
    "responsible_agency": "Department of Code Enforcement",
    "final_address": "2818 Jackson Ave",
    "address_councildis": "B",
    "status": "Pending",
    "rowid": "1301995",
    "final_x": "3674689.02132",
    "final_y": "527449.309311",
    "longitude": "-90.0897164753688",
    "latitude": "29.944507672486562",
    "geocoded_column": {
      "latitude": "29.944507672486562",
      "longitude": "-90.0897164753688"
    }
  },
  {
    "service_request": "2026-1301994",
    "request_type": "Property Maintenance",
    "request_reason": "Property Maintenance",
    "date_created": "2026-07-20T16:20:10.000",
    "date_modified": "2026-07-20T16:20:12.000",
    "request_status": "Pending",
    "responsible_agency": "Department of Code Enforcement",
    "final_address": "3121 Thalia St",
    "address_councildis": "B",
    "status": "Pending",
    "rowid": "1301994",
    "final_x": "3674792.5755",
    "final_y": "528736.531136",
    "longitude": "-90.08934540159737",
    "latitude": "29.948044016922328",
    "geocoded_column": {
      "latitude": "29.948044016922328",
      "longitude": "-90.08934540159737"
    }
  },
  {
    "service_request": "2026-1301993",
    "request_type": "Property Maintenance",
    "request_reason": "Property Maintenance",
    "date_created": "2026-07-20T16:17:38.000",
    "date_modified": "2026-07-20T16:17:41.000",
    "request_status": "Pending",
    "responsible_agency": "Department of Code Enforcement",
    "final_address": "3117 Thalia St",
    "address_councildis": "B",
    "status": "Pending",
    "rowid": "1301993",
    "final_x": "3674817.87566",
    "final_y": "528720.670336",
    "longitude": "-90.0892660623818",
    "latitude": "29.947999649685144",
    "geocoded_column": {
      "latitude": "29.947999649685144",
      "longitude": "-90.0892660623818"
    }
  },
  {
    "service_request": "2026-1301992",
    "request_type": "Roads and Streets",
    "request_reason": "Sidewalk Damaged or Missing",
    "date_created": "2026-07-20T16:16:19.000",
    "date_modified": "2026-07-20T16:17:09.000",
    "request_status": "Pending",
    "responsible_agency": "Department of Public Works",
    "final_address": "6113 Magazine St",
    "address_councildis": "A",
    "status": "Pending",
    "rowid": "1301992",
    "final_x": "3664030.85773",
    "final_y": "519514.640055",
    "longitude": "-90.12363204898045",
    "latitude": "29.923003613743685",
    "geocoded_column": {
      "latitude": "29.923003613743685",
      "longitude": "-90.12363204898045"
    }
  },
  {
    "service_request": "2026-1301991",
    "request_type": "Drainage",
    "request_reason": "Catch Basin Not Draining",
    "date_created": "2026-07-20T16:12:00.000",
    "date_modified": "2026-07-20T16:12:03.000",
    "request_status": "Pending",
    "responsible_agency": "Sewerage & Water Board",
    "final_address": "3437 Freret St",
    "address_councildis": "B",
    "status": "Pending",
    "rowid": "1301991",
    "final_x": "3672613.05966",
    "final_y": "524379.700924",
    "longitude": "-90.09637552948054",
    "latitude": "29.936129039894507",
    "geocoded_column": {
      "latitude": "29.936129039894507",
      "longitude": "-90.09637552948054"
    }
  },
  {
    "service_request": "2026-1301990",
    "request_type": "Drainage",
    "request_reason": "Catch Basin Not Draining",
    "date_created": "2026-07-20T16:10:26.000",
    "date_modified": "2026-07-20T16:10:28.000",
    "request_status": "Pending",
    "responsible_agency": "Sewerage & Water Board",
    "final_address": "2127 S Carrollton Ave",
    "address_councildis": "A",
    "status": "Pending",
    "rowid": "1301990",
    "final_x": "3664379.39303",
    "final_y": "530783.698946",
    "longitude": "-90.12215584884348",
    "latitude": "29.953979811889866",
    "geocoded_column": {
      "latitude": "29.953979811889866",
      "longitude": "-90.12215584884348"
    }
  },
  {
    "service_request": "2026-1301989",
    "request_type": "Property Maintenance",
    "request_reason": "Property Maintenance",
    "date_created": "2026-07-20T16:10:17.000",
    "date_modified": "2026-07-20T16:10:19.000",
    "request_status": "Pending",
    "responsible_agency": "Department of Code Enforcement",
    "final_address": "1977 N Rocheblave St",
    "address_councildis": "D",
    "status": "Pending",
    "rowid": "1301989",
    "final_x": "3682309.98716",
    "final_y": "540943.270411",
    "longitude": "-90.0651833619741",
    "latitude": "29.981381809192047",
    "geocoded_column": {
      "latitude": "29.981381809192047",
      "longitude": "-90.0651833619741"
    }
  },
  {
    "service_request": "2026-1301988",
    "request_type": "Drainage",
    "request_reason": "Catch Basin Not Draining",
    "date_created": "2026-07-20T16:09:17.000",
    "date_modified": "2026-07-20T16:09:19.000",
    "request_status": "Pending",
    "responsible_agency": "Sewerage & Water Board",
    "final_address": "4758 Bundy Rd",
    "address_councildis": "E",
    "status": "Pending",
    "rowid": "1301988",
    "final_x": "3709251.28817",
    "final_y": "555931.779801",
    "longitude": "-89.97953183882387",
    "latitude": "30.021747120089312",
    "geocoded_column": {
      "latitude": "30.021747120089312",
      "longitude": "-89.97953183882387"
    }
  },
  {
    "service_request": "2026-1301987",
    "request_type": "Street and Traffic Signs",
    "request_reason": "Stop Sign Missing or Damaged",
    "date_created": "2026-07-20T16:08:07.000",
    "date_modified": "2026-07-20T16:08:09.000",
    "request_status": "Pending",
    "responsible_agency": "Department of Public Works",
    "final_address": "1323 S Derbigny St",
    "address_councildis": "B",
    "status": "Pending",
    "rowid": "1301987",
    "final_x": "3674920.98037",
    "final_y": "528685.855808",
    "longitude": "-90.08894171264667",
    "latitude": "29.947900842776853",
    "geocoded_column": {
      "latitude": "29.947900842776853",
      "longitude": "-90.08894171264667"
    }
  },
  {
    "service_request": "2026-1301986",
    "request_type": "Property Maintenance",
    "request_reason": "Property Maintenance",
    "date_created": "2026-07-20T16:07:49.000",
    "date_modified": "2026-07-20T16:11:07.000",
    "request_status": "Pending",
    "responsible_agency": "Department of Code Enforcement",
    "final_address": "1953 N Rocheblave St",
    "address_councildis": "D",
    "status": "Pending",
    "rowid": "1301986",
    "final_x": "3682123.69109",
    "final_y": "540929.084299",
    "longitude": "-90.06577226564437",
    "latitude": "29.981348470310532",
    "geocoded_column": {
      "latitude": "29.981348470310532",
      "longitude": "-90.06577226564437"
    }
  },
  {
    "service_request": "2026-1301985",
    "request_type": "Trash/Recycling",
    "request_reason": "Repair Recycling Cart",
    "date_created": "2026-07-20T16:05:29.000",
    "date_modified": "2026-07-20T16:05:30.000",
    "request_status": "Pending",
    "responsible_agency": "Department of Sanitation",
    "final_address": "6028 Marshal Foch St",
    "address_councildis": "A",
    "status": "Pending",
    "rowid": "1301985",
    "final_x": "3669754.78823",
    "final_y": "547394.826769",
    "longitude": "-90.10462004974892",
    "latitude": "29.99949747453317",
    "geocoded_column": {
      "latitude": "29.99949747453317",
      "longitude": "-90.10462004974892"
    }
  },
  {
    "service_request": "2026-1301984",
    "request_type": "Property Maintenance",
    "request_reason": "Property Maintenance",
    "date_created": "2026-07-20T16:04:08.000",
    "date_modified": "2026-07-20T16:04:09.000",
    "request_status": "Pending",
    "responsible_agency": "Department of Code Enforcement",
    "final_address": "2328 Aubry St",
    "address_councildis": "D",
    "status": "Pending",
    "rowid": "1301984",
    "final_x": "3680652.02991",
    "final_y": "540308.719179",
    "longitude": "-90.07044203937707",
    "latitude": "29.979687364334435",
    "geocoded_column": {
      "latitude": "29.979687364334435",
      "longitude": "-90.07044203937707"
    }
  },
  {
    "service_request": "2026-1301983",
    "request_type": "Safety & Permits",
    "request_reason": "Zoning Enforcement",
    "date_created": "2026-07-20T16:03:30.000",
    "date_modified": "2026-07-20T16:03:32.000",
    "request_status": "Pending",
    "responsible_agency": "Safety and Permits",
    "final_address": "3644 Annunciation St",
    "address_councildis": "B",
    "status": "Pending",
    "rowid": "1301983",
    "final_x": "3674146.55278",
    "final_y": "518125.524214",
    "longitude": "-90.09174818692992",
    "latitude": "29.918886463349764",
    "geocoded_column": {
      "latitude": "29.918886463349764",
      "longitude": "-90.09174818692992"
    }
  },
  {
    "service_request": "2026-1301982",
    "request_type": "Trash/Recycling",
    "request_reason": "Request a Large Item Pick Up",
    "date_created": "2026-07-20T15:58:21.000",
    "date_modified": "2026-07-20T15:58:23.000",
    "request_status": "Pending",
    "responsible_agency": "Department of Sanitation",
    "final_address": "4134 Duplessis St",
    "address_councildis": "D",
    "status": "Assigned to Contractor",
    "contractor": "IV Waste",
    "rowid": "1301982",
    "final_x": "3678278.48021",
    "final_y": "547553.271698",
    "longitude": "-90.07768793455503",
    "latitude": "29.99967906587595",
    "geocoded_column": {
      "latitude": "29.99967906587595",
      "longitude": "-90.07768793455503"
    }
  },
  {
    "service_request": "2026-1301981",
    "request_type": "Trash/Recycling",
    "request_reason": "Request a Large Item Pick Up",
    "date_created": "2026-07-20T15:54:01.000",
    "date_modified": "2026-07-20T15:54:03.000",
    "request_status": "Pending",
    "responsible_agency": "Department of Sanitation",
    "final_address": "4622 Annunciation St",
    "address_councildis": "B",
    "status": "Assigned to Contractor",
    "contractor": "IV Waste",
    "rowid": "1301981",
    "final_x": "3670222.69102",
    "final_y": "517614.26303",
    "longitude": "-90.10415113079488",
    "latitude": "29.9175969825772",
    "geocoded_column": {
      "latitude": "29.9175969825772",
      "longitude": "-90.10415113079488"
    }
  },
  {
    "service_request": "2026-1301980",
    "request_type": "Trash/Recycling",
    "request_reason": "Repair Recycling Cart",
    "date_created": "2026-07-20T15:53:05.000",
    "date_modified": "2026-07-20T15:53:07.000",
    "request_status": "Pending",
    "responsible_agency": "Department of Sanitation",
    "final_address": "3941 Clermont Dr",
    "address_councildis": "D",
    "status": "Pending",
    "rowid": "1301980",
    "final_x": "3685189.56425",
    "final_y": "547088.501521",
    "longitude": "-90.05587196222511",
    "latitude": "29.998191063953705",
    "geocoded_column": {
      "latitude": "29.998191063953705",
      "longitude": "-90.05587196222511"
    }
  },
  {
    "service_request": "2026-1301979",
    "request_type": "Trash/Recycling",
    "request_reason": "Repair Trash Cart",
    "date_created": "2026-07-20T15:51:21.000",
    "date_modified": "2026-07-20T15:51:23.000",
    "request_status": "Pending",
    "responsible_agency": "Department of Sanitation",
    "final_address": "10151 Plainfield Dr",
    "address_councildis": "E",
    "status": "Assigned to Contractor",
    "contractor": "Waste Pro",
    "rowid": "1301979",
    "final_x": "3710291.44254",
    "final_y": "562759.0024",
    "longitude": "-89.97598971597031",
    "latitude": "30.040485450158673",
    "geocoded_column": {
      "latitude": "30.040485450158673",
      "longitude": "-89.97598971597031"
    }
  },
  {
    "service_request": "2026-1301978",
    "request_type": "Trash/Recycling",
    "request_reason": "Repair Trash Cart",
    "date_created": "2026-07-20T15:51:08.000",
    "date_modified": "2026-07-20T15:51:10.000",
    "request_status": "Pending",
    "responsible_agency": "Department of Sanitation",
    "final_address": "2631 Jasmine St",
    "address_councildis": "D",
    "status": "Assigned to Contractor",
    "contractor": "IV Waste",
    "rowid": "1301978",
    "final_x": "3687280.55017",
    "final_y": "548146.253138",
    "longitude": "-90.04922912578233",
    "latitude": "30.001035233635648",
    "geocoded_column": {
      "latitude": "30.001035233635648",
      "longitude": "-90.04922912578233"
    }
  },
  {
    "service_request": "2026-1301977",
    "request_type": "Trash/Recycling",
    "request_reason": "Missed Trash Pick-Up",
    "date_created": "2026-07-20T15:49:36.000",
    "date_modified": "2026-07-20T16:24:10.000",
    "case_close_date": "2026-07-20T11:24:09.000",
    "request_status": "Closed",
    "responsible_agency": "Department of Sanitation",
    "final_address": "9824 Morrison Rd",
    "address_councildis": "E",
    "status": "Invalid Request",
    "contractor": "Waste Pro",
    "contractor_action": "Invalid",
    "rowid": "1301977",
    "final_x": "3707854.94129",
    "final_y": "562894.760864",
    "longitude": "-89.9836847445334",
    "latitude": "30.040937867419387",
    "geocoded_column": {
      "latitude": "30.040937867419387",
      "longitude": "-89.9836847445334"
    }
  },
  {
    "service_request": "2026-1301976",
    "request_type": "Trash/Recycling",
    "request_reason": "Request a Large Item Pick Up",
    "date_created": "2026-07-20T15:48:20.000",
    "date_modified": "2026-07-20T15:48:22.000",
    "request_status": "Pending",
    "responsible_agency": "Department of Sanitation",
    "final_address": "1730 Delachaise St",
    "address_councildis": "B",
    "status": "Assigned to Contractor",
    "contractor": "IV Waste",
    "rowid": "1301976",
    "final_x": "3673518.04641",
    "final_y": "521970.705594",
    "longitude": "-90.09360074132539",
    "latitude": "29.929478189244346",
    "geocoded_column": {
      "latitude": "29.929478189244346",
      "longitude": "-90.09360074132539"
    }
  },
  {
    "service_request": "2026-1301975",
    "request_type": "General Services",
    "request_reason": "General Service Request",
    "date_created": "2026-07-20T15:47:48.000",
    "date_modified": "2026-07-20T15:49:14.000",
    "case_close_date": "2026-07-20T10:49:13.000",
    "request_status": "Closed",
    "responsible_agency": "Orleans Parish Communication District",
    "final_address": "4560 Eastview Dr",
    "address_councildis": "E",
    "status": "Question Answered.",
    "rowid": "1301975",
    "final_x": "3705169.95083",
    "final_y": "554206.791448",
    "longitude": "-89.99249146984212",
    "latitude": "30.017136024959175",
    "geocoded_column": {
      "latitude": "30.017136024959175",
      "longitude": "-89.99249146984212"
    }
  },
  {
    "service_request": "2026-1301974",
    "request_type": "Trash/Recycling",
    "request_reason": "Repair Trash Cart",
    "date_created": "2026-07-20T15:46:44.000",
    "date_modified": "2026-07-20T15:46:54.000",
    "request_status": "Pending",
    "responsible_agency": "Department of Sanitation",
    "final_address": "7712 Sandy Cove Dr",
    "address_councildis": "E",
    "status": "Assigned to Contractor",
    "contractor": "Waste Pro",
    "rowid": "1301974",
    "final_x": "3715268.2588",
    "final_y": "569689.157734",
    "longitude": "-89.95999900939202",
    "latitude": "30.059377504699874",
    "geocoded_column": {
      "latitude": "30.059377504699874",
      "longitude": "-89.95999900939202"
    }
  },
  {
    "service_request": "2026-1301973",
    "request_type": "Trash/Recycling",
    "request_reason": "Request a Large Item Pick Up",
    "date_created": "2026-07-20T15:45:46.000",
    "date_modified": "2026-07-20T15:45:50.000",
    "request_status": "Pending",
    "responsible_agency": "Department of Sanitation",
    "final_address": "8723 Pear St",
    "address_councildis": "A",
    "status": "Assigned to Contractor",
    "contractor": "IV Waste",
    "rowid": "1301973",
    "final_x": "3667412.57466",
    "final_y": "537866.789065",
    "longitude": "-90.11233994115446",
    "latitude": "29.97336746099439",
    "geocoded_column": {
      "latitude": "29.97336746099439",
      "longitude": "-90.11233994115446"
    }
  },
  {
    "service_request": "2026-1301972",
    "request_type": "Streetlights",
    "request_reason": "Streetlight Outage/Malfunction",
    "date_created": "2026-07-20T15:42:22.000",
    "date_modified": "2026-07-20T15:42:58.000",
    "request_status": "Pending",
    "responsible_agency": "Department of Public Works",
    "final_address": "REYNES ST & N VILLERE ST",
    "address_councildis": "E",
    "status": "Pending",
    "rowid": "1301972",
    "final_x": "3696282.3",
    "final_y": "535373.18",
    "longitude": "-90.02125406575831",
    "latitude": "29.965633460989498",
    "geocoded_column": {
      "latitude": "29.965633460989498",
      "longitude": "-90.02125406575831"
    }
  },
  {
    "service_request": "2026-1301971",
    "request_type": "Trash/Recycling",
    "request_reason": "Request a Large Item Pick Up",
    "date_created": "2026-07-20T15:41:47.000",
    "date_modified": "2026-07-20T15:41:50.000",
    "request_status": "Pending",
    "responsible_agency": "Department of Sanitation",
    "final_address": "8419 Curran Rd",
    "address_councildis": "E",
    "status": "Assigned to Contractor",
    "contractor": "Waste Pro",
    "rowid": "1301971",
    "final_x": "3703473.16158",
    "final_y": "562290.101855",
    "longitude": "-89.99755485526966",
    "latitude": "30.039416477239463",
    "geocoded_column": {
      "latitude": "30.039416477239463",
      "longitude": "-89.99755485526966"
    }
  },
  {
    "service_request": "2026-1301970",
    "request_type": "Trash/Recycling",
    "request_reason": "Illegal Dumping",
    "date_created": "2026-07-20T15:40:06.000",
    "date_modified": "2026-07-20T15:40:09.000",
    "request_status": "Pending",
    "responsible_agency": "Department of Sanitation",
    "final_address": "1401 Allen Toussaint Blvd",
    "address_councildis": "D",
    "status": "Pending",
    "rowid": "1301970",
    "final_x": "3677712.30882",
    "final_y": "555393.782617",
    "longitude": "-90.07920540033868",
    "latitude": "30.02125470918352",
    "geocoded_column": {
      "latitude": "30.02125470918352",
      "longitude": "-90.07920540033868"
    }
  },
  {
    "service_request": "2026-1301969",
    "request_type": "Trash/Recycling",
    "request_reason": "Request a Large Item Pick Up",
    "date_created": "2026-07-20T15:36:28.000",
    "date_modified": "2026-07-20T15:36:30.000",
    "request_status": "Pending",
    "responsible_agency": "Department of Sanitation",
    "final_address": "11247 Fernley Dr",
    "address_councildis": "E",
    "status": "Assigned to Contractor",
    "contractor": "Waste Pro",
    "rowid": "1301969",
    "final_x": "3717411.71026",
    "final_y": "559969.977117",
    "longitude": "-89.95359371756675",
    "latitude": "30.032582917970302",
    "geocoded_column": {
      "latitude": "30.032582917970302",
      "longitude": "-89.95359371756675"
    }
  },
  {
    "service_request": "2026-1301968",
    "request_type": "Utility Poles",
    "request_reason": "Utility Pole Down",
    "date_created": "2026-07-20T15:35:46.000",
    "date_modified": "2026-07-20T15:35:49.000",
    "request_status": "Pending",
    "responsible_agency": "Utility Company Collective",
    "final_address": "2030 Constance St",
    "address_councildis": "B",
    "status": "Pending",
    "rowid": "1301968",
    "final_x": "3679732.37928",
    "final_y": "522243.797114",
    "longitude": "-90.07397375829262",
    "latitude": "29.93004276307897",
    "geocoded_column": {
      "latitude": "29.93004276307897",
      "longitude": "-90.07397375829262"
    }
  },
  {
    "service_request": "2026-1301967",
    "request_type": "Trash/Recycling",
    "request_reason": "Illegal Dumping",
    "date_created": "2026-07-20T15:28:42.000",
    "date_modified": "2026-07-20T15:28:44.000",
    "request_status": "Pending",
    "responsible_agency": "Department of Sanitation",
    "final_address": "N ANTHONY ST & BIENVILLE ST",
    "address_councildis": "A",
    "status": "Pending",
    "rowid": "1301967",
    "final_x": "3669007.82",
    "final_y": "540926.71",
    "longitude": "-90.1071984026447",
    "latitude": "29.981734373876446",
    "geocoded_column": {
      "latitude": "29.981734373876446",
      "longitude": "-90.1071984026447"
    }
  },
  {
    "service_request": "2026-1301966",
    "request_type": "Trash/Recycling",
    "request_reason": "Request a Large Item Pick Up",
    "date_created": "2026-07-20T15:27:08.000",
    "date_modified": "2026-07-20T15:27:10.000",
    "request_status": "Pending",
    "responsible_agency": "Department of Sanitation",
    "final_address": "5213 E Nemours St",
    "address_councildis": "E",
    "status": "Assigned to Contractor",
    "contractor": "Waste Pro",
    "rowid": "1301966",
    "final_x": "3727041.44857",
    "final_y": "563079.547488",
    "longitude": "-89.92304248980017",
    "latitude": "30.040810605030746",
    "geocoded_column": {
      "latitude": "30.040810605030746",
      "longitude": "-89.92304248980017"
    }
  },
  {
    "service_request": "2026-1301965",
    "request_type": "Roads and Streets",
    "request_reason": "Debris in Driving Lanes",
    "date_created": "2026-07-20T15:26:01.000",
    "date_modified": "2026-07-20T15:26:04.000",
    "request_status": "Pending",
    "responsible_agency": "Department of Public Works",
    "final_address": "2305 Roffignac St",
    "address_councildis": "E",
    "status": "Pending",
    "rowid": "1301965",
    "final_x": "3700275.77975",
    "final_y": "538048.803017",
    "longitude": "-90.0085452056313",
    "latitude": "29.972864117814076",
    "geocoded_column": {
      "latitude": "29.972864117814076",
      "longitude": "-90.0085452056313"
    }
  },
  {
    "service_request": "2026-1301964",
    "request_type": "Roads and Streets",
    "request_reason": "Debris in Driving Lanes",
    "date_created": "2026-07-20T15:26:00.000",
    "date_modified": "2026-07-20T15:26:02.000",
    "request_status": "Pending",
    "responsible_agency": "Department of Public Works",
    "final_address": "2301 Roffignac St",
    "address_councildis": "E",
    "status": "Pending",
    "rowid": "1301964",
    "final_x": "3700257.45853",
    "final_y": "538017.950409",
    "longitude": "-90.00860419364075",
    "latitude": "29.97277986673932",
    "geocoded_column": {
      "latitude": "29.97277986673932",
      "longitude": "-90.00860419364075"
    }
  },
  {
    "service_request": "2026-1301963",
    "request_type": "Roads and Streets",
    "request_reason": "Ditch and Culvert Maintenance",
    "date_created": "2026-07-20T15:25:58.000",
    "date_modified": "2026-07-20T15:26:00.000",
    "request_status": "Pending",
    "responsible_agency": "Department of Public Works",
    "final_address": "3117 Lausat Pl",
    "status": "Pending",
    "rowid": "1301963",
    "longitude": "0.0",
    "latitude": "0.0",
    "geocoded_column": {
      "latitude": "0.0",
      "longitude": "0.0"
    }
  },
  {
    "service_request": "2026-1301962",
    "request_type": "Roads and Streets",
    "request_reason": "Ditch and Culvert Maintenance",
    "date_created": "2026-07-20T15:25:57.000",
    "date_modified": "2026-07-20T15:25:59.000",
    "request_status": "Pending",
    "responsible_agency": "Department of Public Works",
    "final_address": "7818 Colapissa St",
    "address_councildis": "B",
    "status": "Pending",
    "rowid": "1301962",
    "final_x": "3667207.54804",
    "final_y": "532736.044548",
    "longitude": "-90.1131600111487",
    "latitude": "29.959265620296595",
    "geocoded_column": {
      "latitude": "29.959265620296595",
      "longitude": "-90.1131600111487"
    }
  },
  {
    "service_request": "2026-1301961",
    "request_type": "Roads and Streets",
    "request_reason": "Ditch and Culvert Maintenance",
    "date_created": "2026-07-20T15:25:56.000",
    "date_modified": "2026-07-20T15:25:59.000",
    "request_status": "Pending",
    "responsible_agency": "Department of Public Works",
    "final_address": "2319 Wisteria St",
    "address_councildis": "D",
    "status": "Pending",
    "rowid": "1301961",
    "final_x": "3685277.90927",
    "final_y": "548273.305362",
    "longitude": "-90.05555114399868",
    "latitude": "30.00144613939553",
    "geocoded_column": {
      "latitude": "30.00144613939553",
      "longitude": "-90.05555114399868"
    }
  },
  {
    "service_request": "2026-1301960",
    "request_type": "Roads and Streets",
    "request_reason": "Ditch and Culvert Maintenance",
    "date_created": "2026-07-20T15:25:54.000",
    "date_modified": "2026-07-20T15:25:55.000",
    "request_status": "Pending",
    "responsible_agency": "Department of Public Works",
    "final_address": "109 Alden Pl",
    "address_councildis": "D",
    "status": "Pending",
    "rowid": "1301960",
    "final_x": "3678583.22984",
    "final_y": "543893.289294",
    "longitude": "-90.07685200294533",
    "latitude": "29.98960621760724",
    "geocoded_column": {
      "latitude": "29.98960621760724",
      "longitude": "-90.07685200294533"
    }
  },
  {
    "service_request": "2026-1301959",
    "request_type": "Tree Service",
    "request_reason": "Park Maintenance/Clean Up",
    "date_created": "2026-07-20T15:25:53.000",
    "date_modified": "2026-07-20T15:25:55.000",
    "request_status": "Pending",
    "responsible_agency": "Department of Parks & Parkways",
    "final_address": "3000 Law St",
    "address_councildis": "D",
    "status": "Pending",
    "rowid": "1301959",
    "final_x": "3689878.89379",
    "final_y": "541742.18958",
    "longitude": "-90.04124890343572",
    "latitude": "29.983346047370524",
    "geocoded_column": {
      "latitude": "29.983346047370524",
      "longitude": "-90.04124890343572"
    }
  },
  {
    "service_request": "2026-1301955",
    "request_type": "Safety & Permits",
    "request_reason": "Zoning Enforcement",
    "date_created": "2026-07-20T15:25:23.000",
    "date_modified": "2026-07-20T15:25:25.000",
    "request_status": "Pending",
    "responsible_agency": "Safety and Permits",
    "final_address": "2601 Louisa St",
    "address_councildis": "D",
    "status": "Pending",
    "rowid": "1301955",
    "final_x": "3691042.7608",
    "final_y": "541553.329676",
    "longitude": "-90.03757956359716",
    "latitude": "29.982790612208376",
    "geocoded_column": {
      "latitude": "29.982790612208376",
      "longitude": "-90.03757956359716"
    }
  },
  {
    "service_request": "2026-1301954",
    "request_type": "Safety & Permits",
    "request_reason": "Zoning Enforcement",
    "date_created": "2026-07-20T15:25:22.000",
    "date_modified": "2026-07-20T15:25:25.000",
    "request_status": "Pending",
    "responsible_agency": "Safety and Permits",
    "final_address": "2347 Roffignac St",
    "address_councildis": "E",
    "status": "Pending",
    "rowid": "1301954",
    "final_x": "3700377.93264",
    "final_y": "538303.794889",
    "longitude": "-90.00821327645562",
    "latitude": "29.97356200520543",
    "geocoded_column": {
      "latitude": "29.97356200520543",
      "longitude": "-90.00821327645562"
    }
  },
  {
    "service_request": "2026-1301953",
    "request_type": "Safety & Permits",
    "request_reason": "Zoning Enforcement",
    "date_created": "2026-07-20T15:25:21.000",
    "date_modified": "2026-07-20T15:25:23.000",
    "request_status": "Pending",
    "responsible_agency": "Safety and Permits",
    "final_address": "2330 Roffignac St",
    "address_councildis": "E",
    "status": "Pending",
    "rowid": "1301953",
    "final_x": "3700292.04592",
    "final_y": "538328.454217",
    "longitude": "-90.00848362265859",
    "latitude": "29.973632540225218",
    "geocoded_column": {
      "latitude": "29.973632540225218",
      "longitude": "-90.00848362265859"
    }
  },
  {
    "service_request": "2026-1301952",
    "request_type": "Trash/Recycling",
    "request_reason": "Request a Large Item Pick Up",
    "date_created": "2026-07-20T15:25:20.000",
    "date_modified": "2026-07-20T15:25:22.000",
    "request_status": "Pending",
    "responsible_agency": "Department of Sanitation",
    "final_address": "1025 Milan St",
    "address_councildis": "B",
    "status": "Assigned to Contractor",
    "contractor": "IV Waste",
    "rowid": "1301952",
    "final_x": "3671783.11982",
    "final_y": "519478.514871",
    "longitude": "-90.09916233789076",
    "latitude": "29.922676962477926",
    "geocoded_column": {
      "latitude": "29.922676962477926",
      "longitude": "-90.09916233789076"
    }
  },
  {
    "service_request": "2026-1301951",
    "request_type": "Safety & Permits",
    "request_reason": "Zoning Enforcement",
    "date_created": "2026-07-20T15:25:19.000",
    "date_modified": "2026-07-20T15:25:22.000",
    "request_status": "Pending",
    "responsible_agency": "Safety and Permits",
    "final_address": "2960 Law St",
    "address_councildis": "D",
    "status": "Pending",
    "rowid": "1301951",
    "final_x": "3689662.62339",
    "final_y": "541811.268812",
    "longitude": "-90.04192953686571",
    "latitude": "29.98354269447572",
    "geocoded_column": {
      "latitude": "29.98354269447572",
      "longitude": "-90.04192953686571"
    }
  },
  {
    "service_request": "2026-1301950",
    "request_type": "Safety & Permits",
    "request_reason": "Zoning Enforcement",
    "date_created": "2026-07-20T15:25:17.000",
    "date_modified": "2026-07-20T15:25:20.000",
    "request_status": "Pending",
    "responsible_agency": "Safety and Permits",
    "final_address": "2415 Painters St",
    "address_councildis": "D",
    "status": "Pending",
    "rowid": "1301950",
    "final_x": "3687197.39855",
    "final_y": "541463.96494",
    "longitude": "-90.0497282870932",
    "latitude": "29.98266389793312",
    "geocoded_column": {
      "latitude": "29.98266389793312",
      "longitude": "-90.0497282870932"
    }
  },
  {
    "service_request": "2026-1301949",
    "request_type": "Trash/Recycling",
    "request_reason": "Request a Large Item Pick Up",
    "date_created": "2026-07-20T15:24:08.000",
    "date_modified": "2026-07-20T15:24:10.000",
    "request_status": "Pending",
    "responsible_agency": "Department of Sanitation",
    "final_address": "2518 Florida Ave",
    "address_councildis": "D",
    "status": "Assigned to Contractor",
    "contractor": "IV Waste",
    "rowid": "1301949",
    "final_x": "3686217.69289",
    "final_y": "542281.907597",
    "longitude": "-90.05279380886702",
    "latitude": "29.98494309140667",
    "geocoded_column": {
      "latitude": "29.98494309140667",
      "longitude": "-90.05279380886702"
    }
  },
  {
    "service_request": "2026-1301948",
    "request_type": "Trash/Recycling",
    "request_reason": "Request a Large Item Pick Up",
    "date_created": "2026-07-20T15:20:13.000",
    "date_modified": "2026-07-20T15:20:29.000",
    "request_status": "Pending",
    "responsible_agency": "Department of Sanitation",
    "final_address": "12910 Parlange Ct",
    "address_councildis": "E",
    "status": "Assigned to Contractor",
    "contractor": "Waste Pro",
    "rowid": "1301948",
    "final_x": "3716767.53215",
    "final_y": "567799.55466",
    "longitude": "-89.95533179790917",
    "latitude": "30.05413238279299",
    "geocoded_column": {
      "latitude": "30.05413238279299",
      "longitude": "-89.95533179790917"
    }
  },
  {
    "service_request": "2026-1301947",
    "request_type": "Trash/Recycling",
    "request_reason": "Illegal Dumping",
    "date_created": "2026-07-20T15:19:03.000",
    "date_modified": "2026-07-20T15:19:07.000",
    "request_status": "Pending",
    "responsible_agency": "Department of Sanitation",
    "final_address": "2816 N Dorgenois St",
    "address_councildis": "D",
    "status": "Pending",
    "rowid": "1301947",
    "final_x": "3688014.59996",
    "final_y": "541699.738188",
    "longitude": "-90.04713880452864",
    "latitude": "29.983286993487496",
    "geocoded_column": {
      "latitude": "29.983286993487496",
      "longitude": "-90.04713880452864"
    }
  },
  {
    "service_request": "2026-1301946",
    "request_type": "Roads and Streets",
    "request_reason": "Debris in Driving Lanes",
    "date_created": "2026-07-20T15:14:44.000",
    "date_modified": "2026-07-20T15:14:46.000",
    "request_status": "Pending",
    "responsible_agency": "Department of Public Works",
    "final_address": "2010 Dauphine St",
    "address_councildis": "C",
    "status": "Pending",
    "rowid": "1301946",
    "final_x": "3684435.93807",
    "final_y": "535150.236998",
    "longitude": "-90.05867218426214",
    "latitude": "29.965388119110795",
    "geocoded_column": {
      "latitude": "29.965388119110795",
      "longitude": "-90.05867218426214"
    }
  },
  {
    "service_request": "2026-1301945",
    "request_type": "Trash/Recycling",
    "request_reason": "Request a Large Item Pick Up",
    "date_created": "2026-07-20T15:13:56.000",
    "date_modified": "2026-07-20T15:13:59.000",
    "request_status": "Pending",
    "responsible_agency": "Department of Sanitation",
    "final_address": "5936 Dover Pl",
    "address_councildis": "C",
    "status": "Assigned to Contractor",
    "contractor": "Richards Disposal",
    "rowid": "1301945",
    "final_x": "3705786.2147",
    "final_y": "519177.085879",
    "longitude": "-89.9918401216447",
    "latitude": "29.92079729789274",
    "geocoded_column": {
      "latitude": "29.92079729789274",
      "longitude": "-89.9918401216447"
    }
  },
  {
    "service_request": "2026-1301944",
    "request_type": "Property Maintenance",
    "request_reason": "Property Maintenance",
    "date_created": "2026-07-20T15:12:21.000",
    "date_modified": "2026-07-20T15:50:53.000",
    "case_close_date": "2026-07-20T10:50:52.000",
    "request_status": "Closed",
    "responsible_agency": "Department of Code Enforcement",
    "final_address": "2413 S Robertson St",
    "address_councildis": "B",
    "status": "Referred to Code Enforcement",
    "rowid": "1301944",
    "final_x": "3674830.78657",
    "final_y": "526192.82803",
    "longitude": "-90.08931195043175",
    "latitude": "29.941048530558167",
    "geocoded_column": {
      "latitude": "29.941048530558167",
      "longitude": "-90.08931195043175"
    }
  },
  {
    "service_request": "2026-1301943",
    "request_type": "Street and Traffic Signs",
    "request_reason": "One Way Sign Missing or Damaged",
    "date_created": "2026-07-20T15:10:02.000",
    "date_modified": "2026-07-20T15:10:03.000",
    "request_status": "Pending",
    "responsible_agency": "Department of Public Works",
    "final_address": "DUMAINE ST & ROYAL ST",
    "address_councildis": "C",
    "status": "Pending",
    "rowid": "1301943",
    "final_x": "3682998.9",
    "final_y": "533048.18",
    "longitude": "-90.06328385540192",
    "latitude": "29.95965206118589",
    "geocoded_column": {
      "latitude": "29.95965206118589",
      "longitude": "-90.06328385540192"
    }
  },
  {
    "service_request": "2026-1301942",
    "request_type": "Trash/Recycling",
    "request_reason": "Request a Large Item Pick Up",
    "date_created": "2026-07-20T15:08:58.000",
    "date_modified": "2026-07-20T15:09:01.000",
    "request_status": "Pending",
    "responsible_agency": "Department of Sanitation",
    "final_address": "2118 Conti St",
    "address_councildis": "B",
    "status": "Assigned to Contractor",
    "contractor": "IV Waste",
    "rowid": "1301942",
    "final_x": "3677806.51963",
    "final_y": "534648.770054",
    "longitude": "-90.0796249115916",
    "latitude": "29.96421036991903",
    "geocoded_column": {
      "latitude": "29.96421036991903",
      "longitude": "-90.0796249115916"
    }
  },
  {
    "service_request": "2026-1301941",
    "request_type": "Roads and Streets",
    "request_reason": "Pothole",
    "date_created": "2026-07-20T15:08:07.000",
    "date_modified": "2026-07-20T15:08:09.000",
    "request_status": "Pending",
    "responsible_agency": "Department of Public Works",
    "final_address": "2678 Verbena St",
    "address_councildis": "D",
    "status": "Pending",
    "rowid": "1301941",
    "final_x": "3687638.63331",
    "final_y": "547764.089874",
    "longitude": "-90.04811145627613",
    "latitude": "29.99997338419926",
    "geocoded_column": {
      "latitude": "29.99997338419926",
      "longitude": "-90.04811145627613"
    }
  },
  {
    "service_request": "2026-1301940",
    "request_type": "Property Maintenance",
    "request_reason": "Property Maintenance",
    "date_created": "2026-07-20T15:07:45.000",
    "date_modified": "2026-07-20T15:07:47.000",
    "request_status": "Pending",
    "responsible_agency": "Department of Code Enforcement",
    "final_address": "1305 Cambronne St",
    "address_councildis": "A",
    "status": "Pending",
    "rowid": "1301940",
    "final_x": "3661477.68294",
    "final_y": "529381.152577",
    "longitude": "-90.13136476945115",
    "latitude": "29.950207278190852",
    "geocoded_column": {
      "latitude": "29.950207278190852",
      "longitude": "-90.13136476945115"
    }
  },
  {
    "service_request": "2026-1301939",
    "request_type": "Trash/Recycling",
    "request_reason": "Order Recycling Cart",
    "date_created": "2026-07-20T15:06:46.000",
    "date_modified": "2026-07-20T15:06:48.000",
    "request_status": "Pending",
    "responsible_agency": "Department of Sanitation",
    "final_address": "5410 Hawthorne Pl",
    "address_councildis": "A",
    "status": "Pending",
    "rowid": "1301939",
    "final_x": "3667708.7577",
    "final_y": "543175.756813",
    "longitude": "-90.1112257027513",
    "latitude": "29.98795664822767",
    "geocoded_column": {
      "latitude": "29.98795664822767",
      "longitude": "-90.1112257027513"
    }
  },
  {
    "service_request": "2026-1301938",
    "request_type": "Trash/Recycling",
    "request_reason": "Request a Large Item Pick Up",
    "date_created": "2026-07-20T15:04:53.000",
    "date_modified": "2026-07-20T15:04:54.000",
    "request_status": "Pending",
    "responsible_agency": "Department of Sanitation",
    "final_address": "3125 Cambronne St",
    "address_councildis": "A",
    "status": "Assigned to Contractor",
    "contractor": "IV Waste",
    "rowid": "1301938",
    "final_x": "3665905.19501",
    "final_y": "534238.760517",
    "longitude": "-90.11722218235055",
    "latitude": "29.96343566465797",
    "geocoded_column": {
      "latitude": "29.96343566465797",
      "longitude": "-90.11722218235055"
    }
  },
  {
    "service_request": "2026-1301937",
    "request_type": "Trash/Recycling",
    "request_reason": "Request a Large Item Pick Up",
    "date_created": "2026-07-20T15:04:32.000",
    "date_modified": "2026-07-20T15:04:34.000",
    "request_status": "Pending",
    "responsible_agency": "Department of Sanitation",
    "final_address": "7900 Mayo Rd",
    "address_councildis": "E",
    "status": "Assigned to Contractor",
    "contractor": "Waste Pro",
    "rowid": "1301937",
    "final_x": "3700393.31127",
    "final_y": "561530.975903",
    "longitude": "-90.00731579734935",
    "latitude": "30.037427538989704",
    "geocoded_column": {
      "latitude": "30.037427538989704",
      "longitude": "-90.00731579734935"
    }
  },