[
  {
    "service_request": "2024-1126930",
    "request_type": "Trash/Recycling",
    "request_reason": "Repair Recycling Cart",
    "date_created": "2024-09-02T23:42:12.000",
    "date_modified": "2024-09-02T23:42:12.000",
    "request_status": "Pending",
    "responsible_agency": "Department of Sanitation",
    "final_address": "1662 Lafreniere St",
    "address_councildis": "D",
    "status": "Pending",
    "rowid": "1126930",
    "final_x": "3680338.61602",
    "final_y": "545150.688911",
    "longitude": "-90.0712634856669",
    "latitude": "29.993010579149757",
    "geocoded_column": {
      "latitude": "29.993010579149757",
      "longitude": "-90.0712634856669"
    }
  },
  {
    "service_request": "2024-1126929",
    "request_type": "Trash/Recycling",
    "request_reason": "Replace Trash Cart",
    "date_created": "2024-09-02T23:40:35.000",
    "date_modified": "2024-09-02T23:40:36.000",
    "request_status": "Pending",
    "responsible_agency": "Department of Sanitation",
    "final_address": "1662 Lafreniere St",
    "address_councildis": "D",
    "status": "Assigned to Contractor",
    "contractor": "IV Waste",
    "rowid": "1126929",
    "final_x": "3680338.61602",
    "final_y": "545150.688911",
    "longitude": "-90.0712634856669",
    "latitude": "29.993010579149757",
    "geocoded_column": {
      "latitude": "29.993010579149757",
      "longitude": "-90.0712634856669"
    }
  },
  {
    "service_request": "2024-1126928",
    "request_type": "Traffic Signals/Signs/Striping/Streetlights",
    "request_reason": "Street Light Outage/Malfunction",
    "date_created": "2024-09-02T23:32:56.000",
    "date_modified": "2024-09-02T23:32:57.000",
    "request_status": "Pending",
    "responsible_agency": "Department of Public Works",
    "final_address": "219 N Lopez St",
    "address_councildis": "B",
    "status": "Assigned to Contractor",
    "contractor": "Legacy Professional Services",
    "rowid": "1126928",
    "final_x": "3674149.48955",
    "final_y": "536754.491208",
    "longitude": "-90.09110143082826",
    "latitude": "29.97010990770876",
    "geocoded_column": {
      "latitude": "29.97010990770876",
      "longitude": "-90.09110143082826"
    }
  },
  {
    "service_request": "2024-1126927",
    "request_type": "Property Maintenance",
    "request_reason": "Property Maintenance",
    "date_created": "2024-09-02T23:01:16.000",
    "date_modified": "2024-09-02T23:01:16.000",
    "request_status": "Pending",
    "responsible_agency": "Department of Code Enforcement",
    "final_address": "5345 Baccich St",
    "address_councildis": "D",
    "status": "Pending",
    "rowid": "1126927",
    "final_x": "3687737.78761",
    "final_y": "552679.790294",
    "longitude": "-90.04762397909339",
    "latitude": "30.01348670726616",
    "geocoded_column": {
      "latitude": "30.01348670726616",
      "longitude": "-90.04762397909339"
    }
  },
  {
    "service_request": "2024-1126923",
    "request_type": "Health Related Request",
    "request_reason": "Noise Ordinance Complaint",
    "date_created": "2024-09-02T22:55:47.000",
    "date_modified": "2024-09-02T22:55:47.000",
    "request_status": "Pending",
    "responsible_agency": "Health Department",
    "final_address": "5345 Baccich St",
    "address_councildis": "D",
    "status": "Pending",
    "rowid": "1126923",
    "final_x": "3687737.78761",
    "final_y": "552679.790294",
    "longitude": "-90.04762397909339",
    "latitude": "30.01348670726616",
    "geocoded_column": {
      "latitude": "30.01348670726616",
      "longitude": "-90.04762397909339"
    }
  },
  {
    "service_request": "2024-1126922",
    "request_type": "Traffic Signals/Signs/Striping/Streetlights",
    "request_reason": "Traffic Signal Malfunctioning/Damaged",
    "date_created": "2024-09-02T22:08:22.000",
    "date_modified": "2024-09-02T22:08:22.000",
    "request_status": "Pending",
    "responsible_agency": "Department of Public Works",
    "final_address": "4000 BLK Johnny Jackson Jr Blvd",
    "address_councildis": "D",
    "status": "Pending",
    "rowid": "1126922",
    "final_x": "3691648.5773",
    "final_y": "548382.337406",
    "longitude": "-90.03542177704438",
    "latitude": "30.001549058081046",
    "geocoded_column": {
      "latitude": "30.001549058081046",
      "longitude": "-90.03542177704438"
    }
  },
  {
    "service_request": "2024-1126921",
    "request_type": "Trash/Recycling",
    "request_reason": "Request a Large Item Pick Up",
    "date_created": "2024-09-02T21:48:18.000",
    "date_modified": "2024-09-02T21:48:19.000",
    "request_status": "Pending",
    "responsible_agency": "Department of Sanitation",
    "final_address": "4600 BLK Saint Ferdinand Dr",
    "address_councildis": "D",
    "status": "Assigned to Contractor",
    "contractor": "IV Waste",
    "rowid": "1126921",
    "final_x": "3689376.19208",
    "final_y": "550461.545518",
    "longitude": "-90.04252644745254",
    "latitude": "30.007336699503124",
    "geocoded_column": {
      "latitude": "30.007336699503124",
      "longitude": "-90.04252644745254"
    }
  },
  {
    "service_request": "2024-1126920",
    "request_type": "Mosquito, Termite & Rodent Control",
    "request_reason": "Mosquito Complaint",
    "date_created": "2024-09-02T21:47:40.000",
    "date_modified": "2024-09-02T21:47:40.000",
    "request_status": "Pending",
    "responsible_agency": "Mosquito, Termite & Rodent Control Board",
    "final_address": "14211 Chef Menteur Hwy",
    "address_councildis": "E",
    "status": "Pending",
    "rowid": "1126920",
    "final_x": "3729815.82195",
    "final_y": "561325.235294",
    "longitude": "-89.91434332333519",
    "latitude": "30.035892795204653",
    "geocoded_column": {
      "latitude": "30.035892795204653",
      "longitude": "-89.91434332333519"
    }
  },
  {
    "service_request": "2024-1126919",
    "request_type": "Property Maintenance",
    "request_reason": "Property Maintenance",
    "date_created": "2024-09-02T21:24:16.000",
    "date_modified": "2024-09-02T21:24:16.000",
    "request_status": "Pending",
    "responsible_agency": "Department of Code Enforcement",
    "final_address": "RANKIN ST & ADRIAN ST",
    "address_councildis": "C",
    "status": "Pending",
    "rowid": "1126919",
    "final_x": "3710628.5",
    "final_y": "517947.98",
    "longitude": "-89.97660133138157",
    "latitude": "29.91726091835728",
    "geocoded_column": {
      "latitude": "29.91726091835728",
      "longitude": "-89.97660133138157"
    }
  },
  {
    "service_request": "2024-1126918",
    "request_type": "Trash/Recycling",
    "request_reason": "Request a Large Item Pick Up",
    "date_created": "2024-09-02T21:21:31.000",
    "date_modified": "2024-09-02T21:21:32.000",
    "request_status": "Pending",
    "responsible_agency": "Department of Sanitation",
    "final_address": "2139 Third St",
    "address_councildis": "B",
    "status": "Assigned to Contractor",
    "contractor": "IV Waste",
    "rowid": "1126918",
    "final_x": "3675306.39381",
    "final_y": "524648.421308",
    "longitude": "-90.08786336901053",
    "latitude": "29.936787711428913",
    "geocoded_column": {
      "latitude": "29.936787711428913",
      "longitude": "-90.08786336901053"
    }
  },
  {
    "service_request": "2024-1126917",
    "request_type": "Property Maintenance",
    "request_reason": "Property Maintenance",
    "date_created": "2024-09-02T21:20:20.000",
    "date_modified": "2024-09-02T21:20:20.000",
    "request_status": "Pending",
    "responsible_agency": "Department of Code Enforcement",
    "final_address": "RANKIN ST & ADRIAN ST",
    "address_councildis": "C",
    "status": "Pending",
    "rowid": "1126917",
    "final_x": "3710628.5",
    "final_y": "517947.98",
    "longitude": "-89.97660133138157",
    "latitude": "29.91726091835728",
    "geocoded_column": {
      "latitude": "29.91726091835728",
      "longitude": "-89.97660133138157"
    }
  },
  {
    "service_request": "2024-1126916",
    "request_type": "Property Maintenance",
    "request_reason": "Property Maintenance",
    "date_created": "2024-09-02T21:19:11.000",
    "date_modified": "2024-09-02T21:19:11.000",
    "request_status": "Pending",
    "responsible_agency": "Department of Code Enforcement",
    "final_address": "RANKIN ST & ADRIAN ST",
    "address_councildis": "C",
    "status": "Pending",
    "rowid": "1126916",
    "final_x": "3710628.5",
    "final_y": "517947.98",
    "longitude": "-89.97660133138157",
    "latitude": "29.91726091835728",
    "geocoded_column": {
      "latitude": "29.91726091835728",
      "longitude": "-89.97660133138157"
    }
  },
  {
    "service_request": "2024-1126915",
    "request_type": "Property Maintenance",
    "request_reason": "Property Maintenance",
    "date_created": "2024-09-02T21:15:57.000",
    "date_modified": "2024-09-02T21:15:57.000",
    "request_status": "Pending",
    "responsible_agency": "Department of Code Enforcement",
    "final_address": "RANKIN ST & ADRIAN ST",
    "address_councildis": "C",
    "status": "Pending",
    "rowid": "1126915",
    "final_x": "3710628.5",
    "final_y": "517947.98",
    "longitude": "-89.97660133138157",
    "latitude": "29.91726091835728",
    "geocoded_column": {
      "latitude": "29.91726091835728",
      "longitude": "-89.97660133138157"
    }
  },
  {
    "service_request": "2024-1126914",
    "request_type": "Roads/Drainage",
    "request_reason": "Accessibility Ramps, Curbs and Sidewalk Repair",
    "date_created": "2024-09-02T21:11:41.000",
    "date_modified": "2024-09-02T21:11:41.000",
    "request_status": "Pending",
    "responsible_agency": "Department of Public Works",
    "final_address": "7417 Burthe St Apt 1A",
    "address_councildis": "A",
    "status": "Pending",
    "rowid": "1126914",
    "final_x": "3662990.58669",
    "final_y": "526090.586302",
    "longitude": "-90.12669720586915",
    "latitude": "29.941115550338186",
    "geocoded_column": {
      "latitude": "29.941115550338186",
      "longitude": "-90.12669720586915"
    }
  },
  {
    "service_request": "2024-1126913",
    "request_type": "Roads/Drainage",
    "request_reason": "Accessibility Ramps, Curbs and Sidewalk Repair",
    "date_created": "2024-09-02T21:09:15.000",
    "date_modified": "2024-09-02T21:09:15.000",
    "request_status": "Pending",
    "responsible_agency": "Department of Public Works",
    "final_address": "7417 Burthe St Apt 1A",
    "address_councildis": "A",
    "status": "Pending",
    "rowid": "1126913",
    "final_x": "3662990.58669",
    "final_y": "526090.586302",
    "longitude": "-90.12669720586915",
    "latitude": "29.941115550338186",
    "geocoded_column": {
      "latitude": "29.941115550338186",
      "longitude": "-90.12669720586915"
    }
  },
  {
    "service_request": "2024-1126912",
    "request_type": "Trash/Recycling",
    "request_reason": "Replace Trash Cart",
    "date_created": "2024-09-02T21:05:15.000",
    "date_modified": "2024-09-02T21:05:16.000",
    "request_status": "Pending",
    "responsible_agency": "Department of Sanitation",
    "final_address": "4237 Camp St",
    "address_councildis": "B",
    "status": "Assigned to Contractor",
    "contractor": "IV Waste",
    "rowid": "1126912",
    "final_x": "3671459.06631",
    "final_y": "519235.128695",
    "longitude": "-90.10019351623592",
    "latitude": "29.922017321358723",
    "geocoded_column": {
      "latitude": "29.922017321358723",
      "longitude": "-90.10019351623592"
    }
  },
  {
    "service_request": "2024-1126911",
    "request_type": "Trash/Recycling",
    "request_reason": "Request a Large Item Pick Up",
    "date_created": "2024-09-02T21:04:51.000",
    "date_modified": "2024-09-02T21:04:52.000",
    "request_status": "Pending",
    "responsible_agency": "Department of Sanitation",
    "final_address": "1405 Clouet St",
    "address_councildis": "C",
    "status": "Assigned to Contractor",
    "contractor": "IV Waste",
    "rowid": "1126911",
    "final_x": "3689329.70755",
    "final_y": "537163.813",
    "longitude": "-90.04314634041718",
    "latitude": "29.97077414986405",
    "geocoded_column": {
      "latitude": "29.97077414986405",
      "longitude": "-90.04314634041718"
    }
  },
  {
    "service_request": "2024-1126910",
    "request_type": "Abandoned Vehicles",
    "request_reason": "Abandoned/Junk Vehicles",
    "date_created": "2024-09-02T20:59:12.000",
    "date_modified": "2024-09-02T20:59:12.000",
    "request_status": "Pending",
    "responsible_agency": "Department of Public Works",
    "final_address": "2747 Bay St",
    "address_councildis": "D",
    "status": "Pending",
    "rowid": "1126910",
    "final_x": "3688359.35075",
    "final_y": "545314.395151",
    "longitude": "-90.04592163005296",
    "latitude": "29.993215361443266",
    "geocoded_column": {
      "latitude": "29.993215361443266",
      "longitude": "-90.04592163005296"
    }
  },
  {
    "service_request": "2024-1126909",
    "request_type": "Traffic Signals/Signs/Striping/Streetlights",
    "request_reason": "Street Light Outage/Malfunction",
    "date_created": "2024-09-02T20:56:13.000",
    "date_modified": "2024-09-02T20:56:15.000",
    "request_status": "Pending",
    "responsible_agency": "Department of Public Works",
    "final_address": "14211 Chef Menteur Hwy",
    "address_councildis": "E",
    "status": "Assigned to Contractor",
    "contractor": "Legacy Professional Services",
    "rowid": "1126909",
    "final_x": "3729815.82195",
    "final_y": "561325.235294",
    "longitude": "-89.91434332333519",
    "latitude": "30.035892795204653",
    "geocoded_column": {
      "latitude": "30.035892795204653",
      "longitude": "-89.91434332333519"
    }
  },
  {
    "service_request": "2024-1126908",
    "request_type": "Property Maintenance",
    "request_reason": "Property Maintenance",
    "date_created": "2024-09-02T20:55:35.000",
    "date_modified": "2024-09-02T20:55:35.000",
    "request_status": "Pending",
    "responsible_agency": "Department of Code Enforcement",
    "final_address": "2743 Bay St",
    "address_councildis": "D",
    "status": "Pending",
    "rowid": "1126908",
    "final_x": "3688320.52649",
    "final_y": "545310.979087",
    "longitude": "-90.04604439032559",
    "latitude": "29.993207167864743",
    "geocoded_column": {
      "latitude": "29.993207167864743",
      "longitude": "-90.04604439032559"
    }
  },
  {
    "service_request": "2024-1126907",
    "request_type": "Property Maintenance",
    "request_reason": "Property Maintenance",
    "date_created": "2024-09-02T20:54:03.000",
    "date_modified": "2024-09-02T20:54:03.000",
    "request_status": "Pending",
    "responsible_agency": "Department of Code Enforcement",
    "final_address": "2743 Bay St",
    "address_councildis": "D",
    "status": "Pending",
    "rowid": "1126907",
    "final_x": "3688320.52649",
    "final_y": "545310.979087",
    "longitude": "-90.04604439032559",
    "latitude": "29.993207167864743",
    "geocoded_column": {
      "latitude": "29.993207167864743",
      "longitude": "-90.04604439032559"
    }
  },
  {
    "service_request": "2024-1126906",
    "request_type": "Property Maintenance",
    "request_reason": "Property Maintenance",
    "date_created": "2024-09-02T20:53:10.000",
    "date_modified": "2024-09-02T20:53:10.000",
    "request_status": "Pending",
    "responsible_agency": "Department of Code Enforcement",
    "final_address": "2743 Bay St",
    "address_councildis": "D",
    "status": "Pending",
    "rowid": "1126906",
    "final_x": "3688320.52649",
    "final_y": "545310.979087",
    "longitude": "-90.04604439032559",
    "latitude": "29.993207167864743",
    "geocoded_column": {
      "latitude": "29.993207167864743",
      "longitude": "-90.04604439032559"
    }
  },
  {
    "service_request": "2024-1126905",
    "request_type": "Property Maintenance",
    "request_reason": "Property Maintenance",
    "date_created": "2024-09-02T20:50:44.000",
    "date_modified": "2024-09-02T20:50:44.000",
    "request_status": "Pending",
    "responsible_agency": "Department of Code Enforcement",
    "final_address": "2743 Bay St",
    "address_councildis": "D",
    "status": "Pending",
    "rowid": "1126905",
    "final_x": "3688320.52649",
    "final_y": "545310.979087",
    "longitude": "-90.04604439032559",
    "latitude": "29.993207167864743",
    "geocoded_column": {
      "latitude": "29.993207167864743",
      "longitude": "-90.04604439032559"
    }
  },
  {
    "service_request": "2024-1126904",
    "request_type": "Trash/Recycling",
    "request_reason": "Replace Trash Cart",
    "date_created": "2024-09-02T20:24:23.000",
    "date_modified": "2024-09-02T20:24:24.000",
    "request_status": "Pending",
    "responsible_agency": "Department of Sanitation",
    "final_address": "918 St Peter St",
    "address_councildis": "C",
    "status": "Assigned to Contractor",
    "contractor": "Empire Services",
    "rowid": "1126904",
    "final_x": "3681811.22696",
    "final_y": "532947.0649",
    "longitude": "-90.067037781059",
    "latitude": "29.95941017267505",
    "geocoded_column": {
      "latitude": "29.95941017267505",
      "longitude": "-90.067037781059"
    }
  },
  {
    "service_request": "2024-1126903",
    "request_type": "Traffic Signals/Signs/Striping/Streetlights",
    "request_reason": "Street Light Outage/Malfunction",
    "date_created": "2024-09-02T20:21:10.000",
    "date_modified": "2024-09-02T20:21:10.000",
    "request_status": "Pending",
    "responsible_agency": "Department of Public Works",
    "final_address": "3125 St Anthony Ave",
    "address_councildis": "D",
    "status": "Assigned to Contractor",
    "contractor": "Legacy Professional Services",
    "rowid": "1126903",
    "final_x": "3682967.30901",
    "final_y": "544229.700174",
    "longitude": "-90.06299216124584",
    "latitude": "29.99039831337307",
    "geocoded_column": {
      "latitude": "29.99039831337307",
      "longitude": "-90.06299216124584"
    }
  },
  {
    "service_request": "2024-1126902",
    "request_type": "Traffic Signals/Signs/Striping/Streetlights",
    "request_reason": "Street Light Outage/Malfunction",
    "date_created": "2024-09-02T20:08:10.000",
    "date_modified": "2024-09-02T20:08:12.000",
    "request_status": "Pending",
    "responsible_agency": "Department of Public Works",
    "final_address": "5657 Hempstead Rd",
    "address_councildis": "E",
    "status": "Assigned to Contractor",
    "contractor": "Legacy Professional Services",
    "rowid": "1126902",
    "final_x": "3708038.02532",
    "final_y": "558025.373083",
    "longitude": "-89.98328745522707",
    "latitude": "30.02754304291878",
    "geocoded_column": {
      "latitude": "30.02754304291878",
      "longitude": "-89.98328745522707"
    }
  },
  {
    "service_request": "2024-1126901",
    "request_type": "Trash/Recycling",
    "request_reason": "Request a Large Item Pick Up",
    "date_created": "2024-09-02T19:23:54.000",
    "date_modified": "2024-09-02T19:23:55.000",
    "request_status": "Pending",
    "responsible_agency": "Department of Sanitation",
    "final_address": "812 St Ferdinand St",
    "address_councildis": "C",
    "status": "Assigned to Contractor",
    "contractor": "IV Waste",
    "rowid": "1126901",
    "final_x": "3687420.30409",
    "final_y": "535247.56391",
    "longitude": "-90.04924427611307",
    "latitude": "29.965564111408607",
    "geocoded_column": {
      "latitude": "29.965564111408607",
      "longitude": "-90.04924427611307"
    }
  },
  {
    "service_request": "2024-1126900",
    "request_type": "Roads/Drainage",
    "request_reason": "Street Subsidence (Sinking)",
    "date_created": "2024-09-02T19:12:22.000",
    "date_modified": "2024-09-02T19:12:22.000",
    "request_status": "Pending",
    "responsible_agency": "Department of Public Works",
    "final_address": "510 N Carrollton Ave",
    "address_councildis": "A",
    "status": "Pending",
    "rowid": "1126900",
    "final_x": "3672261.59585",
    "final_y": "539376.533962",
    "longitude": "-90.09697425639553",
    "latitude": "29.97737577995756",
    "geocoded_column": {
      "latitude": "29.97737577995756",
      "longitude": "-90.09697425639553"
    }
  },
  {
    "service_request": "2024-1126899",
    "request_type": "Trash/Recycling",
    "request_reason": "Repair Trash Cart",
    "date_created": "2024-09-02T19:06:45.000",
    "date_modified": "2024-09-02T19:08:29.000",
    "request_status": "Pending",
    "responsible_agency": "Department of Sanitation",
    "final_address": "5819 Catina St",
    "address_councildis": "A",
    "status": "Assigned to Contractor",
    "contractor": "IV Waste",
    "rowid": "1126899",
    "final_x": "3666773.75213",
    "final_y": "546371.752464",
    "longitude": "-90.11407166565824",
    "latitude": "29.996771931737484",
    "geocoded_column": {
      "latitude": "29.996771931737484",
      "longitude": "-90.11407166565824"
    }
  },
  {
    "service_request": "2024-1126898",
    "request_type": "Trash/Recycling",
    "request_reason": "Request a Large Item Pick Up",
    "date_created": "2024-09-02T19:03:28.000",
    "date_modified": "2024-09-02T19:05:08.000",
    "request_status": "Pending",
    "responsible_agency": "Department of Sanitation",
    "final_address": "3 Trianon Plz",
    "address_councildis": "B",
    "status": "Assigned to Contractor",
    "contractor": "IV Waste",
    "rowid": "1126898",
    "final_x": "3667246.07764",
    "final_y": "530918.154946",
    "longitude": "-90.11309947514152",
    "latitude": "29.95426589167475",
    "geocoded_column": {
      "latitude": "29.95426589167475",
      "longitude": "-90.11309947514152"
    }
  },
  {
    "service_request": "2024-1126897",
    "request_type": "Roads/Drainage",
    "request_reason": "Catch Basin - Clogged",
    "date_created": "2024-09-02T18:48:41.000",
    "date_modified": "2024-09-02T18:48:41.000",
    "request_status": "Pending",
    "responsible_agency": "Department of Public Works",
    "final_address": "2309 DAbadie St",
    "address_councildis": "D",
    "status": "Pending",
    "rowid": "1126897",
    "final_x": "3680619.96488",
    "final_y": "539954.177674",
    "longitude": "-90.07055565434153",
    "latitude": "29.978713470161825",
    "geocoded_column": {
      "latitude": "29.978713470161825",
      "longitude": "-90.07055565434153"
    }
  },
  {
    "service_request": "2024-1126896",
    "request_type": "Property Maintenance",
    "request_reason": "Property Maintenance",
    "date_created": "2024-09-02T18:18:47.000",
    "date_modified": "2024-09-02T18:18:47.000",
    "request_status": "Pending",
    "responsible_agency": "Department of Code Enforcement",
    "final_address": "2821 Monticello Ave",
    "address_councildis": "A",
    "status": "Pending",
    "rowid": "1126896",
    "final_x": "3662590.90739",
    "final_y": "535931.176775",
    "longitude": "-90.12763215658491",
    "latitude": "29.968185559234428",
    "geocoded_column": {
      "latitude": "29.968185559234428",
      "longitude": "-90.12763215658491"
    }
  },
  {
    "service_request": "2024-1126895",
    "request_type": "Property Maintenance",
    "request_reason": "Property Maintenance",
    "date_created": "2024-09-02T18:15:45.000",
    "date_modified": "2024-09-02T18:15:45.000",
    "request_status": "Pending",
    "responsible_agency": "Department of Code Enforcement",
    "final_address": "2819 Monticello Ave",
    "address_councildis": "A",
    "status": "Pending",
    "rowid": "1126895",
    "final_x": "3662570.33248",
    "final_y": "535889.527815",
    "longitude": "-90.127698517255",
    "latitude": "29.968071633556796",
    "geocoded_column": {
      "latitude": "29.968071633556796",
      "longitude": "-90.127698517255"
    }
  },
  {
    "service_request": "2024-1126894",
    "request_type": "Property Maintenance",
    "request_reason": "Property Maintenance",
    "date_created": "2024-09-02T18:12:20.000",
    "date_modified": "2024-09-02T18:12:20.000",
    "request_status": "Pending",
    "responsible_agency": "Department of Code Enforcement",
    "final_address": "2807 Monticello Ave",
    "address_councildis": "A",
    "status": "Pending",
    "rowid": "1126894",
    "final_x": "3662511.67815",
    "final_y": "535762.483271",
    "longitude": "-90.1278879715926",
    "latitude": "29.967723999607685",
    "geocoded_column": {
      "latitude": "29.967723999607685",
      "longitude": "-90.1278879715926"
    }
  },
  {
    "service_request": "2024-1126893",
    "request_type": "Trash/Recycling",
    "request_reason": "Order Trash Cart",
    "date_created": "2024-09-02T18:10:39.000",
    "date_modified": "2024-09-02T18:10:40.000",
    "request_status": "Pending",
    "responsible_agency": "Department of Sanitation",
    "final_address": "7246 Benson Ct",
    "address_councildis": "E",
    "status": "Assigned to Contractor",
    "contractor": "Waste Pro",
    "rowid": "1126893",
    "final_x": "3704980.14775",
    "final_y": "561146.239262",
    "longitude": "-89.99283465954024",
    "latitude": "30.036222914340783",
    "geocoded_column": {
      "latitude": "30.036222914340783",
      "longitude": "-89.99283465954024"
    }
  },
  {
    "service_request": "2024-1126892",
    "request_type": "Trash/Recycling",
    "request_reason": "Request a Large Item Pick Up",
    "date_created": "2024-09-02T18:04:57.000",
    "date_modified": "2024-09-02T18:04:58.000",
    "request_status": "Pending",
    "responsible_agency": "Department of Sanitation",
    "final_address": "1246 Granada Dr",
    "address_councildis": "D",
    "status": "Assigned to Contractor",
    "contractor": "IV Waste",
    "rowid": "1126892",
    "final_x": "3677098.1307",
    "final_y": "550421.216724",
    "longitude": "-90.08131771189625",
    "latitude": "30.007600409802276",
    "geocoded_column": {
      "latitude": "30.007600409802276",
      "longitude": "-90.08131771189625"
    }
  },
  {
    "service_request": "2024-1126890",
    "request_type": "Trash/Recycling",
    "request_reason": "Request a Large Item Pick Up",
    "date_created": "2024-09-02T17:55:56.000",
    "date_modified": "2024-09-02T17:55:57.000",
    "request_status": "Pending",
    "responsible_agency": "Department of Sanitation",
    "final_address": "7301 Chatelain Dr",
    "address_councildis": "E",
    "status": "Assigned to Contractor",
    "contractor": "Waste Pro",
    "rowid": "1126890",
    "final_x": "3715272.30098",
    "final_y": "567227.589732",
    "longitude": "-89.96007948312568",
    "latitude": "30.052609072070528",
    "geocoded_column": {
      "latitude": "30.052609072070528",
      "longitude": "-89.96007948312568"
    }
  },
  {
    "service_request": "2024-1126889",
    "request_type": "Trash/Recycling",
    "request_reason": "Request a Large Item Pick Up",
    "date_created": "2024-09-02T17:26:34.000",
    "date_modified": "2024-09-02T17:26:34.000",
    "request_status": "Pending",
    "responsible_agency": "Department of Sanitation",
    "final_address": "11283 Winrock Dr",
    "address_councildis": "E",
    "status": "Assigned to Contractor",
    "contractor": "Waste Pro",
    "rowid": "1126889",
    "final_x": "3716712.63884",
    "final_y": "561668.571935",
    "longitude": "-89.95573828024344",
    "latitude": "30.037276496200594",
    "geocoded_column": {
      "latitude": "30.037276496200594",
      "longitude": "-89.95573828024344"
    }
  },
  {
    "service_request": "2024-1126888",
    "request_type": "Property Maintenance",
    "request_reason": "Property Maintenance",
    "date_created": "2024-09-02T17:20:32.000",
    "date_modified": "2024-09-02T17:20:32.000",
    "request_status": "Pending",
    "responsible_agency": "Department of Code Enforcement",
    "final_address": "1102 Valence St, New Orleans, Louisiana, 70115",
    "address_councildis": "B",
    "status": "Pending",
    "rowid": "1126888",
    "final_x": "3669814.65114",
    "final_y": "519454.991735",
    "longitude": "-90.10537682290095",
    "latitude": "29.922670433598512",
    "geocoded_column": {
      "latitude": "29.922670433598512",
      "longitude": "-90.10537682290095"
    }
  },
  {
    "service_request": "2024-1126887",
    "request_type": "Trash/Recycling",
    "request_reason": "Order Trash Cart",
    "date_created": "2024-09-02T17:11:40.000",
    "date_modified": "2024-09-02T17:11:41.000",
    "request_status": "Pending",
    "responsible_agency": "Department of Sanitation",
    "final_address": "2415 Conti St",
    "address_councildis": "B",
    "status": "Assigned to Contractor",
    "contractor": "IV Waste",
    "rowid": "1126887",
    "final_x": "3677032.24091",
    "final_y": "535336.921926",
    "longitude": "-90.08204628899959",
    "latitude": "29.966125825738114",
    "geocoded_column": {
      "latitude": "29.966125825738114",
      "longitude": "-90.08204628899959"
    }
  },
  {
    "service_request": "2024-1126886",
    "request_type": "Parks & Parkways",
    "request_reason": "Request Tree Service (Right of Way/Public Property)",
    "date_created": "2024-09-02T17:07:52.000",
    "date_modified": "2024-09-02T17:07:52.000",
    "request_status": "Pending",
    "responsible_agency": "Department of Parks & Parkway",
    "final_address": "5501 Marcia Ave",
    "address_councildis": "A",
    "status": "Pending",
    "rowid": "1126886",
    "final_x": "3664914.04455",
    "final_y": "544362.750735",
    "longitude": "-90.12001360814348",
    "latitude": "29.991302142759693",
    "geocoded_column": {
      "latitude": "29.991302142759693",
      "longitude": "-90.12001360814348"
    }
  },
  {
    "service_request": "2024-1126885",
    "request_type": "Trash/Recycling",
    "request_reason": "Request a Large Item Pick Up",
    "date_created": "2024-09-02T16:55:44.000",
    "date_modified": "2024-09-02T16:55:45.000",
    "request_status": "Pending",
    "responsible_agency": "Department of Sanitation",
    "final_address": "1110 Tennessee St",
    "address_councildis": "E",
    "status": "Assigned to Contractor",
    "contractor": "Waste Pro",
    "rowid": "1126885",
    "final_x": "3695675.9496",
    "final_y": "534515.037061",
    "longitude": "-90.02319987215128",
    "latitude": "29.963292949694488",
    "geocoded_column": {
      "latitude": "29.963292949694488",
      "longitude": "-90.02319987215128"
    }
  },
  {
    "service_request": "2024-1126884",
    "request_type": "Property Maintenance",
    "request_reason": "Property Maintenance",
    "date_created": "2024-09-02T16:49:27.000",
    "date_modified": "2024-09-02T16:49:27.000",
    "request_status": "Pending",
    "responsible_agency": "Department of Code Enforcement",
    "final_address": "212 Berkley Dr",
    "address_councildis": "C",
    "status": "Pending",
    "rowid": "1126884",
    "final_x": "3706570.50379",
    "final_y": "518227.653366",
    "longitude": "-89.98939965129385",
    "latitude": "29.91816141741942",
    "geocoded_column": {
      "latitude": "29.91816141741942",
      "longitude": "-89.98939965129385"
    }
  },
  {
    "service_request": "2024-1126883",
    "request_type": "Roads/Drainage",
    "request_reason": "Damaged Sidewalk",
    "date_created": "2024-09-02T16:43:24.000",
    "date_modified": "2024-09-02T16:43:24.000",
    "request_status": "Pending",
    "responsible_agency": "Department of Public Works",
    "final_address": "312 Exchange Pl",
    "address_councildis": "C",
    "status": "Pending",
    "rowid": "1126883",
    "final_x": "3681905.15356",
    "final_y": "531278.453954",
    "longitude": "-90.06679942407854",
    "latitude": "29.95481920547558",
    "geocoded_column": {
      "latitude": "29.95481920547558",
      "longitude": "-90.06679942407854"
    }
  },
  {
    "service_request": "2024-1126882",
    "request_type": "Trash/Recycling",
    "request_reason": "Replace Recycling Cart",
    "date_created": "2024-09-02T16:32:20.000",
    "date_modified": "2024-09-02T16:32:20.000",
    "request_status": "Pending",
    "responsible_agency": "Department of Sanitation",
    "final_address": "304 S Cortez St",
    "address_councildis": "A",
    "status": "Pending",
    "rowid": "1126882",
    "final_x": "3671583.54894",
    "final_y": "536884.969736",
    "longitude": "-90.09920051432856",
    "latitude": "29.970544920120318",
    "geocoded_column": {
      "latitude": "29.970544920120318",
      "longitude": "-90.09920051432856"
    }
  },
  {
    "service_request": "2024-1126881",
    "request_type": "Roads/Drainage",
    "request_reason": "Street Flooding / Drainage",
    "date_created": "2024-09-02T16:30:00.000",
    "date_modified": "2024-09-02T16:30:00.000",
    "request_status": "Pending",
    "responsible_agency": "Department of Public Works",
    "final_address": "4239 Vincennes Pl",
    "address_councildis": "B",
    "status": "Pending",
    "rowid": "1126881",
    "final_x": "3668859.62663",
    "final_y": "531565.533059",
    "longitude": "-90.10798265543059",
    "latitude": "29.955998622424612",
    "geocoded_column": {
      "latitude": "29.955998622424612",
      "longitude": "-90.10798265543059"
    }
  },
  {
    "service_request": "2024-1126878",
    "request_type": "Property Maintenance",
    "request_reason": "Property Maintenance",
    "date_created": "2024-09-02T16:08:42.000",
    "date_modified": "2024-09-02T16:08:42.000",
    "request_status": "Pending",
    "responsible_agency": "Department of Code Enforcement",
    "final_address": "1481 N Prieur St",
    "address_councildis": "D",
    "status": "Pending",
    "rowid": "1126878",
    "final_x": "3680786.72527",
    "final_y": "537836.658889",
    "longitude": "-90.07010269366204",
    "latitude": "29.97288597275933",
    "geocoded_column": {
      "latitude": "29.97288597275933",
      "longitude": "-90.07010269366204"
    }
  },
  {
    "service_request": "2024-1126877",
    "request_type": "Trash/Recycling",
    "request_reason": "Order Trash Cart",
    "date_created": "2024-09-02T15:51:06.000",
    "date_modified": "2024-09-02T15:51:07.000",
    "request_status": "Pending",
    "responsible_agency": "Department of Sanitation",
    "final_address": "1726 Touro St",
    "address_councildis": "D",
    "status": "Assigned to Contractor",
    "contractor": "IV Waste",
    "rowid": "1126877",
    "final_x": "3684007.18729",
    "final_y": "538664.457353",
    "longitude": "-90.05990282228291",
    "latitude": "29.975064113509408",
    "geocoded_column": {
      "latitude": "29.975064113509408",
      "longitude": "-90.05990282228291"
    }
  },
  {
    "service_request": "2024-1126876",
    "request_type": "Trash/Recycling",
    "request_reason": "Request a Large Item Pick Up",
    "date_created": "2024-09-02T15:27:43.000",
    "date_modified": "2024-09-02T15:27:44.000",
    "request_status": "Pending",
    "responsible_agency": "Department of Sanitation",
    "final_address": "7719 Birch St",
    "address_councildis": "A",
    "status": "Assigned to Contractor",
    "contractor": "IV Waste",
    "rowid": "1126876",
    "final_x": "3663908.82099",
    "final_y": "528563.94784",
    "longitude": "-90.1237157220989",
    "latitude": "29.947889881800116",
    "geocoded_column": {
      "latitude": "29.947889881800116",
      "longitude": "-90.1237157220989"
    }
  },
  {
    "service_request": "2024-1126874",
    "request_type": "Trash/Recycling",
    "request_reason": "Request a Large Item Pick Up",
    "date_created": "2024-09-02T15:05:39.000",
    "date_modified": "2024-09-02T15:05:40.000",
    "request_status": "Pending",
    "responsible_agency": "Department of Sanitation",
    "final_address": "0 BLK Cypress Grove Ct",
    "address_councildis": "C",
    "status": "Assigned to Contractor",
    "contractor": "Richards Disposal",
    "rowid": "1126874",
    "final_x": "3705067.07146",
    "final_y": "512009.546635",
    "longitude": "-89.99437448645769",
    "latitude": "29.901112155377316",
    "geocoded_column": {
      "latitude": "29.901112155377316",
      "longitude": "-89.99437448645769"
    }
  },
  {
    "service_request": "2024-1126873",
    "request_type": "Trash/Recycling",
    "request_reason": "Replace Trash Cart",
    "date_created": "2024-09-02T15:02:52.000",
    "date_modified": "2024-09-02T15:02:53.000",
    "request_status": "Pending",
    "responsible_agency": "Department of Sanitation",
    "final_address": "6519 Vicksburg St",
    "address_councildis": "A",
    "status": "Assigned to Contractor",
    "contractor": "IV Waste",
    "rowid": "1126873",
    "final_x": "3669282.41306",
    "final_y": "550816.252373",
    "longitude": "-90.1059965314125",
    "latitude": "30.008919121570052",
    "geocoded_column": {
      "latitude": "30.008919121570052",
      "longitude": "-90.1059965314125"
    }
  },
  {
    "service_request": "2024-1126872",
    "request_type": "Property Maintenance",
    "request_reason": "Property Maintenance",
    "date_created": "2024-09-02T15:02:22.000",
    "date_modified": "2024-09-02T15:02:22.000",
    "request_status": "Pending",
    "responsible_agency": "Department of Code Enforcement",
    "final_address": "3807 St Ferdinand St",
    "address_councildis": "D",
    "status": "Pending",
    "rowid": "1126872",
    "final_x": "3689980.24035",
    "final_y": "547259.048209",
    "longitude": "-90.04073222998112",
    "latitude": "29.99851227774616",
    "geocoded_column": {
      "latitude": "29.99851227774616",
      "longitude": "-90.04073222998112"
    }
  },
  {
    "service_request": "2024-1126871",
    "request_type": "Trash/Recycling",
    "request_reason": "Request a Large Item Pick Up",
    "date_created": "2024-09-02T14:47:01.000",
    "date_modified": "2024-09-02T14:47:02.000",
    "request_status": "Pending",
    "responsible_agency": "Department of Sanitation",
    "final_address": "15 Five Oaks Dr",
    "address_councildis": "C",
    "status": "Assigned to Contractor",
    "contractor": "Richards Disposal",
    "rowid": "1126871",
    "final_x": "3699349.41943",
    "final_y": "526321.897662",
    "longitude": "-90.01189792167229",
    "latitude": "29.94064870678968",
    "geocoded_column": {
      "latitude": "29.94064870678968",
      "longitude": "-90.01189792167229"
    }
  },
  {
    "service_request": "2024-1126870",
    "request_type": "Property Maintenance",
    "request_reason": "Property Maintenance",
    "date_created": "2024-09-02T14:39:03.000",
    "date_modified": "2024-09-02T14:39:03.000",
    "request_status": "Pending",
    "responsible_agency": "Department of Code Enforcement",
    "final_address": "1340 St Anthony St",
    "address_councildis": "C",
    "status": "Pending",
    "rowid": "1126870",
    "final_x": "3683396.12745",
    "final_y": "536884.075528",
    "longitude": "-90.06189509761259",
    "latitude": "29.970187340731506",
    "geocoded_column": {
      "latitude": "29.970187340731506",
      "longitude": "-90.06189509761259"
    }
  },
  {
    "service_request": "2024-1126869",
    "request_type": "Property Maintenance",
    "request_reason": "Property Maintenance",
    "date_created": "2024-09-02T14:36:00.000",
    "date_modified": "2024-09-02T14:36:00.000",
    "request_status": "Pending",
    "responsible_agency": "Department of Code Enforcement",
    "final_address": "1314 St Anthony St",
    "address_councildis": "C",
    "status": "Pending",
    "rowid": "1126869",
    "final_x": "3683435.43593",
    "final_y": "536692.776711",
    "longitude": "-90.06177766171658",
    "latitude": "29.969660135855445",
    "geocoded_column": {
      "latitude": "29.969660135855445",
      "longitude": "-90.06177766171658"
    }
  },
  {
    "service_request": "2024-1126868",
    "request_type": "Trash/Recycling",
    "request_reason": "Request a Large Item Pick Up",
    "date_created": "2024-09-02T14:33:45.000",
    "date_modified": "2024-09-02T14:33:46.000",
    "request_status": "Pending",
    "responsible_agency": "Department of Sanitation",
    "final_address": "6224 Paris Ave",
    "address_councildis": "D",
    "status": "Assigned to Contractor",
    "contractor": "IV Waste",
    "rowid": "1126868",
    "final_x": "3678771.9636",
    "final_y": "555836.251993",
    "longitude": "-90.07584184231561",
    "latitude": "30.022439406098542",
    "geocoded_column": {
      "latitude": "30.022439406098542",
      "longitude": "-90.07584184231561"
    }
  },
  {
    "service_request": "2024-1126867",
    "request_type": "Property Maintenance",
    "request_reason": "Property Maintenance",
    "date_created": "2024-09-02T14:07:38.000",
    "date_modified": "2024-09-02T14:07:38.000",
    "request_status": "Pending",
    "responsible_agency": "Department of Code Enforcement",
    "final_address": "3119 Deers St",
    "address_councildis": "D",
    "status": "Pending",
    "rowid": "1126867",
    "final_x": "3688034.55337",
    "final_y": "544496.997711",
    "longitude": "-90.04697659481823",
    "latitude": "29.99097784228066",
    "geocoded_column": {
      "latitude": "29.99097784228066",
      "longitude": "-90.04697659481823"
    }
  },
  {
    "service_request": "2024-1126866",
    "request_type": "Property Maintenance",
    "request_reason": "Property Maintenance",
    "date_created": "2024-09-02T14:05:37.000",
    "date_modified": "2024-09-02T14:05:37.000",
    "request_status": "Pending",
    "responsible_agency": "Department of Code Enforcement",
    "final_address": "2723 Treasure St",
    "address_councildis": "D",
    "status": "Pending",
    "rowid": "1126866",
    "final_x": "3688162.57622",
    "final_y": "544394.959887",
    "longitude": "-90.04657582160084",
    "latitude": "29.990693322391746",
    "geocoded_column": {
      "latitude": "29.990693322391746",
      "longitude": "-90.04657582160084"
    }
  },
  {
    "service_request": "2024-1126865",
    "request_type": "Trash/Recycling",
    "request_reason": "Illegal Dumping",
    "date_created": "2024-09-02T14:03:46.000",
    "date_modified": "2024-09-02T14:03:46.000",
    "request_status": "Pending",
    "responsible_agency": "Department of Sanitation",
    "final_address": "2669 Treasure St",
    "address_councildis": "D",
    "status": "Pending",
    "rowid": "1126865",
    "final_x": "3687970.52943",
    "final_y": "544362.079823",
    "longitude": "-90.04718361431419",
    "latitude": "29.99060884263078",
    "geocoded_column": {
      "latitude": "29.99060884263078",
      "longitude": "-90.04718361431419"
    }
  },
  {
    "service_request": "2024-1126864",
    "request_type": "Property Maintenance",
    "request_reason": "Property Maintenance",
    "date_created": "2024-09-02T14:01:40.000",
    "date_modified": "2024-09-02T14:01:40.000",
    "request_status": "Pending",
    "responsible_agency": "Department of Code Enforcement",
    "final_address": "2667 Benefit St",
    "address_councildis": "D",
    "status": "Pending",
    "rowid": "1126864",
    "final_x": "3687952.39004",
    "final_y": "544721.052175",
    "longitude": "-90.04722818491425",
    "latitude": "29.99159644766403",
    "geocoded_column": {
      "latitude": "29.99159644766403",
      "longitude": "-90.04722818491425"
    }
  },
  {
    "service_request": "2024-1126863",
    "request_type": "Property Maintenance",
    "request_reason": "Property Maintenance",
    "date_created": "2024-09-02T14:00:26.000",
    "date_modified": "2024-09-02T14:00:26.000",
    "request_status": "Pending",
    "responsible_agency": "Department of Code Enforcement",
    "final_address": "3129 Deers St",
    "address_councildis": "D",
    "status": "Pending",
    "rowid": "1126863",
    "final_x": "3688034.9583",
    "final_y": "544561.576207",
    "longitude": "-90.04697302570382",
    "latitude": "29.991155397476746",
    "geocoded_column": {
      "latitude": "29.991155397476746",
      "longitude": "-90.04697302570382"
    }
  },
  {
    "service_request": "2024-1126862",
    "request_type": "Safety & Permits",
    "request_reason": "Licenses & Permits",
    "date_created": "2024-09-02T13:59:33.000",
    "date_modified": "2024-09-02T13:59:33.000",
    "request_status": "Pending",
    "responsible_agency": "Safety and Permits",
    "final_address": "4917 Camp St",
    "address_councildis": "B",
    "status": "Pending",
    "rowid": "1126862",
    "final_x": "3668843.24993",
    "final_y": "518997.850743",
    "longitude": "-90.10845858447105",
    "latitude": "29.92144202932414",
    "geocoded_column": {
      "latitude": "29.92144202932414",
      "longitude": "-90.10845858447105"
    }
  },
  {
    "service_request": "2024-1126861",
    "request_type": "Property Maintenance",
    "request_reason": "Property Maintenance",
    "date_created": "2024-09-02T13:59:15.000",
    "date_modified": "2024-09-02T13:59:15.000",
    "request_status": "Pending",
    "responsible_agency": "Department of Code Enforcement",
    "final_address": "3131 Deers St",
    "address_councildis": "D",
    "status": "Pending",
    "rowid": "1126861",
    "final_x": "3688036.09481",
    "final_y": "544597.365967",
    "longitude": "-90.04696816658152",
    "latitude": "29.991253771392266",
    "geocoded_column": {
      "latitude": "29.991253771392266",
      "longitude": "-90.04696816658152"
    }
  },
  {
    "service_request": "2024-1126860",
    "request_type": "Roads/Drainage",
    "request_reason": "Street Flooding / Drainage",
    "date_created": "2024-09-02T13:55:23.000",
    "date_modified": "2024-09-02T13:55:23.000",
    "request_status": "Pending",
    "responsible_agency": "Department of Public Works",
    "final_address": "865 Olga St",
    "address_councildis": "A",
    "status": "Pending",
    "rowid": "1126860",
    "final_x": "3673330.27316",
    "final_y": "540311.988619",
    "longitude": "-90.0935670457071",
    "latitude": "29.97991621132827",
    "geocoded_column": {
      "latitude": "29.97991621132827",
      "longitude": "-90.0935670457071"
    }
  },
  {
    "service_request": "2024-1126857",
    "request_type": "Property Maintenance",
    "request_reason": "Property Maintenance",
    "date_created": "2024-09-02T13:45:52.000",
    "date_modified": "2024-09-02T13:45:52.000",
    "request_status": "Pending",
    "responsible_agency": "Department of Code Enforcement",
    "final_address": "2701 Benefit St",
    "address_councildis": "D",
    "status": "Pending",
    "rowid": "1126857",
    "final_x": "3688015.72451",
    "final_y": "544727.040527",
    "longitude": "-90.0470279132857",
    "latitude": "29.991610958679264",
    "geocoded_column": {
      "latitude": "29.991610958679264",
      "longitude": "-90.0470279132857"
    }
  },
  {
    "service_request": "2024-1126856",
    "request_type": "Property Maintenance",
    "request_reason": "Property Maintenance",
    "date_created": "2024-09-02T13:44:35.000",
    "date_modified": "2024-09-02T13:44:35.000",
    "request_status": "Pending",
    "responsible_agency": "Department of Code Enforcement",
    "final_address": "3134 Deers St",
    "address_councildis": "D",
    "status": "Pending",
    "rowid": "1126856",
    "final_x": "3687955.83452",
    "final_y": "544589.811599",
    "longitude": "-90.04722195767485",
    "latitude": "29.991235476869154",
    "geocoded_column": {
      "latitude": "29.991235476869154",
      "longitude": "-90.04722195767485"
    }
  },
  {
    "service_request": "2024-1126855",
    "request_type": "Property Maintenance",
    "request_reason": "Property Maintenance",
    "date_created": "2024-09-02T13:43:19.000",
    "date_modified": "2024-09-02T13:43:19.000",
    "request_status": "Pending",
    "responsible_agency": "Department of Code Enforcement",
    "final_address": "3138 Deers St",
    "address_councildis": "D",
    "status": "Pending",
    "rowid": "1126855",
    "final_x": "3687949.51574",
    "final_y": "544623.067599",
    "longitude": "-90.04724073814148",
    "latitude": "29.991327113949513",
    "geocoded_column": {
      "latitude": "29.991327113949513",
      "longitude": "-90.04724073814148"
    }
  },
  {
    "service_request": "2024-1126854",
    "request_type": "Property Maintenance",
    "request_reason": "Property Maintenance",
    "date_created": "2024-09-02T13:42:10.000",
    "date_modified": "2024-09-02T13:42:10.000",
    "request_status": "Pending",
    "responsible_agency": "Department of Code Enforcement",
    "final_address": "3140 Deers St",
    "address_councildis": "D",
    "status": "Pending",
    "rowid": "1126854",
    "final_x": "3687947.08457",
    "final_y": "544656.478223",
    "longitude": "-90.04724723310059",
    "latitude": "29.991419056207963",
    "geocoded_column": {
      "latitude": "29.991419056207963",
      "longitude": "-90.04724723310059"
    }
  },
  {
    "service_request": "2024-1126853",
    "request_type": "Trash/Recycling",
    "request_reason": "Request a Large Item Pick Up",
    "date_created": "2024-09-02T13:33:23.000",
    "date_modified": "2024-09-02T13:33:24.000",
    "request_status": "Pending",
    "responsible_agency": "Department of Sanitation",
    "final_address": "2600 BLK Saint Philip St",
    "address_councildis": "D",
    "status": "Assigned to Contractor",
    "contractor": "IV Waste",
    "rowid": "1126853",
    "final_x": "3677622.50528",
    "final_y": "537677.125877",
    "longitude": "-90.08010141773156",
    "latitude": "29.972542850988503",
    "geocoded_column": {
      "latitude": "29.972542850988503",
      "longitude": "-90.08010141773156"
    }
  },
  {
    "service_request": "2024-1126852",
    "request_type": "Trash/Recycling",
    "request_reason": "Request a Large Item Pick Up",
    "date_created": "2024-09-02T13:30:33.000",
    "date_modified": "2024-09-02T13:30:34.000",
    "request_status": "Pending",
    "responsible_agency": "Department of Sanitation",
    "final_address": "11137 Winchester Park Dr",
    "address_councildis": "E",
    "status": "Assigned to Contractor",
    "contractor": "Waste Pro",
    "rowid": "1126852",
    "final_x": "3715060.88197",
    "final_y": "561412.072478",
    "longitude": "-89.96096786048174",
    "latitude": "30.03662572539122",
    "geocoded_column": {
      "latitude": "30.03662572539122",
      "longitude": "-89.96096786048174"
    }
  },
  {
    "service_request": "2024-1126851",
    "request_type": "Property Maintenance",
    "request_reason": "Property Maintenance",
    "date_created": "2024-09-02T13:21:58.000",
    "date_modified": "2024-09-02T13:21:58.000",
    "request_status": "Pending",
    "responsible_agency": "Department of Code Enforcement",
    "final_address": "3119 Deers St",
    "address_councildis": "D",
    "status": "Pending",
    "rowid": "1126851",
    "final_x": "3688034.55337",
    "final_y": "544496.997711",
    "longitude": "-90.04697659481823",
    "latitude": "29.99097784228066",
    "geocoded_column": {
      "latitude": "29.99097784228066",
      "longitude": "-90.04697659481823"
    }
  },
  {
    "service_request": "2024-1126850",
    "request_type": "Roads/Drainage",
    "request_reason": "Alley Way",
    "date_created": "2024-09-02T13:17:10.000",
    "date_modified": "2024-09-02T13:17:10.000",
    "request_status": "Pending",
    "responsible_agency": "Department of Public Works",
    "final_address": "6830 Louisville St",
    "address_councildis": "A",
    "status": "Pending",
    "rowid": "1126850",
    "final_x": "3668158.60666",
    "final_y": "553009.600215",
    "longitude": "-90.10947300622882",
    "latitude": "30.014983108672837",
    "geocoded_column": {
      "latitude": "30.014983108672837",
      "longitude": "-90.10947300622882"
    }
  },
  {
    "service_request": "2024-1126849",
    "request_type": "Property Maintenance",
    "request_reason": "Property Maintenance",
    "date_created": "2024-09-02T13:14:37.000",
    "date_modified": "2024-09-02T13:14:37.000",
    "request_status": "Pending",
    "responsible_agency": "Department of Code Enforcement",
    "final_address": "2653 Treasure St",
    "address_councildis": "D",
    "status": "Pending",
    "rowid": "1126849",
    "final_x": "3687833.54275",
    "final_y": "544346.326799",
    "longitude": "-90.04761687836871",
    "latitude": "29.99056975462861",
    "geocoded_column": {
      "latitude": "29.99056975462861",
      "longitude": "-90.04761687836871"
    }
  },
  {
    "service_request": "2024-1126848",
    "request_type": "Abandoned Vehicles",
    "request_reason": "Abandoned/Junk Vehicles",
    "date_created": "2024-09-02T13:07:10.000",
    "date_modified": "2024-09-02T13:07:10.000",
    "request_status": "Pending",
    "responsible_agency": "Department of Public Works",
    "final_address": "1710 Pleasure St",
    "address_councildis": "D",
    "status": "Pending",
    "rowid": "1126848",
    "final_x": "3680671.59343",
    "final_y": "544794.292687",
    "longitude": "-90.07022407809103",
    "latitude": "29.99202052677038",
    "geocoded_column": {
      "latitude": "29.99202052677038",
      "longitude": "-90.07022407809103"
    }
  },
  {
    "service_request": "2024-1126847",
    "request_type": "Property Maintenance",
    "request_reason": "Property Maintenance",
    "date_created": "2024-09-02T13:04:09.000",
    "date_modified": "2024-09-02T13:04:09.000",
    "request_status": "Pending",
    "responsible_agency": "Department of Code Enforcement",
    "final_address": "2669 Treasure St",
    "address_councildis": "D",
    "status": "Pending",
    "rowid": "1126847",
    "final_x": "3687970.52943",
    "final_y": "544362.079823",
    "longitude": "-90.04718361431419",
    "latitude": "29.99060884263078",
    "geocoded_column": {
      "latitude": "29.99060884263078",
      "longitude": "-90.04718361431419"
    }
  },
  {
    "service_request": "2024-1126846",
    "request_type": "Property Maintenance",
    "request_reason": "Property Maintenance",
    "date_created": "2024-09-02T12:57:02.000",
    "date_modified": "2024-09-02T12:57:02.000",
    "request_status": "Pending",
    "responsible_agency": "Department of Code Enforcement",
    "final_address": "1616 Tita St",
    "address_councildis": "C",
    "status": "Pending",
    "rowid": "1126846",
    "final_x": "3695682.70557",
    "final_y": "525361.834813",
    "longitude": "-90.02350895116741",
    "latitude": "29.93812462882885",
    "geocoded_column": {
      "latitude": "29.93812462882885",
      "longitude": "-90.02350895116741"
    }
  },
  {
    "service_request": "2024-1126845",
    "request_type": "Trash/Recycling",
    "request_reason": "Request a Large Item Pick Up",
    "date_created": "2024-09-02T12:55:25.000",
    "date_modified": "2024-09-02T12:55:26.000",
    "request_status": "Pending",
    "responsible_agency": "Department of Sanitation",
    "final_address": "925 State St",
    "address_councildis": "A",
    "status": "Assigned to Contractor",
    "contractor": "IV Waste",
    "rowid": "1126845",
    "final_x": "3664935.58196",
    "final_y": "519709.537208",
    "longitude": "-90.12076966297988",
    "latitude": "29.923513225320615",
    "geocoded_column": {
      "latitude": "29.923513225320615",
      "longitude": "-90.12076966297988"
    }
  },
  {
    "service_request": "2024-1126844",
    "request_type": "Property Maintenance",
    "request_reason": "Property Maintenance",
    "date_created": "2024-09-02T12:52:24.000",
    "date_modified": "2024-09-02T12:52:24.000",
    "request_status": "Pending",
    "responsible_agency": "Department of Code Enforcement",
    "final_address": "2723 Treasure St",
    "address_councildis": "D",
    "status": "Pending",
    "rowid": "1126844",
    "final_x": "3688162.57622",
    "final_y": "544394.959887",
    "longitude": "-90.04657582160084",
    "latitude": "29.990693322391746",
    "geocoded_column": {
      "latitude": "29.990693322391746",
      "longitude": "-90.04657582160084"
    }
  },
  {
    "service_request": "2024-1126842",
    "request_type": "Trash/Recycling",
    "request_reason": "Order Recycling Cart",
    "date_created": "2024-09-02T12:34:16.000",
    "date_modified": "2024-09-02T12:34:16.000",
    "request_status": "Pending",
    "responsible_agency": "Department of Sanitation",
    "final_address": "6838 Argonne Blvd",
    "address_councildis": "A",
    "status": "Pending",
    "rowid": "1126842",
    "final_x": "3670615.87015",
    "final_y": "552835.566998",
    "longitude": "-90.10171511528367",
    "latitude": "30.014432183600707",
    "geocoded_column": {
      "latitude": "30.014432183600707",
      "longitude": "-90.10171511528367"
    }
  },
  {
    "service_request": "2024-1126841",
    "request_type": "Trash/Recycling",
    "request_reason": "Order Trash Cart",
    "date_created": "2024-09-02T12:32:33.000",
    "date_modified": "2024-09-02T12:32:34.000",
    "request_status": "Pending",
    "responsible_agency": "Department of Sanitation",
    "final_address": "6838 Argonne Blvd",
    "address_councildis": "A",
    "status": "Assigned to Contractor",
    "contractor": "IV Waste",
    "rowid": "1126841",
    "final_x": "3670615.87015",
    "final_y": "552835.566998",
    "longitude": "-90.10171511528367",
    "latitude": "30.014432183600707",
    "geocoded_column": {
      "latitude": "30.014432183600707",
      "longitude": "-90.10171511528367"
    }
  },
  {
    "service_request": "2024-1126840",
    "request_type": "Trash/Recycling",
    "request_reason": "Missed Trash Pick-Up",
    "date_created": "2024-09-02T12:24:57.000",
    "date_modified": "2024-09-02T13:26:50.000",
    "case_close_date": "2024-09-02T08:26:50.000",
    "request_status": "Closed",
    "responsible_agency": "Department of Sanitation",
    "final_address": "13973 Curran Rd",
    "address_councildis": "E",
    "status": "Invalid Request",
    "contractor": "Waste Pro",
    "contractor_action": "Trash Cart Not Curbside",
    "rowid": "1126840",
    "final_x": "3718445.43826",
    "final_y": "572253.143721",
    "longitude": "-89.94985843866903",
    "latitude": "30.066322308643137",
    "geocoded_column": {
      "latitude": "30.066322308643137",
      "longitude": "-89.94985843866903"
    }
  },
  {
    "service_request": "2024-1126839",
    "request_type": "Trash/Recycling",
    "request_reason": "Replace Trash Cart",
    "date_created": "2024-09-02T12:23:03.000",
    "date_modified": "2024-09-02T12:23:05.000",
    "request_status": "Pending",
    "responsible_agency": "Department of Sanitation",
    "final_address": "618 Hillary St",
    "address_councildis": "A",
    "status": "Assigned to Contractor",
    "contractor": "IV Waste",
    "rowid": "1126839",
    "final_x": "3661996.5824",
    "final_y": "525795.712317",
    "longitude": "-90.12984525536224",
    "latitude": "29.940333485133444",
    "geocoded_column": {
      "latitude": "29.940333485133444",
      "longitude": "-90.12984525536224"
    }
  },
  {
    "service_request": "2024-1126838",
    "request_type": "Trash/Recycling",
    "request_reason": "Request a Large Item Pick Up",
    "date_created": "2024-09-02T12:14:14.000",
    "date_modified": "2024-09-02T12:14:15.000",
    "request_status": "Pending",
    "responsible_agency": "Department of Sanitation",
    "final_address": "12340 Carmel Pl",
    "address_councildis": "E",
    "status": "Assigned to Contractor",
    "contractor": "Waste Pro",
    "rowid": "1126838",
    "final_x": "3716000.09029",
    "final_y": "566578.109027",
    "longitude": "-89.9578038179974",
    "latitude": "30.05079926333272",
    "geocoded_column": {
      "latitude": "30.05079926333272",
      "longitude": "-89.9578038179974"
    }
  },
  {
    "service_request": "2024-1126837",
    "request_type": "Trash/Recycling",
    "request_reason": "Request a Large Item Pick Up",
    "date_created": "2024-09-02T12:12:47.000",
    "date_modified": "2024-09-02T12:12:48.000",
    "request_status": "Pending",
    "responsible_agency": "Department of Sanitation",
    "final_address": "6254 Kuebel Dr",
    "address_councildis": "E",
    "status": "Assigned to Contractor",
    "contractor": "Waste Pro",
    "rowid": "1126837",
    "final_x": "3695867.10435",
    "final_y": "559926.455645",
    "longitude": "-90.02167764310424",
    "latitude": "30.03315897192916",
    "geocoded_column": {
      "latitude": "30.03315897192916",
      "longitude": "-90.02167764310424"
    }
  },
  {
    "service_request": "2024-1126836",
    "request_type": "Abandoned Vehicles",
    "request_reason": "Abandoned/Junk Vehicles",
    "date_created": "2024-09-02T12:05:57.000",
    "date_modified": "2024-09-02T12:08:04.000",
    "request_status": "Pending",
    "responsible_agency": "Department of Public Works",
    "final_address": "1300 BLK N dOrgenois St",
    "address_councildis": "D",
    "status": "Inspected",
    "rowid": "1126836",
    "final_x": "3678557.35709",
    "final_y": "538484.16757",
    "longitude": "-90.07712104453257",
    "latitude": "29.974733790756698",
    "geocoded_column": {
      "latitude": "29.974733790756698",
      "longitude": "-90.07712104453257"
    }
  },
  {
    "service_request": "2024-1126835",
    "request_type": "Abandoned Vehicles",
    "request_reason": "Abandoned/Junk Vehicles",
    "date_created": "2024-09-02T12:05:03.000",
    "date_modified": "2024-09-02T13:26:39.000",
    "request_status": "Pending",
    "responsible_agency": "Department of Public Works",
    "final_address": "3700 BLK Erato St",
    "address_councildis": "B",
    "status": "Inspected",
    "rowid": "1126835",
    "final_x": "3673173.05421",
    "final_y": "530061.627328",
    "longitude": "-90.09441365674755",
    "latitude": "29.951735840527068",
    "geocoded_column": {
      "latitude": "29.951735840527068",
      "longitude": "-90.09441365674755"
    }
  },
  {
    "service_request": "2024-1126834",
    "request_type": "Utility Poles",
    "request_reason": "Utility Pole Leaning",
    "date_created": "2024-09-02T12:02:11.000",
    "date_modified": "2024-09-02T12:02:13.000",
    "request_status": "Pending",
    "responsible_agency": "Utility Company Collective",
    "final_address": "4934 Charlene Dr",
    "address_councildis": "E",
    "status": "Pending",
    "rowid": "1126834",
    "final_x": "3707724.53393",
    "final_y": "556751.408282",
    "longitude": "-89.98432544839253",
    "latitude": "30.024050289873426",
    "geocoded_column": {
      "latitude": "30.024050289873426",
      "longitude": "-89.98432544839253"
    }
  },
  {
    "service_request": "2024-1126833",
    "request_type": "Abandoned Vehicles",
    "request_reason": "Abandoned/Junk Vehicles",
    "date_created": "2024-09-02T12:00:19.000",
    "date_modified": "2024-09-02T12:00:19.000",
    "request_status": "Pending",
    "responsible_agency": "Department of Public Works",
    "final_address": "2114 DAbadie St",
    "address_councildis": "D",
    "status": "Pending",
    "rowid": "1126833",
    "final_x": "3681090.76559",
    "final_y": "539501.606154",
    "longitude": "-90.06908446113344",
    "latitude": "29.97745478088811",
    "geocoded_column": {
      "latitude": "29.97745478088811",
      "longitude": "-90.06908446113344"
    }
  },
  {
    "service_request": "2024-1126832",
    "request_type": "Roads/Drainage",
    "request_reason": "Catch Basin - Clogged",
    "date_created": "2024-09-02T11:52:44.000",
    "date_modified": "2024-09-02T11:52:44.000",
    "request_status": "Pending",
    "responsible_agency": "Department of Public Works",
    "final_address": "5878 Marshal Foch St",
    "address_councildis": "A",
    "status": "Pending",
    "rowid": "1126832",
    "final_x": "3669663.36698",
    "final_y": "546456.063441",
    "longitude": "-90.10494064573182",
    "latitude": "29.996918895871307",
    "geocoded_column": {
      "latitude": "29.996918895871307",
      "longitude": "-90.10494064573182"
    }
  },
  {
    "service_request": "2024-1126831",
    "request_type": "Abandoned Vehicles",
    "request_reason": "Abandoned/Junk Vehicles",
    "date_created": "2024-09-02T11:52:13.000",
    "date_modified": "2024-09-02T11:52:46.000",
    "request_status": "Pending",
    "responsible_agency": "Department of Public Works",
    "final_address": "3700 BLK Clio St",
    "address_councildis": "B",
    "status": "Inspected",
    "rowid": "1126831",
    "final_x": "3673361.835",
    "final_y": "530361.636243",
    "longitude": "-90.09380732904108",
    "latitude": "29.952555151867234",
    "geocoded_column": {
      "latitude": "29.952555151867234",
      "longitude": "-90.09380732904108"
    }
  },
  {
    "service_request": "2024-1126830",
    "request_type": "Trash/Recycling",
    "request_reason": "Request a Large Item Pick Up",
    "date_created": "2024-09-02T11:52:12.000",
    "date_modified": "2024-09-02T11:52:13.000",
    "request_status": "Pending",
    "responsible_agency": "Department of Sanitation",
    "final_address": "4226 Bienville Ave",
    "address_councildis": "A",
    "status": "Assigned to Contractor",
    "contractor": "IV Waste",
    "rowid": "1126830",
    "final_x": "3670836.34087",
    "final_y": "539448.169674",
    "longitude": "-90.10147326426677",
    "latitude": "29.97761496240751",
    "geocoded_column": {
      "latitude": "29.97761496240751",
      "longitude": "-90.10147326426677"
    }
  },
  {
    "service_request": "2024-1126829",
    "request_type": "Abandoned Vehicles",
    "request_reason": "Abandoned/Junk Vehicles",
    "date_created": "2024-09-02T11:51:30.000",
    "date_modified": "2024-09-02T11:53:59.000",
    "request_status": "Pending",
    "responsible_agency": "Department of Public Works",
    "final_address": "3700 Fourth St",
    "address_councildis": "B",
    "status": "Inspected",
    "rowid": "1126829",
    "final_x": "3672060.21467",
    "final_y": "528886.596672",
    "longitude": "-90.09796747910197",
    "latitude": "29.948537931200864",
    "geocoded_column": {
      "latitude": "29.948537931200864",
      "longitude": "-90.09796747910197"
    }
  },
  {
    "service_request": "2024-1126828",
    "request_type": "Utility Poles",
    "request_reason": "Utility Pole Leaning",
    "date_created": "2024-09-02T11:47:45.000",
    "date_modified": "2024-09-02T11:47:51.000",
    "request_status": "Pending",
    "responsible_agency": "Utility Company Collective",
    "final_address": "5878 Marshal Foch St",
    "address_councildis": "A",
    "status": "Pending",
    "rowid": "1126828",
    "final_x": "3669663.36698",
    "final_y": "546456.063441",
    "longitude": "-90.10494064573182",
    "latitude": "29.996918895871307",
    "geocoded_column": {
      "latitude": "29.996918895871307",
      "longitude": "-90.10494064573182"
    }
  },
  {
    "service_request": "2024-1126826",
    "request_type": "Abandoned Vehicles",
    "request_reason": "Abandoned/Junk Vehicles",
    "date_created": "2024-09-02T11:17:29.000",
    "date_modified": "2024-09-02T11:32:24.000",
    "request_status": "Pending",
    "responsible_agency": "Department of Public Works",
    "final_address": "1200 BLK S Rampart St",
    "address_councildis": "B",
    "status": "Inspected",
    "rowid": "1126826",
    "final_x": "3678174.45431",
    "final_y": "527117.280199",
    "longitude": "-90.07872341953188",
    "latitude": "29.94349022661311",
    "geocoded_column": {
      "latitude": "29.94349022661311",
      "longitude": "-90.07872341953188"
    }
  },
  {
    "service_request": "2024-1126825",
    "request_type": "Trash/Recycling",
    "request_reason": "Illegal Dumping",
    "date_created": "2024-09-02T11:16:10.000",
    "date_modified": "2024-09-02T11:16:10.000",
    "request_status": "Pending",
    "responsible_agency": "Department of Sanitation",
    "final_address": "N VILLERE ST & PRESS ST",
    "address_councildis": "C",
    "status": "Pending",
    "rowid": "1126825",
    "final_x": "3688310.0",
    "final_y": "537349.28",
    "longitude": "-90.04636011500865",
    "latitude": "29.971315650188686",
    "geocoded_column": {
      "latitude": "29.971315650188686",
      "longitude": "-90.04636011500865"
    }
  },
  {
    "service_request": "2024-1126824",
    "request_type": "Property Maintenance",
    "request_reason": "Property Maintenance",
    "date_created": "2024-09-02T11:12:59.000",
    "date_modified": "2024-09-02T11:12:59.000",
    "request_status": "Pending",
    "responsible_agency": "Department of Code Enforcement",
    "final_address": "3200 BLK Louisiana Avenue Pkwy",
    "address_councildis": "B",
    "status": "Pending",
    "rowid": "1126824",
    "final_x": "3671806.12453",
    "final_y": "527345.426396",
    "longitude": "-90.09882217700938",
    "latitude": "29.94430774793278",
    "geocoded_column": {
      "latitude": "29.94430774793278",
      "longitude": "-90.09882217700938"
    }
  },
  {
    "service_request": "2024-1126823",
    "request_type": "Trash/Recycling",
    "request_reason": "Missed Trash Pick-Up",
    "date_created": "2024-09-02T11:11:38.000",
    "date_modified": "2024-09-02T11:46:41.000",
    "case_close_date": "2024-09-02T06:46:41.000",
    "request_status": "Closed",
    "responsible_agency": "Department of Sanitation",
    "final_address": "3630 Havana St",
    "address_councildis": "D",
    "status": "Invalid Request",
    "contractor": "IV Waste",
    "contractor_action": "Invalid",
    "rowid": "1126823",
    "final_x": "3680756.31458",
    "final_y": "545843.2916",
    "longitude": "-90.06991992564866",
    "latitude": "29.994902334621983",
    "geocoded_column": {
      "latitude": "29.994902334621983",
      "longitude": "-90.06991992564866"
    }
  },
  {
    "service_request": "2024-1126821",
    "request_type": "Trash/Recycling",
    "request_reason": "Order Recycling Cart",
    "date_created": "2024-09-02T10:59:41.000",
    "date_modified": "2024-09-02T10:59:41.000",
    "request_status": "Pending",
    "responsible_agency": "Department of Sanitation",
    "final_address": "606 Independence St Apt A",
    "address_councildis": "C",
    "status": "Pending",
    "rowid": "1126821",
    "final_x": "3690473.29136",
    "final_y": "533747.878469",
    "longitude": "-90.03965657195911",
    "latitude": "29.961346072737477",
    "geocoded_column": {
      "latitude": "29.961346072737477",
      "longitude": "-90.03965657195911"
    }
  },
  {
    "service_request": "2024-1126820",
    "request_type": "Property Maintenance",
    "request_reason": "Property Maintenance",
    "date_created": "2024-09-02T10:55:19.000",
    "date_modified": "2024-09-02T10:55:19.000",
    "request_status": "Pending",
    "responsible_agency": "Department of Code Enforcement",
    "final_address": "3600 BLK General Ogden St",
    "address_councildis": "A",
    "status": "Pending",
    "rowid": "1126820",
    "final_x": "3665745.67602",
    "final_y": "536725.933226",
    "longitude": "-90.11764259773112",
    "latitude": "29.97027922169797",
    "geocoded_column": {
      "latitude": "29.97027922169797",
      "longitude": "-90.11764259773112"
    }
  },
  {
    "service_request": "2024-1126819",
    "request_type": "Trash/Recycling",
    "request_reason": "Request a Large Item Pick Up",
    "date_created": "2024-09-02T10:43:26.000",
    "date_modified": "2024-09-02T10:43:27.000",
    "request_status": "Pending",
    "responsible_agency": "Department of Sanitation",
    "final_address": "200 BLK S Saint Patrick St",
    "address_councildis": "A",
    "status": "Assigned to Contractor",
    "contractor": "IV Waste",
    "rowid": "1126819",
    "final_x": "3668751.37736",
    "final_y": "539359.724546",
    "longitude": "-90.10806129539976",
    "latitude": "29.9774332365208",
    "geocoded_column": {
      "latitude": "29.9774332365208",
      "longitude": "-90.10806129539976"
    }
  },
  {
    "service_request": "2024-1126818",
    "request_type": "Trash/Recycling",
    "request_reason": "Request a Large Item Pick Up",
    "date_created": "2024-09-02T10:42:12.000",
    "date_modified": "2024-09-02T10:42:13.000",
    "request_status": "Pending",
    "responsible_agency": "Department of Sanitation",
    "final_address": "15510 Dwyer Blvd",
    "address_councildis": "E",
    "status": "Assigned to Contractor",
    "contractor": "Waste Pro",
    "rowid": "1126818",
    "final_x": "3730925.67962",
    "final_y": "563688.651233",
    "longitude": "-89.91074329848843",
    "latitude": "30.042353362796096",
    "geocoded_column": {
      "latitude": "30.042353362796096",
      "longitude": "-89.91074329848843"
    }
  },
  {
    "service_request": "2024-1126817",
    "request_type": "Abandoned Vehicles",
    "request_reason": "Abandoned/Junk Vehicles",
    "date_created": "2024-09-02T10:28:31.000",
    "date_modified": "2024-09-02T10:28:31.000",
    "request_status": "Pending",
    "responsible_agency": "Department of Public Works",
    "final_address": "1223 Harmony St",
    "address_councildis": "B",
    "status": "Pending",
    "rowid": "1126817",
    "final_x": "3675579.97224",
    "final_y": "520538.09868",
    "longitude": "-90.0871407974461",
    "latitude": "29.925477480980614",
    "geocoded_column": {
      "latitude": "29.925477480980614",
      "longitude": "-90.0871407974461"
    }
  },
  {
    "service_request": "2024-1126816",
    "request_type": "Trash/Recycling",
    "request_reason": "Request a Large Item Pick Up",
    "date_created": "2024-09-02T09:58:52.000",
    "date_modified": "2024-09-02T09:58:53.000",
    "request_status": "Pending",
    "responsible_agency": "Department of Sanitation",
    "final_address": "727 Elmira Ave",
    "address_councildis": "C",
    "status": "Assigned to Contractor",
    "contractor": "Richards Disposal",
    "rowid": "1126816",
    "final_x": "3688115.31011",
    "final_y": "528844.922496",
    "longitude": "-90.04727641674866",
    "latitude": "29.947937623114125",
    "geocoded_column": {
      "latitude": "29.947937623114125",
      "longitude": "-90.04727641674866"
    }
  },
  {
    "service_request": "2024-1126815",
    "request_type": "Abandoned Vehicles",
    "request_reason": "Abandoned/Junk Vehicles",
    "date_created": "2024-09-02T09:57:19.000",
    "date_modified": "2024-09-02T09:57:19.000",
    "request_status": "Pending",
    "responsible_agency": "Department of Public Works",
    "final_address": "WILDAIR DR & BURBANK DR",
    "address_councildis": "D",
    "status": "Pending",
    "rowid": "1126815",
    "final_x": "3681498.8",
    "final_y": "554612.48",
    "longitude": "-90.06726842644932",
    "latitude": "30.01899191499709",
    "geocoded_column": {
      "latitude": "30.01899191499709",
      "longitude": "-90.06726842644932"
    }
  },
  {
    "service_request": "2024-1126814",
    "request_type": "Trash/Recycling",
    "request_reason": "Illegal Dumping",
    "date_created": "2024-09-02T09:54:43.000",
    "date_modified": "2024-09-02T09:54:43.000",
    "request_status": "Pending",
    "responsible_agency": "Department of Sanitation",
    "final_address": "13201 Old Gentilly Rd",
    "address_councildis": "E",
    "status": "Pending",
    "rowid": "1126814",
    "final_x": "3724333.84428",
    "final_y": "555670.344089",
    "longitude": "-89.93188571002598",
    "latitude": "30.02052967232455",
    "geocoded_column": {
      "latitude": "30.02052967232455",
      "longitude": "-89.93188571002598"
    }
  },
  {
    "service_request": "2024-1126813",
    "request_type": "Trash/Recycling",
    "request_reason": "Replace Recycling Cart",
    "date_created": "2024-09-02T09:39:25.000",
    "date_modified": "2024-09-02T09:39:25.000",
    "request_status": "Pending",
    "responsible_agency": "Department of Sanitation",
    "final_address": "5618 Ada Pl",
    "address_councildis": "A",
    "status": "Pending",
    "rowid": "1126813",
    "final_x": "3668569.32737",
    "final_y": "544788.530383",
    "longitude": "-90.10845298462665",
    "latitude": "29.992365957894005",
    "geocoded_column": {
      "latitude": "29.992365957894005",
      "longitude": "-90.10845298462665"
    }
  },
  {
    "service_request": "2024-1126812",
    "request_type": "Trash/Recycling",
    "request_reason": "Replace Trash Cart",
    "date_created": "2024-09-02T09:37:29.000",
    "date_modified": "2024-09-02T09:37:30.000",
    "request_status": "Pending",
    "responsible_agency": "Department of Sanitation",
    "final_address": "5618 Ada Pl",
    "address_councildis": "A",
    "status": "Assigned to Contractor",
    "contractor": "IV Waste",
    "rowid": "1126812",
    "final_x": "3668569.32737",
    "final_y": "544788.530383",
    "longitude": "-90.10845298462665",
    "latitude": "29.992365957894005",
    "geocoded_column": {
      "latitude": "29.992365957894005",
      "longitude": "-90.10845298462665"
    }
  },
  {
    "service_request": "2024-1126811",
    "request_type": "Trash/Recycling",
    "request_reason": "Replace Recycling Cart",
    "date_created": "2024-09-02T09:12:04.000",
    "date_modified": "2024-09-02T09:12:04.000",
    "request_status": "Pending",
    "responsible_agency": "Department of Sanitation",
    "final_address": "2297 Mercedes Blvd",
    "address_councildis": "C",
    "status": "Pending",
    "rowid": "1126811",
    "final_x": "3698003.70775",
    "final_y": "522476.546106",
    "longitude": "-90.01628608156584",
    "latitude": "29.930117923541175",
    "geocoded_column": {
      "latitude": "29.930117923541175",
      "longitude": "-90.01628608156584"
    }
  },
  {
    "service_request": "2024-1126810",
    "request_type": "Trash/Recycling",
    "request_reason": "Missed Trash Pick-Up",
    "date_created": "2024-09-02T09:08:17.000",
    "date_modified": "2024-09-02T09:08:18.000",
    "request_status": "Pending",
    "responsible_agency": "Department of Sanitation",
    "final_address": "2297 Mercedes Blvd",
    "address_councildis": "C",
    "status": "Assigned to Contractor",
    "contractor": "Richards Disposal",
    "rowid": "1126810",
    "final_x": "3698003.70775",
    "final_y": "522476.546106",
    "longitude": "-90.01628608156584",
    "latitude": "29.930117923541175",
    "geocoded_column": {
      "latitude": "29.930117923541175",
      "longitude": "-90.01628608156584"
    }
  },
  {
    "service_request": "2024-1126809",
    "request_type": "Trash/Recycling",
    "request_reason": "Order Recycling Cart",
    "date_created": "2024-09-02T09:03:52.000",
    "date_modified": "2024-09-02T09:03:52.000",
    "request_status": "Pending",
    "responsible_agency": "Department of Sanitation",
    "final_address": "911 Barracks St",
    "address_councildis": "C",
    "status": "Pending",
    "rowid": "1126809",
    "final_x": "3683235.75292",
    "final_y": "534729.479302",
    "longitude": "-90.06247704487029",
    "latitude": "29.96426783678135",
    "geocoded_column": {
      "latitude": "29.96426783678135",
      "longitude": "-90.06247704487029"
    }
  },
  {
    "service_request": "2024-1126808",
    "request_type": "Abandoned Vehicles",
    "request_reason": "Abandoned/Junk Vehicles",
    "date_created": "2024-09-02T08:43:18.000",
    "date_modified": "2024-09-02T12:40:25.000",
    "request_status": "Pending",
    "responsible_agency": "Department of Public Works",
    "final_address": "3620 Clio St Apt A",
    "address_councildis": "B",
    "status": "Inspected",
    "rowid": "1126808",
    "final_x": "3673220.63688",
    "final_y": "530353.99949",
    "longitude": "-90.09425343027888",
    "latitude": "29.952538352482495",
    "geocoded_column": {
      "latitude": "29.952538352482495",
      "longitude": "-90.09425343027888"
    }
  },
  {
    "service_request": "2024-1126807",
    "request_type": "Abandoned Vehicles",
    "request_reason": "Abandoned/Junk Vehicles",
    "date_created": "2024-09-02T08:42:45.000",
    "date_modified": "2024-09-02T10:08:40.000",
    "request_status": "Pending",
    "responsible_agency": "Department of Public Works",
    "final_address": "3900 BLK Fourth St",
    "address_councildis": "B",
    "status": "Inspected",
    "rowid": "1126807",
    "final_x": "3671603.23681",
    "final_y": "529629.707261",
    "longitude": "-90.09938508600996",
    "latitude": "29.950594780300865",
    "geocoded_column": {
      "latitude": "29.950594780300865",
      "longitude": "-90.09938508600996"
    }
  },
  {
    "service_request": "2024-1126806",
    "request_type": "Abandoned Vehicles",
    "request_reason": "Abandoned/Junk Vehicles",
    "date_created": "2024-09-02T08:42:11.000",
    "date_modified": "2024-09-02T08:49:27.000",
    "request_status": "Pending",
    "responsible_agency": "Department of Public Works",
    "final_address": "3200 BLK Toledano St",
    "address_councildis": "B",
    "status": "Inspected",
    "rowid": "1126806",
    "final_x": "3672119.90277",
    "final_y": "527492.480564",
    "longitude": "-90.09782648102879",
    "latitude": "29.944702799525366",
    "geocoded_column": {
      "latitude": "29.944702799525366",
      "longitude": "-90.09782648102879"
    }
  },
  {
    "service_request": "2024-1126804",
    "request_type": "Roads/Drainage",
    "request_reason": "Street Subsidence (Sinking)",
    "date_created": "2024-09-02T08:07:34.000",
    "date_modified": "2024-09-02T08:07:34.000",
    "request_status": "Pending",
    "responsible_agency": "Department of Public Works",
    "final_address": "4123 Clara St",
    "address_councildis": "B",
    "status": "Pending",
    "rowid": "1126804",
    "final_x": "3671386.9323",
    "final_y": "525281.540093",
    "longitude": "-90.1002158160566",
    "latitude": "29.938645143984797",
    "geocoded_column": {
      "latitude": "29.938645143984797",
      "longitude": "-90.1002158160566"
    }
  },
  {
    "service_request": "2024-1126803",
    "request_type": "Roads/Drainage",
    "request_reason": "Man hole cover issue",
    "date_created": "2024-09-02T07:59:42.000",
    "date_modified": "2024-09-02T07:59:42.000",
    "request_status": "Pending",
    "responsible_agency": "Department of Public Works",
    "final_address": "2858 Magazine St",
    "address_councildis": "B",
    "status": "Pending",
    "rowid": "1126803",
    "final_x": "3676678.48053",
    "final_y": "520519.29612",
    "longitude": "-90.08367379156977",
    "latitude": "29.925392883548568",
    "geocoded_column": {
      "latitude": "29.925392883548568",
      "longitude": "-90.08367379156977"
    }
  },
  {
    "service_request": "2024-1126802",
    "request_type": "Trash/Recycling",
    "request_reason": "Request a Large Item Pick Up",
    "date_created": "2024-09-02T07:55:30.000",
    "date_modified": "2024-09-02T07:55:31.000",
    "request_status": "Pending",
    "responsible_agency": "Department of Sanitation",
    "final_address": "1454 N White St",
    "address_councildis": "A",
    "status": "Assigned to Contractor",
    "contractor": "IV Waste",
    "rowid": "1126802",
    "final_x": "3677726.73371",
    "final_y": "540001.713419",
    "longitude": "-90.07969192398376",
    "latitude": "29.97893153243927",
    "geocoded_column": {
      "latitude": "29.97893153243927",
      "longitude": "-90.07969192398376"
    }
  },
  {
    "service_request": "2024-1126801",
    "request_type": "Trash/Recycling",
    "request_reason": "Illegal Dumping",
    "date_created": "2024-09-02T07:54:40.000",
    "date_modified": "2024-09-02T07:54:40.000",
    "request_status": "Pending",
    "responsible_agency": "Department of Sanitation",
    "final_address": "2538 Congress St",
    "address_councildis": "D",
    "status": "Pending",
    "rowid": "1126801",
    "final_x": "3692074.04886",
    "final_y": "541190.92238",
    "longitude": "-90.03433522588692",
    "latitude": "29.98176201500974",
    "geocoded_column": {
      "latitude": "29.98176201500974",
      "longitude": "-90.03433522588692"
    }
  },
  {
    "service_request": "2024-1126800",
    "request_type": "Traffic Signals/Signs/Striping/Streetlights",
    "request_reason": "Traffic Signal Malfunctioning/Damaged",
    "date_created": "2024-09-02T07:54:22.000",
    "date_modified": "2024-09-02T07:54:22.000",
    "request_status": "Pending",
    "responsible_agency": "Department of Public Works",
    "final_address": "State Street and St. Charles",
    "status": "Pending",
    "rowid": "1126800",
    "longitude": "0.0",
    "latitude": "0.0",
    "geocoded_column": {
      "latitude": "0.0",
      "longitude": "0.0"
    }
  },
  {
    "service_request": "2024-1126799",
    "request_type": "Trash/Recycling",
    "request_reason": "Request a Large Item Pick Up",
    "date_created": "2024-09-02T07:47:29.000",
    "date_modified": "2024-09-02T07:47:30.000",
    "request_status": "Pending",
    "responsible_agency": "Department of Sanitation",
    "final_address": "5330 Camp St",
    "address_councildis": "B",
    "status": "Assigned to Contractor",
    "contractor": "IV Waste",
    "rowid": "1126799",
    "final_x": "3667254.12948",
    "final_y": "519003.313463",
    "longitude": "-90.11347457721239",
    "latitude": "29.921503664049855",
    "geocoded_column": {
      "latitude": "29.921503664049855",
      "longitude": "-90.11347457721239"
    }
  },
  {
    "service_request": "2024-1126798",
    "request_type": "Property Maintenance",
    "request_reason": "Property Maintenance",
    "date_created": "2024-09-02T07:27:19.000",
    "date_modified": "2024-09-02T07:27:19.000",
    "request_status": "Pending",
    "responsible_agency": "Department of Code Enforcement",
    "final_address": "8705 Apricot St",
    "address_councildis": "A",
    "status": "Pending",
    "rowid": "1126798",
    "final_x": "3664241.11124",
    "final_y": "534121.595013",
    "longitude": "-90.12248111100676",
    "latitude": "29.963161955841667",
    "geocoded_column": {
      "latitude": "29.963161955841667",
      "longitude": "-90.12248111100676"
    }
  },
  {
    "service_request": "2024-1126797",
    "request_type": "Trash/Recycling",
    "request_reason": "Missed Trash Pick-Up",
    "date_created": "2024-09-02T07:23:45.000",
    "date_modified": "2024-09-02T08:24:27.000",
    "case_close_date": "2024-09-02T03:24:27.000",
    "request_status": "Closed",
    "responsible_agency": "Department of Sanitation",
    "final_address": "3225 Dumaine St",
    "address_councildis": "A",
    "status": "Invalid Request",
    "contractor": "IV Waste",
    "contractor_action": "Invalid",
    "rowid": "1126797",
    "final_x": "3675260.78389",
    "final_y": "539017.12737",
    "longitude": "-90.08751415416103",
    "latitude": "29.97629821189812",
    "geocoded_column": {
      "latitude": "29.97629821189812",
      "longitude": "-90.08751415416103"
    }
  },
  {
    "service_request": "2024-1126796",
    "request_type": "Trash/Recycling",
    "request_reason": "Request a Large Item Pick Up",
    "date_created": "2024-09-02T07:10:22.000",
    "date_modified": "2024-09-02T07:10:23.000",
    "request_status": "Pending",
    "responsible_agency": "Department of Sanitation",
    "final_address": "26 N Blue Ridge Ct",
    "address_councildis": "E",
    "status": "Assigned to Contractor",
    "contractor": "Waste Pro",
    "rowid": "1126796",
    "final_x": "3713974.49599",
    "final_y": "567680.187236",
    "longitude": "-89.96416433717226",
    "latitude": "30.053896233131592",
    "geocoded_column": {
      "latitude": "30.053896233131592",
      "longitude": "-89.96416433717226"
    }
  },
  {
    "service_request": "2024-1126795",
    "request_type": "Trash/Recycling",
    "request_reason": "Missed Trash Pick-Up",
    "date_created": "2024-09-02T07:09:29.000",
    "date_modified": "2024-09-02T09:16:47.000",
    "case_close_date": "2024-09-02T04:16:47.000",
    "request_status": "Closed",
    "responsible_agency": "Department of Sanitation",
    "final_address": "13973 Curran Rd",
    "address_councildis": "E",
    "status": "Invalid Request",
    "contractor": "Waste Pro",
    "contractor_action": "Trash Cart Not Curbside",
    "rowid": "1126795",
    "final_x": "3718445.43826",
    "final_y": "572253.143721",
    "longitude": "-89.94985843866903",
    "latitude": "30.066322308643137",
    "geocoded_column": {
      "latitude": "30.066322308643137",
      "longitude": "-89.94985843866903"
    }
  },
  {
    "service_request": "2024-1126794",
    "request_type": "Traffic Signals/Signs/Striping/Streetlights",
    "request_reason": "Street Light Outage/Malfunction",
    "date_created": "2024-09-02T06:07:52.000",
    "date_modified": "2024-09-02T06:07:53.000",
    "request_status": "Pending",
    "responsible_agency": "Department of Public Works",
    "final_address": "2908 Annunciation St",
    "address_councildis": "B",
    "status": "Assigned to Contractor",
    "contractor": "Legacy Professional Services",
    "rowid": "1126794",
    "final_x": "3677169.18696",
    "final_y": "519540.395895",
    "longitude": "-90.0821585251264",
    "latitude": "29.92268650046469",
    "geocoded_column": {
      "latitude": "29.92268650046469",
      "longitude": "-90.0821585251264"
    }
  },
  {
    "service_request": "2024-1126793",
    "request_type": "Trash/Recycling",
    "request_reason": "Missed Trash Pick-Up",
    "date_created": "2024-09-02T04:51:06.000",
    "date_modified": "2024-09-02T07:03:47.000",
    "case_close_date": "2024-09-02T02:03:47.000",
    "request_status": "Closed",
    "responsible_agency": "Department of Sanitation",
    "final_address": "3630 Havana St",
    "address_councildis": "D",
    "status": "Invalid Request",
    "contractor": "IV Waste",
    "contractor_action": "Invalid Request",
    "rowid": "1126793",
    "final_x": "3680756.31458",
    "final_y": "545843.2916",
    "longitude": "-90.06991992564866",
    "latitude": "29.994902334621983",
    "geocoded_column": {
      "latitude": "29.994902334621983",
      "longitude": "-90.06991992564866"
    }
  },
  {
    "service_request": "2024-1126792",
    "request_type": "Trash/Recycling",
    "request_reason": "Request a Large Item Pick Up",
    "date_created": "2024-09-02T02:12:50.000",
    "date_modified": "2024-09-02T02:12:51.000",
    "request_status": "Pending",
    "responsible_agency": "Department of Sanitation",
    "final_address": "614 Esplanade Ave, Apt C, New Orleans, Louisiana, 70116",
    "status": "Assigned to Contractor",
    "rowid": "1126792",
    "longitude": "0.0",
    "latitude": "0.0",
    "geocoded_column": {
      "latitude": "0.0",
      "longitude": "0.0"
    }
  },
  {
    "service_request": "2024-1126791",
    "request_type": "Trash/Recycling",
    "request_reason": "Order Trash Cart",
    "date_created": "2024-09-02T01:52:48.000",
    "date_modified": "2024-09-02T01:52:49.000",
    "request_status": "Pending",
    "responsible_agency": "Department of Sanitation",
    "final_address": "2635 Dumaine St",
    "address_councildis": "D",
    "status": "Assigned to Contractor",
    "contractor": "IV Waste",
    "rowid": "1126791",
    "final_x": "3677386.86498",
    "final_y": "537392.725",
    "longitude": "-90.0808554302685",
    "latitude": "29.97176793034071",
    "geocoded_column": {
      "latitude": "29.97176793034071",
      "longitude": "-90.0808554302685"
    }
  },
  {
    "service_request": "2024-1126790",
    "request_type": "Trash/Recycling",
    "request_reason": "Request a Large Item Pick Up",
    "date_created": "2024-09-02T01:45:39.000",
    "date_modified": "2024-09-02T01:45:41.000",
    "request_status": "Pending",
    "responsible_agency": "Department of Sanitation",
    "final_address": "7761 Tricia Ct",
    "address_councildis": "E",
    "status": "Assigned to Contractor",
    "contractor": "Waste Pro",
    "rowid": "1126790",
    "final_x": "3717131.15672",
    "final_y": "571807.780712",
    "longitude": "-89.95402997739235",
    "latitude": "30.06514131292593",
    "geocoded_column": {
      "latitude": "30.06514131292593",
      "longitude": "-89.95402997739235"
    }
  },
  {
    "service_request": "2024-1126789",
    "request_type": "Roads/Drainage",
    "request_reason": "Catch Basin - Clogged",
    "date_created": "2024-09-01T23:36:33.000",
    "date_modified": "2024-09-01T23:36:33.000",
    "request_status": "Pending",
    "responsible_agency": "Department of Public Works",
    "final_address": "3000 BLK Franklin Ave",
    "address_councildis": "D",
    "status": "Pending",
    "rowid": "1126789",
    "final_x": "3687319.06463",
    "final_y": "544269.705868",
    "longitude": "-90.04924469440881",
    "latitude": "29.990374937672907",
    "geocoded_column": {
      "latitude": "29.990374937672907",
      "longitude": "-90.04924469440881"
    }
  },
  {
    "service_request": "2024-1126788",
    "request_type": "Traffic Signals/Signs/Striping/Streetlights",
    "request_reason": "Street Light Outage/Malfunction",
    "date_created": "2024-09-01T23:27:01.000",
    "date_modified": "2024-09-01T23:27:02.000",
    "request_status": "Pending",
    "responsible_agency": "Department of Public Works",
    "final_address": "10 Franklin Ave",
    "address_councildis": "C",
    "status": "Assigned to Contractor",
    "contractor": "Legacy Professional Services",
    "rowid": "1126788",
    "final_x": "3686970.2205",
    "final_y": "536647.926151",
    "longitude": "-90.05061611256095",
    "latitude": "29.969428480993933",
    "geocoded_column": {
      "latitude": "29.969428480993933",
      "longitude": "-90.05061611256095"
    }
  },
  {
    "service_request": "2024-1126787",
    "request_type": "Trash/Recycling",
    "request_reason": "Request a Large Item Pick Up",
    "date_created": "2024-09-01T22:33:07.000",
    "date_modified": "2024-09-01T22:33:09.000",
    "request_status": "Pending",
    "responsible_agency": "Department of Sanitation",
    "final_address": "446 Elmira Ave",
    "address_councildis": "C",
    "status": "Assigned to Contractor",
    "contractor": "Richards Disposal",
    "rowid": "1126787",
    "final_x": "3688268.89206",
    "final_y": "529943.938113",
    "longitude": "-90.04675253589362",
    "latitude": "29.950954799013644",
    "geocoded_column": {
      "latitude": "29.950954799013644",
      "longitude": "-90.04675253589362"
    }
  },
  {
    "service_request": "2024-1126786",
    "request_type": "Trash/Recycling",
    "request_reason": "Order Recycling Cart",
    "date_created": "2024-09-01T22:27:12.000",
    "date_modified": "2024-09-01T22:27:12.000",
    "request_status": "Pending",
    "responsible_agency": "Department of Sanitation",
    "final_address": "2114 Calhoun St",
    "address_councildis": "A",
    "status": "Pending",
    "rowid": "1126786",
    "final_x": "3665635.8313",
    "final_y": "524853.447484",
    "longitude": "-90.11838706008044",
    "latitude": "29.937636954653435",
    "geocoded_column": {
      "latitude": "29.937636954653435",
      "longitude": "-90.11838706008044"
    }
  },
  {
    "service_request": "2024-1126785",
    "request_type": "Traffic Signals/Signs/Striping/Streetlights",
    "request_reason": "Traffic Signal Malfunctioning/Damaged",
    "date_created": "2024-09-01T22:26:19.000",
    "date_modified": "2024-09-01T22:26:19.000",
    "request_status": "Pending",
    "responsible_agency": "Department of Public Works",
    "final_address": "8 Canal St",
    "address_councildis": "B",
    "status": "Pending",
    "rowid": "1126785",
    "final_x": "3682350.89698",
    "final_y": "529605.442625",
    "longitude": "-90.06545039163557",
    "latitude": "29.950205435931473",
    "geocoded_column": {
      "latitude": "29.950205435931473",
      "longitude": "-90.06545039163557"
    }
  },
  {
    "service_request": "2024-1126784",
    "request_type": "Traffic Signals/Signs/Striping/Streetlights",
    "request_reason": "Street Light Outage/Malfunction",
    "date_created": "2024-09-01T22:06:30.000",
    "date_modified": "2024-09-01T22:06:31.000",
    "request_status": "Pending",
    "responsible_agency": "Department of Public Works",
    "final_address": "5100 Atlanta St",
    "address_councildis": "B",
    "status": "Assigned to Contractor",
    "contractor": "Legacy Professional Services",
    "rowid": "1126784",
    "final_x": "3668275.37933",
    "final_y": "520671.687545",
    "longitude": "-90.11019470944709",
    "latitude": "29.92606123023358",
    "geocoded_column": {
      "latitude": "29.92606123023358",
      "longitude": "-90.11019470944709"
    }
  },
  {
    "service_request": "2024-1126783",
    "request_type": "Abandoned Vehicles",
    "request_reason": "Abandoned/Junk Vehicles",
    "date_created": "2024-09-01T21:39:50.000",
    "date_modified": "2024-09-01T21:39:50.000",
    "request_status": "Pending",
    "responsible_agency": "Department of Public Works",
    "final_address": "1737 Napoleon Ave",
    "address_councildis": "B",
    "status": "Pending",
    "rowid": "1126783",
    "final_x": "3670879.07937",
    "final_y": "521550.304121",
    "longitude": "-90.1019457599734",
    "latitude": "29.928400465065316",
    "geocoded_column": {
      "latitude": "29.928400465065316",
      "longitude": "-90.1019457599734"
    }
  },
  {
    "service_request": "2024-1126782",
    "request_type": "Roads/Drainage",
    "request_reason": "Pothole",
    "date_created": "2024-09-01T21:34:24.000",
    "date_modified": "2024-09-01T21:34:24.000",
    "request_status": "Pending",
    "responsible_agency": "Department of Public Works",
    "final_address": "1000 BLK Bienville St",
    "address_councildis": "C",
    "status": "Pending",
    "rowid": "1126782",
    "final_x": "3680658.34862",
    "final_y": "532061.071164",
    "longitude": "-90.07070912596681",
    "latitude": "29.957008972966456",
    "geocoded_column": {
      "latitude": "29.957008972966456",
      "longitude": "-90.07070912596681"
    }
  },
  {
    "service_request": "2024-1126781",
    "request_type": "Trash/Recycling",
    "request_reason": "Request a Large Item Pick Up",
    "date_created": "2024-09-01T20:41:58.000",
    "date_modified": "2024-09-01T20:42:00.000",
    "request_status": "Pending",
    "responsible_agency": "Department of Sanitation",
    "final_address": "7227 Beryl St",
    "address_councildis": "D",
    "status": "Assigned to Contractor",
    "contractor": "IV Waste",
    "rowid": "1126781",
    "final_x": "3668651.70638",
    "final_y": "555568.976089",
    "longitude": "-90.10782855505282",
    "latitude": "30.022005994650225",
    "geocoded_column": {
      "latitude": "30.022005994650225",
      "longitude": "-90.10782855505282"
    }
  },
  {
    "service_request": "2024-1126780",
    "request_type": "Property Maintenance",
    "request_reason": "Property Maintenance",
    "date_created": "2024-09-01T20:01:14.000",
    "date_modified": "2024-09-01T20:01:14.000",
    "request_status": "Pending",
    "responsible_agency": "Department of Code Enforcement",
    "final_address": "4323 Perlita St",
    "address_councildis": "D",
    "status": "Pending",
    "rowid": "1126780",
    "final_x": "3678905.05582",
    "final_y": "548277.906514",
    "longitude": "-90.0756834326688",
    "latitude": "30.001652659825176",
    "geocoded_column": {
      "latitude": "30.001652659825176",
      "longitude": "-90.0756834326688"
    }
  },
  {
    "service_request": "2024-1126779",
    "request_type": "Health Related Request",
    "request_reason": "Noise Ordinance Complaint",
    "date_created": "2024-09-01T19:25:15.000",
    "date_modified": "2024-09-01T19:25:15.000",
    "request_status": "Pending",
    "responsible_agency": "Health Department",
    "final_address": "2607 Palmyra St",
    "address_councildis": "B",
    "status": "Pending",
    "rowid": "1126779",
    "final_x": "3675287.47054",
    "final_y": "534197.330949",
    "longitude": "-90.08759536453911",
    "latitude": "29.963044609951965",
    "geocoded_column": {
      "latitude": "29.963044609951965",
      "longitude": "-90.08759536453911"
    }
  },