[
  {
    "service_request": "2023-1028684",
    "request_type": "Trash/Recycling",
    "request_reason": "MIssed Recycling Pick-Up",
    "date_created": "2023-08-23T00:24:10.000",
    "date_modified": "2023-08-23T00:24:11.000",
    "request_status": "Pending",
    "responsible_agency": "Department of Sanitation",
    "final_address": "1824 Sophie Wright Pl",
    "address_councildis": "B",
    "status": "Assigned to Contractor",
    "contractor": "Richards Disposal",
    "rowid": "1028684",
    "final_x": "3679653.70095",
    "final_y": "523149.326139",
    "longitude": "-90.07419072006655",
    "latitude": "29.9325350479122",
    "geocoded_column": {
      "latitude": "29.9325350479122",
      "longitude": "-90.07419072006655"
    }
  },
  {
    "service_request": "2023-1028683",
    "request_type": "Traffic Signals/Signs/Striping/Streetlights",
    "request_reason": "Request for Stop Sign",
    "date_created": "2023-08-23T00:17:32.000",
    "date_modified": "2023-08-23T00:17:32.000",
    "request_status": "Pending",
    "responsible_agency": "Department of Public Works",
    "final_address": "3651 Clematis St",
    "address_councildis": "D",
    "status": "Pending",
    "rowid": "1028683",
    "final_x": "3686222.16284",
    "final_y": "546394.976656",
    "longitude": "-90.0526344859876",
    "latitude": "29.996252425455083",
    "geocoded_column": {
      "latitude": "29.996252425455083",
      "longitude": "-90.0526344859876"
    }
  },
  {
    "service_request": "2023-1028682",
    "request_type": "Property Maintenance",
    "request_reason": "Property Maintenance",
    "date_created": "2023-08-22T23:49:32.000",
    "date_modified": "2023-08-22T23:49:32.000",
    "request_status": "Pending",
    "responsible_agency": "Department of Code Enforcement",
    "final_address": "2828 Boyd St",
    "address_councildis": "C",
    "status": "Pending",
    "rowid": "1028682",
    "final_x": "3708194.89963",
    "final_y": "519838.014264",
    "longitude": "-89.984212511078",
    "latitude": "29.922536860354302",
    "geocoded_column": {
      "latitude": "29.922536860354302",
      "longitude": "-89.984212511078"
    }
  },
  {
    "service_request": "2023-1028681",
    "request_type": "Trash/Recycling",
    "request_reason": "Order Recycling Cart",
    "date_created": "2023-08-22T23:14:53.000",
    "date_modified": "2023-08-22T23:14:53.000",
    "request_status": "Pending",
    "responsible_agency": "Department of Sanitation",
    "final_address": "5 Petit Bayou Ln",
    "address_councildis": "E",
    "status": "Pending",
    "rowid": "1028681",
    "final_x": "3724959.97478",
    "final_y": "563793.001377",
    "longitude": "-89.92959293936538",
    "latitude": "30.042842585032645",
    "geocoded_column": {
      "latitude": "30.042842585032645",
      "longitude": "-89.92959293936538"
    }
  },
  {
    "service_request": "2023-1028680",
    "request_type": "Property Maintenance",
    "request_reason": "Property Maintenance",
    "date_created": "2023-08-22T22:44:31.000",
    "date_modified": "2023-08-22T22:44:31.000",
    "request_status": "Pending",
    "responsible_agency": "Department of Code Enforcement",
    "final_address": "1130 Reynes St",
    "address_councildis": "E",
    "status": "Pending",
    "rowid": "1028680",
    "final_x": "3695981.70141",
    "final_y": "534618.640838",
    "longitude": "-90.02223060404978",
    "latitude": "29.963568207262366",
    "geocoded_column": {
      "latitude": "29.963568207262366",
      "longitude": "-90.02223060404978"
    }
  },
  {
    "service_request": "2023-1028679",
    "request_type": "Property Maintenance",
    "request_reason": "Property Maintenance",
    "date_created": "2023-08-22T22:18:20.000",
    "date_modified": "2023-08-22T22:18:20.000",
    "request_status": "Pending",
    "responsible_agency": "Department of Code Enforcement",
    "final_address": "931 Louisa St",
    "address_councildis": "C",
    "status": "Pending",
    "rowid": "1028679",
    "final_x": "3689452.56457",
    "final_y": "535312.530118",
    "longitude": "-90.04282419136239",
    "latitude": "29.96567996700375",
    "geocoded_column": {
      "latitude": "29.96567996700375",
      "longitude": "-90.04282419136239"
    }
  },
  {
    "service_request": "2023-1028678",
    "request_type": "Trash/Recycling",
    "request_reason": "Replace Trash Cart",
    "date_created": "2023-08-22T22:03:53.000",
    "date_modified": "2023-08-22T22:03:54.000",
    "request_status": "Pending",
    "responsible_agency": "Department of Sanitation",
    "final_address": "7401 Burke Road",
    "status": "Assigned to Contractor",
    "rowid": "1028678",
    "longitude": "0.0",
    "latitude": "0.0",
    "geocoded_column": {
      "latitude": "0.0",
      "longitude": "0.0"
    }
  },
  {
    "service_request": "2023-1028677",
    "request_type": "Traffic Signals/Signs/Striping/Streetlights",
    "request_reason": "Striping/Road Surface Markings",
    "date_created": "2023-08-22T22:01:30.000",
    "date_modified": "2023-08-22T22:01:30.000",
    "request_status": "Pending",
    "responsible_agency": "Department of Public Works",
    "final_address": "1607 S Carrollton Ave",
    "address_councildis": "A",
    "status": "Pending",
    "rowid": "1028677",
    "final_x": "3663216.32896",
    "final_y": "529310.983297",
    "longitude": "-90.12587735100978",
    "latitude": "29.949964071940247",
    "geocoded_column": {
      "latitude": "29.949964071940247",
      "longitude": "-90.12587735100978"
    }
  },
  {
    "service_request": "2023-1028676",
    "request_type": "Trash/Recycling",
    "request_reason": "Missed Trash Pick-Up",
    "date_created": "2023-08-22T21:59:45.000",
    "date_modified": "2023-08-22T21:59:46.000",
    "request_status": "Pending",
    "responsible_agency": "Department of Sanitation",
    "final_address": "7401 Burke Road",
    "status": "Assigned to Contractor",
    "rowid": "1028676",
    "longitude": "0.0",
    "latitude": "0.0",
    "geocoded_column": {
      "latitude": "0.0",
      "longitude": "0.0"
    }
  },
  {
    "service_request": "2023-1028675",
    "request_type": "Trash/Recycling",
    "request_reason": "Order Recycling Cart",
    "date_created": "2023-08-22T21:57:16.000",
    "date_modified": "2023-08-22T21:57:16.000",
    "request_status": "Pending",
    "responsible_agency": "Department of Sanitation",
    "final_address": "1852 Burgundy St",
    "address_councildis": "C",
    "status": "Pending",
    "rowid": "1028675",
    "final_x": "3683806.73967",
    "final_y": "535454.64647",
    "longitude": "-90.06064848314173",
    "latitude": "29.966244370968525",
    "geocoded_column": {
      "latitude": "29.966244370968525",
      "longitude": "-90.06064848314173"
    }
  },
  {
    "service_request": "2023-1028674",
    "request_type": "Trash/Recycling",
    "request_reason": "Order Recycling Cart",
    "date_created": "2023-08-22T21:56:36.000",
    "date_modified": "2023-08-22T21:56:36.000",
    "request_status": "Pending",
    "responsible_agency": "Department of Sanitation",
    "final_address": "1850 Burgundy St",
    "address_councildis": "C",
    "status": "Pending",
    "rowid": "1028674",
    "final_x": "3683787.86082",
    "final_y": "535451.742022",
    "longitude": "-90.0607082039607",
    "latitude": "29.96623696129396",
    "geocoded_column": {
      "latitude": "29.96623696129396",
      "longitude": "-90.0607082039607"
    }
  },
  {
    "service_request": "2023-1028673",
    "request_type": "Trash/Recycling",
    "request_reason": "Order Trash Cart",
    "date_created": "2023-08-22T21:55:50.000",
    "date_modified": "2023-08-22T21:55:51.000",
    "request_status": "Pending",
    "responsible_agency": "Department of Sanitation",
    "final_address": "1852 Burgundy St",
    "address_councildis": "C",
    "status": "Assigned to Contractor",
    "contractor": "IV Waste",
    "rowid": "1028673",
    "final_x": "3683806.73967",
    "final_y": "535454.64647",
    "longitude": "-90.06064848314173",
    "latitude": "29.966244370968525",
    "geocoded_column": {
      "latitude": "29.966244370968525",
      "longitude": "-90.06064848314173"
    }
  },
  {
    "service_request": "2023-1028672",
    "request_type": "Trash/Recycling",
    "request_reason": "Order Trash Cart",
    "date_created": "2023-08-22T21:54:47.000",
    "date_modified": "2023-08-22T21:54:48.000",
    "request_status": "Pending",
    "responsible_agency": "Department of Sanitation",
    "final_address": "1850 Burgundy St",
    "address_councildis": "C",
    "status": "Assigned to Contractor",
    "contractor": "IV Waste",
    "rowid": "1028672",
    "final_x": "3683787.86082",
    "final_y": "535451.742022",
    "longitude": "-90.0607082039607",
    "latitude": "29.96623696129396",
    "geocoded_column": {
      "latitude": "29.96623696129396",
      "longitude": "-90.0607082039607"
    }
  },
  {
    "service_request": "2023-1028671",
    "request_type": "Traffic Signals/Signs/Striping/Streetlights",
    "request_reason": "Striping/Road Surface Markings",
    "date_created": "2023-08-22T21:54:41.000",
    "date_modified": "2023-08-22T21:54:41.000",
    "request_status": "Pending",
    "responsible_agency": "Department of Public Works",
    "final_address": "1607 S Carrollton Ave",
    "address_councildis": "A",
    "status": "Pending",
    "rowid": "1028671",
    "final_x": "3663216.32896",
    "final_y": "529310.983297",
    "longitude": "-90.12587735100978",
    "latitude": "29.949964071940247",
    "geocoded_column": {
      "latitude": "29.949964071940247",
      "longitude": "-90.12587735100978"
    }
  },
  {
    "service_request": "2023-1028670",
    "request_type": "Traffic Signals/Signs/Striping/Streetlights",
    "request_reason": "Street Light Outage/Malfunction",
    "date_created": "2023-08-22T21:43:26.000",
    "date_modified": "2023-08-22T21:43:27.000",
    "request_status": "Pending",
    "responsible_agency": "Department of Public Works",
    "final_address": "7320 Hurst St",
    "address_councildis": "A",
    "status": "Assigned to Contractor",
    "contractor": "Legacy Professional Services",
    "rowid": "1028670",
    "final_x": "3661819.1513",
    "final_y": "523847.623483",
    "longitude": "-90.13047000182155",
    "latitude": "29.934981980100186",
    "geocoded_column": {
      "latitude": "29.934981980100186",
      "longitude": "-90.13047000182155"
    }
  },
  {
    "service_request": "2023-1028669",
    "request_type": "Roads/Drainage",
    "request_reason": "Pothole",
    "date_created": "2023-08-22T21:41:48.000",
    "date_modified": "2023-08-22T21:41:48.000",
    "request_status": "Pending",
    "responsible_agency": "Department of Public Works",
    "final_address": "1312 Milan St",
    "address_councildis": "B",
    "status": "Pending",
    "rowid": "1028669",
    "final_x": "3671625.82823",
    "final_y": "520286.919608",
    "longitude": "-90.09963137110304",
    "latitude": "29.92490447494246",
    "geocoded_column": {
      "latitude": "29.92490447494246",
      "longitude": "-90.09963137110304"
    }
  },
  {
    "service_request": "2023-1028668",
    "request_type": "Roads/Drainage",
    "request_reason": "Pothole",
    "date_created": "2023-08-22T21:29:52.000",
    "date_modified": "2023-08-22T21:29:52.000",
    "request_status": "Pending",
    "responsible_agency": "Department of Public Works",
    "final_address": "1421 Constantinople St",
    "address_councildis": "B",
    "status": "Pending",
    "rowid": "1028668",
    "final_x": "3672433.24257",
    "final_y": "520667.657465",
    "longitude": "-90.09706965638372",
    "latitude": "29.925927453713577",
    "geocoded_column": {
      "latitude": "29.925927453713577",
      "longitude": "-90.09706965638372"
    }
  },
  {
    "service_request": "2023-1028667",
    "request_type": "Property Maintenance",
    "request_reason": "Property Maintenance",
    "date_created": "2023-08-22T21:01:07.000",
    "date_modified": "2023-08-22T21:01:07.000",
    "request_status": "Pending",
    "responsible_agency": "Department of Code Enforcement",
    "final_address": "6800 S Interstate 10 Service Rd",
    "address_councildis": "E",
    "status": "Pending",
    "rowid": "1028667",
    "final_x": "3699572.72151",
    "final_y": "556889.258906",
    "longitude": "-90.01007843819505",
    "latitude": "30.02469069419991",
    "geocoded_column": {
      "latitude": "30.02469069419991",
      "longitude": "-90.01007843819505"
    }
  },
  {
    "service_request": "2023-1028666",
    "request_type": "Property Maintenance",
    "request_reason": "Property Maintenance",
    "date_created": "2023-08-22T20:53:28.000",
    "date_modified": "2023-08-22T20:53:28.000",
    "request_status": "Pending",
    "responsible_agency": "Department of Code Enforcement",
    "final_address": "6324 Chef Menteur Hwy Ste 100",
    "address_councildis": "E",
    "status": "Pending",
    "rowid": "1028666",
    "final_x": "3698276.49808",
    "final_y": "551689.601237",
    "longitude": "-90.01436338561443",
    "latitude": "30.010434701630466",
    "geocoded_column": {
      "latitude": "30.010434701630466",
      "longitude": "-90.01436338561443"
    }
  },
  {
    "service_request": "2023-1028663",
    "request_type": "Roads/Drainage",
    "request_reason": "Accessibility Ramps, Curbs and Sidewalk Repair",
    "date_created": "2023-08-22T19:56:20.000",
    "date_modified": "2023-08-22T19:56:20.000",
    "request_status": "Pending",
    "responsible_agency": "Department of Public Works",
    "final_address": "5661 Hempstead Rd",
    "address_councildis": "E",
    "status": "Pending",
    "rowid": "1028663",
    "final_x": "3708093.76875",
    "final_y": "558046.098075",
    "longitude": "-89.98311054027387",
    "latitude": "30.02759822251566",
    "geocoded_column": {
      "latitude": "30.02759822251566",
      "longitude": "-89.98311054027387"
    }
  },
  {
    "service_request": "2023-1028662",
    "request_type": "Trash/Recycling",
    "request_reason": "Request a Large Item Pick Up",
    "date_created": "2023-08-22T19:48:43.000",
    "date_modified": "2023-08-22T19:48:44.000",
    "request_status": "Pending",
    "responsible_agency": "Department of Sanitation",
    "final_address": "7900 Earhart Blvd",
    "address_councildis": "B",
    "status": "Assigned to Contractor",
    "contractor": "Richards Disposal",
    "rowid": "1028662",
    "final_x": "3667121.55572",
    "final_y": "532954.257668",
    "longitude": "-90.11342421909109",
    "latitude": "29.95986815223097",
    "geocoded_column": {
      "latitude": "29.95986815223097",
      "longitude": "-90.11342421909109"
    }
  },
  {
    "service_request": "2023-1028661",
    "request_type": "Trash/Recycling",
    "request_reason": "Missed Trash Pick-Up",
    "date_created": "2023-08-22T19:23:55.000",
    "date_modified": "2023-08-22T19:23:56.000",
    "request_status": "Pending",
    "responsible_agency": "Department of Sanitation",
    "final_address": "1303 Cadiz St",
    "address_councildis": "B",
    "status": "Assigned to Contractor",
    "contractor": "Richards Disposal",
    "rowid": "1028661",
    "final_x": "3670225.21754",
    "final_y": "520045.56716",
    "longitude": "-90.10406082534332",
    "latitude": "29.924282223573574",
    "geocoded_column": {
      "latitude": "29.924282223573574",
      "longitude": "-90.10406082534332"
    }
  },
  {
    "service_request": "2023-1028660",
    "request_type": "Trash/Recycling",
    "request_reason": "Request a Large Item Pick Up",
    "date_created": "2023-08-22T19:19:39.000",
    "date_modified": "2023-08-22T19:19:39.000",
    "request_status": "Pending",
    "responsible_agency": "Department of Sanitation",
    "final_address": "5104 Marigny St",
    "address_councildis": "D",
    "status": "Assigned to Contractor",
    "contractor": "IV Waste",
    "rowid": "1028660",
    "final_x": "3684288.67369",
    "final_y": "551485.038421",
    "longitude": "-90.05856334974636",
    "latitude": "30.010307538709817",
    "geocoded_column": {
      "latitude": "30.010307538709817",
      "longitude": "-90.05856334974636"
    }
  },
  {
    "service_request": "2023-1028659",
    "request_type": "Trash/Recycling",
    "request_reason": "Request a Large Item Pick Up",
    "date_created": "2023-08-22T19:08:49.000",
    "date_modified": "2023-08-22T19:08:50.000",
    "request_status": "Pending",
    "responsible_agency": "Department of Sanitation",
    "final_address": "4219 Jena St",
    "address_councildis": "A",
    "status": "Assigned to Contractor",
    "contractor": "Richards Disposal",
    "rowid": "1028659",
    "final_x": "3669464.24378",
    "final_y": "529032.215808",
    "longitude": "-90.1061591485912",
    "latitude": "29.94901503855076",
    "geocoded_column": {
      "latitude": "29.94901503855076",
      "longitude": "-90.1061591485912"
    }
  },
  {
    "service_request": "2023-1028658",
    "request_type": "Trash/Recycling",
    "request_reason": "Request a Large Item Pick Up",
    "date_created": "2023-08-22T19:00:55.000",
    "date_modified": "2023-08-22T19:00:55.000",
    "request_status": "Pending",
    "responsible_agency": "Department of Sanitation",
    "final_address": "5751 Vermillion Blvd",
    "address_councildis": "D",
    "status": "Assigned to Contractor",
    "contractor": "IV Waste",
    "rowid": "1028658",
    "final_x": "3683267.71112",
    "final_y": "554248.584344",
    "longitude": "-90.06169205299817",
    "latitude": "30.017937474731106",
    "geocoded_column": {
      "latitude": "30.017937474731106",
      "longitude": "-90.06169205299817"
    }
  },
  {
    "service_request": "2023-1028657",
    "request_type": "Trash/Recycling",
    "request_reason": "Request a Large Item Pick Up",
    "date_created": "2023-08-22T18:58:07.000",
    "date_modified": "2023-08-22T18:58:07.000",
    "request_status": "Pending",
    "responsible_agency": "Department of Sanitation",
    "final_address": "7072 Barrington Ct",
    "address_councildis": "E",
    "status": "Assigned to Contractor",
    "contractor": "Waste Pro",
    "rowid": "1028657",
    "final_x": "3713969.16485",
    "final_y": "565168.714082",
    "longitude": "-89.96427603265198",
    "latitude": "30.046990880762134",
    "geocoded_column": {
      "latitude": "30.046990880762134",
      "longitude": "-89.96427603265198"
    }
  },
  {
    "service_request": "2023-1028656",
    "request_type": "Abandoned Vehicles",
    "request_reason": "Abandoned/Junk Vehicles",
    "date_created": "2023-08-22T18:56:07.000",
    "date_modified": "2023-08-22T18:56:07.000",
    "request_status": "Pending",
    "responsible_agency": "Department of Public Works",
    "final_address": "4601 Freret St, New Orleans, Louisiana, 70115",
    "address_councildis": "B",
    "status": "Pending",
    "rowid": "1028656",
    "final_x": "3669747.99201",
    "final_y": "524002.912828",
    "longitude": "-90.10543339887533",
    "latitude": "29.935177727566128",
    "geocoded_column": {
      "latitude": "29.935177727566128",
      "longitude": "-90.10543339887533"
    }
  },
  {
    "service_request": "2023-1028655",
    "request_type": "Roads/Drainage",
    "request_reason": "Pothole",
    "date_created": "2023-08-22T18:47:23.000",
    "date_modified": "2023-08-22T18:47:23.000",
    "request_status": "Pending",
    "responsible_agency": "Department of Public Works",
    "final_address": "3101 St Charles Ave",
    "address_councildis": "B",
    "status": "Pending",
    "rowid": "1028655",
    "final_x": "3674886.17685",
    "final_y": "521934.203898",
    "longitude": "-90.08928304948076",
    "latitude": "29.929337048804616",
    "geocoded_column": {
      "latitude": "29.929337048804616",
      "longitude": "-90.08928304948076"
    }
  },
  {
    "service_request": "2023-1028654",
    "request_type": "Trash/Recycling",
    "request_reason": "Missed Trash Pick-Up",
    "date_created": "2023-08-22T18:34:52.000",
    "date_modified": "2023-08-22T18:34:53.000",
    "request_status": "Pending",
    "responsible_agency": "Department of Sanitation",
    "final_address": "12021 E Barrington Dr",
    "address_councildis": "E",
    "status": "Assigned to Contractor",
    "contractor": "Waste Pro",
    "rowid": "1028654",
    "final_x": "3714694.86821",
    "final_y": "566127.617571",
    "longitude": "-89.96194617379786",
    "latitude": "30.049603613661116",
    "geocoded_column": {
      "latitude": "30.049603613661116",
      "longitude": "-89.96194617379786"
    }
  },
  {
    "service_request": "2023-1028653",
    "request_type": "Trash/Recycling",
    "request_reason": "Missed Trash Pick-Up",
    "date_created": "2023-08-22T18:25:43.000",
    "date_modified": "2023-08-22T18:25:44.000",
    "request_status": "Pending",
    "responsible_agency": "Department of Sanitation",
    "final_address": "1402 Laharpe St",
    "address_councildis": "C",
    "status": "Assigned to Contractor",
    "contractor": "IV Waste",
    "rowid": "1028653",
    "final_x": "3682428.24866",
    "final_y": "537045.517128",
    "longitude": "-90.06494611352628",
    "latitude": "29.97066074430447",
    "geocoded_column": {
      "latitude": "29.97066074430447",
      "longitude": "-90.06494611352628"
    }
  },
  {
    "service_request": "2023-1028652",
    "request_type": "Trash/Recycling",
    "request_reason": "Request a Large Item Pick Up",
    "date_created": "2023-08-22T18:09:37.000",
    "date_modified": "2023-08-22T18:50:49.000",
    "request_status": "Pending",
    "responsible_agency": "Department of Sanitation",
    "final_address": "1625 Annette St",
    "address_councildis": "D",
    "status": "Assigned to Contractor",
    "contractor": "IV Waste",
    "rowid": "1028652",
    "final_x": "3683069.80015",
    "final_y": "538238.144777",
    "longitude": "-90.06287825867639",
    "latitude": "29.973920513869214",
    "geocoded_column": {
      "latitude": "29.973920513869214",
      "longitude": "-90.06287825867639"
    }
  },
  {
    "service_request": "2023-1028651",
    "request_type": "Property Maintenance",
    "request_reason": "Property Maintenance",
    "date_created": "2023-08-22T18:09:01.000",
    "date_modified": "2023-08-22T18:09:01.000",
    "request_status": "Pending",
    "responsible_agency": "Department of Code Enforcement",
    "final_address": "9212 Olive St",
    "address_councildis": "A",
    "status": "Pending",
    "rowid": "1028651",
    "final_x": "3664264.18036",
    "final_y": "536844.66164",
    "longitude": "-90.12231737854734",
    "latitude": "29.970648821767938",
    "geocoded_column": {
      "latitude": "29.970648821767938",
      "longitude": "-90.12231737854734"
    }
  },
  {
    "service_request": "2023-1028650",
    "request_type": "Property Maintenance",
    "request_reason": "Property Maintenance",
    "date_created": "2023-08-22T18:07:22.000",
    "date_modified": "2023-08-22T18:07:23.000",
    "request_status": "Pending",
    "responsible_agency": "Department of Code Enforcement",
    "final_address": "9301 Palmetto St",
    "address_councildis": "A",
    "status": "Pending",
    "rowid": "1028650",
    "final_x": "3665055.05844",
    "final_y": "538290.148361",
    "longitude": "-90.11977133232848",
    "latitude": "29.974600422833525",
    "geocoded_column": {
      "latitude": "29.974600422833525",
      "longitude": "-90.11977133232848"
    }
  },
  {
    "service_request": "2023-1028649",
    "request_type": "Roads/Drainage",
    "request_reason": "Pothole",
    "date_created": "2023-08-22T18:04:49.000",
    "date_modified": "2023-08-22T18:04:49.000",
    "request_status": "Pending",
    "responsible_agency": "Department of Public Works",
    "final_address": "1312 Milan St",
    "address_councildis": "B",
    "status": "Pending",
    "rowid": "1028649",
    "final_x": "3671625.82823",
    "final_y": "520286.919608",
    "longitude": "-90.09963137110304",
    "latitude": "29.92490447494246",
    "geocoded_column": {
      "latitude": "29.92490447494246",
      "longitude": "-90.09963137110304"
    }
  },
  {
    "service_request": "2023-1028648",
    "request_type": "Trash/Recycling",
    "request_reason": "Replace Trash Cart",
    "date_created": "2023-08-22T18:04:17.000",
    "date_modified": "2023-08-22T18:04:17.000",
    "request_status": "Pending",
    "responsible_agency": "Department of Sanitation",
    "final_address": "421 S Telemachus St",
    "address_councildis": "B",
    "status": "Assigned to Contractor",
    "contractor": "Richards Disposal",
    "rowid": "1028648",
    "final_x": "3671407.1611",
    "final_y": "536277.771399",
    "longitude": "-90.09977821289688",
    "latitude": "29.96888055148437",
    "geocoded_column": {
      "latitude": "29.96888055148437",
      "longitude": "-90.09977821289688"
    }
  },
  {
    "service_request": "2023-1028647",
    "request_type": "Trash/Recycling",
    "request_reason": "Replace Trash Cart",
    "date_created": "2023-08-22T17:57:26.000",
    "date_modified": "2023-08-22T17:57:27.000",
    "request_status": "Pending",
    "responsible_agency": "Department of Sanitation",
    "final_address": "1017 St Louis St",
    "address_councildis": "C",
    "status": "Assigned to Contractor",
    "contractor": "Empire Services",
    "rowid": "1028647",
    "final_x": "3681154.13346",
    "final_y": "532618.977028",
    "longitude": "-90.06912415636033",
    "latitude": "29.958527993462727",
    "geocoded_column": {
      "latitude": "29.958527993462727",
      "longitude": "-90.06912415636033"
    }
  },
  {
    "service_request": "2023-1028646",
    "request_type": "Trash/Recycling",
    "request_reason": "Request a Large Item Pick Up",
    "date_created": "2023-08-22T17:53:12.000",
    "date_modified": "2023-08-22T17:55:11.000",
    "request_status": "Pending",
    "responsible_agency": "Department of Sanitation",
    "final_address": "5706 W Louis Prima Dr",
    "address_councildis": "E",
    "status": "Assigned to Contractor",
    "contractor": "Waste Pro",
    "rowid": "1028646",
    "final_x": "3715856.08504",
    "final_y": "561620.272351",
    "longitude": "-89.95844698701346",
    "latitude": "30.037171979515666",
    "geocoded_column": {
      "latitude": "30.037171979515666",
      "longitude": "-89.95844698701346"
    }
  },
  {
    "service_request": "2023-1028645",
    "request_type": "Trash/Recycling",
    "request_reason": "Request a Large Item Pick Up",
    "date_created": "2023-08-22T17:46:32.000",
    "date_modified": "2023-08-22T17:46:32.000",
    "request_status": "Pending",
    "responsible_agency": "Department of Sanitation",
    "final_address": "4901 Francisco Verrett Dr",
    "address_councildis": "E",
    "status": "Assigned to Contractor",
    "contractor": "Waste Pro",
    "rowid": "1028645",
    "final_x": "3704174.10065",
    "final_y": "555951.593689",
    "longitude": "-89.99557356295227",
    "latitude": "30.021965564109628",
    "geocoded_column": {
      "latitude": "30.021965564109628",
      "longitude": "-89.99557356295227"
    }
  },
  {
    "service_request": "2023-1028644",
    "request_type": "Trash/Recycling",
    "request_reason": "Replace Trash Cart",
    "date_created": "2023-08-22T17:46:23.000",
    "date_modified": "2023-08-22T17:52:42.000",
    "request_status": "Pending",
    "responsible_agency": "Department of Sanitation",
    "final_address": "4424 Danneel St",
    "address_councildis": "B",
    "status": "Assigned to Contractor",
    "contractor": "Richards Disposal",
    "rowid": "1028644",
    "final_x": "3670450.26708",
    "final_y": "522182.858618",
    "longitude": "-90.1032779947938",
    "latitude": "29.930152451659755",
    "geocoded_column": {
      "latitude": "29.930152451659755",
      "longitude": "-90.1032779947938"
    }
  },
  {
    "service_request": "2023-1028643",
    "request_type": "Abandoned Vehicles",
    "request_reason": "Abandoned/Junk Vehicles",
    "date_created": "2023-08-22T17:29:57.000",
    "date_modified": "2023-08-22T17:29:57.000",
    "request_status": "Pending",
    "responsible_agency": "Department of Public Works",
    "final_address": "1427 N Roman St",
    "address_councildis": "D",
    "status": "Pending",
    "rowid": "1028643",
    "final_x": "3680812.59919",
    "final_y": "537247.130248",
    "longitude": "-90.07004150580664",
    "latitude": "29.971264188014004",
    "geocoded_column": {
      "latitude": "29.971264188014004",
      "longitude": "-90.07004150580664"
    }
  },
  {
    "service_request": "2023-1028642",
    "request_type": "Trash/Recycling",
    "request_reason": "Order Recycling Cart",
    "date_created": "2023-08-22T17:25:49.000",
    "date_modified": "2023-08-22T17:25:49.000",
    "request_status": "Pending",
    "responsible_agency": "Department of Sanitation",
    "final_address": "7529 Freret St",
    "address_councildis": "A",
    "status": "Pending",
    "rowid": "1028642",
    "final_x": "3662906.11962",
    "final_y": "526622.590142",
    "longitude": "-90.12694620142098",
    "latitude": "29.942580836857044",
    "geocoded_column": {
      "latitude": "29.942580836857044",
      "longitude": "-90.12694620142098"
    }
  },
  {
    "service_request": "2023-1028641",
    "request_type": "Trash/Recycling",
    "request_reason": "Repair Trash Cart",
    "date_created": "2023-08-22T17:23:31.000",
    "date_modified": "2023-08-22T17:43:42.000",
    "request_status": "Pending",
    "responsible_agency": "Department of Sanitation",
    "final_address": "2025 Jena St",
    "address_councildis": "B",
    "status": "Assigned to Contractor",
    "contractor": "Richards Disposal",
    "rowid": "1028641",
    "final_x": "3670369.63527",
    "final_y": "522492.32569",
    "longitude": "-90.1035220517311",
    "latitude": "29.93100576670361",
    "geocoded_column": {
      "latitude": "29.93100576670361",
      "longitude": "-90.1035220517311"
    }
  },
  {
    "service_request": "2023-1028640",
    "request_type": "Trash/Recycling",
    "request_reason": "Replace Trash Cart",
    "date_created": "2023-08-22T17:20:28.000",
    "date_modified": "2023-08-22T17:41:05.000",
    "request_status": "Pending",
    "responsible_agency": "Department of Sanitation",
    "final_address": "823 Pine St",
    "address_councildis": "A",
    "status": "Assigned to Contractor",
    "contractor": "Richards Disposal",
    "rowid": "1028640",
    "final_x": "3663272.84583",
    "final_y": "525629.625469",
    "longitude": "-90.12582139404927",
    "latitude": "29.93983987886029",
    "geocoded_column": {
      "latitude": "29.93983987886029",
      "longitude": "-90.12582139404927"
    }
  },
  {
    "service_request": "2023-1028639",
    "request_type": "Abandoned Vehicles",
    "request_reason": "Abandoned/Junk Vehicles",
    "date_created": "2023-08-22T17:11:19.000",
    "date_modified": "2023-08-22T17:11:19.000",
    "request_status": "Pending",
    "responsible_agency": "Department of Public Works",
    "final_address": "20 Christopher Ct",
    "address_councildis": "E",
    "status": "Pending",
    "rowid": "1028639",
    "final_x": "3716721.08415",
    "final_y": "570363.839207",
    "longitude": "-89.95538113830784",
    "latitude": "30.061184640889554",
    "geocoded_column": {
      "latitude": "30.061184640889554",
      "longitude": "-89.95538113830784"
    }
  },
  {
    "service_request": "2023-1028638",
    "request_type": "Trash/Recycling",
    "request_reason": "Request a Large Item Pick Up",
    "date_created": "2023-08-22T17:10:59.000",
    "date_modified": "2023-08-22T17:32:04.000",
    "request_status": "Pending",
    "responsible_agency": "Department of Sanitation",
    "final_address": "5731 Wright Rd",
    "address_councildis": "E",
    "status": "Assigned to Contractor",
    "contractor": "Waste Pro",
    "rowid": "1028638",
    "final_x": "3714703.78712",
    "final_y": "561156.679134",
    "longitude": "-89.96210600066455",
    "latitude": "30.03593525131813",
    "geocoded_column": {
      "latitude": "30.03593525131813",
      "longitude": "-89.96210600066455"
    }
  },
  {
    "service_request": "2023-1028637",
    "request_type": "Trash/Recycling",
    "request_reason": "Request a Large Item Pick Up",
    "date_created": "2023-08-22T17:08:56.000",
    "date_modified": "2023-08-22T17:29:41.000",
    "request_status": "Pending",
    "responsible_agency": "Department of Sanitation",
    "final_address": "1025 Lowerline St",
    "address_councildis": "A",
    "status": "Assigned to Contractor",
    "contractor": "Richards Disposal",
    "rowid": "1028637",
    "final_x": "3663434.85709",
    "final_y": "526389.723966",
    "longitude": "-90.12528459840273",
    "latitude": "29.941925211869098",
    "geocoded_column": {
      "latitude": "29.941925211869098",
      "longitude": "-90.12528459840273"
    }
  },
  {
    "service_request": "2023-1028636",
    "request_type": "Traffic Signals/Signs/Striping/Streetlights",
    "request_reason": "Street Light Outage/Malfunction",
    "date_created": "2023-08-22T17:04:40.000",
    "date_modified": "2023-08-22T17:24:43.000",
    "request_status": "Pending",
    "responsible_agency": "Department of Public Works",
    "final_address": "3205 Louisiana Avenue Prkwy",
    "address_councildis": "B",
    "status": "Assigned to Contractor",
    "contractor": "Legacy Professional Services",
    "rowid": "1028636",
    "final_x": "3672010.97057",
    "final_y": "526990.638142",
    "longitude": "-90.09818749282444",
    "latitude": "29.94332612613056",
    "geocoded_column": {
      "latitude": "29.94332612613056",
      "longitude": "-90.09818749282444"
    }
  },
  {
    "service_request": "2023-1028635",
    "request_type": "Traffic Signals/Signs/Striping/Streetlights",
    "request_reason": "Additional signage",
    "date_created": "2023-08-22T17:00:51.000",
    "date_modified": "2023-08-22T17:00:51.000",
    "request_status": "Pending",
    "responsible_agency": "Department of Public Works",
    "final_address": "6302 Camp St",
    "address_councildis": "A",
    "status": "Pending",
    "rowid": "1028635",
    "final_x": "3663505.01114",
    "final_y": "519994.82124",
    "longitude": "-90.1252759699372",
    "latitude": "29.924339216360888",
    "geocoded_column": {
      "latitude": "29.924339216360888",
      "longitude": "-90.1252759699372"
    }
  },
  {
    "service_request": "2023-1028634",
    "request_type": "Property Maintenance",
    "request_reason": "Property Maintenance",
    "date_created": "2023-08-22T17:00:20.000",
    "date_modified": "2023-08-22T17:00:20.000",
    "request_status": "Pending",
    "responsible_agency": "Department of Code Enforcement",
    "final_address": "2234 Napoleon Ave",
    "address_councildis": "B",
    "status": "Pending",
    "rowid": "1028634",
    "final_x": "3670501.24871",
    "final_y": "523286.115963",
    "longitude": "-90.10307965978008",
    "latitude": "29.9331845501287",
    "geocoded_column": {
      "latitude": "29.9331845501287",
      "longitude": "-90.10307965978008"
    }
  },
  {
    "service_request": "2023-1028633",
    "request_type": "Mosquito, Termite & Rodent Control",
    "request_reason": "Rodent Complaint (Rats)",
    "date_created": "2023-08-22T16:59:18.000",
    "date_modified": "2023-08-22T16:59:18.000",
    "request_status": "Pending",
    "responsible_agency": "Mosquito, Termite & Rodent Control Board",
    "final_address": "2503 Annunciation St",
    "address_councildis": "B",
    "status": "Pending",
    "rowid": "1028633",
    "final_x": "3678370.0667",
    "final_y": "520423.410488",
    "longitude": "-90.07833729610664",
    "latitude": "29.925078393427984",
    "geocoded_column": {
      "latitude": "29.925078393427984",
      "longitude": "-90.07833729610664"
    }
  },
  {
    "service_request": "2023-1028632",
    "request_type": "Trash/Recycling",
    "request_reason": "Order Recycling Cart",
    "date_created": "2023-08-22T16:55:50.000",
    "date_modified": "2023-08-22T16:55:50.000",
    "request_status": "Pending",
    "responsible_agency": "Department of Sanitation",
    "final_address": "1211 Philip St",
    "address_councildis": "B",
    "status": "Pending",
    "rowid": "1028632",
    "final_x": "3678267.36142",
    "final_y": "522254.793786",
    "longitude": "-90.07859819875455",
    "latitude": "29.93011719310697",
    "geocoded_column": {
      "latitude": "29.93011719310697",
      "longitude": "-90.07859819875455"
    }
  },
  {
    "service_request": "2023-1028631",
    "request_type": "Traffic Signals/Signs/Striping/Streetlights",
    "request_reason": "Street Light Outage/Malfunction",
    "date_created": "2023-08-22T16:52:39.000",
    "date_modified": "2023-08-22T17:09:26.000",
    "request_status": "Pending",
    "responsible_agency": "Department of Public Works",
    "final_address": "2519 Verbena St",
    "address_councildis": "D",
    "status": "Assigned to Contractor",
    "contractor": "Legacy Professional Services",
    "rowid": "1028631",
    "final_x": "3686415.81794",
    "final_y": "547792.281234",
    "longitude": "-90.05197338413171",
    "latitude": "30.000088556586583",
    "geocoded_column": {
      "latitude": "30.000088556586583",
      "longitude": "-90.05197338413171"
    }
  },
  {
    "service_request": "2023-1028630",
    "request_type": "Property Maintenance",
    "request_reason": "Property Maintenance",
    "date_created": "2023-08-22T16:44:43.000",
    "date_modified": "2023-08-22T16:44:43.000",
    "request_status": "Pending",
    "responsible_agency": "Department of Code Enforcement",
    "final_address": "2234 Napoleon Ave",
    "address_councildis": "B",
    "status": "Pending",
    "rowid": "1028630",
    "final_x": "3670501.24871",
    "final_y": "523286.115963",
    "longitude": "-90.10307965978008",
    "latitude": "29.9331845501287",
    "geocoded_column": {
      "latitude": "29.9331845501287",
      "longitude": "-90.10307965978008"
    }
  },
  {
    "service_request": "2023-1028629",
    "request_type": "Roads/Drainage",
    "request_reason": "Ditch Issue",
    "date_created": "2023-08-22T16:42:29.000",
    "date_modified": "2023-08-22T16:42:29.000",
    "request_status": "Pending",
    "responsible_agency": "Department of Public Works",
    "final_address": "916 Stanton Rd",
    "address_councildis": "C",
    "status": "Pending",
    "rowid": "1028629",
    "final_x": "3722126.16031",
    "final_y": "518334.854902",
    "longitude": "-89.94029541477121",
    "latitude": "29.917945344187352",
    "geocoded_column": {
      "latitude": "29.917945344187352",
      "longitude": "-89.94029541477121"
    }
  },
  {
    "service_request": "2023-1028628",
    "request_type": "Trash/Recycling",
    "request_reason": "MIssed Recycling Pick-Up",
    "date_created": "2023-08-22T16:42:01.000",
    "date_modified": "2023-08-22T16:53:01.000",
    "request_status": "Pending",
    "responsible_agency": "Department of Sanitation",
    "final_address": "10920 Zenith St",
    "address_councildis": "E",
    "status": "Assigned to Contractor",
    "contractor": "Waste Pro",
    "rowid": "1028628",
    "final_x": "3710575.90904",
    "final_y": "565329.583778",
    "longitude": "-89.97499441196027",
    "latitude": "30.04754424812881",
    "geocoded_column": {
      "latitude": "30.04754424812881",
      "longitude": "-89.97499441196027"
    }
  },
  {
    "service_request": "2023-1028627",
    "request_type": "Roads/Drainage",
    "request_reason": "Pothole",
    "date_created": "2023-08-22T16:36:53.000",
    "date_modified": "2023-08-22T16:36:53.000",
    "request_status": "Pending",
    "responsible_agency": "Department of Public Works",
    "final_address": "4216 Chestnut St",
    "address_councildis": "B",
    "status": "Pending",
    "rowid": "1028627",
    "final_x": "3671574.31393",
    "final_y": "519539.203703",
    "longitude": "-90.09981939416457",
    "latitude": "29.922850019854593",
    "geocoded_column": {
      "latitude": "29.922850019854593",
      "longitude": "-90.09981939416457"
    }
  },
  {
    "service_request": "2023-1028626",
    "request_type": "Roads/Drainage",
    "request_reason": "Pothole",
    "date_created": "2023-08-22T16:30:17.000",
    "date_modified": "2023-08-22T16:30:17.000",
    "request_status": "Pending",
    "responsible_agency": "Department of Public Works",
    "final_address": "1300 BLK Esplanade Ave",
    "address_councildis": "C",
    "status": "Pending",
    "rowid": "1028626",
    "final_x": "3681953.09669",
    "final_y": "536003.751927",
    "longitude": "-90.06648307383387",
    "latitude": "29.967810702998598",
    "geocoded_column": {
      "latitude": "29.967810702998598",
      "longitude": "-90.06648307383387"
    }
  },
  {
    "service_request": "2023-1028624",
    "request_type": "Trash/Recycling",
    "request_reason": "Order Recycling Cart",
    "date_created": "2023-08-22T16:26:53.000",
    "date_modified": "2023-08-22T16:31:40.000",
    "request_status": "Pending",
    "responsible_agency": "Department of Sanitation",
    "final_address": "712 Washington Ave Apt 101",
    "address_councildis": "B",
    "status": "Pending",
    "rowid": "1028624",
    "final_x": "3677755.63451",
    "final_y": "519640.824632",
    "longitude": "-90.08030387604397",
    "latitude": "29.922945026164975",
    "geocoded_column": {
      "latitude": "29.922945026164975",
      "longitude": "-90.08030387604397"
    }
  },
  {
    "service_request": "2023-1028623",
    "request_type": "Trash/Recycling",
    "request_reason": "MIssed Recycling Pick-Up",
    "date_created": "2023-08-22T16:25:37.000",
    "date_modified": "2023-08-22T16:29:50.000",
    "request_status": "Pending",
    "responsible_agency": "Department of Sanitation",
    "final_address": "5714 General Diaz St",
    "address_councildis": "A",
    "status": "Assigned to Contractor",
    "contractor": "IV Waste",
    "rowid": "1028623",
    "final_x": "3669260.51719",
    "final_y": "545497.682",
    "longitude": "-90.10624565382413",
    "latitude": "29.994295546433356",
    "geocoded_column": {
      "latitude": "29.994295546433356",
      "longitude": "-90.10624565382413"
    }
  },
  {
    "service_request": "2023-1028622",
    "request_type": "Trash/Recycling",
    "request_reason": "Illegal Dumping",
    "date_created": "2023-08-22T16:20:11.000",
    "date_modified": "2023-08-22T16:20:11.000",
    "request_status": "Pending",
    "responsible_agency": "Department of Sanitation",
    "final_address": "2074 Florida Ave",
    "address_councildis": "D",
    "status": "Pending",
    "rowid": "1028622",
    "final_x": "3683636.32745",
    "final_y": "542659.627149",
    "longitude": "-90.06093397800102",
    "latitude": "29.986060756766904",
    "geocoded_column": {
      "latitude": "29.986060756766904",
      "longitude": "-90.06093397800102"
    }
  },
  {
    "service_request": "2023-1028621",
    "request_type": "Trash/Recycling",
    "request_reason": "Request a Large Item Pick Up",
    "date_created": "2023-08-22T16:14:26.000",
    "date_modified": "2023-08-22T16:15:01.000",
    "request_status": "Pending",
    "responsible_agency": "Department of Sanitation",
    "final_address": "515 S Gayoso St",
    "address_councildis": "B",
    "status": "Assigned to Contractor",
    "contractor": "Richards Disposal",
    "rowid": "1028621",
    "final_x": "3673236.74612",
    "final_y": "534486.447045",
    "longitude": "-90.09406144087302",
    "latitude": "29.963900726954748",
    "geocoded_column": {
      "latitude": "29.963900726954748",
      "longitude": "-90.09406144087302"
    }
  },
  {
    "service_request": "2023-1028620",
    "request_type": "Trash/Recycling",
    "request_reason": "Missed Trash Pick-Up",
    "date_created": "2023-08-22T16:13:35.000",
    "date_modified": "2023-08-22T16:13:36.000",
    "request_status": "Pending",
    "responsible_agency": "Department of Sanitation",
    "final_address": "515 S Gayoso St",
    "address_councildis": "B",
    "status": "Assigned to Contractor",
    "contractor": "Richards Disposal",
    "rowid": "1028620",
    "final_x": "3673236.74612",
    "final_y": "534486.447045",
    "longitude": "-90.09406144087302",
    "latitude": "29.963900726954748",
    "geocoded_column": {
      "latitude": "29.963900726954748",
      "longitude": "-90.09406144087302"
    }
  },
  {
    "service_request": "2023-1028619",
    "request_type": "Trash/Recycling",
    "request_reason": "MIssed Recycling Pick-Up",
    "date_created": "2023-08-22T16:10:44.000",
    "date_modified": "2023-08-22T16:11:11.000",
    "request_status": "Pending",
    "responsible_agency": "Department of Sanitation",
    "final_address": "9930 Morrison Rd",
    "address_councildis": "E",
    "rowid": "1028619",
    "final_x": "3708367.40171",
    "final_y": "563189.10416",
    "longitude": "-89.98205423723536",
    "latitude": "30.041730587281684",
    "geocoded_column": {
      "latitude": "30.041730587281684",
      "longitude": "-89.98205423723536"
    }
  },
  {
    "service_request": "2023-1028618",
    "request_type": "Roads/Drainage",
    "request_reason": "Pothole",
    "date_created": "2023-08-22T16:10:20.000",
    "date_modified": "2023-08-22T16:10:20.000",
    "request_status": "Pending",
    "responsible_agency": "Department of Public Works",
    "final_address": "6122 Prytania St",
    "address_councildis": "A",
    "status": "Pending",
    "rowid": "1028618",
    "final_x": "3664544.92884",
    "final_y": "521048.600121",
    "longitude": "-90.12195812819029",
    "latitude": "29.927206589238114",
    "geocoded_column": {
      "latitude": "29.927206589238114",
      "longitude": "-90.12195812819029"
    }
  },
  {
    "service_request": "2023-1028617",
    "request_type": "EMS",
    "request_reason": "EMS Lost & Found",
    "date_created": "2023-08-22T16:05:28.000",
    "date_modified": "2023-08-22T17:35:02.000",
    "case_close_date": "2023-08-22T12:35:02.000",
    "request_status": "Closed",
    "responsible_agency": "Emergency Medical Services",
    "status": "Duplicate Request",
    "rowid": "1028617",
    "longitude": "0.0",
    "latitude": "0.0",
    "geocoded_column": {
      "latitude": "0.0",
      "longitude": "0.0"
    }
  },
  {
    "service_request": "2023-1028615",
    "request_type": "Traffic Signals/Signs/Striping/Streetlights",
    "request_reason": "Street Light Outage/Malfunction",
    "date_created": "2023-08-22T15:59:00.000",
    "date_modified": "2023-08-22T15:59:01.000",
    "request_status": "Pending",
    "responsible_agency": "Department of Public Works",
    "final_address": "1420 Philip St",
    "address_councildis": "B",
    "status": "Assigned to Contractor",
    "contractor": "Legacy Professional Services",
    "rowid": "1028615",
    "final_x": "3677769.5323",
    "final_y": "522790.746171",
    "longitude": "-90.08015126074933",
    "latitude": "29.93160586720302",
    "geocoded_column": {
      "latitude": "29.93160586720302",
      "longitude": "-90.08015126074933"
    }
  },
  {
    "service_request": "2023-1028614",
    "request_type": "Trash/Recycling",
    "request_reason": "Request a Large Item Pick Up",
    "date_created": "2023-08-22T15:58:16.000",
    "date_modified": "2023-08-22T15:58:16.000",
    "request_status": "Pending",
    "responsible_agency": "Department of Sanitation",
    "final_address": "827 Louisa St",
    "address_councildis": "C",
    "status": "Assigned to Contractor",
    "contractor": "IV Waste",
    "rowid": "1028614",
    "final_x": "3689364.29916",
    "final_y": "534941.034374",
    "longitude": "-90.04311613920461",
    "latitude": "29.964661216657948",
    "geocoded_column": {
      "latitude": "29.964661216657948",
      "longitude": "-90.04311613920461"
    }
  },
  {
    "service_request": "2023-1028613",
    "request_type": "Roads/Drainage",
    "request_reason": "Debris in Roadway",
    "date_created": "2023-08-22T15:56:06.000",
    "date_modified": "2023-08-22T15:56:06.000",
    "request_status": "Pending",
    "responsible_agency": "Department of Public Works",
    "final_address": "7417 Spruce St",
    "address_councildis": "A",
    "status": "Pending",
    "rowid": "1028613",
    "final_x": "3665156.18605",
    "final_y": "529315.329601",
    "longitude": "-90.11975214944229",
    "latitude": "29.94991967241388",
    "geocoded_column": {
      "latitude": "29.94991967241388",
      "longitude": "-90.11975214944229"
    }
  },
  {
    "service_request": "2023-1028612",
    "request_type": "Trash/Recycling",
    "request_reason": "Request a Large Item Pick Up",
    "date_created": "2023-08-22T15:54:27.000",
    "date_modified": "2023-08-22T15:54:27.000",
    "request_status": "Pending",
    "responsible_agency": "Department of Sanitation",
    "final_address": "5575 Jacquelyn Ct",
    "address_councildis": "A",
    "status": "Assigned to Contractor",
    "contractor": "IV Waste",
    "rowid": "1028612",
    "final_x": "3664531.53306",
    "final_y": "544794.791375",
    "longitude": "-90.1212074438025",
    "latitude": "29.992501239349508",
    "geocoded_column": {
      "latitude": "29.992501239349508",
      "longitude": "-90.1212074438025"
    }
  },
  {
    "service_request": "2023-1028611",
    "request_type": "Roads/Drainage",
    "request_reason": "Damaged Sidewalk",
    "date_created": "2023-08-22T15:53:21.000",
    "date_modified": "2023-08-22T15:53:42.000",
    "request_status": "Pending",
    "responsible_agency": "Department of Public Works",
    "final_address": "4800 BLK Bonita Dr",
    "address_councildis": "E",
    "status": "Pending",
    "rowid": "1028611",
    "final_x": "3704409.08754",
    "final_y": "555977.832714",
    "longitude": "-89.99483010178268",
    "latitude": "30.022030165724292",
    "geocoded_column": {
      "latitude": "30.022030165724292",
      "longitude": "-89.99483010178268"
    }
  },
  {
    "service_request": "2023-1028610",
    "request_type": "Trash/Recycling",
    "request_reason": "Order Trash Cart",
    "date_created": "2023-08-22T15:50:54.000",
    "date_modified": "2023-08-22T15:50:55.000",
    "request_status": "Pending",
    "responsible_agency": "Department of Sanitation",
    "final_address": "5316 Dryades St",
    "address_councildis": "B",
    "status": "Assigned to Contractor",
    "contractor": "Richards Disposal",
    "rowid": "1028610",
    "final_x": "3667750.23521",
    "final_y": "521748.013306",
    "longitude": "-90.11181622171142",
    "latitude": "29.929036187873596",
    "geocoded_column": {
      "latitude": "29.929036187873596",
      "longitude": "-90.11181622171142"
    }
  },
  {
    "service_request": "2023-1028609",
    "request_type": "Trash/Recycling",
    "request_reason": "Replace Trash Cart",
    "date_created": "2023-08-22T15:48:09.000",
    "date_modified": "2023-08-22T15:48:10.000",
    "request_status": "Pending",
    "responsible_agency": "Department of Sanitation",
    "final_address": "916 Conrad St",
    "address_councildis": "A",
    "status": "Assigned to Contractor",
    "contractor": "IV Waste",
    "rowid": "1028609",
    "final_x": "3670616.29204",
    "final_y": "554098.880344",
    "longitude": "-90.10167087827689",
    "latitude": "30.017905834497196",
    "geocoded_column": {
      "latitude": "30.017905834497196",
      "longitude": "-90.10167087827689"
    }
  },
  {
    "service_request": "2023-1028608",
    "request_type": "Traffic Signals/Signs/Striping/Streetlights",
    "request_reason": "Street Light Outage/Malfunction",
    "date_created": "2023-08-22T15:46:01.000",
    "date_modified": "2023-08-22T15:46:02.000",
    "request_status": "Pending",
    "responsible_agency": "Department of Public Works",
    "final_address": "3505 Chestnut St",
    "address_councildis": "B",
    "status": "Assigned to Contractor",
    "contractor": "Legacy Professional Services",
    "rowid": "1028608",
    "final_x": "3674118.14484",
    "final_y": "520136.448696",
    "longitude": "-90.09176907904315",
    "latitude": "29.924416707584044",
    "geocoded_column": {
      "latitude": "29.924416707584044",
      "longitude": "-90.09176907904315"
    }
  },
  {
    "service_request": "2023-1028607",
    "request_type": "Trash/Recycling",
    "request_reason": "Order Trash Cart",
    "date_created": "2023-08-22T15:45:37.000",
    "date_modified": "2023-08-22T15:45:38.000",
    "request_status": "Pending",
    "responsible_agency": "Department of Sanitation",
    "final_address": "521 S Telemachus St",
    "address_councildis": "B",
    "status": "Assigned to Contractor",
    "contractor": "Richards Disposal",
    "rowid": "1028607",
    "final_x": "3671224.61902",
    "final_y": "535994.400007",
    "longitude": "-90.10036432328329",
    "latitude": "29.968106777520916",
    "geocoded_column": {
      "latitude": "29.968106777520916",
      "longitude": "-90.10036432328329"
    }
  },
  {
    "service_request": "2023-1028606",
    "request_type": "Trash/Recycling",
    "request_reason": "Request a Large Item Pick Up",
    "date_created": "2023-08-22T15:43:30.000",
    "date_modified": "2023-08-22T15:43:31.000",
    "request_status": "Pending",
    "responsible_agency": "Department of Sanitation",
    "final_address": "4735 Sherwood Dr",
    "address_councildis": "E",
    "status": "Assigned to Contractor",
    "contractor": "Waste Pro",
    "rowid": "1028606",
    "final_x": "3718084.70431",
    "final_y": "556817.537562",
    "longitude": "-89.95158715701086",
    "latitude": "30.023892674773005",
    "geocoded_column": {
      "latitude": "30.023892674773005",
      "longitude": "-89.95158715701086"
    }
  },
  {
    "service_request": "2023-1028605",
    "request_type": "Abandoned Vehicles",
    "request_reason": "Abandoned/Junk Vehicles",
    "date_created": "2023-08-22T15:40:59.000",
    "date_modified": "2023-08-22T15:40:59.000",
    "request_status": "Pending",
    "responsible_agency": "Department of Public Works",
    "final_address": "6128 Laurel St",
    "address_councildis": "A",
    "status": "Pending",
    "rowid": "1028605",
    "final_x": "3663457.48947",
    "final_y": "518533.162039",
    "longitude": "-90.12547461701703",
    "latitude": "29.920321487281086",
    "geocoded_column": {
      "latitude": "29.920321487281086",
      "longitude": "-90.12547461701703"
    }
  },
  {
    "service_request": "2023-1028604",
    "request_type": "Trash/Recycling",
    "request_reason": "Request a Large Item Pick Up",
    "date_created": "2023-08-22T15:39:22.000",
    "date_modified": "2023-08-22T15:39:23.000",
    "request_status": "Pending",
    "responsible_agency": "Department of Sanitation",
    "final_address": "6070 Wright Rd",
    "address_councildis": "E",
    "status": "Assigned to Contractor",
    "contractor": "Waste Pro",
    "rowid": "1028604",
    "final_x": "3712874.50597",
    "final_y": "562930.13072",
    "longitude": "-89.96782002134972",
    "latitude": "30.040871596930888",
    "geocoded_column": {
      "latitude": "30.040871596930888",
      "longitude": "-89.96782002134972"
    }
  },
  {
    "service_request": "2023-1028603",
    "request_type": "Roads/Drainage",
    "request_reason": "Street Subsidence (Sinking)",
    "date_created": "2023-08-22T15:38:07.000",
    "date_modified": "2023-08-22T15:38:07.000",
    "request_status": "Pending",
    "responsible_agency": "Department of Public Works",
    "final_address": "General De Gaulle Drive & Holiday Drive",
    "address_councildis": "C",
    "status": "Pending",
    "rowid": "1028603",
    "final_x": "3698594.27453",
    "final_y": "519111.035319",
    "longitude": "-90.01454404907142",
    "latitude": "29.920845243622324",
    "geocoded_column": {
      "latitude": "29.920845243622324",
      "longitude": "-90.01454404907142"
    }
  },
  {
    "service_request": "2023-1028602",
    "request_type": "Roads/Drainage",
    "request_reason": "Pothole",
    "date_created": "2023-08-22T15:37:59.000",
    "date_modified": "2023-08-22T15:37:59.000",
    "request_status": "Pending",
    "responsible_agency": "Department of Public Works",
    "final_address": "3629 Prytania St",
    "address_councildis": "B",
    "status": "Pending",
    "rowid": "1028602",
    "final_x": "3673410.74836",
    "final_y": "520712.326393",
    "longitude": "-90.09398242884356",
    "latitude": "29.926021243402264",
    "geocoded_column": {
      "latitude": "29.926021243402264",
      "longitude": "-90.09398242884356"
    }
  },
  {
    "service_request": "2023-1028601",
    "request_type": "Trash/Recycling",
    "request_reason": "Illegal Dumping",
    "date_created": "2023-08-22T15:34:45.000",
    "date_modified": "2023-08-22T15:34:45.000",
    "request_status": "Pending",
    "responsible_agency": "Department of Sanitation",
    "final_address": "2014 Touro St",
    "address_councildis": "D",
    "status": "Pending",
    "rowid": "1028601",
    "final_x": "3683925.72162",
    "final_y": "539696.002314",
    "longitude": "-90.06012391137607",
    "latitude": "29.977902990984866",
    "geocoded_column": {
      "latitude": "29.977902990984866",
      "longitude": "-90.06012391137607"
    }
  },
  {
    "service_request": "2023-1028600",
    "request_type": "Trash/Recycling",
    "request_reason": "Request a Large Item Pick Up",
    "date_created": "2023-08-22T15:32:43.000",
    "date_modified": "2023-08-22T15:32:44.000",
    "request_status": "Pending",
    "responsible_agency": "Department of Sanitation",
    "final_address": "4215 Chestnut St, New Orleans, Louisiana, 70115",
    "address_councildis": "B",
    "status": "Assigned to Contractor",
    "contractor": "Richards Disposal",
    "rowid": "1028600",
    "final_x": "3671574.88206",
    "final_y": "519624.625336",
    "longitude": "-90.09981469804269",
    "latitude": "29.923084885290454",
    "geocoded_column": {
      "latitude": "29.923084885290454",
      "longitude": "-90.09981469804269"
    }
  },
  {
    "service_request": "2023-1028599",
    "request_type": "Roads/Drainage",
    "request_reason": "Street Subsidence (Sinking)",
    "date_created": "2023-08-22T15:30:22.000",
    "date_modified": "2023-08-22T15:30:22.000",
    "request_status": "Pending",
    "responsible_agency": "Department of Public Works",
    "final_address": "6218 Camp St",
    "address_councildis": "A",
    "status": "Pending",
    "rowid": "1028599",
    "final_x": "3663735.52493",
    "final_y": "519935.705976",
    "longitude": "-90.12455028280617",
    "latitude": "29.924169983324653",
    "geocoded_column": {
      "latitude": "29.924169983324653",
      "longitude": "-90.12455028280617"
    }
  },
  {
    "service_request": "2023-1028598",
    "request_type": "Trash/Recycling",
    "request_reason": "Missed Trash Pick-Up",
    "date_created": "2023-08-22T15:27:43.000",
    "date_modified": "2023-08-22T15:27:44.000",
    "request_status": "Pending",
    "responsible_agency": "Department of Sanitation",
    "final_address": "7030 Lake Barrington Dr",
    "address_councildis": "E",
    "status": "Assigned to Contractor",
    "contractor": "Waste Pro",
    "rowid": "1028598",
    "final_x": "3712551.61829",
    "final_y": "563785.133921",
    "longitude": "-89.96880826870468",
    "latitude": "30.043233087928407",
    "geocoded_column": {
      "latitude": "30.043233087928407",
      "longitude": "-89.96880826870468"
    }
  },
  {
    "service_request": "2023-1028597",
    "request_type": "Trash/Recycling",
    "request_reason": "Order Recycling Cart",
    "date_created": "2023-08-22T15:26:53.000",
    "date_modified": "2023-08-22T15:26:53.000",
    "request_status": "Pending",
    "responsible_agency": "Department of Sanitation",
    "final_address": "2131 Jefferson Ave",
    "address_councildis": "B",
    "status": "Pending",
    "rowid": "1028597",
    "final_x": "3667881.19655",
    "final_y": "523578.681211",
    "longitude": "-90.11134116981412",
    "latitude": "29.934066101232606",
    "geocoded_column": {
      "latitude": "29.934066101232606",
      "longitude": "-90.11134116981412"
    }
  },
  {
    "service_request": "2023-1028596",
    "request_type": "Roads/Drainage",
    "request_reason": "Pothole",
    "date_created": "2023-08-22T15:24:44.000",
    "date_modified": "2023-08-22T15:24:44.000",
    "request_status": "Pending",
    "responsible_agency": "Department of Public Works",
    "final_address": "1423 General Pershing St",
    "address_councildis": "B",
    "status": "Pending",
    "rowid": "1028596",
    "final_x": "3671330.69185",
    "final_y": "520571.244024",
    "longitude": "-90.1005533659415",
    "latitude": "29.925695010510914",
    "geocoded_column": {
      "latitude": "29.925695010510914",
      "longitude": "-90.1005533659415"
    }
  },
  {
    "service_request": "2023-1028595",
    "request_type": "Roads/Drainage",
    "request_reason": "Street Subsidence (Sinking)",
    "date_created": "2023-08-22T15:24:26.000",
    "date_modified": "2023-08-22T15:25:21.000",
    "request_status": "Pending",
    "responsible_agency": "Department of Public Works",
    "final_address": "PRIMROSE DR & MORRISON RD",
    "address_councildis": "E",
    "status": "Pending",
    "rowid": "1028595",
    "final_x": "3702159.4",
    "final_y": "560189.08",
    "longitude": "-90.00178386274919",
    "latitude": "30.033681533925595",
    "geocoded_column": {
      "latitude": "30.033681533925595",
      "longitude": "-90.00178386274919"
    }
  },
  {
    "service_request": "2023-1028594",
    "request_type": "Trash/Recycling",
    "request_reason": "Repair Trash Cart",
    "date_created": "2023-08-22T15:18:49.000",
    "date_modified": "2023-08-22T15:18:50.000",
    "request_status": "Pending",
    "responsible_agency": "Department of Sanitation",
    "final_address": "1915 E Homestead Dr",
    "address_councildis": "C",
    "status": "Assigned to Contractor",
    "contractor": "Richards Disposal",
    "rowid": "1028594",
    "final_x": "3697094.73482",
    "final_y": "524868.34662",
    "longitude": "-90.01906894176797",
    "latitude": "29.936723248757378",
    "geocoded_column": {
      "latitude": "29.936723248757378",
      "longitude": "-90.01906894176797"
    }
  },
  {
    "service_request": "2023-1028593",
    "request_type": "Trash/Recycling",
    "request_reason": "Missed Trash Pick-Up",
    "date_created": "2023-08-22T15:17:42.000",
    "date_modified": "2023-08-22T15:17:43.000",
    "request_status": "Pending",
    "responsible_agency": "Department of Sanitation",
    "final_address": "917 Dufossat St",
    "address_councildis": "B",
    "status": "Assigned to Contractor",
    "contractor": "Richards Disposal",
    "rowid": "1028593",
    "final_x": "3668134.80788",
    "final_y": "518760.210871",
    "longitude": "-90.11070283762476",
    "latitude": "29.920809399124185",
    "geocoded_column": {
      "latitude": "29.920809399124185",
      "longitude": "-90.11070283762476"
    }
  },
  {
    "service_request": "2023-1028592",
    "request_type": "Trash/Recycling",
    "request_reason": "Request a Large Item Pick Up",
    "date_created": "2023-08-22T15:17:22.000",
    "date_modified": "2023-08-22T15:17:23.000",
    "request_status": "Pending",
    "responsible_agency": "Department of Sanitation",
    "final_address": "4650 Read Blvd",
    "address_councildis": "E",
    "status": "Assigned to Contractor",
    "contractor": "Waste Pro",
    "rowid": "1028592",
    "final_x": "3712719.71998",
    "final_y": "555649.086425",
    "longitude": "-89.96858325928339",
    "latitude": "30.020856690778757",
    "geocoded_column": {
      "latitude": "30.020856690778757",
      "longitude": "-89.96858325928339"
    }
  },
  {
    "service_request": "2023-1028591",
    "request_type": "Trash/Recycling",
    "request_reason": "Missed Trash Pick-Up",
    "date_created": "2023-08-22T15:16:22.000",
    "date_modified": "2023-08-22T15:16:23.000",
    "request_status": "Pending",
    "responsible_agency": "Department of Sanitation",
    "final_address": "7670 Wave Dr",
    "address_councildis": "E",
    "status": "Assigned to Contractor",
    "contractor": "Waste Pro",
    "rowid": "1028591",
    "final_x": "3714751.31736",
    "final_y": "568938.468069",
    "longitude": "-89.96166141218586",
    "latitude": "30.057330443136838",
    "geocoded_column": {
      "latitude": "30.057330443136838",
      "longitude": "-89.96166141218586"
    }
  },
  {
    "service_request": "2023-1028590",
    "request_type": "Roads/Drainage",
    "request_reason": "Pothole",
    "date_created": "2023-08-22T15:11:58.000",
    "date_modified": "2023-08-22T15:11:58.000",
    "request_status": "Pending",
    "responsible_agency": "Department of Public Works",
    "final_address": "1421 Constantinople St",
    "address_councildis": "B",
    "status": "Pending",
    "rowid": "1028590",
    "final_x": "3672433.24257",
    "final_y": "520667.657465",
    "longitude": "-90.09706965638372",
    "latitude": "29.925927453713577",
    "geocoded_column": {
      "latitude": "29.925927453713577",
      "longitude": "-90.09706965638372"
    }
  },
  {
    "service_request": "2023-1028589",
    "request_type": "Trash/Recycling",
    "request_reason": "Request a Large Item Pick Up",
    "date_created": "2023-08-22T15:10:59.000",
    "date_modified": "2023-08-22T15:11:49.000",
    "request_status": "Pending",
    "responsible_agency": "Department of Sanitation",
    "final_address": "1410 Jackson Ave",
    "address_councildis": "B",
    "status": "Assigned to Contractor",
    "contractor": "Richards Disposal",
    "rowid": "1028589",
    "final_x": "3678103.46293",
    "final_y": "522922.013179",
    "longitude": "-90.0790925440959",
    "latitude": "29.93195676211378",
    "geocoded_column": {
      "latitude": "29.93195676211378",
      "longitude": "-90.0790925440959"
    }
  },
  {
    "service_request": "2023-1028588",
    "request_type": "Abandoned Vehicles",
    "request_reason": "Vehicle Blocking Your Driveway",
    "date_created": "2023-08-22T15:09:28.000",
    "date_modified": "2023-08-22T15:09:28.000",
    "request_status": "Pending",
    "responsible_agency": "Department of Public Works",
    "final_address": "818 Camp St",
    "address_councildis": "B",
    "status": "Pending",
    "rowid": "1028588",
    "final_x": "3680790.07989",
    "final_y": "527746.599551",
    "longitude": "-90.07044331435469",
    "latitude": "29.945141637179507",
    "geocoded_column": {
      "latitude": "29.945141637179507",
      "longitude": "-90.07044331435469"
    }
  },
  {
    "service_request": "2023-1028587",
    "request_type": "Trash/Recycling",
    "request_reason": "Request a Large Item Pick Up",
    "date_created": "2023-08-22T15:05:32.000",
    "date_modified": "2023-08-22T15:05:33.000",
    "request_status": "Pending",
    "responsible_agency": "Department of Sanitation",
    "final_address": "6432 Milne Blvd",
    "address_councildis": "A",
    "status": "Assigned to Contractor",
    "contractor": "IV Waste",
    "rowid": "1028587",
    "final_x": "3667267.17485",
    "final_y": "550591.603348",
    "longitude": "-90.11237092175635",
    "latitude": "30.00836061416873",
    "geocoded_column": {
      "latitude": "30.00836061416873",
      "longitude": "-90.11237092175635"
    }
  },
  {
    "service_request": "2023-1028586",
    "request_type": "Trash/Recycling",
    "request_reason": "Missed Trash Pick-Up",
    "date_created": "2023-08-22T15:05:22.000",
    "date_modified": "2023-08-22T15:05:23.000",
    "request_status": "Pending",
    "responsible_agency": "Department of Sanitation",
    "final_address": "6740 Louis Xiv St",
    "address_councildis": "A",
    "status": "Assigned to Contractor",
    "contractor": "IV Waste",
    "rowid": "1028586",
    "final_x": "3668447.1867",
    "final_y": "552418.569174",
    "longitude": "-90.10858118775042",
    "latitude": "30.01334950314485",
    "geocoded_column": {
      "latitude": "30.01334950314485",
      "longitude": "-90.10858118775042"
    }
  },
  {
    "service_request": "2023-1028585",
    "request_type": "Trash/Recycling",
    "request_reason": "Request a Large Item Pick Up",
    "date_created": "2023-08-22T15:01:47.000",
    "date_modified": "2023-08-22T15:01:48.000",
    "request_status": "Pending",
    "responsible_agency": "Department of Sanitation",
    "final_address": "4306 Burgundy St",
    "address_councildis": "C",
    "status": "Assigned to Contractor",
    "contractor": "IV Waste",
    "rowid": "1028585",
    "final_x": "3692551.67837",
    "final_y": "534222.254277",
    "longitude": "-90.03307641773254",
    "latitude": "29.962585754246863",
    "geocoded_column": {
      "latitude": "29.962585754246863",
      "longitude": "-90.03307641773254"
    }
  },
  {
    "service_request": "2023-1028584",
    "request_type": "Trash/Recycling",
    "request_reason": "Order Recycling Cart",
    "date_created": "2023-08-22T14:59:20.000",
    "date_modified": "2023-08-22T14:59:20.000",
    "request_status": "Pending",
    "responsible_agency": "Department of Sanitation",
    "final_address": "2526 Jefferson Ave",
    "address_councildis": "A",
    "status": "Pending",
    "rowid": "1028584",
    "final_x": "3668042.59533",
    "final_y": "524879.611388",
    "longitude": "-90.1107878190809",
    "latitude": "29.93763850821009",
    "geocoded_column": {
      "latitude": "29.93763850821009",
      "longitude": "-90.1107878190809"
    }
  },
  {
    "service_request": "2023-1028583",
    "request_type": "Trash/Recycling",
    "request_reason": "Order Recycling Cart",
    "date_created": "2023-08-22T14:58:11.000",
    "date_modified": "2023-08-22T14:58:12.000",
    "request_status": "Pending",
    "responsible_agency": "Department of Sanitation",
    "final_address": "7545 Marquis St",
    "address_councildis": "E",
    "status": "Pending",
    "rowid": "1028583",
    "final_x": "3711618.93438",
    "final_y": "565802.734627",
    "longitude": "-89.97168013591242",
    "latitude": "30.048811182570333",
    "geocoded_column": {
      "latitude": "30.048811182570333",
      "longitude": "-89.97168013591242"
    }
  },
  {
    "service_request": "2023-1028582",
    "request_type": "Trash/Recycling",
    "request_reason": "Order Trash Cart",
    "date_created": "2023-08-22T14:58:02.000",
    "date_modified": "2023-08-22T14:58:03.000",
    "request_status": "Pending",
    "responsible_agency": "Department of Sanitation",
    "final_address": "7545 Marquis St",
    "address_councildis": "E",
    "status": "Assigned to Contractor",
    "contractor": "Waste Pro",
    "rowid": "1028582",
    "final_x": "3711618.93438",
    "final_y": "565802.734627",
    "longitude": "-89.97168013591242",
    "latitude": "30.048811182570333",
    "geocoded_column": {
      "latitude": "30.048811182570333",
      "longitude": "-89.97168013591242"
    }
  },
  {
    "service_request": "2023-1028581",
    "request_type": "Abandoned Vehicles",
    "request_reason": "Abandoned/Junk Vehicles",
    "date_created": "2023-08-22T14:56:34.000",
    "date_modified": "2023-08-22T14:56:34.000",
    "request_status": "Pending",
    "responsible_agency": "Department of Public Works",
    "final_address": "14591 Tilbury Rd",
    "address_councildis": "E",
    "status": "Pending",
    "rowid": "1028581",
    "final_x": "3721184.97452",
    "final_y": "573371.15889",
    "longitude": "-89.94115552836907",
    "latitude": "30.06930514528799",
    "geocoded_column": {
      "latitude": "30.06930514528799",
      "longitude": "-89.94115552836907"
    }
  },
  {
    "service_request": "2023-1028580",
    "request_type": "Trash/Recycling",
    "request_reason": "Request a Large Item Pick Up",
    "date_created": "2023-08-22T14:53:06.000",
    "date_modified": "2023-08-22T15:22:28.000",
    "request_status": "Pending",
    "responsible_agency": "Department of Sanitation",
    "final_address": "2279 N Derbigny St, New Orleans, Louisiana, 70117",
    "address_councildis": "D",
    "status": "Assigned to Contractor",
    "contractor": "IV Waste",
    "rowid": "1028580",
    "final_x": "3685566.73782",
    "final_y": "538603.851849",
    "longitude": "-90.05497950248139",
    "latitude": "29.974849720224363",
    "geocoded_column": {
      "latitude": "29.974849720224363",
      "longitude": "-90.05497950248139"
    }
  },
  {
    "service_request": "2023-1028579",
    "request_type": "Roads/Drainage",
    "request_reason": "Damaged Sidewalk",
    "date_created": "2023-08-22T14:50:44.000",
    "date_modified": "2023-08-22T14:50:44.000",
    "request_status": "Pending",
    "responsible_agency": "Department of Public Works",
    "final_address": "5300 Berkley Dr",
    "address_councildis": "C",
    "status": "Pending",
    "rowid": "1028579",
    "final_x": "3703359.75998",
    "final_y": "518294.021686",
    "longitude": "-89.99953171787156",
    "latitude": "29.91844706456825",
    "geocoded_column": {
      "latitude": "29.91844706456825",
      "longitude": "-89.99953171787156"
    }
  },
  {
    "service_request": "2023-1028578",
    "request_type": "Trash/Recycling",
    "request_reason": "Request a Large Item Pick Up",
    "date_created": "2023-08-22T14:50:21.000",
    "date_modified": "2023-08-22T14:50:22.000",
    "request_status": "Pending",
    "responsible_agency": "Department of Sanitation",
    "final_address": "3210 St Ann St",
    "address_councildis": "A",
    "status": "Assigned to Contractor",
    "contractor": "Richards Disposal",
    "rowid": "1028578",
    "final_x": "3675069.13787",
    "final_y": "538579.494537",
    "longitude": "-90.08813445047801",
    "latitude": "29.97510059913399",
    "geocoded_column": {
      "latitude": "29.97510059913399",
      "longitude": "-90.08813445047801"
    }
  },
  {
    "service_request": "2023-1028577",
    "request_type": "Trash/Recycling",
    "request_reason": "Missed Trash Pick-Up",
    "date_created": "2023-08-22T14:49:44.000",
    "date_modified": "2023-08-22T14:54:32.000",
    "request_status": "Pending",
    "responsible_agency": "Department of Sanitation",
    "final_address": "7316 Zimple St",
    "address_councildis": "A",
    "status": "Assigned to Contractor",
    "contractor": "Richards Disposal",
    "rowid": "1028577",
    "final_x": "3663558.56621",
    "final_y": "526427.559806",
    "longitude": "-90.12489276102788",
    "latitude": "29.94202566149862",
    "geocoded_column": {
      "latitude": "29.94202566149862",
      "longitude": "-90.12489276102788"
    }
  },
  {
    "service_request": "2023-1028576",
    "request_type": "Trash/Recycling",
    "request_reason": "Replace Trash Cart",
    "date_created": "2023-08-22T14:48:52.000",
    "date_modified": "2023-08-22T14:48:52.000",
    "request_status": "Pending",
    "responsible_agency": "Department of Sanitation",
    "final_address": "5810 Kensington Blvd",
    "address_councildis": "E",
    "status": "Assigned to Contractor",
    "contractor": "Waste Pro",
    "rowid": "1028576",
    "final_x": "3713269.46622",
    "final_y": "560682.82755",
    "longitude": "-89.9666565349487",
    "latitude": "30.034679466911413",
    "geocoded_column": {
      "latitude": "30.034679466911413",
      "longitude": "-89.9666565349487"
    }
  },
  {
    "service_request": "2023-1028575",
    "request_type": "Traffic Signals/Signs/Striping/Streetlights",
    "request_reason": "Street Light Outage/Malfunction",
    "date_created": "2023-08-22T14:43:54.000",
    "date_modified": "2023-08-22T14:43:55.000",
    "request_status": "Pending",
    "responsible_agency": "Department of Public Works",
    "final_address": "3626 Herald St",
    "address_councildis": "C",
    "status": "Assigned to Contractor",
    "contractor": "Legacy Professional Services",
    "rowid": "1028575",
    "final_x": "3702260.59677",
    "final_y": "517647.312438",
    "longitude": "-90.0030248659965",
    "latitude": "29.91670397131097",
    "geocoded_column": {
      "latitude": "29.91670397131097",
      "longitude": "-90.0030248659965"
    }
  },
  {
    "service_request": "2023-1028574",
    "request_type": "Trash/Recycling",
    "request_reason": "Request a Large Item Pick Up",
    "date_created": "2023-08-22T14:34:55.000",
    "date_modified": "2023-08-22T14:34:56.000",
    "request_status": "Pending",
    "responsible_agency": "Department of Sanitation",
    "final_address": "4674 Venus St",
    "address_councildis": "D",
    "status": "Assigned to Contractor",
    "contractor": "IV Waste",
    "rowid": "1028574",
    "final_x": "3686442.36399",
    "final_y": "550219.611924",
    "longitude": "-90.0518037629815",
    "latitude": "30.006762019598067",
    "geocoded_column": {
      "latitude": "30.006762019598067",
      "longitude": "-90.0518037629815"
    }
  },
  {
    "service_request": "2023-1028573",
    "request_type": "Traffic Signals/Signs/Striping/Streetlights",
    "request_reason": "Request for Stop Sign",
    "date_created": "2023-08-22T14:31:29.000",
    "date_modified": "2023-08-22T14:31:29.000",
    "request_status": "Pending",
    "responsible_agency": "Department of Public Works",
    "final_address": "4900 BLK Warren Dr",
    "address_councildis": "E",
    "status": "Pending",
    "rowid": "1028573",
    "final_x": "3713354.52437",
    "final_y": "557327.829686",
    "longitude": "-89.96651421080638",
    "latitude": "30.02545176746388",
    "geocoded_column": {
      "latitude": "30.02545176746388",
      "longitude": "-89.96651421080638"
    }
  },
  {
    "service_request": "2023-1028572",
    "request_type": "Trash/Recycling",
    "request_reason": "Request a Large Item Pick Up",
    "date_created": "2023-08-22T14:29:03.000",
    "date_modified": "2023-08-22T14:29:04.000",
    "request_status": "Pending",
    "responsible_agency": "Department of Sanitation",
    "final_address": "203 S Solomon St",
    "address_councildis": "A",
    "status": "Assigned to Contractor",
    "contractor": "Richards Disposal",
    "rowid": "1028572",
    "final_x": "3670214.89108",
    "final_y": "538426.854217",
    "longitude": "-90.10347064120414",
    "latitude": "29.97482504589394",
    "geocoded_column": {
      "latitude": "29.97482504589394",
      "longitude": "-90.10347064120414"
    }
  },
  {
    "service_request": "2023-1028571",
    "request_type": "Trash/Recycling",
    "request_reason": "Request a Large Item Pick Up",
    "date_created": "2023-08-22T14:28:25.000",
    "date_modified": "2023-08-22T14:28:26.000",
    "request_status": "Pending",
    "responsible_agency": "Department of Sanitation",
    "final_address": "203 S Solomon St",
    "address_councildis": "A",
    "status": "Assigned to Contractor",
    "contractor": "Richards Disposal",
    "rowid": "1028571",
    "final_x": "3670214.89108",
    "final_y": "538426.854217",
    "longitude": "-90.10347064120414",
    "latitude": "29.97482504589394",
    "geocoded_column": {
      "latitude": "29.97482504589394",
      "longitude": "-90.10347064120414"
    }
  },
  {
    "service_request": "2023-1028570",
    "request_type": "Trash/Recycling",
    "request_reason": "Order Recycling Cart",
    "date_created": "2023-08-22T14:28:04.000",
    "date_modified": "2023-08-22T14:28:05.000",
    "request_status": "Pending",
    "responsible_agency": "Department of Sanitation",
    "final_address": "5931 Winchester Park Dr",
    "address_councildis": "E",
    "status": "Pending",
    "rowid": "1028570",
    "final_x": "3714838.08927",
    "final_y": "562808.441376",
    "longitude": "-89.96161909729491",
    "latitude": "30.040472512360946",
    "geocoded_column": {
      "latitude": "30.040472512360946",
      "longitude": "-89.96161909729491"
    }
  },
  {
    "service_request": "2023-1028569",
    "request_type": "Trash/Recycling",
    "request_reason": "Request a Large Item Pick Up",
    "date_created": "2023-08-22T14:27:03.000",
    "date_modified": "2023-08-22T14:27:04.000",
    "request_status": "Pending",
    "responsible_agency": "Department of Sanitation",
    "final_address": "5931 Winchester Park Dr",
    "address_councildis": "E",
    "status": "Assigned to Contractor",
    "contractor": "Waste Pro",
    "rowid": "1028569",
    "final_x": "3714838.08927",
    "final_y": "562808.441376",
    "longitude": "-89.96161909729491",
    "latitude": "30.040472512360946",
    "geocoded_column": {
      "latitude": "30.040472512360946",
      "longitude": "-89.96161909729491"
    }
  },
  {
    "service_request": "2023-1028568",
    "request_type": "Parks & Parkways",
    "request_reason": "Request Tree Service (Right of Way/Public Property)",
    "date_created": "2023-08-22T14:23:59.000",
    "date_modified": "2023-08-22T14:23:59.000",
    "request_status": "Pending",
    "responsible_agency": "Department of Parks & Parkway",
    "final_address": "1301 Amelia St",
    "address_councildis": "B",
    "status": "Pending",
    "rowid": "1028568",
    "final_x": "3673505.03758",
    "final_y": "519903.41388",
    "longitude": "-90.09371240974926",
    "latitude": "29.923794189193448",
    "geocoded_column": {
      "latitude": "29.923794189193448",
      "longitude": "-90.09371240974926"
    }
  },
  {
    "service_request": "2023-1028567",
    "request_type": "Trash/Recycling",
    "request_reason": "Order Recycling Cart",
    "date_created": "2023-08-22T14:23:36.000",
    "date_modified": "2023-08-22T14:23:36.000",
    "request_status": "Pending",
    "responsible_agency": "Department of Sanitation",
    "final_address": "6004 Canal Blvd",
    "address_councildis": "A",
    "status": "Pending",
    "rowid": "1028567",
    "final_x": "3668326.48564",
    "final_y": "547396.367889",
    "longitude": "-90.10913206710771",
    "latitude": "29.99954374848687",
    "geocoded_column": {
      "latitude": "29.99954374848687",
      "longitude": "-90.10913206710771"
    }
  },
  {
    "service_request": "2023-1028566",
    "request_type": "Trash/Recycling",
    "request_reason": "Order Trash Cart",
    "date_created": "2023-08-22T14:22:45.000",
    "date_modified": "2023-08-22T14:22:45.000",
    "request_status": "Pending",
    "responsible_agency": "Department of Sanitation",
    "final_address": "3952 Pauger St",
    "address_councildis": "D",
    "status": "Assigned to Contractor",
    "contractor": "IV Waste",
    "rowid": "1028566",
    "final_x": "3683081.39093",
    "final_y": "545506.98888",
    "longitude": "-90.06258706167682",
    "latitude": "29.993906925671883",
    "geocoded_column": {
      "latitude": "29.993906925671883",
      "longitude": "-90.06258706167682"
    }
  },
  {
    "service_request": "2023-1028565",
    "request_type": "Traffic Signals/Signs/Striping/Streetlights",
    "request_reason": "Street Light Outage/Malfunction",
    "date_created": "2023-08-22T14:22:35.000",
    "date_modified": "2023-08-22T14:22:36.000",
    "request_status": "Pending",
    "responsible_agency": "Department of Public Works",
    "final_address": "1917 Soniat St",
    "address_councildis": "B",
    "status": "Assigned to Contractor",
    "contractor": "Legacy Professional Services",
    "rowid": "1028565",
    "final_x": "3668514.00711",
    "final_y": "522668.99897",
    "longitude": "-90.10937408080326",
    "latitude": "29.93154619428894",
    "geocoded_column": {
      "latitude": "29.93154619428894",
      "longitude": "-90.10937408080326"
    }
  },
  {
    "service_request": "2023-1028564",
    "request_type": "Trash/Recycling",
    "request_reason": "Repair Recycling Cart",
    "date_created": "2023-08-22T14:21:31.000",
    "date_modified": "2023-08-22T14:21:32.000",
    "request_status": "Pending",
    "responsible_agency": "Department of Sanitation",
    "final_address": "1450 Moss St",
    "address_councildis": "A",
    "status": "Pending",
    "rowid": "1028564",
    "final_x": "3674615.09921",
    "final_y": "541135.64142",
    "longitude": "-90.0894807895224",
    "latitude": "29.982142686936317",
    "geocoded_column": {
      "latitude": "29.982142686936317",
      "longitude": "-90.0894807895224"
    }
  },
  {
    "service_request": "2023-1028563",
    "request_type": "Parks & Parkways",
    "request_reason": "Request Tree Service (Right of Way/Public Property)",
    "date_created": "2023-08-22T14:18:37.000",
    "date_modified": "2023-08-22T14:35:16.000",
    "request_status": "Pending",
    "responsible_agency": "Department of Parks & Parkway",
    "final_address": "5094 St Ferdinand Dr",
    "address_councildis": "D",
    "status": "Pending",
    "rowid": "1028563",
    "final_x": "3689059.70371",
    "final_y": "551920.357782",
    "longitude": "-90.04347443950498",
    "latitude": "30.01135769682088",
    "geocoded_column": {
      "latitude": "30.01135769682088",
      "longitude": "-90.04347443950498"
    }
  },
  {
    "service_request": "2023-1028562",
    "request_type": "Trash/Recycling",
    "request_reason": "Return Trash Cart",
    "date_created": "2023-08-22T14:18:28.000",
    "date_modified": "2023-08-22T14:18:29.000",
    "request_status": "Pending",
    "responsible_agency": "Department of Sanitation",
    "final_address": "1450 Moss St",
    "address_councildis": "A",
    "status": "Assigned to Contractor",
    "contractor": "Richards Disposal",
    "rowid": "1028562",
    "final_x": "3674615.09921",
    "final_y": "541135.64142",
    "longitude": "-90.0894807895224",
    "latitude": "29.982142686936317",
    "geocoded_column": {
      "latitude": "29.982142686936317",
      "longitude": "-90.0894807895224"
    }
  },
  {
    "service_request": "2023-1028561",
    "request_type": "Roads/Drainage",
    "request_reason": "Culvert Issue",
    "date_created": "2023-08-22T14:16:50.000",
    "date_modified": "2023-08-22T14:16:50.000",
    "request_status": "Pending",
    "responsible_agency": "Department of Public Works",
    "final_address": "701 Dublin St",
    "address_councildis": "A",
    "status": "Pending",
    "rowid": "1028561",
    "final_x": "3660662.10464",
    "final_y": "527334.599103",
    "longitude": "-90.13400758547232",
    "latitude": "29.944603408071746",
    "geocoded_column": {
      "latitude": "29.944603408071746",
      "longitude": "-90.13400758547232"
    }
  },
  {
    "service_request": "2023-1028560",
    "request_type": "Trash/Recycling",
    "request_reason": "Request a Large Item Pick Up",
    "date_created": "2023-08-22T14:10:51.000",
    "date_modified": "2023-08-22T14:11:53.000",
    "request_status": "Pending",
    "responsible_agency": "Department of Sanitation",
    "final_address": "3128 Frenchmen St",
    "address_councildis": "D",
    "status": "Assigned to Contractor",
    "contractor": "IV Waste",
    "rowid": "1028560",
    "final_x": "3683908.23676",
    "final_y": "544261.808078",
    "longitude": "-90.0600188879721",
    "latitude": "29.990457881826373",
    "geocoded_column": {
      "latitude": "29.990457881826373",
      "longitude": "-90.0600188879721"
    }
  },
  {
    "service_request": "2023-1028558",
    "request_type": "Trash/Recycling",
    "request_reason": "Replace Trash Cart",
    "date_created": "2023-08-22T13:59:10.000",
    "date_modified": "2023-08-22T13:59:11.000",
    "request_status": "Pending",
    "responsible_agency": "Department of Sanitation",
    "final_address": "2236 Arts St",
    "address_councildis": "D",
    "status": "Assigned to Contractor",
    "contractor": "IV Waste",
    "rowid": "1028558",
    "final_x": "3686808.96982",
    "final_y": "540818.484427",
    "longitude": "-90.0509779527399",
    "latitude": "29.980901013795304",
    "geocoded_column": {
      "latitude": "29.980901013795304",
      "longitude": "-90.0509779527399"
    }
  },
  {
    "service_request": "2023-1028557",
    "request_type": "Trash/Recycling",
    "request_reason": "Order Recycling Cart",
    "date_created": "2023-08-22T13:57:39.000",
    "date_modified": "2023-08-22T13:57:40.000",
    "request_status": "Pending",
    "responsible_agency": "Department of Sanitation",
    "final_address": "4659 Longfellow Dr",
    "address_councildis": "E",
    "status": "Pending",
    "rowid": "1028557",
    "final_x": "3709739.86494",
    "final_y": "555314.694873",
    "longitude": "-89.97801114212214",
    "latitude": "30.02003449620804",
    "geocoded_column": {
      "latitude": "30.02003449620804",
      "longitude": "-89.97801114212214"
    }
  },
  {
    "service_request": "2023-1028556",
    "request_type": "Trash/Recycling",
    "request_reason": "Request a Large Item Pick Up",
    "date_created": "2023-08-22T13:55:59.000",
    "date_modified": "2023-08-22T13:56:00.000",
    "request_status": "Pending",
    "responsible_agency": "Department of Sanitation",
    "final_address": "1318 Moss St",
    "address_councildis": "A",
    "status": "Assigned to Contractor",
    "contractor": "Richards Disposal",
    "rowid": "1028556",
    "final_x": "3675389.64347",
    "final_y": "540492.545227",
    "longitude": "-90.08705649412845",
    "latitude": "29.98035125199552",
    "geocoded_column": {
      "latitude": "29.98035125199552",
      "longitude": "-90.08705649412845"
    }
  },
  {
    "service_request": "2023-1028555",
    "request_type": "Trash/Recycling",
    "request_reason": "Request a Large Item Pick Up",
    "date_created": "2023-08-22T13:55:55.000",
    "date_modified": "2023-08-22T13:55:56.000",
    "request_status": "Pending",
    "responsible_agency": "Department of Sanitation",
    "final_address": "2236 Arts St",
    "address_councildis": "D",
    "status": "Assigned to Contractor",
    "contractor": "IV Waste",
    "rowid": "1028555",
    "final_x": "3686808.96982",
    "final_y": "540818.484427",
    "longitude": "-90.0509779527399",
    "latitude": "29.980901013795304",
    "geocoded_column": {
      "latitude": "29.980901013795304",
      "longitude": "-90.0509779527399"
    }
  },
  {
    "service_request": "2023-1028554",
    "request_type": "Trash/Recycling",
    "request_reason": "Request a Large Item Pick Up",
    "date_created": "2023-08-22T13:52:28.000",
    "date_modified": "2023-08-22T13:52:29.000",
    "request_status": "Pending",
    "responsible_agency": "Department of Sanitation",
    "final_address": "6700 Foch Rd",
    "address_councildis": "D",
    "status": "Assigned to Contractor",
    "contractor": "Waste Pro",
    "rowid": "1028554",
    "final_x": "3696707.32131",
    "final_y": "555893.339545",
    "longitude": "-90.01916866124411",
    "latitude": "30.02204297003574",
    "geocoded_column": {
      "latitude": "30.02204297003574",
      "longitude": "-90.01916866124411"
    }
  },
  {
    "service_request": "2023-1028552",
    "request_type": "Trash/Recycling",
    "request_reason": "Request a Large Item Pick Up",
    "date_created": "2023-08-22T13:51:11.000",
    "date_modified": "2023-08-22T13:51:12.000",
    "request_status": "Pending",
    "responsible_agency": "Department of Sanitation",
    "final_address": "7420 Dalewood Rd",
    "address_councildis": "E",
    "status": "Assigned to Contractor",
    "contractor": "Waste Pro",
    "rowid": "1028552",
    "final_x": "3700074.27978",
    "final_y": "559791.288157",
    "longitude": "-90.00838757679414",
    "latitude": "30.03265422064345",
    "geocoded_column": {
      "latitude": "30.03265422064345",
      "longitude": "-90.00838757679414"
    }
  },
  {
    "service_request": "2023-1028551",
    "request_type": "Abandoned Vehicles",
    "request_reason": "Abandoned/Junk Vehicles",
    "date_created": "2023-08-22T13:48:57.000",
    "date_modified": "2023-08-22T13:51:11.000",
    "request_status": "Pending",
    "responsible_agency": "Department of Public Works",
    "final_address": "416 Elmira Ave",
    "address_councildis": "C",
    "status": "Pending",
    "rowid": "1028551",
    "final_x": "3688269.18735",
    "final_y": "530169.202561",
    "longitude": "-90.04674361712001",
    "latitude": "29.95157418982283",
    "geocoded_column": {
      "latitude": "29.95157418982283",
      "longitude": "-90.04674361712001"
    }
  },
  {
    "service_request": "2023-1028550",
    "request_type": "Trash/Recycling",
    "request_reason": "Damaged Caused By Contractor",
    "date_created": "2023-08-22T13:46:20.000",
    "date_modified": "2023-08-22T13:46:21.000",
    "request_status": "Pending",
    "responsible_agency": "Department of Sanitation",
    "final_address": "8630 Chase St",
    "address_councildis": "E",
    "status": "Assigned to Contractor",
    "contractor": "Waste Pro",
    "rowid": "1028550",
    "final_x": "3703787.19479",
    "final_y": "563447.751584",
    "longitude": "-89.99651974193881",
    "latitude": "30.042589487952732",
    "geocoded_column": {
      "latitude": "30.042589487952732",
      "longitude": "-89.99651974193881"
    }
  },
  {
    "service_request": "2023-1028549",
    "request_type": "Trash/Recycling",
    "request_reason": "Replace Trash Cart",
    "date_created": "2023-08-22T13:43:47.000",
    "date_modified": "2023-08-22T13:43:47.000",
    "request_status": "Pending",
    "responsible_agency": "Department of Sanitation",
    "final_address": "2338 Gallier St",
    "address_councildis": "D",
    "status": "Assigned to Contractor",
    "contractor": "IV Waste",
    "rowid": "1028549",
    "final_x": "3691618.15363",
    "final_y": "540458.362315",
    "longitude": "-90.03580135309613",
    "latitude": "29.979761939994454",
    "geocoded_column": {
      "latitude": "29.979761939994454",
      "longitude": "-90.03580135309613"
    }
  },
  {
    "service_request": "2023-1028548",
    "request_type": "Trash/Recycling",
    "request_reason": "Replace Trash Cart",
    "date_created": "2023-08-22T13:38:18.000",
    "date_modified": "2023-08-22T13:38:19.000",
    "request_status": "Pending",
    "responsible_agency": "Department of Sanitation",
    "final_address": "5448 Providence Pl",
    "address_councildis": "D",
    "status": "Assigned to Contractor",
    "contractor": "IV Waste",
    "rowid": "1028548",
    "final_x": "3688276.13283",
    "final_y": "553303.881111",
    "longitude": "-90.04590094054856",
    "latitude": "30.015186106421094",
    "geocoded_column": {
      "latitude": "30.015186106421094",
      "longitude": "-90.04590094054856"
    }
  },
  {
    "service_request": "2023-1028547",
    "request_type": "Trash/Recycling",
    "request_reason": "Order Recycling Cart",
    "date_created": "2023-08-22T13:38:08.000",
    "date_modified": "2023-08-22T13:38:09.000",
    "request_status": "Pending",
    "responsible_agency": "Department of Sanitation",
    "final_address": "3149 St Thomas St",
    "address_councildis": "B",
    "status": "Pending",
    "rowid": "1028547",
    "final_x": "3676749.38843",
    "final_y": "518478.894006",
    "longitude": "-90.08352021087741",
    "latitude": "29.919780310153918",
    "geocoded_column": {
      "latitude": "29.919780310153918",
      "longitude": "-90.08352021087741"
    }
  },
  {
    "service_request": "2023-1028546",
    "request_type": "Property Maintenance",
    "request_reason": "Property Maintenance",
    "date_created": "2023-08-22T13:34:45.000",
    "date_modified": "2023-08-22T13:34:45.000",
    "request_status": "Pending",
    "responsible_agency": "Department of Code Enforcement",
    "final_address": "3338 W St Roch Ave",
    "address_councildis": "D",
    "status": "Pending",
    "rowid": "1028546",
    "final_x": "3685563.12444",
    "final_y": "545169.424335",
    "longitude": "-90.05475953709745",
    "latitude": "29.992902832983",
    "geocoded_column": {
      "latitude": "29.992902832983",
      "longitude": "-90.05475953709745"
    }
  },
  {
    "service_request": "2023-1028545",
    "request_type": "Trash/Recycling",
    "request_reason": "Order Trash Cart",
    "date_created": "2023-08-22T13:33:35.000",
    "date_modified": "2023-08-22T13:33:36.000",
    "request_status": "Pending",
    "responsible_agency": "Department of Sanitation",
    "final_address": "3701 Ulloa St",
    "address_councildis": "B",
    "status": "Assigned to Contractor",
    "contractor": "Richards Disposal",
    "rowid": "1028545",
    "final_x": "3670901.01915",
    "final_y": "535583.228806",
    "longitude": "-90.10140022741156",
    "latitude": "29.966985764980084",
    "geocoded_column": {
      "latitude": "29.966985764980084",
      "longitude": "-90.10140022741156"
    }
  },
  {
    "service_request": "2023-1028543",
    "request_type": "Trash/Recycling",
    "request_reason": "Order Recycling Cart",
    "date_created": "2023-08-22T13:32:29.000",
    "date_modified": "2023-08-22T13:32:30.000",
    "request_status": "Pending",
    "responsible_agency": "Department of Sanitation",
    "final_address": "4958 Sherwood Dr",
    "address_councildis": "E",
    "status": "Pending",
    "rowid": "1028543",
    "final_x": "3717800.34585",
    "final_y": "558241.864988",
    "longitude": "-89.95243142499976",
    "latitude": "30.027818431019814",
    "geocoded_column": {
      "latitude": "30.027818431019814",
      "longitude": "-89.95243142499976"
    }
  },
  {
    "service_request": "2023-1028542",
    "request_type": "Trash/Recycling",
    "request_reason": "Order Trash Cart",
    "date_created": "2023-08-22T13:31:42.000",
    "date_modified": "2023-08-22T13:31:58.000",
    "request_status": "Pending",
    "responsible_agency": "Department of Sanitation",
    "final_address": "4958 Sherwood Dr",
    "address_councildis": "E",
    "status": "Assigned to Contractor",
    "contractor": "Waste Pro",
    "rowid": "1028542",
    "final_x": "3717800.34585",
    "final_y": "558241.864988",
    "longitude": "-89.95243142499976",
    "latitude": "30.027818431019814",
    "geocoded_column": {
      "latitude": "30.027818431019814",
      "longitude": "-89.95243142499976"
    }
  },
  {
    "service_request": "2023-1028541",
    "request_type": "Trash/Recycling",
    "request_reason": "Change Size of Trash Cart",
    "date_created": "2023-08-22T13:30:14.000",
    "date_modified": "2023-08-22T13:31:01.000",
    "request_status": "Pending",
    "responsible_agency": "Department of Sanitation",
    "final_address": "556 Topaz St",
    "address_councildis": "D",
    "status": "Assigned to Contractor",
    "contractor": "IV Waste",
    "rowid": "1028541",
    "final_x": "3668792.00558",
    "final_y": "556456.522842",
    "longitude": "-90.1073552382628",
    "latitude": "30.02444230514674",
    "geocoded_column": {
      "latitude": "30.02444230514674",
      "longitude": "-90.1073552382628"
    }
  },
  {
    "service_request": "2023-1028540",
    "request_type": "Abandoned Vehicles",
    "request_reason": "Vehicle Blocking Your Driveway",
    "date_created": "2023-08-22T13:26:07.000",
    "date_modified": "2023-08-22T13:26:07.000",
    "request_status": "Pending",
    "responsible_agency": "Department of Public Works",
    "final_address": "2103 Bienville Ave",
    "address_councildis": "B",
    "status": "Pending",
    "rowid": "1028540",
    "final_x": "3677732.65326",
    "final_y": "534364.065413",
    "longitude": "-90.07986801066528",
    "latitude": "29.963429750787455",
    "geocoded_column": {
      "latitude": "29.963429750787455",
      "longitude": "-90.07986801066528"
    }
  },
  {
    "service_request": "2023-1028539",
    "request_type": "Utility Poles",
    "request_reason": "Utility Pole Leaning",
    "date_created": "2023-08-22T13:23:35.000",
    "date_modified": "2023-08-22T13:23:39.000",
    "request_status": "Pending",
    "responsible_agency": "Utility Company Collective",
    "final_address": "1100 BLK Melpomene St",
    "address_councildis": "B",
    "status": "Pending",
    "rowid": "1028539",
    "final_x": "3680261.29659",
    "final_y": "524932.722888",
    "longitude": "-90.07221062915013",
    "latitude": "29.937420426949323",
    "geocoded_column": {
      "latitude": "29.937420426949323",
      "longitude": "-90.07221062915013"
    }
  },