[
  {
    "service_request": "2026-1291402",
    "request_type": "Trash/Recycling",
    "request_reason": "Order Second Trash Cart",
    "date_created": "2026-06-16T22:57:38.000",
    "date_modified": "2026-06-16T22:57:40.000",
    "request_status": "Pending",
    "responsible_agency": "Department of Sanitation",
    "final_address": "2150 Hope St",
    "address_councildis": "D",
    "status": "Assigned to Contractor",
    "contractor": "IV Waste",
    "rowid": "1291402",
    "final_x": "3683962.72425",
    "final_y": "542104.370252",
    "longitude": "-90.05992251115818",
    "latitude": "29.984524026197942",
    "geocoded_column": {
      "latitude": "29.984524026197942",
      "longitude": "-90.05992251115818"
    }
  },
  {
    "service_request": "2026-1291401",
    "request_type": "Property Maintenance",
    "request_reason": "Property Maintenance",
    "date_created": "2026-06-16T22:38:41.000",
    "date_modified": "2026-06-16T22:38:43.000",
    "request_status": "Pending",
    "responsible_agency": "Department of Code Enforcement",
    "final_address": "1241 Southlawn Blvd",
    "address_councildis": "C",
    "status": "Pending",
    "rowid": "1291401",
    "final_x": "3695127.62672",
    "final_y": "526942.655166",
    "longitude": "-90.02520440020781",
    "latitude": "29.942488774919948",
    "geocoded_column": {
      "latitude": "29.942488774919948",
      "longitude": "-90.02520440020781"
    }
  },
  {
    "service_request": "2026-1291400",
    "request_type": "Trash/Recycling",
    "request_reason": "Replace Trash Cart",
    "date_created": "2026-06-16T22:23:50.000",
    "date_modified": "2026-06-16T22:23:52.000",
    "request_status": "Pending",
    "responsible_agency": "Department of Sanitation",
    "final_address": "2436 Farragut St",
    "address_councildis": "C",
    "status": "Assigned to Contractor",
    "contractor": "Richards Disposal",
    "rowid": "1291400",
    "final_x": "3692242.85597",
    "final_y": "522769.273978",
    "longitude": "-90.03446160442735",
    "latitude": "29.931103641327383",
    "geocoded_column": {
      "latitude": "29.931103641327383",
      "longitude": "-90.03446160442735"
    }
  },
  {
    "service_request": "2026-1291399",
    "request_type": "Health Related Request",
    "request_reason": "Noise Ordinance Complaint",
    "date_created": "2026-06-16T22:05:40.000",
    "date_modified": "2026-06-16T22:05:42.000",
    "request_status": "Pending",
    "responsible_agency": "Health Department",
    "final_address": "2500 Block of Bienville Ave, New Orleans, Louisiana, 70119",
    "status": "Pending",
    "rowid": "1291399",
    "longitude": "0.0",
    "latitude": "0.0",
    "geocoded_column": {
      "latitude": "0.0",
      "longitude": "0.0"
    }
  },
  {
    "service_request": "2026-1291398",
    "request_type": "Trash/Recycling",
    "request_reason": "MIssed Recycling Pick-Up",
    "date_created": "2026-06-16T21:41:04.000",
    "date_modified": "2026-06-16T21:41:06.000",
    "request_status": "Pending",
    "responsible_agency": "Department of Sanitation",
    "final_address": "14059 Explorers Ave",
    "address_councildis": "E",
    "status": "Assigned to Contractor",
    "contractor": "Waste Pro",
    "rowid": "1291398",
    "final_x": "3726555.43129",
    "final_y": "570849.080615",
    "longitude": "-89.92427649977449",
    "latitude": "30.06218999932751",
    "geocoded_column": {
      "latitude": "30.06218999932751",
      "longitude": "-89.92427649977449"
    }
  },
  {
    "service_request": "2026-1291397",
    "request_type": "Trash/Recycling",
    "request_reason": "Replace Trash Cart",
    "date_created": "2026-06-16T21:34:28.000",
    "date_modified": "2026-06-16T21:34:29.000",
    "request_status": "Pending",
    "responsible_agency": "Department of Sanitation",
    "final_address": "2436 Farragut St",
    "address_councildis": "C",
    "status": "Assigned to Contractor",
    "contractor": "Richards Disposal",
    "rowid": "1291397",
    "final_x": "3692242.85597",
    "final_y": "522769.273978",
    "longitude": "-90.03446160442735",
    "latitude": "29.931103641327383",
    "geocoded_column": {
      "latitude": "29.931103641327383",
      "longitude": "-90.03446160442735"
    }
  },
  {
    "service_request": "2026-1291396",
    "request_type": "Trash/Recycling",
    "request_reason": "Return Trash Cart",
    "date_created": "2026-06-16T21:28:31.000",
    "date_modified": "2026-06-16T21:28:33.000",
    "request_status": "Pending",
    "responsible_agency": "Department of Sanitation",
    "final_address": "4141 Toulouse St",
    "address_councildis": "A",
    "status": "Assigned to Contractor",
    "contractor": "IV Waste",
    "rowid": "1291396",
    "final_x": "3671957.99662",
    "final_y": "539984.881355",
    "longitude": "-90.09791241000511",
    "latitude": "29.979057532289037",
    "geocoded_column": {
      "latitude": "29.979057532289037",
      "longitude": "-90.09791241000511"
    }
  },
  {
    "service_request": "2026-1291395",
    "request_type": "Trash/Recycling",
    "request_reason": "Request a Large Item Pick Up",
    "date_created": "2026-06-16T21:24:15.000",
    "date_modified": "2026-06-16T21:24:26.000",
    "request_status": "Pending",
    "responsible_agency": "Department of Sanitation",
    "final_address": "4136 Toulouse St",
    "address_councildis": "A",
    "status": "Assigned to Contractor",
    "contractor": "IV Waste",
    "rowid": "1291395",
    "final_x": "3672001.42132",
    "final_y": "539864.375114",
    "longitude": "-90.0977793618108",
    "latitude": "29.978724893700036",
    "geocoded_column": {
      "latitude": "29.978724893700036",
      "longitude": "-90.0977793618108"
    }
  },
  {
    "service_request": "2026-1291394",
    "request_type": "Abandoned Vehicles",
    "request_reason": "Abandoned/Junk Vehicles",
    "date_created": "2026-06-16T21:19:50.000",
    "date_modified": "2026-06-16T21:19:51.000",
    "request_status": "Pending",
    "responsible_agency": "Department of Public Works",
    "final_address": "5927 Music St",
    "address_councildis": "D",
    "status": "Pending",
    "rowid": "1291394",
    "final_x": "3685412.04194",
    "final_y": "554944.360216",
    "longitude": "-90.05489227412014",
    "latitude": "30.019784993184444",
    "geocoded_column": {
      "latitude": "30.019784993184444",
      "longitude": "-90.05489227412014"
    }
  },
  {
    "service_request": "2026-1291393",
    "request_type": "Abandoned Vehicles",
    "request_reason": "Abandoned/Junk Vehicles",
    "date_created": "2026-06-16T21:19:05.000",
    "date_modified": "2026-06-16T21:19:07.000",
    "request_status": "Pending",
    "responsible_agency": "Department of Public Works",
    "final_address": "712 Spain St",
    "address_councildis": "C",
    "status": "Pending",
    "rowid": "1291393",
    "final_x": "3686209.64598",
    "final_y": "535080.334086",
    "longitude": "-90.0530733765897",
    "latitude": "29.965141537203653",
    "geocoded_column": {
      "latitude": "29.965141537203653",
      "longitude": "-90.0530733765897"
    }
  },
  {
    "service_request": "2026-1291392",
    "request_type": "Healthy Homes",
    "request_reason": "Healthy Homes",
    "date_created": "2026-06-16T21:14:50.000",
    "date_modified": "2026-06-16T21:14:52.000",
    "request_status": "Pending",
    "responsible_agency": "Department of Code Enforcement",
    "final_address": "1229 Cadiz St",
    "address_councildis": "B",
    "status": "Pending",
    "rowid": "1291392",
    "final_x": "3670241.68033",
    "final_y": "519922.605176",
    "longitude": "-90.10401302216587",
    "latitude": "29.923943631598064",
    "geocoded_column": {
      "latitude": "29.923943631598064",
      "longitude": "-90.10401302216587"
    }
  },
  {
    "service_request": "2026-1291391",
    "request_type": "Health Related Request",
    "request_reason": "Noise Ordinance Complaint",
    "date_created": "2026-06-16T20:55:18.000",
    "date_modified": "2026-06-16T20:55:19.000",
    "request_status": "Pending",
    "responsible_agency": "Health Department",
    "final_address": "801 Bourbon St, New Orleans, Louisiana, 70116",
    "address_councildis": "C",
    "status": "Pending",
    "rowid": "1291391",
    "final_x": "3682490.98735",
    "final_y": "533018.672772",
    "longitude": "-90.06488875731978",
    "latitude": "29.959586396383013",
    "geocoded_column": {
      "latitude": "29.959586396383013",
      "longitude": "-90.06488875731978"
    }
  },
  {
    "service_request": "2026-1291390",
    "request_type": "Health Related Request",
    "request_reason": "Noise Ordinance Complaint",
    "date_created": "2026-06-16T20:54:49.000",
    "date_modified": "2026-06-16T20:54:51.000",
    "request_status": "Pending",
    "responsible_agency": "Health Department",
    "final_address": "800 Bourbon St, New Orleans, Louisiana, 70116",
    "address_councildis": "C",
    "status": "Pending",
    "rowid": "1291390",
    "final_x": "3682553.51528",
    "final_y": "533013.631428",
    "longitude": "-90.06469148499534",
    "latitude": "29.95957063099051",
    "geocoded_column": {
      "latitude": "29.95957063099051",
      "longitude": "-90.06469148499534"
    }
  },
  {
    "service_request": "2026-1291389",
    "request_type": "Trash/Recycling",
    "request_reason": "Replace Trash Cart",
    "date_created": "2026-06-16T20:44:40.000",
    "date_modified": "2026-06-16T20:44:43.000",
    "request_status": "Pending",
    "responsible_agency": "Department of Sanitation",
    "final_address": "1100 BLK Verret St",
    "address_councildis": "C",
    "status": "Assigned to Contractor",
    "contractor": "Richards Disposal",
    "rowid": "1291389",
    "final_x": "3687290.83831",
    "final_y": "527388.557543",
    "longitude": "-90.04993110190219",
    "latitude": "29.943958533758927",
    "geocoded_column": {
      "latitude": "29.943958533758927",
      "longitude": "-90.04993110190219"
    }
  },
  {
    "service_request": "2026-1291388",
    "request_type": "Trash/Recycling",
    "request_reason": "Request a Large Item Pick Up",
    "date_created": "2026-06-16T20:41:32.000",
    "date_modified": "2026-06-16T20:41:33.000",
    "request_status": "Pending",
    "responsible_agency": "Department of Sanitation",
    "final_address": "2408 Octavia St",
    "address_councildis": "A",
    "status": "Assigned to Contractor",
    "contractor": "IV Waste",
    "rowid": "1291388",
    "final_x": "3667637.53249",
    "final_y": "524499.7687",
    "longitude": "-90.11207941843081",
    "latitude": "29.936605939949523",
    "geocoded_column": {
      "latitude": "29.936605939949523",
      "longitude": "-90.11207941843081"
    }
  },
  {
    "service_request": "2026-1291387",
    "request_type": "Trash/Recycling",
    "request_reason": "Repair Trash Cart",
    "date_created": "2026-06-16T20:35:54.000",
    "date_modified": "2026-06-16T20:35:56.000",
    "request_status": "Pending",
    "responsible_agency": "Department of Sanitation",
    "final_address": "3709 Vincennes Pl",
    "address_councildis": "B",
    "status": "Assigned to Contractor",
    "contractor": "IV Waste",
    "rowid": "1291387",
    "final_x": "3668222.86484",
    "final_y": "529300.488897",
    "longitude": "-90.1100696916681",
    "latitude": "29.949789200425823",
    "geocoded_column": {
      "latitude": "29.949789200425823",
      "longitude": "-90.1100696916681"
    }
  },
  {
    "service_request": "2026-1291386",
    "request_type": "General Services",
    "request_reason": "General Service Request",
    "date_created": "2026-06-16T20:32:07.000",
    "date_modified": "2026-06-16T20:32:10.000",
    "request_status": "Pending",
    "responsible_agency": "Orleans Parish Communication District",
    "final_address": "77 Allard Blvd",
    "address_councildis": "A",
    "status": "Pending",
    "rowid": "1291386",
    "final_x": "3672757.96206",
    "final_y": "540365.841547",
    "longitude": "-90.09537280625824",
    "latitude": "29.980081302603196",
    "geocoded_column": {
      "latitude": "29.980081302603196",
      "longitude": "-90.09537280625824"
    }
  },
  {
    "service_request": "2026-1291385",
    "request_type": "Trash/Recycling",
    "request_reason": "Order Second Trash Cart",
    "date_created": "2026-06-16T20:20:33.000",
    "date_modified": "2026-06-16T20:20:35.000",
    "request_status": "Pending",
    "responsible_agency": "Department of Sanitation",
    "final_address": "2705 Octavia St",
    "address_councildis": "A",
    "status": "Assigned to Contractor",
    "contractor": "IV Waste",
    "rowid": "1291385",
    "final_x": "3667949.41025",
    "final_y": "525438.094909",
    "longitude": "-90.11106320451873",
    "latitude": "29.93917689181385",
    "geocoded_column": {
      "latitude": "29.93917689181385",
      "longitude": "-90.11106320451873"
    }
  },
  {
    "service_request": "2026-1291384",
    "request_type": "Street and Traffic Signs",
    "request_reason": "Traffic or Parking Sign Damaged or Missing",
    "date_created": "2026-06-16T20:14:08.000",
    "date_modified": "2026-06-16T20:14:10.000",
    "request_status": "Pending",
    "responsible_agency": "Department of Public Works",
    "final_address": "6200 Canal Blvd",
    "address_councildis": "A",
    "status": "Pending",
    "rowid": "1291384",
    "final_x": "3668437.9938",
    "final_y": "548663.981011",
    "longitude": "-90.10873701117411",
    "latitude": "30.003025968793334",
    "geocoded_column": {
      "latitude": "30.003025968793334",
      "longitude": "-90.10873701117411"
    }
  },
  {
    "service_request": "2026-1291383",
    "request_type": "Abandoned Vehicles",
    "request_reason": "Abandoned/Junk Vehicles",
    "date_created": "2026-06-16T20:10:01.000",
    "date_modified": "2026-06-16T20:10:03.000",
    "request_status": "Pending",
    "responsible_agency": "Department of Public Works",
    "final_address": "7300 Beauvoir Ct",
    "address_councildis": "E",
    "status": "Pending",
    "rowid": "1291383",
    "final_x": "3716160.39141",
    "final_y": "567782.847524",
    "longitude": "-89.95725143817738",
    "latitude": "30.054106507471865",
    "geocoded_column": {
      "latitude": "30.054106507471865",
      "longitude": "-89.95725143817738"
    }
  },
  {
    "service_request": "2026-1291382",
    "request_type": "Trash/Recycling",
    "request_reason": "Missed Trash Pick-Up",
    "date_created": "2026-06-16T19:54:16.000",
    "date_modified": "2026-06-16T19:54:19.000",
    "request_status": "Pending",
    "responsible_agency": "Department of Sanitation",
    "final_address": "6410 Marshal Foch St",
    "address_councildis": "A",
    "status": "Assigned to Contractor",
    "contractor": "IV Waste",
    "rowid": "1291382",
    "final_x": "3669993.73383",
    "final_y": "550039.39042",
    "longitude": "-90.10377556418672",
    "latitude": "30.006762054655248",
    "geocoded_column": {
      "latitude": "30.006762054655248",
      "longitude": "-90.10377556418672"
    }
  },
  {
    "service_request": "2026-1291381",
    "request_type": "Abandoned Vehicles",
    "request_reason": "Abandoned/Junk Vehicles",
    "date_created": "2026-06-16T19:44:05.000",
    "date_modified": "2026-06-16T19:44:06.000",
    "request_status": "Pending",
    "responsible_agency": "Department of Public Works",
    "final_address": "3910 Camp St",
    "address_councildis": "B",
    "status": "Pending",
    "rowid": "1291381",
    "final_x": "3672918.86452",
    "final_y": "519290.266423",
    "longitude": "-90.09558365622824",
    "latitude": "29.922125653871625",
    "geocoded_column": {
      "latitude": "29.922125653871625",
      "longitude": "-90.09558365622824"
    }
  },
  {
    "service_request": "2026-1291380",
    "request_type": "Streetlights",
    "request_reason": "New Streetlight Request",
    "date_created": "2026-06-16T19:39:07.000",
    "date_modified": "2026-06-16T19:39:42.000",
    "request_status": "Pending",
    "responsible_agency": "Department of Public Works",
    "final_address": "1527 Andry St",
    "address_councildis": "E",
    "status": "Pending",
    "rowid": "1291380",
    "final_x": "3697692.02864",
    "final_y": "535649.335622",
    "longitude": "-90.01679220354335",
    "latitude": "29.96634832871706",
    "geocoded_column": {
      "latitude": "29.96634832871706",
      "longitude": "-90.01679220354335"
    }
  },
  {
    "service_request": "2026-1291379",
    "request_type": "Trash/Recycling",
    "request_reason": "Repair Recycling Cart",
    "date_created": "2026-06-16T19:38:06.000",
    "date_modified": "2026-06-16T19:38:08.000",
    "request_status": "Pending",
    "responsible_agency": "Department of Sanitation",
    "final_address": "29 Maryland Dr",
    "address_councildis": "A",
    "status": "Pending",
    "rowid": "1291379",
    "final_x": "3663695.30029",
    "final_y": "540889.526411",
    "longitude": "-90.12397915543798",
    "latitude": "29.981787374157765",
    "geocoded_column": {
      "latitude": "29.981787374157765",
      "longitude": "-90.12397915543798"
    }
  },
  {
    "service_request": "2026-1291378",
    "request_type": "Trash/Recycling",
    "request_reason": "Damaged Caused By Contractor",
    "date_created": "2026-06-16T19:29:54.000",
    "date_modified": "2026-06-16T19:29:55.000",
    "request_status": "Pending",
    "responsible_agency": "Department of Sanitation",
    "final_address": "41 Allard Blvd",
    "address_councildis": "A",
    "status": "Assigned to Contractor",
    "contractor": "IV Waste",
    "rowid": "1291378",
    "final_x": "3672816.39387",
    "final_y": "540943.352651",
    "longitude": "-90.09516854391869",
    "latitude": "29.98166752472423",
    "geocoded_column": {
      "latitude": "29.98166752472423",
      "longitude": "-90.09516854391869"
    }
  },
  {
    "service_request": "2026-1291377",
    "request_type": "Trash/Recycling",
    "request_reason": "Replace Trash Cart",
    "date_created": "2026-06-16T19:29:29.000",
    "date_modified": "2026-06-16T19:29:32.000",
    "request_status": "Pending",
    "responsible_agency": "Department of Sanitation",
    "final_address": "1527 Andry St",
    "address_councildis": "E",
    "status": "Assigned to Contractor",
    "contractor": "Waste Pro",
    "rowid": "1291377",
    "final_x": "3697692.02864",
    "final_y": "535649.335622",
    "longitude": "-90.01679220354335",
    "latitude": "29.96634832871706",
    "geocoded_column": {
      "latitude": "29.96634832871706",
      "longitude": "-90.01679220354335"
    }
  },
  {
    "service_request": "2026-1291376",
    "request_type": "Abandoned Vehicles",
    "request_reason": "Abandoned/Junk Vehicles",
    "date_created": "2026-06-16T19:14:42.000",
    "date_modified": "2026-06-16T19:14:43.000",
    "request_status": "Pending",
    "responsible_agency": "Department of Public Works",
    "final_address": "0 BLK N Roadway St",
    "address_councildis": "A",
    "status": "Pending",
    "rowid": "1291376",
    "final_x": "3665664.54003",
    "final_y": "556707.680992",
    "longitude": "-90.1172290927843",
    "latitude": "30.025224538358877",
    "geocoded_column": {
      "latitude": "30.025224538358877",
      "longitude": "-90.1172290927843"
    }
  },
  {
    "service_request": "2026-1291375",
    "request_type": "Trash/Recycling",
    "request_reason": "Order Recycling Cart",
    "date_created": "2026-06-16T19:13:27.000",
    "date_modified": "2026-06-16T19:13:29.000",
    "request_status": "Pending",
    "responsible_agency": "Department of Sanitation",
    "final_address": "2340 Annette St",
    "address_councildis": "D",
    "status": "Pending",
    "rowid": "1291375",
    "final_x": "3682729.17756",
    "final_y": "540906.465803",
    "longitude": "-90.06386065550835",
    "latitude": "29.98126784613711",
    "geocoded_column": {
      "latitude": "29.98126784613711",
      "longitude": "-90.06386065550835"
    }
  },
  {
    "service_request": "2026-1291374",
    "request_type": "Trash/Recycling",
    "request_reason": "Replace Trash Cart",
    "date_created": "2026-06-16T19:12:34.000",
    "date_modified": "2026-06-16T19:12:36.000",
    "request_status": "Pending",
    "responsible_agency": "Department of Sanitation",
    "final_address": "1011 Joliet St",
    "address_councildis": "A",
    "status": "Assigned to Contractor",
    "contractor": "IV Waste",
    "rowid": "1291374",
    "final_x": "3660530.2201",
    "final_y": "528861.301632",
    "longitude": "-90.1343735490156",
    "latitude": "29.94880514853095",
    "geocoded_column": {
      "latitude": "29.94880514853095",
      "longitude": "-90.1343735490156"
    }
  },
  {
    "service_request": "2026-1291373",
    "request_type": "Trash/Recycling",
    "request_reason": "Request a Large Item Pick Up",
    "date_created": "2026-06-16T19:10:16.000",
    "date_modified": "2026-06-16T19:10:17.000",
    "request_status": "Pending",
    "responsible_agency": "Department of Sanitation",
    "final_address": "3030 Royal St",
    "address_councildis": "C",
    "status": "Assigned to Contractor",
    "contractor": "IV Waste",
    "rowid": "1291373",
    "final_x": "3688302.01097",
    "final_y": "534554.231877",
    "longitude": "-90.04648447966903",
    "latitude": "29.963630491376254",
    "geocoded_column": {
      "latitude": "29.963630491376254",
      "longitude": "-90.04648447966903"
    }
  },
  {
    "service_request": "2026-1291372",
    "request_type": "Trash/Recycling",
    "request_reason": "Request a Large Item Pick Up",
    "date_created": "2026-06-16T18:57:25.000",
    "date_modified": "2026-06-16T18:57:27.000",
    "request_status": "Pending",
    "responsible_agency": "Department of Sanitation",
    "final_address": "5825 Clara St",
    "address_councildis": "A",
    "status": "Assigned to Contractor",
    "contractor": "IV Waste",
    "rowid": "1291372",
    "final_x": "3666933.70951",
    "final_y": "525319.321661",
    "longitude": "-90.11427389849432",
    "latitude": "29.938880055738096",
    "geocoded_column": {
      "latitude": "29.938880055738096",
      "longitude": "-90.11427389849432"
    }
  },
  {
    "service_request": "2026-1291371",
    "request_type": "Trash/Recycling",
    "request_reason": "Order Trash Cart",
    "date_created": "2026-06-16T18:46:02.000",
    "date_modified": "2026-06-16T18:46:05.000",
    "request_status": "Pending",
    "responsible_agency": "Department of Sanitation",
    "final_address": "2741 Comet St",
    "address_councildis": "C",
    "status": "Assigned to Contractor",
    "contractor": "Richards Disposal",
    "rowid": "1291371",
    "final_x": "3699765.20394",
    "final_y": "520758.997881",
    "longitude": "-90.01078794201904",
    "latitude": "29.92533946760898",
    "geocoded_column": {
      "latitude": "29.92533946760898",
      "longitude": "-90.01078794201904"
    }
  },
  {
    "service_request": "2026-1291370",
    "request_type": "Trash/Recycling",
    "request_reason": "Request a Large Item Pick Up",
    "date_created": "2026-06-16T18:39:11.000",
    "date_modified": "2026-06-16T18:39:14.000",
    "request_status": "Pending",
    "responsible_agency": "Department of Sanitation",
    "final_address": "2210 Camp St",
    "address_councildis": "B",
    "status": "Assigned to Contractor",
    "contractor": "IV Waste",
    "rowid": "1291370",
    "final_x": "3678533.16104",
    "final_y": "522255.30393",
    "longitude": "-90.07775909483505",
    "latitude": "29.93011058996835",
    "geocoded_column": {
      "latitude": "29.93011058996835",
      "longitude": "-90.07775909483505"
    }
  },
  {
    "service_request": "2026-1291369",
    "request_type": "Trash/Recycling",
    "request_reason": "Order Trash Cart",
    "date_created": "2026-06-16T18:37:47.000",
    "date_modified": "2026-06-16T18:37:48.000",
    "request_status": "Pending",
    "responsible_agency": "Department of Sanitation",
    "final_address": "4024 Monroe St",
    "address_councildis": "A",
    "status": "Assigned to Contractor",
    "contractor": "IV Waste",
    "rowid": "1291369",
    "final_x": "3667182.65236",
    "final_y": "537332.963272",
    "longitude": "-90.11308403977841",
    "latitude": "29.971906353090585",
    "geocoded_column": {
      "latitude": "29.971906353090585",
      "longitude": "-90.11308403977841"
    }
  },
  {
    "service_request": "2026-1291368",
    "request_type": "Streetlights",
    "request_reason": "Streetlight Knocked Down/Leaning",
    "date_created": "2026-06-16T18:35:33.000",
    "date_modified": "2026-06-16T18:35:35.000",
    "request_status": "Pending",
    "responsible_agency": "Department of Public Works",
    "final_address": "777 Bienville St",
    "address_councildis": "C",
    "status": "Pending",
    "rowid": "1291368",
    "final_x": "3681474.32117",
    "final_y": "531476.221955",
    "longitude": "-90.06815293231217",
    "latitude": "29.9553760876631",
    "geocoded_column": {
      "latitude": "29.9553760876631",
      "longitude": "-90.06815293231217"
    }
  },
  {
    "service_request": "2026-1291367",
    "request_type": "Parks & Grass Service",
    "request_reason": "Request Grass Cutting Service (City Owned Property)",
    "date_created": "2026-06-16T18:27:20.000",
    "date_modified": "2026-06-16T18:27:22.000",
    "request_status": "Pending",
    "responsible_agency": "Department of Parks & Parkways",
    "final_address": "2627 Peace Ct",
    "address_councildis": "D",
    "status": "Pending",
    "rowid": "1291367",
    "final_x": "3686709.58991",
    "final_y": "541105.31086",
    "longitude": "-90.05128170173805",
    "latitude": "29.981692742839694",
    "geocoded_column": {
      "latitude": "29.981692742839694",
      "longitude": "-90.05128170173805"
    }
  },
  {
    "service_request": "2026-1291366",
    "request_type": "Trash/Recycling",
    "request_reason": "Dead Animal Pick Up",
    "date_created": "2026-06-16T18:26:05.000",
    "date_modified": "2026-06-16T18:26:07.000",
    "request_status": "Pending",
    "responsible_agency": "Department of Sanitation",
    "final_address": "1860 Rosiere St, New Orleans, Louisiana, 70119",
    "address_councildis": "D",
    "status": "Assigned to Contractor",
    "contractor": "IV Waste",
    "rowid": "1291366",
    "final_x": "3679216.77352",
    "final_y": "542647.260045",
    "longitude": "-90.07489404236165",
    "latitude": "29.986160955797278",
    "geocoded_column": {
      "latitude": "29.986160955797278",
      "longitude": "-90.07489404236165"
    }
  },
  {
    "service_request": "2026-1291365",
    "request_type": "Property Maintenance",
    "request_reason": "Property Maintenance",
    "date_created": "2026-06-16T18:24:32.000",
    "date_modified": "2026-06-16T18:24:34.000",
    "request_status": "Pending",
    "responsible_agency": "Department of Code Enforcement",
    "final_address": "2627 Peace Ct",
    "address_councildis": "D",
    "status": "Pending",
    "rowid": "1291365",
    "final_x": "3686709.58991",
    "final_y": "541105.31086",
    "longitude": "-90.05128170173805",
    "latitude": "29.981692742839694",
    "geocoded_column": {
      "latitude": "29.981692742839694",
      "longitude": "-90.05128170173805"
    }
  },
  {
    "service_request": "2026-1291364",
    "request_type": "Trash/Recycling",
    "request_reason": "Return Trash Cart",
    "date_created": "2026-06-16T18:23:02.000",
    "date_modified": "2026-06-16T18:23:04.000",
    "request_status": "Pending",
    "responsible_agency": "Department of Sanitation",
    "final_address": "2804 St Ann St",
    "address_councildis": "C",
    "status": "Assigned to Contractor",
    "contractor": "IV Waste",
    "rowid": "1291364",
    "final_x": "3676402.50638",
    "final_y": "537573.23316",
    "longitude": "-90.08395797395882",
    "latitude": "29.97229381488083",
    "geocoded_column": {
      "latitude": "29.97229381488083",
      "longitude": "-90.08395797395882"
    }
  },
  {
    "service_request": "2026-1291363",
    "request_type": "Drainage",
    "request_reason": "Catch Basin Not Draining",
    "date_created": "2026-06-16T18:13:30.000",
    "date_modified": "2026-06-16T18:13:32.000",
    "request_status": "Pending",
    "responsible_agency": "Sewerage & Water Board",
    "final_address": "5600 Brighton Pl",
    "address_councildis": "C",
    "status": "Pending",
    "rowid": "1291363",
    "final_x": "3704237.37879",
    "final_y": "520477.545016",
    "longitude": "-89.9966811644448",
    "latitude": "29.92442287880236",
    "geocoded_column": {
      "latitude": "29.92442287880236",
      "longitude": "-89.9966811644448"
    }
  },
  {
    "service_request": "2026-1291362",
    "request_type": "Trash/Recycling",
    "request_reason": "Dead Animal Pick Up",
    "date_created": "2026-06-16T18:09:59.000",
    "date_modified": "2026-06-16T18:10:15.000",
    "request_status": "Pending",
    "responsible_agency": "Department of Sanitation",
    "final_address": "1860 Rosiere St, New Orleans, Louisiana, 70119",
    "address_councildis": "D",
    "status": "Assigned to Contractor",
    "contractor": "IV Waste",
    "rowid": "1291362",
    "final_x": "3679216.77352",
    "final_y": "542647.260045",
    "longitude": "-90.07489404236165",
    "latitude": "29.986160955797278",
    "geocoded_column": {
      "latitude": "29.986160955797278",
      "longitude": "-90.07489404236165"
    }
  },
  {
    "service_request": "2026-1291361",
    "request_type": "Trash/Recycling",
    "request_reason": "Replace Recycling Cart",
    "date_created": "2026-06-16T17:52:46.000",
    "date_modified": "2026-06-16T17:52:47.000",
    "request_status": "Pending",
    "responsible_agency": "Department of Sanitation",
    "final_address": "1482 Crescent St",
    "address_councildis": "D",
    "status": "Pending",
    "rowid": "1291361",
    "final_x": "3678240.03746",
    "final_y": "552360.174422",
    "longitude": "-90.07764296698657",
    "latitude": "30.012897490967234",
    "geocoded_column": {
      "latitude": "30.012897490967234",
      "longitude": "-90.07764296698657"
    }
  },
  {
    "service_request": "2026-1291360",
    "request_type": "General Services",
    "request_reason": "General Service Request",
    "date_created": "2026-06-16T17:51:40.000",
    "date_modified": "2026-06-16T17:51:42.000",
    "request_status": "Pending",
    "responsible_agency": "Orleans Parish Communication District",
    "final_address": "2513 Clara St",
    "address_councildis": "B",
    "status": "Pending",
    "rowid": "1291360",
    "final_x": "3674218.71182",
    "final_y": "526554.076542",
    "longitude": "-90.09123202179877",
    "latitude": "29.942060103469576",
    "geocoded_column": {
      "latitude": "29.942060103469576",
      "longitude": "-90.09123202179877"
    }
  },
  {
    "service_request": "2026-1291359",
    "request_type": "Trash/Recycling",
    "request_reason": "Request a Large Item Pick Up",
    "date_created": "2026-06-16T17:49:53.000",
    "date_modified": "2026-06-16T17:49:55.000",
    "request_status": "Pending",
    "responsible_agency": "Department of Sanitation",
    "final_address": "7616 Hurst St",
    "address_councildis": "A",
    "status": "Assigned to Contractor",
    "contractor": "IV Waste",
    "rowid": "1291359",
    "final_x": "3660793.83546",
    "final_y": "524642.908284",
    "longitude": "-90.1336806460374",
    "latitude": "29.93719831889418",
    "geocoded_column": {
      "latitude": "29.93719831889418",
      "longitude": "-90.1336806460374"
    }
  },
  {
    "service_request": "2026-1291358",
    "request_type": "Property Maintenance",
    "request_reason": "Property Maintenance",
    "date_created": "2026-06-16T17:34:51.000",
    "date_modified": "2026-06-16T17:34:53.000",
    "request_status": "Pending",
    "responsible_agency": "Department of Code Enforcement",
    "final_address": "8454 Morrison Rd",
    "address_councildis": "E",
    "status": "Pending",
    "rowid": "1291358",
    "final_x": "3704153.11594",
    "final_y": "560889.20963",
    "longitude": "-89.99545770593257",
    "latitude": "30.035542761128102",
    "geocoded_column": {
      "latitude": "30.035542761128102",
      "longitude": "-89.99545770593257"
    }
  },
  {
    "service_request": "2026-1291357",
    "request_type": "Property Maintenance",
    "request_reason": "Property Maintenance",
    "date_created": "2026-06-16T17:29:31.000",
    "date_modified": "2026-06-16T17:29:36.000",
    "request_status": "Pending",
    "responsible_agency": "Department of Code Enforcement",
    "final_address": "8040 Crowder Blvd",
    "address_councildis": "E",
    "status": "Pending",
    "rowid": "1291357",
    "final_x": "3702654.93322",
    "final_y": "562866.93328",
    "longitude": "-90.00011947085582",
    "latitude": "30.041028739250848",
    "geocoded_column": {
      "latitude": "30.041028739250848",
      "longitude": "-90.00011947085582"
    }
  },
  {
    "service_request": "2026-1291356",
    "request_type": "Trash/Recycling",
    "request_reason": "Replace Trash Cart",
    "date_created": "2026-06-16T17:27:48.000",
    "date_modified": "2026-06-16T17:27:49.000",
    "request_status": "Pending",
    "responsible_agency": "Department of Sanitation",
    "final_address": "7663 Patterson St",
    "address_councildis": "C",
    "status": "Assigned to Contractor",
    "contractor": "Richards Disposal",
    "rowid": "1291356",
    "final_x": "3712609.29042",
    "final_y": "518918.276919",
    "longitude": "-89.97031273819807",
    "latitude": "29.919864254810488",
    "geocoded_column": {
      "latitude": "29.919864254810488",
      "longitude": "-89.97031273819807"
    }
  },
  {
    "service_request": "2026-1291355",
    "request_type": "Roads and Streets",
    "request_reason": "Pothole",
    "date_created": "2026-06-16T17:27:21.000",
    "date_modified": "2026-06-16T17:27:24.000",
    "request_status": "Pending",
    "responsible_agency": "Department of Public Works",
    "final_address": "4517 Metropolitan Dr",
    "address_councildis": "D",
    "status": "Pending",
    "rowid": "1291355",
    "final_x": "3690833.11184",
    "final_y": "550438.352084",
    "longitude": "-90.03792447327496",
    "latitude": "30.007227717392254",
    "geocoded_column": {
      "latitude": "30.007227717392254",
      "longitude": "-90.03792447327496"
    }
  },
  {
    "service_request": "2026-1291354",
    "request_type": "Trash/Recycling",
    "request_reason": "Request a Large Item Pick Up",
    "date_created": "2026-06-16T17:21:13.000",
    "date_modified": "2026-06-16T17:21:14.000",
    "request_status": "Pending",
    "responsible_agency": "Department of Sanitation",
    "final_address": "523 S Cortez St",
    "address_councildis": "B",
    "status": "Assigned to Contractor",
    "contractor": "IV Waste",
    "rowid": "1291354",
    "final_x": "3670952.10299",
    "final_y": "536192.809671",
    "longitude": "-90.10121820401588",
    "latitude": "29.96866039778532",
    "geocoded_column": {
      "latitude": "29.96866039778532",
      "longitude": "-90.10121820401588"
    }
  },
  {
    "service_request": "2026-1291353",
    "request_type": "Streetlights",
    "request_reason": "Streetlight Outage/Malfunction",
    "date_created": "2026-06-16T17:06:00.000",
    "date_modified": "2026-06-16T17:06:02.000",
    "request_status": "Pending",
    "responsible_agency": "Department of Public Works",
    "final_address": "221 Downs St",
    "address_councildis": "A",
    "status": "Pending",
    "rowid": "1291353",
    "final_x": "3667313.63828",
    "final_y": "553191.786455",
    "longitude": "-90.11213657818696",
    "latitude": "30.015508845242586",
    "geocoded_column": {
      "latitude": "30.015508845242586",
      "longitude": "-90.11213657818696"
    }
  },
  {
    "service_request": "2026-1291352",
    "request_type": "General Services",
    "request_reason": "General Service Request",
    "date_created": "2026-06-16T17:03:33.000",
    "date_modified": "2026-06-16T17:03:35.000",
    "request_status": "Pending",
    "responsible_agency": "Orleans Parish Communication District",
    "final_address": "7918 Michigan St",
    "address_councildis": "E",
    "status": "Pending",
    "rowid": "1291352",
    "final_x": "3711078.42872",
    "final_y": "567500.563108",
    "longitude": "-89.97332474727531",
    "latitude": "30.05349717262902",
    "geocoded_column": {
      "latitude": "30.05349717262902",
      "longitude": "-89.97332474727531"
    }
  },
  {
    "service_request": "2026-1291351",
    "request_type": "Drainage",
    "request_reason": "Catch Basin Not Draining",
    "date_created": "2026-06-16T17:02:35.000",
    "date_modified": "2026-06-16T17:02:37.000",
    "request_status": "Pending",
    "responsible_agency": "Sewerage & Water Board",
    "final_address": "1139 Terry St",
    "address_councildis": "C",
    "status": "Pending",
    "rowid": "1291351",
    "final_x": "3696941.0216",
    "final_y": "527091.059967",
    "longitude": "-90.01947375727",
    "latitude": "29.942839787627104",
    "geocoded_column": {
      "latitude": "29.942839787627104",
      "longitude": "-90.01947375727"
    }
  },
  {
    "service_request": "2026-1291350",
    "request_type": "Drainage",
    "request_reason": "Catch Basin Not Draining",
    "date_created": "2026-06-16T16:53:36.000",
    "date_modified": "2026-06-16T16:53:38.000",
    "request_status": "Pending",
    "responsible_agency": "Sewerage & Water Board",
    "final_address": "5500 BLK S Claiborne Ave",
    "address_councildis": "A",
    "status": "Pending",
    "rowid": "1291350",
    "final_x": "3667969.11777",
    "final_y": "526503.916268",
    "longitude": "-90.11096508854432",
    "latitude": "29.942106978927317",
    "geocoded_column": {
      "latitude": "29.942106978927317",
      "longitude": "-90.11096508854432"
    }
  },
  {
    "service_request": "2026-1291349",
    "request_type": "Trash/Recycling",
    "request_reason": "Request a Large Item Pick Up",
    "date_created": "2026-06-16T16:53:23.000",
    "date_modified": "2026-06-16T16:53:24.000",
    "request_status": "Pending",
    "responsible_agency": "Department of Sanitation",
    "final_address": "4858 Lurline St",
    "address_councildis": "E",
    "status": "Assigned to Contractor",
    "contractor": "Waste Pro",
    "rowid": "1291349",
    "final_x": "3711830.14827",
    "final_y": "556797.055706",
    "longitude": "-89.9713509039169",
    "latitude": "30.024042258033674",
    "geocoded_column": {
      "latitude": "30.024042258033674",
      "longitude": "-89.9713509039169"
    }
  },
  {
    "service_request": "2026-1291348",
    "request_type": "Streetlights",
    "request_reason": "Streetlight Outage/Malfunction",
    "date_created": "2026-06-16T16:47:00.000",
    "date_modified": "2026-06-16T16:48:40.000",
    "request_status": "Pending",
    "responsible_agency": "Department of Public Works",
    "final_address": "337 Andrew Higgins Dr",
    "address_councildis": "B",
    "status": "Pending",
    "rowid": "1291348",
    "final_x": "3681986.38984",
    "final_y": "526659.865342",
    "longitude": "-90.06670412192072",
    "latitude": "29.94211717317584",
    "geocoded_column": {
      "latitude": "29.94211717317584",
      "longitude": "-90.06670412192072"
    }
  },
  {
    "service_request": "2026-1291347",
    "request_type": "Drainage",
    "request_reason": "Catch Basin Not Draining",
    "date_created": "2026-06-16T16:44:52.000",
    "date_modified": "2026-06-16T16:44:54.000",
    "request_status": "Pending",
    "responsible_agency": "Sewerage & Water Board",
    "final_address": "PANOLA ST & PINE ST",
    "address_councildis": "A",
    "status": "Pending",
    "rowid": "1291347",
    "final_x": "3665697.2",
    "final_y": "529309.08",
    "longitude": "-90.11804412007923",
    "latitude": "29.949886721399242",
    "geocoded_column": {
      "latitude": "29.949886721399242",
      "longitude": "-90.11804412007923"
    }
  },
  {
    "service_request": "2026-1291346",
    "request_type": "Abandoned Vehicles",
    "request_reason": "Abandoned/Junk Vehicles",
    "date_created": "2026-06-16T16:41:39.000",
    "date_modified": "2026-06-16T16:41:41.000",
    "request_status": "Pending",
    "responsible_agency": "Department of Public Works",
    "final_address": "4742 Corinne St",
    "address_councildis": "E",
    "status": "Pending",
    "rowid": "1291346",
    "final_x": "3714948.57707",
    "final_y": "556923.433818",
    "longitude": "-89.96149259107838",
    "latitude": "30.02428745970195",
    "geocoded_column": {
      "latitude": "30.02428745970195",
      "longitude": "-89.96149259107838"
    }
  },
  {
    "service_request": "2026-1291345",
    "request_type": "Trash/Recycling",
    "request_reason": "Request a Large Item Pick Up",
    "date_created": "2026-06-16T16:41:27.000",
    "date_modified": "2026-06-16T16:41:29.000",
    "request_status": "Pending",
    "responsible_agency": "Department of Sanitation",
    "final_address": "523 Peniston St",
    "address_councildis": "B",
    "status": "Assigned to Contractor",
    "contractor": "IV Waste",
    "rowid": "1291345",
    "final_x": "3673697.09032",
    "final_y": "517932.313398",
    "longitude": "-90.09317351010637",
    "latitude": "29.918368579050316",
    "geocoded_column": {
      "latitude": "29.918368579050316",
      "longitude": "-90.09317351010637"
    }
  },
  {
    "service_request": "2026-1291344",
    "request_type": "Tree Service",
    "request_reason": "Tree Trim",
    "date_created": "2026-06-16T16:39:47.000",
    "date_modified": "2026-06-16T16:39:49.000",
    "request_status": "Pending",
    "responsible_agency": "Department of Parks & Parkways",
    "final_address": "746 Washington Ave",
    "address_councildis": "B",
    "status": "Pending",
    "rowid": "1291344",
    "final_x": "3677650.07957",
    "final_y": "519851.57868",
    "longitude": "-90.08062979888523",
    "latitude": "29.923527705028746",
    "geocoded_column": {
      "latitude": "29.923527705028746",
      "longitude": "-90.08062979888523"
    }
  },
  {
    "service_request": "2026-1291343",
    "request_type": "Trash/Recycling",
    "request_reason": "Replace Trash Cart",
    "date_created": "2026-06-16T16:33:21.000",
    "date_modified": "2026-06-16T16:33:22.000",
    "request_status": "Pending",
    "responsible_agency": "Department of Sanitation",
    "final_address": "9105 Fig St",
    "address_councildis": "A",
    "status": "Assigned to Contractor",
    "contractor": "IV Waste",
    "rowid": "1291343",
    "final_x": "3663644.9536",
    "final_y": "535610.23335",
    "longitude": "-90.12431411395413",
    "latitude": "29.967272531558123",
    "geocoded_column": {
      "latitude": "29.967272531558123",
      "longitude": "-90.12431411395413"
    }
  },
  {
    "service_request": "2026-1291342",
    "request_type": "Trash/Recycling",
    "request_reason": "Request a Large Item Pick Up",
    "date_created": "2026-06-16T16:32:06.000",
    "date_modified": "2026-06-16T16:32:41.000",
    "request_status": "Pending",
    "responsible_agency": "Department of Sanitation",
    "final_address": "11400 Will Stutley Dr",
    "address_councildis": "E",
    "status": "Assigned to Contractor",
    "contractor": "Waste Pro",
    "rowid": "1291342",
    "final_x": "3717430.99116",
    "final_y": "558209.854363",
    "longitude": "-89.9535997637599",
    "latitude": "30.02774264871035",
    "geocoded_column": {
      "latitude": "30.02774264871035",
      "longitude": "-89.9535997637599"
    }
  },
  {
    "service_request": "2026-1291341",
    "request_type": "Trash/Recycling",
    "request_reason": "Order Recycling Cart",
    "date_created": "2026-06-16T16:31:21.000",
    "date_modified": "2026-06-16T16:31:23.000",
    "request_status": "Pending",
    "responsible_agency": "Department of Sanitation",
    "final_address": "2256 N Villere St",
    "address_councildis": "C",
    "status": "Pending",
    "rowid": "1291341",
    "final_x": "3685495.44329",
    "final_y": "537411.267592",
    "longitude": "-90.0552466800184",
    "latitude": "29.971572717033855",
    "geocoded_column": {
      "latitude": "29.971572717033855",
      "longitude": "-90.0552466800184"
    }
  },
  {
    "service_request": "2026-1291340",
    "request_type": "Trash/Recycling",
    "request_reason": "Order Trash Cart",
    "date_created": "2026-06-16T16:26:54.000",
    "date_modified": "2026-06-16T16:26:56.000",
    "request_status": "Pending",
    "responsible_agency": "Department of Sanitation",
    "final_address": "1618 Oretha Castle Haley Blvd",
    "address_councildis": "B",
    "status": "Assigned to Contractor",
    "contractor": "IV Waste",
    "rowid": "1291340",
    "final_x": "3677821.11234",
    "final_y": "525826.075197",
    "longitude": "-90.0798836077267",
    "latitude": "29.93995047328571",
    "geocoded_column": {
      "latitude": "29.93995047328571",
      "longitude": "-90.0798836077267"
    }
  },
  {
    "service_request": "2026-1291339",
    "request_type": "Roads and Streets",
    "request_reason": "Street Subsidence (Sinking)",
    "date_created": "2026-06-16T16:24:37.000",
    "date_modified": "2026-06-16T16:25:15.000",
    "request_status": "Pending",
    "responsible_agency": "Sewerage & Water Board",
    "final_address": "710 Webster St",
    "address_councildis": "A",
    "status": "Pending",
    "rowid": "1291339",
    "final_x": "3664001.82093",
    "final_y": "519216.008119",
    "longitude": "-90.12373365851342",
    "latitude": "29.922183312161255",
    "geocoded_column": {
      "latitude": "29.922183312161255",
      "longitude": "-90.12373365851342"
    }
  },
  {
    "service_request": "2026-1291338",
    "request_type": "Trash/Recycling",
    "request_reason": "Repair Trash Cart",
    "date_created": "2026-06-16T16:23:21.000",
    "date_modified": "2026-06-16T16:23:23.000",
    "request_status": "Pending",
    "responsible_agency": "Department of Sanitation",
    "final_address": "1455 Mirabeau Ave",
    "address_councildis": "D",
    "status": "Assigned to Contractor",
    "contractor": "IV Waste",
    "rowid": "1291338",
    "final_x": "3677996.46715",
    "final_y": "550367.542676",
    "longitude": "-90.07848146305918",
    "latitude": "30.00742580488217",
    "geocoded_column": {
      "latitude": "30.00742580488217",
      "longitude": "-90.07848146305918"
    }
  },
  {
    "service_request": "2026-1291337",
    "request_type": "Trash/Recycling",
    "request_reason": "Replace Trash Cart",
    "date_created": "2026-06-16T16:21:24.000",
    "date_modified": "2026-06-16T16:21:26.000",
    "request_status": "Pending",
    "responsible_agency": "Department of Sanitation",
    "final_address": "6807 Vicksburg St",
    "address_councildis": "A",
    "status": "Assigned to Contractor",
    "contractor": "IV Waste",
    "rowid": "1291337",
    "final_x": "3669461.14753",
    "final_y": "552743.052182",
    "longitude": "-90.1053666112864",
    "latitude": "30.014211877576447",
    "geocoded_column": {
      "latitude": "30.014211877576447",
      "longitude": "-90.1053666112864"
    }
  },
  {
    "service_request": "2026-1291336",
    "request_type": "Trash/Recycling",
    "request_reason": "Replace Trash Cart",
    "date_created": "2026-06-16T16:18:38.000",
    "date_modified": "2026-06-16T16:18:41.000",
    "request_status": "Pending",
    "responsible_agency": "Department of Sanitation",
    "final_address": "55 Allard Blvd",
    "address_councildis": "A",
    "status": "Assigned to Contractor",
    "contractor": "IV Waste",
    "rowid": "1291336",
    "final_x": "3672769.30158",
    "final_y": "540667.146635",
    "longitude": "-90.09532670930233",
    "latitude": "29.980909451771037",
    "geocoded_column": {
      "latitude": "29.980909451771037",
      "longitude": "-90.09532670930233"
    }
  },
  {
    "service_request": "2026-1291335",
    "request_type": "Trash/Recycling",
    "request_reason": "Request a Large Item Pick Up",
    "date_created": "2026-06-16T16:17:37.000",
    "date_modified": "2026-06-16T16:17:41.000",
    "request_status": "Pending",
    "responsible_agency": "Department of Sanitation",
    "final_address": "12910 Mcraven Ct",
    "address_councildis": "E",
    "status": "Assigned to Contractor",
    "contractor": "Waste Pro",
    "rowid": "1291335",
    "final_x": "3716406.47928",
    "final_y": "568130.969253",
    "longitude": "-89.95646040006928",
    "latitude": "30.055055570511488",
    "geocoded_column": {
      "latitude": "30.055055570511488",
      "longitude": "-89.95646040006928"
    }
  },
  {
    "service_request": "2026-1291334",
    "request_type": "Trash/Recycling",
    "request_reason": "Repair Recycling Cart",
    "date_created": "2026-06-16T16:16:05.000",
    "date_modified": "2026-06-16T16:16:08.000",
    "request_status": "Pending",
    "responsible_agency": "Department of Sanitation",
    "final_address": "1909 Wilton Dr",
    "address_councildis": "D",
    "status": "Pending",
    "rowid": "1291334",
    "final_x": "3681273.66818",
    "final_y": "550950.011541",
    "longitude": "-90.06810754201648",
    "latitude": "30.008928293150376",
    "geocoded_column": {
      "latitude": "30.008928293150376",
      "longitude": "-90.06810754201648"
    }
  },
  {
    "service_request": "2026-1291333",
    "request_type": "Trash/Recycling",
    "request_reason": "Repair Trash Cart",
    "date_created": "2026-06-16T16:14:57.000",
    "date_modified": "2026-06-16T16:15:00.000",
    "request_status": "Pending",
    "responsible_agency": "Department of Sanitation",
    "final_address": "1815 Halsey Ave",
    "address_councildis": "C",
    "status": "Assigned to Contractor",
    "contractor": "Richards Disposal",
    "rowid": "1291333",
    "final_x": "3697735.07389",
    "final_y": "524213.158844",
    "longitude": "-90.01707113440321",
    "latitude": "29.934901498035615",
    "geocoded_column": {
      "latitude": "29.934901498035615",
      "longitude": "-90.01707113440321"
    }
  },
  {
    "service_request": "2026-1291332",
    "request_type": "Trash/Recycling",
    "request_reason": "Repair Trash Cart",
    "date_created": "2026-06-16T16:14:03.000",
    "date_modified": "2026-06-16T16:14:04.000",
    "request_status": "Pending",
    "responsible_agency": "Department of Sanitation",
    "final_address": "1909 Wilton Dr",
    "address_councildis": "D",
    "status": "Assigned to Contractor",
    "contractor": "IV Waste",
    "rowid": "1291332",
    "final_x": "3681273.66818",
    "final_y": "550950.011541",
    "longitude": "-90.06810754201648",
    "latitude": "30.008928293150376",
    "geocoded_column": {
      "latitude": "30.008928293150376",
      "longitude": "-90.06810754201648"
    }
  },
  {
    "service_request": "2026-1291331",
    "request_type": "Trash/Recycling",
    "request_reason": "Request a Large Item Pick Up",
    "date_created": "2026-06-16T16:08:57.000",
    "date_modified": "2026-06-16T16:08:58.000",
    "request_status": "Pending",
    "responsible_agency": "Department of Sanitation",
    "final_address": "4734 Francisco Verrett Dr",
    "address_councildis": "E",
    "status": "Assigned to Contractor",
    "contractor": "Waste Pro",
    "rowid": "1291331",
    "final_x": "3704178.94071",
    "final_y": "555212.017881",
    "longitude": "-89.99558555218563",
    "latitude": "30.019931860375355",
    "geocoded_column": {
      "latitude": "30.019931860375355",
      "longitude": "-89.99558555218563"
    }
  },
  {
    "service_request": "2026-1291330",
    "request_type": "Drainage",
    "request_reason": "Catch Basin Not Draining",
    "date_created": "2026-06-16T16:08:49.000",
    "date_modified": "2026-06-16T16:08:59.000",
    "request_status": "Pending",
    "responsible_agency": "Sewerage & Water Board",
    "final_address": "4500 Cerise Ave",
    "address_councildis": "E",
    "status": "Pending",
    "rowid": "1291330",
    "final_x": "3708693.1516",
    "final_y": "554115.44732",
    "longitude": "-89.98136310307707",
    "latitude": "30.01677103210524",
    "geocoded_column": {
      "latitude": "30.01677103210524",
      "longitude": "-89.98136310307707"
    }
  },
  {
    "service_request": "2026-1291329",
    "request_type": "Drainage",
    "request_reason": "Catch Basin Not Draining",
    "date_created": "2026-06-16T16:03:13.000",
    "date_modified": "2026-06-16T16:05:50.000",
    "request_status": "Pending",
    "responsible_agency": "Sewerage & Water Board",
    "final_address": "2737 Valence St",
    "address_councildis": "B",
    "status": "Pending",
    "rowid": "1291329",
    "final_x": "3669370.80199",
    "final_y": "524915.867004",
    "longitude": "-90.1065933333123",
    "latitude": "29.937699166491292",
    "geocoded_column": {
      "latitude": "29.937699166491292",
      "longitude": "-90.1065933333123"
    }
  },
  {
    "service_request": "2026-1291328",
    "request_type": "Streetlights",
    "request_reason": "New Streetlight Request",
    "date_created": "2026-06-16T16:01:36.000",
    "date_modified": "2026-06-16T16:01:38.000",
    "request_status": "Pending",
    "responsible_agency": "Department of Public Works",
    "final_address": "650 OKeefe Ave",
    "address_councildis": "B",
    "status": "Pending",
    "rowid": "1291328",
    "final_x": "3679447.12987",
    "final_y": "528986.989888",
    "longitude": "-90.0746404065613",
    "latitude": "29.94859292663444",
    "geocoded_column": {
      "latitude": "29.94859292663444",
      "longitude": "-90.0746404065613"
    }
  },
  {
    "service_request": "2026-1291327",
    "request_type": "Trash/Recycling",
    "request_reason": "Request a Large Item Pick Up",
    "date_created": "2026-06-16T16:01:15.000",
    "date_modified": "2026-06-16T16:01:36.000",
    "request_status": "Pending",
    "responsible_agency": "Department of Sanitation",
    "final_address": "3400 Lancaster St",
    "address_councildis": "C",
    "status": "Assigned to Contractor",
    "contractor": "Richards Disposal",
    "rowid": "1291327",
    "final_x": "3709958.96024",
    "final_y": "518230.068406",
    "longitude": "-89.97870414042681",
    "latitude": "29.918058344309244",
    "geocoded_column": {
      "latitude": "29.918058344309244",
      "longitude": "-89.97870414042681"
    }
  },
  {
    "service_request": "2026-1291326",
    "request_type": "Parks & Grass Service",
    "request_reason": "Request Grass Cutting Service (City Owned Property)",
    "date_created": "2026-06-16T15:58:58.000",
    "date_modified": "2026-06-16T15:59:00.000",
    "request_status": "Pending",
    "responsible_agency": "Department of Parks & Parkways",
    "final_address": "8019 Palm St",
    "address_councildis": "B",
    "status": "Pending",
    "rowid": "1291326",
    "final_x": "3668008.6082",
    "final_y": "534464.102917",
    "longitude": "-90.11057221648018",
    "latitude": "29.963993730279164",
    "geocoded_column": {
      "latitude": "29.963993730279164",
      "longitude": "-90.11057221648018"
    }
  },
  {
    "service_request": "2026-1291325",
    "request_type": "Healthy Homes",
    "request_reason": "Healthy Homes",
    "date_created": "2026-06-16T15:57:10.000",
    "date_modified": "2026-06-16T16:00:17.000",
    "request_status": "Pending",
    "responsible_agency": "Department of Code Enforcement",
    "final_address": "1611 Basin St",
    "address_councildis": "C",
    "status": "Pending",
    "rowid": "1291325",
    "final_x": "3680059.52623",
    "final_y": "534621.041286",
    "longitude": "-90.07251107210512",
    "latitude": "29.964066151030778",
    "geocoded_column": {
      "latitude": "29.964066151030778",
      "longitude": "-90.07251107210512"
    }
  },
  {
    "service_request": "2026-1291324",
    "request_type": "Drainage",
    "request_reason": "Catch Basin Not Draining",
    "date_created": "2026-06-16T15:56:51.000",
    "date_modified": "2026-06-16T16:06:56.000",
    "request_status": "Pending",
    "responsible_agency": "Sewerage & Water Board",
    "final_address": "4657 Clara St",
    "address_councildis": "B",
    "status": "Pending",
    "rowid": "1291324",
    "final_x": "3669255.65582",
    "final_y": "525007.268605",
    "longitude": "-90.10695377125919",
    "latitude": "29.937953880608603",
    "geocoded_column": {
      "latitude": "29.937953880608603",
      "longitude": "-90.10695377125919"
    }
  },
  {
    "service_request": "2026-1291323",
    "request_type": "Trash/Recycling",
    "request_reason": "Request a Large Item Pick Up",
    "date_created": "2026-06-16T15:56:37.000",
    "date_modified": "2026-06-16T15:56:39.000",
    "request_status": "Pending",
    "responsible_agency": "Department of Sanitation",
    "final_address": "7866 Briarwood Dr",
    "address_councildis": "E",
    "status": "Assigned to Contractor",
    "contractor": "Waste Pro",
    "rowid": "1291323",
    "final_x": "3716450.67896",
    "final_y": "572039.62884",
    "longitude": "-89.9561722105788",
    "latitude": "30.065801303726",
    "geocoded_column": {
      "latitude": "30.065801303726",
      "longitude": "-89.9561722105788"
    }
  },
  {
    "service_request": "2026-1291322",
    "request_type": "Trash/Recycling",
    "request_reason": "Order Recycling Cart",
    "date_created": "2026-06-16T15:50:57.000",
    "date_modified": "2026-06-16T15:51:08.000",
    "request_status": "Pending",
    "responsible_agency": "Department of Sanitation",
    "final_address": "0 BLK Everett Pl",
    "address_councildis": "A",
    "status": "Pending",
    "rowid": "1291322",
    "final_x": "3666347.67678",
    "final_y": "523151.075205",
    "longitude": "-90.11619679130142",
    "latitude": "29.9329352009686",
    "geocoded_column": {
      "latitude": "29.9329352009686",
      "longitude": "-90.11619679130142"
    }
  },
  {
    "service_request": "2026-1291321",
    "request_type": "Abandoned Vehicles",
    "request_reason": "Abandoned/Junk Vehicles",
    "date_created": "2026-06-16T15:50:02.000",
    "date_modified": "2026-06-16T15:50:04.000",
    "request_status": "Pending",
    "responsible_agency": "Department of Public Works",
    "final_address": "2706 Peniston St",
    "address_councildis": "B",
    "status": "Pending",
    "rowid": "1291321",
    "final_x": "3671900.13377",
    "final_y": "524987.960445",
    "longitude": "-90.09860556827907",
    "latitude": "29.93782269909308",
    "geocoded_column": {
      "latitude": "29.93782269909308",
      "longitude": "-90.09860556827907"
    }
  },
  {
    "service_request": "2026-1291320",
    "request_type": "Trash/Recycling",
    "request_reason": "Request a Large Item Pick Up",
    "date_created": "2026-06-16T15:48:15.000",
    "date_modified": "2026-06-16T15:48:18.000",
    "request_status": "Pending",
    "responsible_agency": "Department of Sanitation",
    "final_address": "4325 Stephen Girard Ave",
    "address_councildis": "D",
    "status": "Assigned to Contractor",
    "contractor": "IV Waste",
    "rowid": "1291320",
    "final_x": "3690374.61622",
    "final_y": "550149.576788",
    "longitude": "-90.03938328571083",
    "latitude": "30.006447936033528",
    "geocoded_column": {
      "latitude": "30.006447936033528",
      "longitude": "-90.03938328571083"
    }
  },
  {
    "service_request": "2026-1291319",
    "request_type": "Trash/Recycling",
    "request_reason": "Replace Recycling Cart",
    "date_created": "2026-06-16T15:44:27.000",
    "date_modified": "2026-06-16T15:44:29.000",
    "request_status": "Pending",
    "responsible_agency": "Department of Sanitation",
    "final_address": "4614 Danneel St",
    "address_councildis": "B",
    "status": "Pending",
    "rowid": "1291319",
    "final_x": "3669849.86023",
    "final_y": "522150.223354",
    "longitude": "-90.10517449164134",
    "latitude": "29.930080424074074",
    "geocoded_column": {
      "latitude": "29.930080424074074",
      "longitude": "-90.10517449164134"
    }
  },
  {
    "service_request": "2026-1291318",
    "request_type": "Trash/Recycling",
    "request_reason": "Illegal Dumping",
    "date_created": "2026-06-16T15:42:42.000",
    "date_modified": "2026-06-16T15:44:05.000",
    "request_status": "Pending",
    "responsible_agency": "Department of Sanitation",
    "final_address": "1100 BLK Andry St",
    "address_councildis": "E",
    "status": "Pending",
    "rowid": "1291318",
    "final_x": "3697223.33189",
    "final_y": "534179.374014",
    "longitude": "-90.01832560629411",
    "latitude": "29.962321256610764",
    "geocoded_column": {
      "latitude": "29.962321256610764",
      "longitude": "-90.01832560629411"
    }
  },
  {
    "service_request": "2026-1291317",
    "request_type": "Trash/Recycling",
    "request_reason": "Order Second Trash Cart",
    "date_created": "2026-06-16T15:37:41.000",
    "date_modified": "2026-06-16T15:37:43.000",
    "request_status": "Pending",
    "responsible_agency": "Department of Sanitation",
    "final_address": "2651 Prentiss Ave",
    "address_councildis": "D",
    "status": "Assigned to Contractor",
    "contractor": "IV Waste",
    "rowid": "1291317",
    "final_x": "3687003.25833",
    "final_y": "554171.38428",
    "longitude": "-90.04989191527108",
    "latitude": "30.017610683233443",
    "geocoded_column": {
      "latitude": "30.017610683233443",
      "longitude": "-90.04989191527108"
    }
  },
  {
    "service_request": "2026-1291316",
    "request_type": "Trash/Recycling",
    "request_reason": "Order Recycling Cart",
    "date_created": "2026-06-16T15:37:38.000",
    "date_modified": "2026-06-16T15:37:39.000",
    "request_status": "Pending",
    "responsible_agency": "Department of Sanitation",
    "final_address": "6677 Vicksburg St",
    "address_councildis": "A",
    "status": "Pending",
    "rowid": "1291316",
    "final_x": "3669379.59911",
    "final_y": "551859.472534",
    "longitude": "-90.10565417478043",
    "latitude": "30.011784747765525",
    "geocoded_column": {
      "latitude": "30.011784747765525",
      "longitude": "-90.10565417478043"
    }
  },
  {
    "service_request": "2026-1291315",
    "request_type": "Trash/Recycling",
    "request_reason": "Order Trash Cart",
    "date_created": "2026-06-16T15:35:17.000",
    "date_modified": "2026-06-16T15:37:49.000",
    "request_status": "Pending",
    "responsible_agency": "Department of Sanitation",
    "final_address": "2651 Prentiss Ave",
    "address_councildis": "D",
    "status": "Assigned to Contractor",
    "contractor": "IV Waste",
    "rowid": "1291315",
    "final_x": "3687003.25833",
    "final_y": "554171.38428",
    "longitude": "-90.04989191527108",
    "latitude": "30.017610683233443",
    "geocoded_column": {
      "latitude": "30.017610683233443",
      "longitude": "-90.04989191527108"
    }
  },
  {
    "service_request": "2026-1291314",
    "request_type": "Streetlights",
    "request_reason": "Streetlight Outage/Malfunction",
    "date_created": "2026-06-16T15:33:49.000",
    "date_modified": "2026-06-16T15:33:51.000",
    "request_status": "Pending",
    "responsible_agency": "Department of Public Works",
    "final_address": "1500 BLK Broadway St",
    "address_councildis": "A",
    "status": "Pending",
    "rowid": "1291314",
    "final_x": "3664870.33295",
    "final_y": "527513.531703",
    "longitude": "-90.12071493074303",
    "latitude": "29.94497363068999",
    "geocoded_column": {
      "latitude": "29.94497363068999",
      "longitude": "-90.12071493074303"
    }
  },
  {
    "service_request": "2026-1291313",
    "request_type": "Trash/Recycling",
    "request_reason": "Request a Large Item Pick Up",
    "date_created": "2026-06-16T15:27:29.000",
    "date_modified": "2026-06-16T15:27:31.000",
    "request_status": "Pending",
    "responsible_agency": "Department of Sanitation",
    "final_address": "4613 Wilson Ave",
    "address_councildis": "E",
    "status": "Assigned to Contractor",
    "contractor": "Waste Pro",
    "rowid": "1291313",
    "final_x": "3703127.33316",
    "final_y": "554240.542936",
    "longitude": "-89.99894401717916",
    "latitude": "30.01729439307211",
    "geocoded_column": {
      "latitude": "30.01729439307211",
      "longitude": "-89.99894401717916"
    }
  },
  {
    "service_request": "2026-1291312",
    "request_type": "Tree Service",
    "request_reason": "Tree Trim",
    "date_created": "2026-06-16T15:25:37.000",
    "date_modified": "2026-06-16T15:25:39.000",
    "request_status": "Pending",
    "responsible_agency": "Department of Parks & Parkways",
    "final_address": "2700 BLK Nashville Ave",
    "address_councildis": "A",
    "status": "Pending",
    "rowid": "1291312",
    "final_x": "3667610.42787",
    "final_y": "526624.767076",
    "longitude": "-90.11209348746833",
    "latitude": "29.942449796283032",
    "geocoded_column": {
      "latitude": "29.942449796283032",
      "longitude": "-90.11209348746833"
    }
  },
  {
    "service_request": "2026-1291311",
    "request_type": "Trash/Recycling",
    "request_reason": "Request a Large Item Pick Up",
    "date_created": "2026-06-16T15:19:33.000",
    "date_modified": "2026-06-16T15:19:35.000",
    "request_status": "Pending",
    "responsible_agency": "Department of Sanitation",
    "final_address": "3127 Sullen Pl",
    "address_councildis": "C",
    "status": "Assigned to Contractor",
    "contractor": "Richards Disposal",
    "rowid": "1291311",
    "final_x": "3707726.66648",
    "final_y": "519172.170359",
    "longitude": "-89.98571524053895",
    "latitude": "29.92072117279111",
    "geocoded_column": {
      "latitude": "29.92072117279111",
      "longitude": "-89.98571524053895"
    }
  },
  {
    "service_request": "2026-1291310",
    "request_type": "Drainage",
    "request_reason": "Catch Basin Not Draining",
    "date_created": "2026-06-16T15:18:38.000",
    "date_modified": "2026-06-16T15:39:34.000",
    "request_status": "Pending",
    "responsible_agency": "Sewerage & Water Board",
    "final_address": "7300 BLK Morrison Rd",
    "address_councildis": "E",
    "status": "Pending",
    "rowid": "1291310",
    "final_x": "3700457.48422",
    "final_y": "559435.294631",
    "longitude": "-90.00718964674573",
    "latitude": "30.031663187053994",
    "geocoded_column": {
      "latitude": "30.031663187053994",
      "longitude": "-90.00718964674573"
    }
  },
  {
    "service_request": "2026-1291309",
    "request_type": "Trash/Recycling",
    "request_reason": "Request a Large Item Pick Up",
    "date_created": "2026-06-16T15:18:03.000",
    "date_modified": "2026-06-16T15:18:05.000",
    "request_status": "Pending",
    "responsible_agency": "Department of Sanitation",
    "final_address": "2329 Bienville Ave",
    "address_councildis": "B",
    "status": "Assigned to Contractor",
    "contractor": "IV Waste",
    "rowid": "1291309",
    "final_x": "3677010.1243",
    "final_y": "534906.880454",
    "longitude": "-90.08213096214604",
    "latitude": "29.96494402165159",
    "geocoded_column": {
      "latitude": "29.96494402165159",
      "longitude": "-90.08213096214604"
    }
  },
  {
    "service_request": "2026-1291308",
    "request_type": "Trash/Recycling",
    "request_reason": "Return Trash Cart",
    "date_created": "2026-06-16T15:15:02.000",
    "date_modified": "2026-06-16T15:15:04.000",
    "request_status": "Pending",
    "responsible_agency": "Department of Sanitation",
    "final_address": "6677 Vicksburg St",
    "address_councildis": "A",
    "status": "Assigned to Contractor",
    "contractor": "IV Waste",
    "rowid": "1291308",
    "final_x": "3669379.59911",
    "final_y": "551859.472534",
    "longitude": "-90.10565417478043",
    "latitude": "30.011784747765525",
    "geocoded_column": {
      "latitude": "30.011784747765525",
      "longitude": "-90.10565417478043"
    }
  },
  {
    "service_request": "2026-1291307",
    "request_type": "Abandoned Vehicles",
    "request_reason": "Abandoned/Junk Vehicles",
    "date_created": "2026-06-16T15:12:07.000",
    "date_modified": "2026-06-16T15:12:08.000",
    "request_status": "Pending",
    "responsible_agency": "Department of Public Works",
    "final_address": "2620 Milan St",
    "address_councildis": "B",
    "status": "Pending",
    "rowid": "1291307",
    "final_x": "3671179.04801",
    "final_y": "524647.020796",
    "longitude": "-90.100893677007",
    "latitude": "29.936906571327402",
    "geocoded_column": {
      "latitude": "29.936906571327402",
      "longitude": "-90.100893677007"
    }
  },
  {
    "service_request": "2026-1291306",
    "request_type": "Property Maintenance",
    "request_reason": "Property Maintenance",
    "date_created": "2026-06-16T15:11:30.000",
    "date_modified": "2026-06-16T15:11:31.000",
    "request_status": "Pending",
    "responsible_agency": "Department of Code Enforcement",
    "final_address": "ST CLAUDE AVE & ANDRY ST",
    "address_councildis": "E",
    "status": "Pending",
    "rowid": "1291306",
    "final_x": "3697183.3",
    "final_y": "534041.38",
    "longitude": "-90.01845702101954",
    "latitude": "29.961943085250486",
    "geocoded_column": {
      "latitude": "29.961943085250486",
      "longitude": "-90.01845702101954"
    }
  },
  {
    "service_request": "2026-1291305",
    "request_type": "Tree Service",
    "request_reason": "Tree Trim",
    "date_created": "2026-06-16T15:09:44.000",
    "date_modified": "2026-06-16T15:13:38.000",
    "request_status": "Pending",
    "responsible_agency": "Department of Parks & Parkways",
    "final_address": "7430 Finchley Rd",
    "address_councildis": "E",
    "status": "Pending",
    "rowid": "1291305",
    "final_x": "3712235.68235",
    "final_y": "565213.31325",
    "longitude": "-89.96975303469668",
    "latitude": "30.047170345833383",
    "geocoded_column": {
      "latitude": "30.047170345833383",
      "longitude": "-89.96975303469668"
    }
  },
  {
    "service_request": "2026-1291304",
    "request_type": "Tree Service",
    "request_reason": "Tree Trim",
    "date_created": "2026-06-16T15:09:16.000",
    "date_modified": "2026-06-16T15:13:29.000",
    "request_status": "Pending",
    "responsible_agency": "Department of Parks & Parkways",
    "final_address": "11231 Whiteside Rd",
    "address_councildis": "E",
    "status": "Pending",
    "rowid": "1291304",
    "final_x": "3712118.22066",
    "final_y": "565247.077538",
    "longitude": "-89.97012300402452",
    "latitude": "30.047267026927475",
    "geocoded_column": {
      "latitude": "30.047267026927475",
      "longitude": "-89.97012300402452"
    }
  },
  {
    "service_request": "2026-1291303",
    "request_type": "Trash/Recycling",
    "request_reason": "Repair Trash Cart",
    "date_created": "2026-06-16T15:05:11.000",
    "date_modified": "2026-06-16T15:05:12.000",
    "request_status": "Pending",
    "responsible_agency": "Department of Sanitation",
    "final_address": "1200 Park Island Dr",
    "address_councildis": "D",
    "status": "Assigned to Contractor",
    "contractor": "IV Waste",
    "rowid": "1291303",
    "final_x": "3676599.41326",
    "final_y": "547743.37141",
    "longitude": "-90.08298562288071",
    "latitude": "30.00025225881001",
    "geocoded_column": {
      "latitude": "30.00025225881001",
      "longitude": "-90.08298562288071"
    }
  },
  {
    "service_request": "2026-1291302",
    "request_type": "Trash/Recycling",
    "request_reason": "Request a Large Item Pick Up",
    "date_created": "2026-06-16T15:04:05.000",
    "date_modified": "2026-06-16T15:33:46.000",
    "request_status": "Pending",
    "responsible_agency": "Department of Sanitation",
    "final_address": "7621 Freret St",
    "address_councildis": "A",
    "status": "Assigned to Contractor",
    "contractor": "IV Waste",
    "rowid": "1291302",
    "final_x": "3662717.36013",
    "final_y": "526799.850302",
    "longitude": "-90.12753627234147",
    "latitude": "29.943073708932975",
    "geocoded_column": {
      "latitude": "29.943073708932975",
      "longitude": "-90.12753627234147"
    }
  },
  {
    "service_request": "2026-1291301",
    "request_type": "Trash/Recycling",
    "request_reason": "Request a Large Item Pick Up",
    "date_created": "2026-06-16T15:02:08.000",
    "date_modified": "2026-06-16T15:02:10.000",
    "request_status": "Pending",
    "responsible_agency": "Department of Sanitation",
    "final_address": "3121 Bennett St",
    "address_councildis": "C",
    "status": "Assigned to Contractor",
    "contractor": "Richards Disposal",
    "rowid": "1291301",
    "final_x": "3710404.01963",
    "final_y": "518472.395254",
    "longitude": "-89.97729029181485",
    "latitude": "29.91871018317837",
    "geocoded_column": {
      "latitude": "29.91871018317837",
      "longitude": "-89.97729029181485"
    }
  },
  {
    "service_request": "2026-1291300",
    "request_type": "Drainage",
    "request_reason": "Catch Basin Not Draining",
    "date_created": "2026-06-16T15:00:13.000",
    "date_modified": "2026-06-16T15:00:14.000",
    "request_status": "Pending",
    "responsible_agency": "Sewerage & Water Board",
    "final_address": "3233 St Philip St",
    "address_councildis": "A",
    "status": "Pending",
    "rowid": "1291300",
    "final_x": "3675464.68782",
    "final_y": "539395.052298",
    "longitude": "-90.08685717970607",
    "latitude": "29.977331278605547",
    "geocoded_column": {
      "latitude": "29.977331278605547",
      "longitude": "-90.08685717970607"
    }
  },
  {
    "service_request": "2026-1291299",
    "request_type": "Trash/Recycling",
    "request_reason": "Request a Large Item Pick Up",
    "date_created": "2026-06-16T14:58:26.000",
    "date_modified": "2026-06-16T14:58:27.000",
    "request_status": "Pending",
    "responsible_agency": "Department of Sanitation",
    "final_address": "6501 Avenue B",
    "address_councildis": "A",
    "status": "Assigned to Contractor",
    "contractor": "IV Waste",
    "rowid": "1291299",
    "final_x": "3665738.85447",
    "final_y": "551382.581205",
    "longitude": "-90.11717286121029",
    "latitude": "30.010580217888066",
    "geocoded_column": {
      "latitude": "30.010580217888066",
      "longitude": "-90.11717286121029"
    }
  },
  {
    "service_request": "2026-1291298",
    "request_type": "Streetlights",
    "request_reason": "Streetlight Outage/Malfunction",
    "date_created": "2026-06-16T14:57:18.000",
    "date_modified": "2026-06-16T14:57:20.000",
    "request_status": "Pending",
    "responsible_agency": "Department of Public Works",
    "final_address": "2418 S Carrollton Ave",
    "address_councildis": "A",
    "status": "Pending",
    "rowid": "1291298",
    "final_x": "3664932.39469",
    "final_y": "531668.372803",
    "longitude": "-90.12038011728853",
    "latitude": "29.956396292800484",
    "geocoded_column": {
      "latitude": "29.956396292800484",
      "longitude": "-90.12038011728853"
    }
  },
  {
    "service_request": "2026-1291297",
    "request_type": "Trash/Recycling",
    "request_reason": "Request a Large Item Pick Up",
    "date_created": "2026-06-16T14:56:08.000",
    "date_modified": "2026-06-16T14:56:09.000",
    "request_status": "Pending",
    "responsible_agency": "Department of Sanitation",
    "final_address": "10 Sullivan Pl",
    "address_councildis": "C",
    "status": "Assigned to Contractor",
    "contractor": "Richards Disposal",
    "rowid": "1291297",
    "final_x": "3702054.10154",
    "final_y": "522178.959802",
    "longitude": "-90.00351064160972",
    "latitude": "29.929171029980367",
    "geocoded_column": {
      "latitude": "29.929171029980367",
      "longitude": "-90.00351064160972"
    }
  },
  {
    "service_request": "2026-1291296",
    "request_type": "Trash/Recycling",
    "request_reason": "Repair Recycling Cart",
    "date_created": "2026-06-16T14:54:40.000",
    "date_modified": "2026-06-16T15:17:08.000",
    "request_status": "Pending",
    "responsible_agency": "Department of Sanitation",
    "final_address": "6677 Vicksburg St",
    "address_councildis": "A",
    "status": "Pending",
    "rowid": "1291296",
    "final_x": "3669379.59911",
    "final_y": "551859.472534",
    "longitude": "-90.10565417478043",
    "latitude": "30.011784747765525",
    "geocoded_column": {
      "latitude": "30.011784747765525",
      "longitude": "-90.10565417478043"
    }
  },
  {
    "service_request": "2026-1291295",
    "request_type": "Trash/Recycling",
    "request_reason": "Request a Large Item Pick Up",
    "date_created": "2026-06-16T14:54:15.000",
    "date_modified": "2026-06-16T14:54:17.000",
    "request_status": "Pending",
    "responsible_agency": "Department of Sanitation",
    "final_address": "1342 Deslonde St",
    "address_councildis": "E",
    "status": "Assigned to Contractor",
    "contractor": "Waste Pro",
    "rowid": "1291295",
    "final_x": "3695649.95754",
    "final_y": "535487.606854",
    "longitude": "-90.0232468367357",
    "latitude": "29.965967988825025",
    "geocoded_column": {
      "latitude": "29.965967988825025",
      "longitude": "-90.0232468367357"
    }
  },
  {
    "service_request": "2026-1291294",
    "request_type": "Property Maintenance",
    "request_reason": "Property Maintenance",
    "date_created": "2026-06-16T14:48:38.000",
    "date_modified": "2026-06-16T14:48:39.000",
    "request_status": "Pending",
    "responsible_agency": "Department of Code Enforcement",
    "final_address": "1865 N Roman St",
    "address_councildis": "D",
    "status": "Pending",
    "rowid": "1291294",
    "final_x": "3683483.96405",
    "final_y": "538810.130249",
    "longitude": "-90.06155018833196",
    "latitude": "29.97548064164409",
    "geocoded_column": {
      "latitude": "29.97548064164409",
      "longitude": "-90.06155018833196"
    }
  },
  {
    "service_request": "2026-1291293",
    "request_type": "Homeless Related Request",
    "request_reason": "Homeless Encampment Complaint",
    "date_created": "2026-06-16T14:48:27.000",
    "date_modified": "2026-06-16T14:48:28.000",
    "request_status": "Pending",
    "responsible_agency": "Office Of Homeless Services And Strategy",
    "final_address": "4600 S Johnson St",
    "address_councildis": "B",
    "status": "Pending",
    "rowid": "1291293",
    "final_x": "3669420.57985",
    "final_y": "527096.215999",
    "longitude": "-90.10636247112458",
    "latitude": "29.943692955317424",
    "geocoded_column": {
      "latitude": "29.943692955317424",
      "longitude": "-90.10636247112458"
    }
  },
  {
    "service_request": "2026-1291292",
    "request_type": "Traffic Signals",
    "request_reason": "Traffic Signal Malfunctioning or Damaged",
    "date_created": "2026-06-16T14:47:10.000",
    "date_modified": "2026-06-16T14:47:12.000",
    "request_status": "Pending",
    "responsible_agency": "Department of Public Works",
    "final_address": "429 N Galvez St",
    "address_councildis": "B",
    "status": "Pending",
    "rowid": "1291292",
    "final_x": "3677764.20008",
    "final_y": "535027.658246",
    "longitude": "-90.07974546313999",
    "latitude": "29.965253456917125",
    "geocoded_column": {
      "latitude": "29.965253456917125",
      "longitude": "-90.07974546313999"
    }
  },
  {
    "service_request": "2026-1291290",
    "request_type": "Drainage",
    "request_reason": "Catch Basin Not Draining",
    "date_created": "2026-06-16T14:42:14.000",
    "date_modified": "2026-06-16T14:42:16.000",
    "request_status": "Pending",
    "responsible_agency": "Sewerage & Water Board",
    "final_address": "1828 Franklin Ave",
    "address_councildis": "D",
    "status": "Pending",
    "rowid": "1291290",
    "final_x": "3687615.11836",
    "final_y": "539373.143754",
    "longitude": "-90.04848297267564",
    "latitude": "29.976902006004423",
    "geocoded_column": {
      "latitude": "29.976902006004423",
      "longitude": "-90.04848297267564"
    }
  },
  {
    "service_request": "2026-1291289",
    "request_type": "Tree Service",
    "request_reason": "Dead or Dying Tree",
    "date_created": "2026-06-16T14:34:54.000",
    "date_modified": "2026-06-16T14:34:56.000",
    "request_status": "Pending",
    "responsible_agency": "Department of Parks & Parkways",
    "final_address": "815 Leontine St",
    "address_councildis": "B",
    "status": "Pending",
    "rowid": "1291289",
    "final_x": "3667173.42644",
    "final_y": "518443.944438",
    "longitude": "-90.11374811573283",
    "latitude": "29.919967937328273",
    "geocoded_column": {
      "latitude": "29.919967937328273",
      "longitude": "-90.11374811573283"
    }
  },
  {
    "service_request": "2026-1291288",
    "request_type": "Traffic Signals",
    "request_reason": "Traffic Signal Malfunctioning or Damaged",
    "date_created": "2026-06-16T14:33:48.000",
    "date_modified": "2026-06-16T14:33:51.000",
    "request_status": "Pending",
    "responsible_agency": "Department of Public Works",
    "final_address": "MORRISON RD & DOWNMAN RD",
    "address_councildis": "D",
    "status": "Pending",
    "rowid": "1291288",
    "final_x": "3695031.8",
    "final_y": "557307.18",
    "longitude": "-90.0244118268032",
    "latitude": "30.025983227650283",
    "geocoded_column": {
      "latitude": "30.025983227650283",
      "longitude": "-90.0244118268032"
    }
  },
  {
    "service_request": "2026-1291287",
    "request_type": "Streetlights",
    "request_reason": "Streetlight Outage/Malfunction",
    "date_created": "2026-06-16T14:32:04.000",
    "date_modified": "2026-06-16T14:32:07.000",
    "request_status": "Pending",
    "responsible_agency": "Department of Public Works",
    "final_address": "3807 Peach Tree Ct",
    "address_councildis": "C",
    "status": "Pending",
    "rowid": "1291287",
    "final_x": "3703825.85079",
    "final_y": "512603.100081",
    "longitude": "-89.99826982423347",
    "latitude": "29.902784049509137",
    "geocoded_column": {
      "latitude": "29.902784049509137",
      "longitude": "-89.99826982423347"
    }
  },
  {
    "service_request": "2026-1291286",
    "request_type": "Trash/Recycling",
    "request_reason": "Replace Trash Cart",
    "date_created": "2026-06-16T14:28:09.000",
    "date_modified": "2026-06-16T14:28:11.000",
    "request_status": "Pending",
    "responsible_agency": "Department of Sanitation",
    "final_address": "8214 Forshey St",
    "address_councildis": "A",
    "status": "Assigned to Contractor",
    "contractor": "IV Waste",
    "rowid": "1291286",
    "final_x": "3666616.42554",
    "final_y": "534209.690309",
    "longitude": "-90.1149771614353",
    "latitude": "29.963334956231357",
    "geocoded_column": {
      "latitude": "29.963334956231357",
      "longitude": "-90.1149771614353"
    }
  },
  {
    "service_request": "2026-1291285",
    "request_type": "Property Maintenance",
    "request_reason": "Property Maintenance",
    "date_created": "2026-06-16T14:27:01.000",
    "date_modified": "2026-06-16T14:27:03.000",
    "request_status": "Pending",
    "responsible_agency": "Department of Code Enforcement",
    "final_address": "600 BLK Atlantic Ave",
    "address_councildis": "C",
    "status": "Pending",
    "rowid": "1291285",
    "final_x": "3688784.45376",
    "final_y": "529272.539668",
    "longitude": "-90.04514848943425",
    "latitude": "29.949092756179716",
    "geocoded_column": {
      "latitude": "29.949092756179716",
      "longitude": "-90.04514848943425"
    }
  },
  {
    "service_request": "2026-1291284",
    "request_type": "Trash/Recycling",
    "request_reason": "Request a Large Item Pick Up",
    "date_created": "2026-06-16T14:23:08.000",
    "date_modified": "2026-06-16T14:23:10.000",
    "request_status": "Pending",
    "responsible_agency": "Department of Sanitation",
    "final_address": "2912 Palmyra St Apt A",
    "address_councildis": "B",
    "status": "Assigned to Contractor",
    "contractor": "IV Waste",
    "rowid": "1291284",
    "final_x": "3673986.10305",
    "final_y": "535044.403014",
    "longitude": "-90.09167594539439",
    "latitude": "29.965412612017644",
    "geocoded_column": {
      "latitude": "29.965412612017644",
      "longitude": "-90.09167594539439"
    }
  },
  {
    "service_request": "2026-1291283",
    "request_type": "Roads and Streets",
    "request_reason": "Pothole",
    "date_created": "2026-06-16T14:17:28.000",
    "date_modified": "2026-06-16T14:17:30.000",
    "request_status": "Pending",
    "responsible_agency": "Department of Public Works",
    "final_address": "4414 S Carrollton Ave",
    "address_councildis": "A",
    "status": "Pending",
    "rowid": "1291283",
    "final_x": "3670197.72001",
    "final_y": "537191.802952",
    "longitude": "-90.103566734939",
    "latitude": "29.97142957744186",
    "geocoded_column": {
      "latitude": "29.97142957744186",
      "longitude": "-90.103566734939"
    }
  },
  {
    "service_request": "2026-1291282",
    "request_type": "Roads and Streets",
    "request_reason": "Pothole",
    "date_created": "2026-06-16T14:16:57.000",
    "date_modified": "2026-06-16T14:16:58.000",
    "request_status": "Pending",
    "responsible_agency": "Department of Public Works",
    "final_address": "2261 Beck St",
    "address_councildis": "C",
    "status": "Pending",
    "rowid": "1291282",
    "final_x": "3700400.53623",
    "final_y": "522398.76249",
    "longitude": "-90.00872257281247",
    "latitude": "29.929828075880238",
    "geocoded_column": {
      "latitude": "29.929828075880238",
      "longitude": "-90.00872257281247"
    }
  },
  {
    "service_request": "2026-1291281",
    "request_type": "Trash/Recycling",
    "request_reason": "Request a Large Item Pick Up",
    "date_created": "2026-06-16T14:14:28.000",
    "date_modified": "2026-06-16T14:14:30.000",
    "request_status": "Pending",
    "responsible_agency": "Department of Sanitation",
    "final_address": "5011 N Roman St",
    "address_councildis": "E",
    "status": "Assigned to Contractor",
    "contractor": "Waste Pro",
    "rowid": "1291281",
    "final_x": "3696827.31779",
    "final_y": "536931.826824",
    "longitude": "-90.01947649161538",
    "latitude": "29.969902011898583",
    "geocoded_column": {
      "latitude": "29.969902011898583",
      "longitude": "-90.01947649161538"
    }
  },
  {
    "service_request": "2026-1291280",
    "request_type": "Roads and Streets",
    "request_reason": "Pothole",
    "date_created": "2026-06-16T14:13:59.000",
    "date_modified": "2026-06-16T14:14:01.000",
    "request_status": "Pending",
    "responsible_agency": "Department of Public Works",
    "final_address": "4115 Cleveland Ave",
    "address_councildis": "A",
    "status": "Pending",
    "rowid": "1291280",
    "final_x": "3670731.82254",
    "final_y": "538104.827913",
    "longitude": "-90.1018489680166",
    "latitude": "29.973924316019556",
    "geocoded_column": {
      "latitude": "29.973924316019556",
      "longitude": "-90.1018489680166"
    }
  },
  {
    "service_request": "2026-1291279",
    "request_type": "Roads and Streets",
    "request_reason": "Pothole",
    "date_created": "2026-06-16T14:11:48.000",
    "date_modified": "2026-06-16T14:11:49.000",
    "request_status": "Pending",
    "responsible_agency": "Department of Public Works",
    "final_address": "4042 DHemecourt St",
    "address_councildis": "A",
    "status": "Pending",
    "rowid": "1291279",
    "final_x": "3669908.49722",
    "final_y": "536711.580487",
    "longitude": "-90.10449640940008",
    "latitude": "29.97011765872118",
    "geocoded_column": {
      "latitude": "29.97011765872118",
      "longitude": "-90.10449640940008"
    }
  },
  {
    "service_request": "2026-1291278",
    "request_type": "Trash/Recycling",
    "request_reason": "Return Trash Cart",
    "date_created": "2026-06-16T14:11:03.000",
    "date_modified": "2026-06-16T14:11:05.000",
    "request_status": "Pending",
    "responsible_agency": "Department of Sanitation",
    "final_address": "7856 S Coronet Ct",
    "address_councildis": "E",
    "status": "Assigned to Contractor",
    "contractor": "Waste Pro",
    "rowid": "1291278",
    "final_x": "3703385.43633",
    "final_y": "557341.246107",
    "longitude": "-89.99801435157353",
    "latitude": "30.025811865589638",
    "geocoded_column": {
      "latitude": "30.025811865589638",
      "longitude": "-89.99801435157353"
    }
  },
  {
    "service_request": "2026-1291277",
    "request_type": "Trash/Recycling",
    "request_reason": "Missed Trash Pick-Up",
    "date_created": "2026-06-16T14:10:32.000",
    "date_modified": "2026-06-16T14:10:33.000",
    "request_status": "Pending",
    "responsible_agency": "Department of Sanitation",
    "final_address": "5150 Lakeview Ct",
    "address_councildis": "E",
    "status": "Assigned to Contractor",
    "contractor": "Waste Pro",
    "rowid": "1291277",
    "final_x": "3698812.01853",
    "final_y": "556389.597146",
    "longitude": "-90.01250031594577",
    "latitude": "30.02334094844567",
    "geocoded_column": {
      "latitude": "30.02334094844567",
      "longitude": "-90.01250031594577"
    }
  },
  {
    "service_request": "2026-1291276",
    "request_type": "General Services",
    "request_reason": "General Service Request",
    "date_created": "2026-06-16T14:08:57.000",
    "date_modified": "2026-06-16T14:08:59.000",
    "request_status": "Pending",
    "responsible_agency": "Orleans Parish Communication District",
    "final_address": "8332 S Claiborne Ave",
    "address_councildis": "A",
    "status": "Pending",
    "rowid": "1291276",
    "final_x": "3664030.70317",
    "final_y": "532142.057027",
    "longitude": "-90.12321157642126",
    "latitude": "29.95772498516554",
    "geocoded_column": {
      "latitude": "29.95772498516554",
      "longitude": "-90.12321157642126"
    }
  },
  {
    "service_request": "2026-1291275",
    "request_type": "Trash/Recycling",
    "request_reason": "Request a Large Item Pick Up",
    "date_created": "2026-06-16T14:08:14.000",
    "date_modified": "2026-06-16T14:08:23.000",
    "request_status": "Pending",
    "responsible_agency": "Department of Sanitation",
    "final_address": "7802 Sail St",
    "address_councildis": "E",
    "status": "Assigned to Contractor",
    "contractor": "Waste Pro",
    "rowid": "1291275",
    "final_x": "3720165.65362",
    "final_y": "573842.936554",
    "longitude": "-89.94435973093235",
    "latitude": "30.070636347823253",
    "geocoded_column": {
      "latitude": "30.070636347823253",
      "longitude": "-89.94435973093235"
    }
  },
  {
    "service_request": "2026-1291274",
    "request_type": "Trash/Recycling",
    "request_reason": "Missed Trash Pick-Up",
    "date_created": "2026-06-16T14:07:15.000",
    "date_modified": "2026-06-16T14:07:17.000",
    "request_status": "Pending",
    "responsible_agency": "Department of Sanitation",
    "final_address": "7831 Sail St",
    "address_councildis": "E",
    "status": "Assigned to Contractor",
    "contractor": "Waste Pro",
    "rowid": "1291274",
    "final_x": "3720089.65695",
    "final_y": "574081.918314",
    "longitude": "-89.94459081871601",
    "latitude": "30.071295979379556",
    "geocoded_column": {
      "latitude": "30.071295979379556",
      "longitude": "-89.94459081871601"
    }
  },
  {
    "service_request": "2026-1291273",
    "request_type": "Trash/Recycling",
    "request_reason": "Order Trash Cart",
    "date_created": "2026-06-16T14:06:57.000",
    "date_modified": "2026-06-16T14:06:59.000",
    "request_status": "Pending",
    "responsible_agency": "Department of Sanitation",
    "final_address": "6900 Yorktown Dr",
    "address_councildis": "E",
    "status": "Assigned to Contractor",
    "contractor": "Waste Pro",
    "rowid": "1291273",
    "final_x": "3706373.14942",
    "final_y": "560020.116253",
    "longitude": "-89.98847430703314",
    "latitude": "30.03308163650069",
    "geocoded_column": {
      "latitude": "30.03308163650069",
      "longitude": "-89.98847430703314"
    }
  },
  {
    "service_request": "2026-1291272",
    "request_type": "Property Maintenance",
    "request_reason": "Property Maintenance",
    "date_created": "2026-06-16T14:06:53.000",
    "date_modified": "2026-06-16T14:06:54.000",
    "request_status": "Pending",
    "responsible_agency": "Department of Code Enforcement",
    "final_address": "3865 Gentilly Blvd",
    "address_councildis": "D",
    "status": "Pending",
    "rowid": "1291272",
    "final_x": "3688184.19951",
    "final_y": "548882.075027",
    "longitude": "-90.04634832320612",
    "latitude": "30.003030600110506",
    "geocoded_column": {
      "latitude": "30.003030600110506",
      "longitude": "-90.04634832320612"
    }
  },
  {
    "service_request": "2026-1291271",
    "request_type": "Trash/Recycling",
    "request_reason": "Request a Large Item Pick Up",
    "date_created": "2026-06-16T14:06:18.000",
    "date_modified": "2026-06-16T14:06:19.000",
    "request_status": "Pending",
    "responsible_agency": "Department of Sanitation",
    "final_address": "7831 Sail St",
    "address_councildis": "E",
    "status": "Assigned to Contractor",
    "contractor": "Waste Pro",
    "rowid": "1291271",
    "final_x": "3720089.65695",
    "final_y": "574081.918314",
    "longitude": "-89.94459081871601",
    "latitude": "30.071295979379556",
    "geocoded_column": {
      "latitude": "30.071295979379556",
      "longitude": "-89.94459081871601"
    }
  },
  {
    "service_request": "2026-1291270",
    "request_type": "Trash/Recycling",
    "request_reason": "Request a Large Item Pick Up",
    "date_created": "2026-06-16T14:04:04.000",
    "date_modified": "2026-06-16T14:04:06.000",
    "request_status": "Pending",
    "responsible_agency": "Department of Sanitation",
    "final_address": "7851 Sail St",
    "address_councildis": "E",
    "status": "Assigned to Contractor",
    "contractor": "Waste Pro",
    "rowid": "1291270",
    "final_x": "3719969.31039",
    "final_y": "574210.998634",
    "longitude": "-89.94496632203942",
    "latitude": "30.071654905630936",
    "geocoded_column": {
      "latitude": "30.071654905630936",
      "longitude": "-89.94496632203942"
    }
  },
  {
    "service_request": "2026-1291269",
    "request_type": "Trash/Recycling",
    "request_reason": "Repair Recycling Cart",
    "date_created": "2026-06-16T14:00:22.000",
    "date_modified": "2026-06-16T14:00:23.000",
    "request_status": "Pending",
    "responsible_agency": "Department of Sanitation",
    "final_address": "2501 Constance St",
    "address_councildis": "B",
    "status": "Pending",
    "rowid": "1291269",
    "final_x": "3677977.95291",
    "final_y": "521026.524601",
    "longitude": "-90.07955424164999",
    "latitude": "29.92674856425115",
    "geocoded_column": {
      "latitude": "29.92674856425115",
      "longitude": "-90.07955424164999"
    }
  },
  {
    "service_request": "2026-1291268",
    "request_type": "Trash/Recycling",
    "request_reason": "Request a Large Item Pick Up",
    "date_created": "2026-06-16T13:59:43.000",
    "date_modified": "2026-06-16T13:59:44.000",
    "request_status": "Pending",
    "responsible_agency": "Department of Sanitation",
    "final_address": "4813 Crowder Blvd",
    "address_councildis": "E",
    "status": "Assigned to Contractor",
    "contractor": "Waste Pro",
    "rowid": "1291268",
    "final_x": "3706463.48273",
    "final_y": "556074.121497",
    "longitude": "-89.988335217847",
    "latitude": "30.022228776292863",
    "geocoded_column": {
      "latitude": "30.022228776292863",
      "longitude": "-89.988335217847"
    }
  },
  {
    "service_request": "2026-1291267",
    "request_type": "Property Maintenance",
    "request_reason": "Property Maintenance",
    "date_created": "2026-06-16T13:59:17.000",
    "date_modified": "2026-06-16T13:59:19.000",
    "request_status": "Pending",
    "responsible_agency": "Department of Code Enforcement",
    "final_address": "1570 Annunciation St",
    "address_councildis": "B",
    "status": "Pending",
    "rowid": "1291267",
    "final_x": "3680892.06338",
    "final_y": "523059.073531",
    "longitude": "-90.0702844595455",
    "latitude": "29.93224940704158",
    "geocoded_column": {
      "latitude": "29.93224940704158",
      "longitude": "-90.0702844595455"
    }
  },
  {
    "service_request": "2026-1291266",
    "request_type": "Trash/Recycling",
    "request_reason": "Illegal Dumping",
    "date_created": "2026-06-16T13:59:05.000",
    "date_modified": "2026-06-16T13:59:07.000",
    "request_status": "Pending",
    "responsible_agency": "Department of Sanitation",
    "final_address": "EMMETT W BASHFUL BLVD & PRESS DR",
    "address_councildis": "D",
    "status": "Pending",
    "rowid": "1291266",
    "final_x": "3688873.4",
    "final_y": "556121.98",
    "longitude": "-90.04391366725072",
    "latitude": "30.02291636625397",
    "geocoded_column": {
      "latitude": "30.02291636625397",
      "longitude": "-90.04391366725072"
    }
  },
  {
    "service_request": "2026-1291265",
    "request_type": "Trash/Recycling",
    "request_reason": "Order Second Trash Cart",
    "date_created": "2026-06-16T13:57:02.000",
    "date_modified": "2026-06-16T13:57:03.000",
    "request_status": "Pending",
    "responsible_agency": "Department of Sanitation",
    "final_address": "2501 Constance St",
    "address_councildis": "B",
    "status": "Assigned to Contractor",
    "contractor": "IV Waste",
    "rowid": "1291265",
    "final_x": "3677977.95291",
    "final_y": "521026.524601",
    "longitude": "-90.07955424164999",
    "latitude": "29.92674856425115",
    "geocoded_column": {
      "latitude": "29.92674856425115",
      "longitude": "-90.07955424164999"
    }
  },
  {
    "service_request": "2026-1291264",
    "request_type": "Trash/Recycling",
    "request_reason": "Repair Trash Cart",
    "date_created": "2026-06-16T13:53:52.000",
    "date_modified": "2026-06-16T13:53:54.000",
    "request_status": "Pending",
    "responsible_agency": "Department of Sanitation",
    "final_address": "2501 Constance St",
    "address_councildis": "B",
    "status": "Assigned to Contractor",
    "contractor": "IV Waste",
    "rowid": "1291264",
    "final_x": "3677977.95291",
    "final_y": "521026.524601",
    "longitude": "-90.07955424164999",
    "latitude": "29.92674856425115",
    "geocoded_column": {
      "latitude": "29.92674856425115",
      "longitude": "-90.07955424164999"
    }
  },
  {
    "service_request": "2026-1291263",
    "request_type": "Property Maintenance",
    "request_reason": "Property Maintenance",
    "date_created": "2026-06-16T13:50:19.000",
    "date_modified": "2026-06-16T13:51:45.000",
    "request_status": "Pending",
    "responsible_agency": "Department of Code Enforcement",
    "final_address": "8120 Forshey St",
    "address_councildis": "A",
    "status": "Pending",
    "rowid": "1291263",
    "final_x": "3666844.08621",
    "final_y": "534010.692165",
    "longitude": "-90.11426491764855",
    "latitude": "29.962781118967094",
    "geocoded_column": {
      "latitude": "29.962781118967094",
      "longitude": "-90.11426491764855"
    }
  },
  {
    "service_request": "2026-1291262",
    "request_type": "Drainage",
    "request_reason": "Catch Basin Not Draining",
    "date_created": "2026-06-16T13:46:41.000",
    "date_modified": "2026-06-16T13:46:42.000",
    "request_status": "Pending",
    "responsible_agency": "Sewerage & Water Board",
    "final_address": "2726 Prytania St",
    "address_councildis": "B",
    "status": "Pending",
    "rowid": "1291262",
    "final_x": "3676306.64277",
    "final_y": "522107.487226",
    "longitude": "-90.08479294057153",
    "latitude": "29.92977103935137",
    "geocoded_column": {
      "latitude": "29.92977103935137",
      "longitude": "-90.08479294057153"
    }
  },