[
  {
    "service_request": "2026-1281818",
    "request_type": "Tree Service",
    "request_reason": "Street or Sidewalk Blocked",
    "date_created": "2026-05-15T21:19:11.000",
    "date_modified": "2026-05-15T22:30:31.000",
    "request_status": "Pending",
    "responsible_agency": "Department of Parks & Parkways",
    "final_address": "900 Dublin St",
    "address_councildis": "A",
    "status": "Pending",
    "rowid": "1281818",
    "final_x": "3660998.85184",
    "final_y": "527894.907583",
    "longitude": "-90.13292583631699",
    "latitude": "29.946134381967966",
    "geocoded_column": {
      "latitude": "29.946134381967966",
      "longitude": "-90.13292583631699"
    }
  },
  {
    "service_request": "2026-1281817",
    "request_type": "Trash/Recycling",
    "request_reason": "Order Recycling Cart",
    "date_created": "2026-05-15T20:58:24.000",
    "date_modified": "2026-05-15T20:58:26.000",
    "request_status": "Pending",
    "responsible_agency": "Department of Sanitation",
    "final_address": "823 Tricou St",
    "address_councildis": "E",
    "status": "Pending",
    "rowid": "1281817",
    "final_x": "3699793.86525",
    "final_y": "532119.563267",
    "longitude": "-90.01028338954386",
    "latitude": "29.95657614468134",
    "geocoded_column": {
      "latitude": "29.95657614468134",
      "longitude": "-90.01028338954386"
    }
  },
  {
    "service_request": "2026-1281816",
    "request_type": "Health Related Request",
    "request_reason": "Noise Ordinance Complaint",
    "date_created": "2026-05-15T20:58:03.000",
    "date_modified": "2026-05-15T20:58:05.000",
    "request_status": "Pending",
    "responsible_agency": "Health Department",
    "final_address": "316 N Villere St Apt R",
    "address_councildis": "C",
    "status": "Pending",
    "rowid": "1281816",
    "final_x": "3679615.1149",
    "final_y": "533185.384516",
    "longitude": "-90.07396431208856",
    "latitude": "29.96013202165831",
    "geocoded_column": {
      "latitude": "29.96013202165831",
      "longitude": "-90.07396431208856"
    }
  },
  {
    "service_request": "2026-1281815",
    "request_type": "Trash/Recycling",
    "request_reason": "Replace Trash Cart",
    "date_created": "2026-05-15T20:45:58.000",
    "date_modified": "2026-05-15T20:46:00.000",
    "request_status": "Pending",
    "responsible_agency": "Department of Sanitation",
    "final_address": "2805 General Pershing St",
    "address_councildis": "B",
    "status": "Assigned to Contractor",
    "contractor": "IV Waste",
    "rowid": "1281815",
    "final_x": "3670869.13844",
    "final_y": "525205.923453",
    "longitude": "-90.10185311638969",
    "latitude": "29.93845253465303",
    "geocoded_column": {
      "latitude": "29.93845253465303",
      "longitude": "-90.10185311638969"
    }
  },
  {
    "service_request": "2026-1281814",
    "request_type": "Roads and Streets",
    "request_reason": "Pothole",
    "date_created": "2026-05-15T20:27:33.000",
    "date_modified": "2026-05-15T20:27:47.000",
    "request_status": "Pending",
    "responsible_agency": "Department of Public Works",
    "final_address": "821 Evelina St",
    "address_councildis": "C",
    "status": "Pending",
    "rowid": "1281814",
    "final_x": "3688015.53667",
    "final_y": "529442.896641",
    "longitude": "-90.0475702546577",
    "latitude": "29.949584926266557",
    "geocoded_column": {
      "latitude": "29.949584926266557",
      "longitude": "-90.0475702546577"
    }
  },
  {
    "service_request": "2026-1281813",
    "request_type": "Trash/Recycling",
    "request_reason": "Request a Large Item Pick Up",
    "date_created": "2026-05-15T20:09:27.000",
    "date_modified": "2026-05-15T20:09:29.000",
    "request_status": "Pending",
    "responsible_agency": "Department of Sanitation",
    "final_address": "4841 Bienville Ave",
    "address_councildis": "A",
    "status": "Assigned to Contractor",
    "contractor": "IV Waste",
    "rowid": "1281813",
    "final_x": "3669068.00263",
    "final_y": "540943.396875",
    "longitude": "-90.10700775294562",
    "latitude": "29.98177848620983",
    "geocoded_column": {
      "latitude": "29.98177848620983",
      "longitude": "-90.10700775294562"
    }
  },
  {
    "service_request": "2026-1281812",
    "request_type": "Trash/Recycling",
    "request_reason": "Request a Large Item Pick Up",
    "date_created": "2026-05-15T19:51:34.000",
    "date_modified": "2026-05-15T19:51:36.000",
    "request_status": "Pending",
    "responsible_agency": "Department of Sanitation",
    "final_address": "3420 Nashville Ave",
    "address_councildis": "B",
    "status": "Assigned to Contractor",
    "contractor": "IV Waste",
    "rowid": "1281812",
    "final_x": "3668049.49652",
    "final_y": "528291.301568",
    "longitude": "-90.1106510985249",
    "latitude": "29.94701935160041",
    "geocoded_column": {
      "latitude": "29.94701935160041",
      "longitude": "-90.1106510985249"
    }
  },
  {
    "service_request": "2026-1281811",
    "request_type": "Trash/Recycling",
    "request_reason": "Repair Trash Cart",
    "date_created": "2026-05-15T19:21:04.000",
    "date_modified": "2026-05-15T19:21:06.000",
    "request_status": "Pending",
    "responsible_agency": "Department of Sanitation",
    "final_address": "5928 Milne Blvd",
    "address_councildis": "A",
    "status": "Assigned to Contractor",
    "contractor": "IV Waste",
    "rowid": "1281811",
    "final_x": "3666925.78266",
    "final_y": "547345.574033",
    "longitude": "-90.1135586601324",
    "latitude": "29.999445156828873",
    "geocoded_column": {
      "latitude": "29.999445156828873",
      "longitude": "-90.1135586601324"
    }
  },
  {
    "service_request": "2026-1281810",
    "request_type": "Trash/Recycling",
    "request_reason": "Illegal Dumping",
    "date_created": "2026-05-15T19:05:45.000",
    "date_modified": "2026-05-15T19:05:47.000",
    "request_status": "Pending",
    "responsible_agency": "Department of Sanitation",
    "final_address": "1308 S Saratoga St",
    "address_councildis": "B",
    "status": "Pending",
    "rowid": "1281810",
    "final_x": "3677846.47771",
    "final_y": "527000.211198",
    "longitude": "-90.07976297106492",
    "latitude": "29.943178195916754",
    "geocoded_column": {
      "latitude": "29.943178195916754",
      "longitude": "-90.07976297106492"
    }
  },
  {
    "service_request": "2026-1281809",
    "request_type": "Trash/Recycling",
    "request_reason": "Damaged Caused By Contractor",
    "date_created": "2026-05-15T19:03:25.000",
    "date_modified": "2026-05-15T19:03:26.000",
    "request_status": "Pending",
    "responsible_agency": "Department of Sanitation",
    "final_address": "7725 Mayo Rd",
    "address_councildis": "E",
    "status": "Assigned to Contractor",
    "contractor": "Waste Pro",
    "rowid": "1281809",
    "final_x": "3700742.56541",
    "final_y": "561216.714718",
    "longitude": "-90.00622358226599",
    "latitude": "30.0365523253321",
    "geocoded_column": {
      "latitude": "30.0365523253321",
      "longitude": "-90.00622358226599"
    }
  },
  {
    "service_request": "2026-1281808",
    "request_type": "Trash/Recycling",
    "request_reason": "Replace Trash Cart",
    "date_created": "2026-05-15T18:54:18.000",
    "date_modified": "2026-05-15T18:54:21.000",
    "request_status": "Pending",
    "responsible_agency": "Department of Sanitation",
    "final_address": "6726 Fleur-De-Lis Dr",
    "address_councildis": "A",
    "status": "Assigned to Contractor",
    "contractor": "IV Waste",
    "rowid": "1281808",
    "final_x": "3665356.01178",
    "final_y": "552952.074903",
    "longitude": "-90.11832983374639",
    "latitude": "30.014906944850942",
    "geocoded_column": {
      "latitude": "30.014906944850942",
      "longitude": "-90.11832983374639"
    }
  },
  {
    "service_request": "2026-1281807",
    "request_type": "Abandoned Vehicles",
    "request_reason": "Abandoned/Junk Vehicles",
    "date_created": "2026-05-15T18:41:04.000",
    "date_modified": "2026-05-15T18:41:05.000",
    "request_status": "Pending",
    "responsible_agency": "Department of Public Works",
    "final_address": "4534 S Tonti St",
    "address_councildis": "B",
    "status": "Pending",
    "rowid": "1281807",
    "final_x": "3669413.49729",
    "final_y": "528031.272383",
    "longitude": "-90.10635321992936",
    "latitude": "29.94626426488464",
    "geocoded_column": {
      "latitude": "29.94626426488464",
      "longitude": "-90.10635321992936"
    }
  },
  {
    "service_request": "2026-1281806",
    "request_type": "Parks & Grass Service",
    "request_reason": "Park Maintenance/Clean Up",
    "date_created": "2026-05-15T18:24:08.000",
    "date_modified": "2026-05-15T18:24:10.000",
    "request_status": "Pending",
    "responsible_agency": "Department of Parks & Parkways",
    "final_address": "3301 Royal St",
    "address_councildis": "C",
    "status": "Pending",
    "rowid": "1281806",
    "final_x": "3689507.60585",
    "final_y": "534299.647045",
    "longitude": "-90.04268640237082",
    "latitude": "29.962893187662416",
    "geocoded_column": {
      "latitude": "29.962893187662416",
      "longitude": "-90.04268640237082"
    }
  },
  {
    "service_request": "2026-1281805",
    "request_type": "Trash/Recycling",
    "request_reason": "Order Recycling Cart",
    "date_created": "2026-05-15T18:23:50.000",
    "date_modified": "2026-05-15T18:23:54.000",
    "request_status": "Pending",
    "responsible_agency": "Department of Sanitation",
    "final_address": "307 Virginia St",
    "address_councildis": "A",
    "status": "Pending",
    "rowid": "1281805",
    "final_x": "3668431.71258",
    "final_y": "541452.790348",
    "longitude": "-90.10900027234646",
    "latitude": "29.983197854953428",
    "geocoded_column": {
      "latitude": "29.983197854953428",
      "longitude": "-90.10900027234646"
    }
  },
  {
    "service_request": "2026-1281804",
    "request_type": "Street and Traffic Signs",
    "request_reason": "Additional Signage Request",
    "date_created": "2026-05-15T17:47:19.000",
    "date_modified": "2026-05-15T17:47:22.000",
    "request_status": "Pending",
    "responsible_agency": "Department of Public Works",
    "final_address": "8500 BLK Pritchard Pl",
    "address_councildis": "A",
    "status": "Pending",
    "rowid": "1281804",
    "final_x": "3664878.97139",
    "final_y": "533958.519469",
    "longitude": "-90.12047226598285",
    "latitude": "29.962695002097792",
    "geocoded_column": {
      "latitude": "29.962695002097792",
      "longitude": "-90.12047226598285"
    }
  },
  {
    "service_request": "2026-1281803",
    "request_type": "General Services",
    "request_reason": "General Service Request",
    "date_created": "2026-05-15T17:28:48.000",
    "date_modified": "2026-05-15T17:28:49.000",
    "request_status": "Pending",
    "responsible_agency": "Orleans Parish Communication District",
    "final_address": "4201 Magazine St",
    "address_councildis": "B",
    "status": "Pending",
    "rowid": "1281803",
    "final_x": "3671766.95655",
    "final_y": "518905.173687",
    "longitude": "-90.0992328511564",
    "latitude": "29.921100935598307",
    "geocoded_column": {
      "latitude": "29.921100935598307",
      "longitude": "-90.0992328511564"
    }
  },
  {
    "service_request": "2026-1281802",
    "request_type": "Roads and Streets",
    "request_reason": "Street Subsidence (Sinking)",
    "date_created": "2026-05-15T17:26:40.000",
    "date_modified": "2026-05-15T17:26:44.000",
    "request_status": "Pending",
    "responsible_agency": "Sewerage & Water Board",
    "final_address": "3431 Lowerline St",
    "address_councildis": "B",
    "status": "Pending",
    "rowid": "1281802",
    "final_x": "3668277.69396",
    "final_y": "533617.623365",
    "longitude": "-90.10975101011931",
    "latitude": "29.961658293332263",
    "geocoded_column": {
      "latitude": "29.961658293332263",
      "longitude": "-90.10975101011931"
    }
  },
  {
    "service_request": "2026-1281801",
    "request_type": "Property Maintenance",
    "request_reason": "Property Maintenance",
    "date_created": "2026-05-15T17:23:44.000",
    "date_modified": "2026-05-15T17:23:46.000",
    "request_status": "Pending",
    "responsible_agency": "Department of Code Enforcement",
    "final_address": "3200 BLK Seine St",
    "address_councildis": "C",
    "status": "Pending",
    "rowid": "1281801",
    "final_x": "3695728.432",
    "final_y": "519857.916109",
    "longitude": "-90.02356321227654",
    "latitude": "29.922989296867055",
    "geocoded_column": {
      "latitude": "29.922989296867055",
      "longitude": "-90.02356321227654"
    }
  },
  {
    "service_request": "2026-1281800",
    "request_type": "Trash/Recycling",
    "request_reason": "Request a Large Item Pick Up",
    "date_created": "2026-05-15T17:20:13.000",
    "date_modified": "2026-05-15T17:20:16.000",
    "request_status": "Pending",
    "responsible_agency": "Department of Sanitation",
    "final_address": "2019 Easter Ln",
    "address_councildis": "C",
    "status": "Assigned to Contractor",
    "contractor": "Richards Disposal",
    "rowid": "1281800",
    "final_x": "3699453.84183",
    "final_y": "524027.80902",
    "longitude": "-90.01165178742752",
    "latitude": "29.93433744893314",
    "geocoded_column": {
      "latitude": "29.93433744893314",
      "longitude": "-90.01165178742752"
    }
  },
  {
    "service_request": "2026-1281799",
    "request_type": "Streetlights",
    "request_reason": "Streetlight Outage/Malfunction",
    "date_created": "2026-05-15T17:10:12.000",
    "date_modified": "2026-05-15T17:10:14.000",
    "request_status": "Pending",
    "responsible_agency": "Department of Public Works",
    "final_address": "831 Gallier St",
    "address_councildis": "C",
    "status": "Pending",
    "rowid": "1281799",
    "final_x": "3690273.30377",
    "final_y": "534736.350022",
    "longitude": "-90.04025287045532",
    "latitude": "29.964070231179143",
    "geocoded_column": {
      "latitude": "29.964070231179143",
      "longitude": "-90.04025287045532"
    }
  },
  {
    "service_request": "2026-1281798",
    "request_type": "Abandoned Vehicles",
    "request_reason": "Abandoned/Junk Vehicles",
    "date_created": "2026-05-15T17:08:31.000",
    "date_modified": "2026-05-15T17:08:34.000",
    "request_status": "Pending",
    "responsible_agency": "Department of Public Works",
    "final_address": "8121 Lomond Rd",
    "address_councildis": "E",
    "status": "Pending",
    "rowid": "1281798",
    "final_x": "3702622.13393",
    "final_y": "561623.038111",
    "longitude": "-90.000268861874",
    "latitude": "30.037609564850165",
    "geocoded_column": {
      "latitude": "30.037609564850165",
      "longitude": "-90.000268861874"
    }
  },
  {
    "service_request": "2026-1281797",
    "request_type": "Trash/Recycling",
    "request_reason": "Replace Trash Cart",
    "date_created": "2026-05-15T16:59:48.000",
    "date_modified": "2026-05-15T16:59:50.000",
    "request_status": "Pending",
    "responsible_agency": "Department of Sanitation",
    "final_address": "2321 Washington Ave",
    "address_councildis": "B",
    "status": "Assigned to Contractor",
    "contractor": "IV Waste",
    "rowid": "1281797",
    "final_x": "3674479.13614",
    "final_y": "524788.27622",
    "longitude": "-90.0904702758049",
    "latitude": "29.937196965554115",
    "geocoded_column": {
      "latitude": "29.937196965554115",
      "longitude": "-90.0904702758049"
    }
  },
  {
    "service_request": "2026-1281796",
    "request_type": "Trash/Recycling",
    "request_reason": "Request a Large Item Pick Up",
    "date_created": "2026-05-15T16:55:27.000",
    "date_modified": "2026-05-15T16:55:33.000",
    "request_status": "Pending",
    "responsible_agency": "Department of Sanitation",
    "final_address": "3019 Joseph St",
    "address_councildis": "B",
    "status": "Assigned to Contractor",
    "contractor": "IV Waste",
    "rowid": "1281796",
    "final_x": "3667970.43981",
    "final_y": "526880.150334",
    "longitude": "-90.11094824251568",
    "latitude": "29.943141462271317",
    "geocoded_column": {
      "latitude": "29.943141462271317",
      "longitude": "-90.11094824251568"
    }
  },
  {
    "service_request": "2026-1281795",
    "request_type": "Trash/Recycling",
    "request_reason": "Order Trash Cart",
    "date_created": "2026-05-15T16:52:58.000",
    "date_modified": "2026-05-15T16:53:00.000",
    "request_status": "Pending",
    "responsible_agency": "Department of Sanitation",
    "final_address": "2321 Washington Ave",
    "address_councildis": "B",
    "status": "Assigned to Contractor",
    "contractor": "IV Waste",
    "rowid": "1281795",
    "final_x": "3674479.13614",
    "final_y": "524788.27622",
    "longitude": "-90.0904702758049",
    "latitude": "29.937196965554115",
    "geocoded_column": {
      "latitude": "29.937196965554115",
      "longitude": "-90.0904702758049"
    }
  },
  {
    "service_request": "2026-1281794",
    "request_type": "Health Related Request",
    "request_reason": "Homeless Encampment Complaint",
    "date_created": "2026-05-15T16:44:54.000",
    "date_modified": "2026-05-15T16:50:07.000",
    "request_status": "Pending",
    "responsible_agency": "Office Of Homeless Services And Strategy",
    "final_address": "DWYER RD & DOWNMAN RD",
    "address_councildis": "D",
    "status": "Pending",
    "rowid": "1281794",
    "final_x": "3695933.0",
    "final_y": "554548.88",
    "longitude": "-90.02166393746174",
    "latitude": "30.018370610334024",
    "geocoded_column": {
      "latitude": "30.018370610334024",
      "longitude": "-90.02166393746174"
    }
  },
  {
    "service_request": "2026-1281793",
    "request_type": "Trash/Recycling",
    "request_reason": "Replace Recycling Cart",
    "date_created": "2026-05-15T16:44:18.000",
    "date_modified": "2026-05-15T16:44:20.000",
    "request_status": "Pending",
    "responsible_agency": "Department of Sanitation",
    "final_address": "2621 Rousseau St",
    "address_councildis": "B",
    "status": "Pending",
    "rowid": "1281793",
    "final_x": "3678641.1837",
    "final_y": "519208.824631",
    "longitude": "-90.07752348716248",
    "latitude": "29.921730509074422",
    "geocoded_column": {
      "latitude": "29.921730509074422",
      "longitude": "-90.07752348716248"
    }
  },
  {
    "service_request": "2026-1281792",
    "request_type": "Trash/Recycling",
    "request_reason": "Request a Large Item Pick Up",
    "date_created": "2026-05-15T16:43:44.000",
    "date_modified": "2026-05-15T16:43:47.000",
    "request_status": "Pending",
    "responsible_agency": "Department of Sanitation",
    "final_address": "8600 Lake Forest Blvd",
    "address_councildis": "E",
    "status": "Assigned to Contractor",
    "contractor": "Waste Pro",
    "rowid": "1281792",
    "final_x": "3706233.01867",
    "final_y": "557882.382491",
    "longitude": "-89.98899638685525",
    "latitude": "30.027208226926486",
    "geocoded_column": {
      "latitude": "30.027208226926486",
      "longitude": "-89.98899638685525"
    }
  },
  {
    "service_request": "2026-1281791",
    "request_type": "Trash/Recycling",
    "request_reason": "Order Recycling Cart",
    "date_created": "2026-05-15T16:39:30.000",
    "date_modified": "2026-05-15T16:39:32.000",
    "request_status": "Pending",
    "responsible_agency": "Department of Sanitation",
    "final_address": "4835 Papania Dr",
    "address_councildis": "E",
    "status": "Pending",
    "rowid": "1281791",
    "final_x": "3715590.46565",
    "final_y": "557286.352987",
    "longitude": "-89.95945061355093",
    "latitude": "30.0252641969279",
    "geocoded_column": {
      "latitude": "30.0252641969279",
      "longitude": "-89.95945061355093"
    }
  },
  {
    "service_request": "2026-1281790",
    "request_type": "Trash/Recycling",
    "request_reason": "Order Trash Cart",
    "date_created": "2026-05-15T16:37:12.000",
    "date_modified": "2026-05-15T16:37:13.000",
    "request_status": "Pending",
    "responsible_agency": "Department of Sanitation",
    "final_address": "4835 Papania Dr",
    "address_councildis": "E",
    "status": "Assigned to Contractor",
    "contractor": "Waste Pro",
    "rowid": "1281790",
    "final_x": "3715590.46565",
    "final_y": "557286.352987",
    "longitude": "-89.95945061355093",
    "latitude": "30.0252641969279",
    "geocoded_column": {
      "latitude": "30.0252641969279",
      "longitude": "-89.95945061355093"
    }
  },
  {
    "service_request": "2026-1281789",
    "request_type": "Trash/Recycling",
    "request_reason": "Missed Trash Pick-Up",
    "date_created": "2026-05-15T16:37:09.000",
    "date_modified": "2026-05-15T16:37:11.000",
    "request_status": "Pending",
    "responsible_agency": "Department of Sanitation",
    "final_address": "11001 Chef Menteur Hwy",
    "address_councildis": "E",
    "status": "Assigned to Contractor",
    "contractor": "Waste Pro",
    "rowid": "1281789",
    "final_x": "3716193.24895",
    "final_y": "556009.300185",
    "longitude": "-89.95759438072872",
    "latitude": "30.021732922624327",
    "geocoded_column": {
      "latitude": "30.021732922624327",
      "longitude": "-89.95759438072872"
    }
  },
  {
    "service_request": "2026-1281788",
    "request_type": "Trash/Recycling",
    "request_reason": "Replace Trash Cart",
    "date_created": "2026-05-15T16:35:08.000",
    "date_modified": "2026-05-15T16:35:13.000",
    "request_status": "Pending",
    "responsible_agency": "Department of Sanitation",
    "final_address": "3421 Hollygrove St",
    "address_councildis": "A",
    "status": "Assigned to Contractor",
    "contractor": "IV Waste",
    "rowid": "1281788",
    "final_x": "3665029.14932",
    "final_y": "536408.163591",
    "longitude": "-90.1199161031598",
    "latitude": "29.969426344072126",
    "geocoded_column": {
      "latitude": "29.969426344072126",
      "longitude": "-90.1199161031598"
    }
  },
  {
    "service_request": "2026-1281787",
    "request_type": "Trash/Recycling",
    "request_reason": "Repair Trash Cart",
    "date_created": "2026-05-15T16:32:02.000",
    "date_modified": "2026-05-15T16:32:59.000",
    "request_status": "Pending",
    "responsible_agency": "Department of Sanitation",
    "final_address": "2324 Cambronne St",
    "address_councildis": "A",
    "status": "Assigned to Contractor",
    "contractor": "IV Waste",
    "rowid": "1281787",
    "final_x": "3663880.68544",
    "final_y": "532145.356739",
    "longitude": "-90.12368518113013",
    "latitude": "29.957738413843924",
    "geocoded_column": {
      "latitude": "29.957738413843924",
      "longitude": "-90.12368518113013"
    }
  },
  {
    "service_request": "2026-1281786",
    "request_type": "Healthy Homes",
    "request_reason": "Healthy Homes",
    "date_created": "2026-05-15T16:26:59.000",
    "date_modified": "2026-05-15T16:27:00.000",
    "request_status": "Pending",
    "responsible_agency": "Department of Code Enforcement",
    "final_address": "1113 Canal St Apt 208",
    "address_councildis": "C",
    "status": "Pending",
    "rowid": "1281786",
    "final_x": "3679998.28213",
    "final_y": "531755.360067",
    "longitude": "-90.0728040289847",
    "latitude": "29.956188353749546",
    "geocoded_column": {
      "latitude": "29.956188353749546",
      "longitude": "-90.0728040289847"
    }
  },
  {
    "service_request": "2026-1281785",
    "request_type": "Property Maintenance",
    "request_reason": "Property Maintenance",
    "date_created": "2026-05-15T16:22:58.000",
    "date_modified": "2026-05-15T16:22:59.000",
    "request_status": "Pending",
    "responsible_agency": "Department of Code Enforcement",
    "final_address": "8240 Apricot St",
    "address_councildis": "A",
    "status": "Pending",
    "rowid": "1281785",
    "final_x": "3665303.08704",
    "final_y": "533050.453764",
    "longitude": "-90.1191633448784",
    "latitude": "29.96018576866727",
    "geocoded_column": {
      "latitude": "29.96018576866727",
      "longitude": "-90.1191633448784"
    }
  },
  {
    "service_request": "2026-1281784",
    "request_type": "Abandoned Vehicles",
    "request_reason": "Abandoned/Junk Vehicles",
    "date_created": "2026-05-15T16:17:31.000",
    "date_modified": "2026-05-15T16:17:32.000",
    "request_status": "Pending",
    "responsible_agency": "Department of Public Works",
    "final_address": "1427 Deslonde St",
    "address_councildis": "E",
    "status": "Pending",
    "rowid": "1281784",
    "final_x": "3695815.29782",
    "final_y": "535814.872775",
    "longitude": "-90.02271287837335",
    "latitude": "29.966862654769994",
    "geocoded_column": {
      "latitude": "29.966862654769994",
      "longitude": "-90.02271287837335"
    }
  },
  {
    "service_request": "2026-1281783",
    "request_type": "Trash/Recycling",
    "request_reason": "Request a Large Item Pick Up",
    "date_created": "2026-05-15T16:10:26.000",
    "date_modified": "2026-05-15T16:10:28.000",
    "request_status": "Pending",
    "responsible_agency": "Department of Sanitation",
    "final_address": "7110 Whitmore Pl",
    "address_councildis": "E",
    "status": "Assigned to Contractor",
    "contractor": "Waste Pro",
    "rowid": "1281783",
    "final_x": "3718727.97247",
    "final_y": "569567.073766",
    "longitude": "-89.94906789513598",
    "latitude": "30.05892735535352",
    "geocoded_column": {
      "latitude": "30.05892735535352",
      "longitude": "-89.94906789513598"
    }
  },
  {
    "service_request": "2026-1281782",
    "request_type": "Streetlights",
    "request_reason": "Streetlight Outage/Malfunction",
    "date_created": "2026-05-15T16:08:21.000",
    "date_modified": "2026-05-15T16:08:25.000",
    "request_status": "Pending",
    "responsible_agency": "Department of Public Works",
    "final_address": "8217 Neron Pl",
    "address_councildis": "A",
    "status": "Pending",
    "rowid": "1281782",
    "final_x": "3664133.1234",
    "final_y": "531676.286979",
    "longitude": "-90.12290369828419",
    "latitude": "29.956441294528414",
    "geocoded_column": {
      "latitude": "29.956441294528414",
      "longitude": "-90.12290369828419"
    }
  },
  {
    "service_request": "2026-1281781",
    "request_type": "Abandoned Vehicles",
    "request_reason": "Abandoned/Junk Vehicles",
    "date_created": "2026-05-15T16:08:16.000",
    "date_modified": "2026-05-15T16:08:24.000",
    "request_status": "Pending",
    "responsible_agency": "Department of Public Works",
    "final_address": "3401 Annunciation St",
    "address_councildis": "B",
    "status": "Pending",
    "rowid": "1281781",
    "final_x": "3675348.05326",
    "final_y": "518605.898231",
    "longitude": "-90.08793918760863",
    "latitude": "29.920171485210638",
    "geocoded_column": {
      "latitude": "29.920171485210638",
      "longitude": "-90.08793918760863"
    }
  },
  {
    "service_request": "2026-1281780",
    "request_type": "Trash/Recycling",
    "request_reason": "Repair Trash Cart",
    "date_created": "2026-05-15T16:06:58.000",
    "date_modified": "2026-05-15T16:07:00.000",
    "request_status": "Pending",
    "responsible_agency": "Department of Sanitation",
    "final_address": "7601 Scottwood Dr",
    "address_councildis": "E",
    "status": "Assigned to Contractor",
    "contractor": "Waste Pro",
    "rowid": "1281780",
    "final_x": "3717508.86021",
    "final_y": "570551.111655",
    "longitude": "-89.95288388660158",
    "latitude": "30.061673490150408",
    "geocoded_column": {
      "latitude": "30.061673490150408",
      "longitude": "-89.95288388660158"
    }
  },
  {
    "service_request": "2026-1281779",
    "request_type": "Trash/Recycling",
    "request_reason": "Request a Large Item Pick Up",
    "date_created": "2026-05-15T16:06:42.000",
    "date_modified": "2026-05-15T16:06:43.000",
    "request_status": "Pending",
    "responsible_agency": "Department of Sanitation",
    "final_address": "5010 Sierra Madre Dr",
    "address_councildis": "E",
    "status": "Assigned to Contractor",
    "contractor": "Waste Pro",
    "rowid": "1281779",
    "final_x": "3713704.70693",
    "final_y": "557745.794395",
    "longitude": "-89.96539192979809",
    "latitude": "30.02658951450945",
    "geocoded_column": {
      "latitude": "30.02658951450945",
      "longitude": "-89.96539192979809"
    }
  },
  {
    "service_request": "2026-1281778",
    "request_type": "Streetlights",
    "request_reason": "Streetlight Outage/Malfunction",
    "date_created": "2026-05-15T16:06:27.000",
    "date_modified": "2026-05-15T16:06:29.000",
    "request_status": "Pending",
    "responsible_agency": "Department of Public Works",
    "final_address": "6919 Lake Willow Dr",
    "address_councildis": "E",
    "status": "Pending",
    "rowid": "1281778",
    "final_x": "3702960.55274",
    "final_y": "558801.685468",
    "longitude": "-89.99930318996768",
    "latitude": "30.02984111570037",
    "geocoded_column": {
      "latitude": "30.02984111570037",
      "longitude": "-89.99930318996768"
    }
  },
  {
    "service_request": "2026-1281777",
    "request_type": "Trash/Recycling",
    "request_reason": "Request a Large Item Pick Up",
    "date_created": "2026-05-15T16:02:02.000",
    "date_modified": "2026-05-15T16:02:04.000",
    "request_status": "Pending",
    "responsible_agency": "Department of Sanitation",
    "final_address": "2747 Bienville Ave",
    "address_councildis": "B",
    "status": "Assigned to Contractor",
    "contractor": "IV Waste",
    "rowid": "1281777",
    "final_x": "3675525.39457",
    "final_y": "536037.455367",
    "longitude": "-90.0867808121435",
    "latitude": "29.968097215492044",
    "geocoded_column": {
      "latitude": "29.968097215492044",
      "longitude": "-90.0867808121435"
    }
  },
  {
    "service_request": "2026-1281775",
    "request_type": "Property Maintenance",
    "request_reason": "Property Maintenance",
    "date_created": "2026-05-15T15:45:10.000",
    "date_modified": "2026-05-15T15:45:12.000",
    "request_status": "Pending",
    "responsible_agency": "Department of Code Enforcement",
    "final_address": "1930 N Rampart St",
    "address_councildis": "C",
    "status": "Pending",
    "rowid": "1281775",
    "final_x": "3684165.16777",
    "final_y": "535839.188231",
    "longitude": "-90.05950307587159",
    "latitude": "29.96729077645893",
    "geocoded_column": {
      "latitude": "29.96729077645893",
      "longitude": "-90.05950307587159"
    }
  },
  {
    "service_request": "2026-1281774",
    "request_type": "Trash/Recycling",
    "request_reason": "Order Trash Cart",
    "date_created": "2026-05-15T15:44:14.000",
    "date_modified": "2026-05-15T15:44:16.000",
    "request_status": "Pending",
    "responsible_agency": "Department of Sanitation",
    "final_address": "7008 Crowder Blvd Apt B",
    "address_councildis": "E",
    "status": "Assigned to Contractor",
    "contractor": "Waste Pro",
    "rowid": "1281774",
    "final_x": "3704329.12318",
    "final_y": "559473.712989",
    "longitude": "-89.99495374518457",
    "latitude": "30.03164504740391",
    "geocoded_column": {
      "latitude": "30.03164504740391",
      "longitude": "-89.99495374518457"
    }
  },
  {
    "service_request": "2026-1281772",
    "request_type": "Trash/Recycling",
    "request_reason": "Request a Large Item Pick Up",
    "date_created": "2026-05-15T15:31:52.000",
    "date_modified": "2026-05-15T15:31:53.000",
    "request_status": "Pending",
    "responsible_agency": "Department of Sanitation",
    "final_address": "213 S Murat St",
    "address_councildis": "A",
    "status": "Assigned to Contractor",
    "contractor": "IV Waste",
    "rowid": "1281772",
    "final_x": "3669282.34254",
    "final_y": "538982.305866",
    "longitude": "-90.10639708873776",
    "latitude": "29.976379840011525",
    "geocoded_column": {
      "latitude": "29.976379840011525",
      "longitude": "-90.10639708873776"
    }
  },
  {
    "service_request": "2026-1281771",
    "request_type": "Trash/Recycling",
    "request_reason": "Request a Large Item Pick Up",
    "date_created": "2026-05-15T15:31:43.000",
    "date_modified": "2026-05-15T15:31:45.000",
    "request_status": "Pending",
    "responsible_agency": "Department of Sanitation",
    "final_address": "4900 Moore Dr",
    "address_councildis": "D",
    "status": "Assigned to Contractor",
    "contractor": "IV Waste",
    "rowid": "1281771",
    "final_x": "3680004.76245",
    "final_y": "549497.312275",
    "longitude": "-90.07216694974049",
    "latitude": "30.004972355761613",
    "geocoded_column": {
      "latitude": "30.004972355761613",
      "longitude": "-90.07216694974049"
    }
  },
  {
    "service_request": "2026-1281770",
    "request_type": "Graffiti Removal",
    "request_reason": "Graffiti Removal",
    "date_created": "2026-05-15T15:25:28.000",
    "date_modified": "2026-05-15T15:25:30.000",
    "request_status": "Pending",
    "responsible_agency": "Department of Code Enforcement",
    "final_address": "2300 N Peters St",
    "address_councildis": "C",
    "status": "Pending",
    "rowid": "1281770",
    "final_x": "3685783.80777",
    "final_y": "533697.841349",
    "longitude": "-90.0544668744347",
    "latitude": "29.961353235906742",
    "geocoded_column": {
      "latitude": "29.961353235906742",
      "longitude": "-90.0544668744347"
    }
  },
  {
    "service_request": "2026-1281769",
    "request_type": "Trash/Recycling",
    "request_reason": "Request a Large Item Pick Up",
    "date_created": "2026-05-15T15:22:51.000",
    "date_modified": "2026-05-15T15:22:54.000",
    "request_status": "Pending",
    "responsible_agency": "Department of Sanitation",
    "final_address": "1021 Wilson Dr",
    "address_councildis": "A",
    "status": "Assigned to Contractor",
    "contractor": "IV Waste",
    "rowid": "1281769",
    "final_x": "3674392.06894",
    "final_y": "540649.353867",
    "longitude": "-90.09020189136714",
    "latitude": "29.980812218406793",
    "geocoded_column": {
      "latitude": "29.980812218406793",
      "longitude": "-90.09020189136714"
    }
  },
  {
    "service_request": "2026-1281768",
    "request_type": "Trash/Recycling",
    "request_reason": "Return Trash Cart",
    "date_created": "2026-05-15T15:22:39.000",
    "date_modified": "2026-05-15T15:22:43.000",
    "request_status": "Pending",
    "responsible_agency": "Department of Sanitation",
    "final_address": "4341 St Bernard Ave",
    "address_councildis": "D",
    "status": "Assigned to Contractor",
    "contractor": "IV Waste",
    "rowid": "1281768",
    "final_x": "3676914.42248",
    "final_y": "548652.237267",
    "longitude": "-90.08195913423282",
    "latitude": "30.002741862987715",
    "geocoded_column": {
      "latitude": "30.002741862987715",
      "longitude": "-90.08195913423282"
    }
  },
  {
    "service_request": "2026-1281767",
    "request_type": "Tree Service",
    "request_reason": "Tree Trim",
    "date_created": "2026-05-15T15:20:43.000",
    "date_modified": "2026-05-15T15:20:44.000",
    "request_status": "Pending",
    "responsible_agency": "Department of Parks & Parkways",
    "final_address": "5128 Westlake Dr",
    "address_councildis": "E",
    "status": "Pending",
    "rowid": "1281767",
    "final_x": "3699430.0184",
    "final_y": "556267.621402",
    "longitude": "-90.01055202892506",
    "latitude": "30.02298595947222",
    "geocoded_column": {
      "latitude": "30.02298595947222",
      "longitude": "-90.01055202892506"
    }
  },
  {
    "service_request": "2026-1281766",
    "request_type": "Safety & Permits",
    "request_reason": "Zoning Enforcement",
    "date_created": "2026-05-15T15:17:13.000",
    "date_modified": "2026-05-15T15:17:58.000",
    "request_status": "Pending",
    "responsible_agency": "Safety and Permits",
    "final_address": "7600 BLK Jahncke Rd",
    "address_councildis": "E",
    "status": "Pending",
    "rowid": "1281766",
    "final_x": "3714138.21047",
    "final_y": "568301.633854",
    "longitude": "-89.96362340130587",
    "latitude": "30.055599576808135",
    "geocoded_column": {
      "latitude": "30.055599576808135",
      "longitude": "-89.96362340130587"
    }
  },
  {
    "service_request": "2026-1281765",
    "request_type": "Abandoned Vehicles",
    "request_reason": "Abandoned/Junk Vehicles",
    "date_created": "2026-05-15T15:14:11.000",
    "date_modified": "2026-05-15T15:18:42.000",
    "request_status": "Pending",
    "responsible_agency": "Department of Public Works",
    "final_address": "10200 Almonaster Ave",
    "address_councildis": "E",
    "status": "Inspected",
    "rowid": "1281765",
    "final_x": "3713684.56383",
    "final_y": "551626.395989",
    "longitude": "-89.96568637555853",
    "latitude": "30.00976423388402",
    "geocoded_column": {
      "latitude": "30.00976423388402",
      "longitude": "-89.96568637555853"
    }
  },
  {
    "service_request": "2026-1281764",
    "request_type": "Trash/Recycling",
    "request_reason": "Illegal Dumping",
    "date_created": "2026-05-15T15:13:42.000",
    "date_modified": "2026-05-15T15:13:45.000",
    "request_status": "Pending",
    "responsible_agency": "Department of Sanitation",
    "final_address": "4721 Loyola Ave",
    "address_councildis": "B",
    "status": "Pending",
    "rowid": "1281764",
    "final_x": "3669332.27559",
    "final_y": "522902.473339",
    "longitude": "-90.10678300623249",
    "latitude": "29.932164115016366",
    "geocoded_column": {
      "latitude": "29.932164115016366",
      "longitude": "-90.10678300623249"
    }
  },
  {
    "service_request": "2026-1281763",
    "request_type": "Trash/Recycling",
    "request_reason": "Request a Large Item Pick Up",
    "date_created": "2026-05-15T15:13:24.000",
    "date_modified": "2026-05-15T15:13:26.000",
    "request_status": "Pending",
    "responsible_agency": "Department of Sanitation",
    "final_address": "1009 Congress St",
    "address_councildis": "C",
    "status": "Assigned to Contractor",
    "contractor": "IV Waste",
    "rowid": "1281763",
    "final_x": "3690668.88316",
    "final_y": "535225.27719",
    "longitude": "-90.03898622930257",
    "latitude": "29.965402328860176",
    "geocoded_column": {
      "latitude": "29.965402328860176",
      "longitude": "-90.03898622930257"
    }
  },
  {
    "service_request": "2026-1281762",
    "request_type": "Trash/Recycling",
    "request_reason": "Damaged Caused By Contractor",
    "date_created": "2026-05-15T15:12:39.000",
    "date_modified": "2026-05-15T15:12:42.000",
    "request_status": "Pending",
    "responsible_agency": "Department of Sanitation",
    "final_address": "6209 West End Blvd",
    "address_councildis": "A",
    "status": "Assigned to Contractor",
    "contractor": "IV Waste",
    "rowid": "1281762",
    "final_x": "3666592.4729",
    "final_y": "549087.287379",
    "longitude": "-90.11455307620848",
    "latitude": "30.004244018761792",
    "geocoded_column": {
      "latitude": "30.004244018761792",
      "longitude": "-90.11455307620848"
    }
  },
  {
    "service_request": "2026-1281761",
    "request_type": "Trash/Recycling",
    "request_reason": "Repair Trash Cart",
    "date_created": "2026-05-15T15:07:30.000",
    "date_modified": "2026-05-15T15:07:37.000",
    "request_status": "Pending",
    "responsible_agency": "Department of Sanitation",
    "final_address": "5900 Louisville St",
    "address_councildis": "A",
    "status": "Assigned to Contractor",
    "contractor": "IV Waste",
    "rowid": "1281761",
    "final_x": "3667632.31105",
    "final_y": "546747.015569",
    "longitude": "-90.11134687247436",
    "latitude": "29.99777862805872",
    "geocoded_column": {
      "latitude": "29.99777862805872",
      "longitude": "-90.11134687247436"
    }
  },
  {
    "service_request": "2026-1281760",
    "request_type": "Streetlights",
    "request_reason": "Streetlight Outage/Malfunction",
    "date_created": "2026-05-15T15:02:28.000",
    "date_modified": "2026-05-15T15:03:41.000",
    "request_status": "Pending",
    "responsible_agency": "Department of Public Works",
    "final_address": "4849 Virgilian St",
    "address_councildis": "D",
    "status": "Pending",
    "rowid": "1281760",
    "final_x": "3697494.87466",
    "final_y": "554434.273816",
    "longitude": "-90.0167331792313",
    "latitude": "30.018006233182057",
    "geocoded_column": {
      "latitude": "30.018006233182057",
      "longitude": "-90.0167331792313"
    }
  },
  {
    "service_request": "2026-1281759",
    "request_type": "Trash/Recycling",
    "request_reason": "Request a Large Item Pick Up",
    "date_created": "2026-05-15T15:00:27.000",
    "date_modified": "2026-05-15T15:00:29.000",
    "request_status": "Pending",
    "responsible_agency": "Department of Sanitation",
    "final_address": "2609 St Anthony St",
    "address_councildis": "D",
    "status": "Assigned to Contractor",
    "contractor": "IV Waste",
    "rowid": "1281759",
    "final_x": "3683095.94805",
    "final_y": "541846.555084",
    "longitude": "-90.06266930172688",
    "latitude": "29.983841583462198",
    "geocoded_column": {
      "latitude": "29.983841583462198",
      "longitude": "-90.06266930172688"
    }
  },
  {
    "service_request": "2026-1281758",
    "request_type": "Trash/Recycling",
    "request_reason": "Request a Large Item Pick Up",
    "date_created": "2026-05-15T14:59:00.000",
    "date_modified": "2026-05-15T14:59:02.000",
    "request_status": "Pending",
    "responsible_agency": "Department of Sanitation",
    "final_address": "509 Patterson St",
    "address_councildis": "C",
    "status": "Assigned to Contractor",
    "contractor": "Richards Disposal",
    "rowid": "1281758",
    "final_x": "3686890.24034",
    "final_y": "531378.339779",
    "longitude": "-90.05105492919495",
    "latitude": "29.95494140450993",
    "geocoded_column": {
      "latitude": "29.95494140450993",
      "longitude": "-90.05105492919495"
    }
  },
  {
    "service_request": "2026-1281757",
    "request_type": "Trash/Recycling",
    "request_reason": "Request a Large Item Pick Up",
    "date_created": "2026-05-15T14:53:02.000",
    "date_modified": "2026-05-15T14:53:04.000",
    "request_status": "Pending",
    "responsible_agency": "Department of Sanitation",
    "final_address": "2430 Nashville Ave",
    "address_councildis": "A",
    "status": "Assigned to Contractor",
    "contractor": "IV Waste",
    "rowid": "1281757",
    "final_x": "3667045.37844",
    "final_y": "525087.888893",
    "longitude": "-90.11392912134139",
    "latitude": "29.938240422670205",
    "geocoded_column": {
      "latitude": "29.938240422670205",
      "longitude": "-90.11392912134139"
    }
  },
  {
    "service_request": "2026-1281756",
    "request_type": "Roads and Streets",
    "request_reason": "Abandoned Service Cut",
    "date_created": "2026-05-15T14:47:47.000",
    "date_modified": "2026-05-15T14:47:49.000",
    "request_status": "Pending",
    "responsible_agency": "Department of Public Works",
    "final_address": "3800 BLK Saint Bernard Ave",
    "address_councildis": "D",
    "status": "Pending",
    "rowid": "1281756",
    "final_x": "3677869.80892",
    "final_y": "546275.550937",
    "longitude": "-90.07902312811905",
    "latitude": "29.996178092432537",
    "geocoded_column": {
      "latitude": "29.996178092432537",
      "longitude": "-90.07902312811905"
    }
  },
  {
    "service_request": "2026-1281755",
    "request_type": "Abandoned Vehicles",
    "request_reason": "Abandoned/Junk Vehicles",
    "date_created": "2026-05-15T14:45:12.000",
    "date_modified": "2026-05-15T14:50:31.000",
    "request_status": "Pending",
    "responsible_agency": "Department of Public Works",
    "final_address": "10200 Almonaster Ave",
    "address_councildis": "E",
    "status": "Inspected",
    "rowid": "1281755",
    "final_x": "3713684.56383",
    "final_y": "551626.395989",
    "longitude": "-89.96568637555853",
    "latitude": "30.00976423388402",
    "geocoded_column": {
      "latitude": "30.00976423388402",
      "longitude": "-89.96568637555853"
    }
  },
  {
    "service_request": "2026-1281754",
    "request_type": "Trash/Recycling",
    "request_reason": "Order Trash Cart",
    "date_created": "2026-05-15T14:42:48.000",
    "date_modified": "2026-05-15T14:42:50.000",
    "request_status": "Pending",
    "responsible_agency": "Department of Sanitation",
    "final_address": "1501 Desire St",
    "address_councildis": "D",
    "status": "Assigned to Contractor",
    "contractor": "IV Waste",
    "rowid": "1281754",
    "final_x": "3690592.03939",
    "final_y": "537219.84788",
    "longitude": "-90.03915775588693",
    "latitude": "29.970889083341113",
    "geocoded_column": {
      "latitude": "29.970889083341113",
      "longitude": "-90.03915775588693"
    }
  },
  {
    "service_request": "2026-1281753",
    "request_type": "Trash/Recycling",
    "request_reason": "Request a Large Item Pick Up",
    "date_created": "2026-05-15T14:41:04.000",
    "date_modified": "2026-05-15T14:41:11.000",
    "request_status": "Pending",
    "responsible_agency": "Department of Sanitation",
    "final_address": "1808 Allen St",
    "address_councildis": "D",
    "status": "Assigned to Contractor",
    "contractor": "IV Waste",
    "rowid": "1281753",
    "final_x": "3682423.56706",
    "final_y": "538787.522761",
    "longitude": "-90.06489999797404",
    "latitude": "29.97545079830909",
    "geocoded_column": {
      "latitude": "29.97545079830909",
      "longitude": "-90.06489999797404"
    }
  },
  {
    "service_request": "2026-1281752",
    "request_type": "Trash/Recycling",
    "request_reason": "Illegal Dumping",
    "date_created": "2026-05-15T14:40:17.000",
    "date_modified": "2026-05-15T14:41:03.000",
    "case_close_date": "2026-05-15T09:41:03.000",
    "request_status": "Closed",
    "responsible_agency": "Department of Sanitation",
    "final_address": "1ST ST & S ROMAN ST",
    "address_councildis": "B",
    "status": "Resolved",
    "rowid": "1281752",
    "final_x": "3673790.0",
    "final_y": "527997.58",
    "longitude": "-90.09253620799088",
    "latitude": "29.946042035488073",
    "geocoded_column": {
      "latitude": "29.946042035488073",
      "longitude": "-90.09253620799088"
    }
  },
  {
    "service_request": "2026-1281751",
    "request_type": "Trash/Recycling",
    "request_reason": "Repair Trash Cart",
    "date_created": "2026-05-15T14:32:05.000",
    "date_modified": "2026-05-15T14:32:07.000",
    "request_status": "Pending",
    "responsible_agency": "Department of Sanitation",
    "final_address": "7705 Wales St",
    "address_councildis": "E",
    "status": "Assigned to Contractor",
    "contractor": "Waste Pro",
    "rowid": "1281751",
    "final_x": "3700924.6074",
    "final_y": "561811.202143",
    "longitude": "-90.00562652699891",
    "latitude": "30.03818113535046",
    "geocoded_column": {
      "latitude": "30.03818113535046",
      "longitude": "-90.00562652699891"
    }
  },
  {
    "service_request": "2026-1281750",
    "request_type": "Trash/Recycling",
    "request_reason": "Request a Large Item Pick Up",
    "date_created": "2026-05-15T14:31:26.000",
    "date_modified": "2026-05-15T14:31:29.000",
    "request_status": "Pending",
    "responsible_agency": "Department of Sanitation",
    "final_address": "4400 Dodt Ave",
    "address_councildis": "E",
    "status": "Assigned to Contractor",
    "contractor": "Waste Pro",
    "rowid": "1281750",
    "final_x": "3705547.19121",
    "final_y": "553369.434647",
    "longitude": "-89.99133054046223",
    "latitude": "30.014821472401433",
    "geocoded_column": {
      "latitude": "30.014821472401433",
      "longitude": "-89.99133054046223"
    }
  },
  {
    "service_request": "2026-1281749",
    "request_type": "Abandoned Vehicles",
    "request_reason": "Abandoned/Junk Vehicles",
    "date_created": "2026-05-15T14:29:58.000",
    "date_modified": "2026-05-15T14:34:25.000",
    "request_status": "Pending",
    "responsible_agency": "Department of Public Works",
    "final_address": "10200 Almonaster Ave",
    "address_councildis": "E",
    "status": "Inspected",
    "rowid": "1281749",
    "final_x": "3713684.56383",
    "final_y": "551626.395989",
    "longitude": "-89.96568637555853",
    "latitude": "30.00976423388402",
    "geocoded_column": {
      "latitude": "30.00976423388402",
      "longitude": "-89.96568637555853"
    }
  },
  {
    "service_request": "2026-1281748",
    "request_type": "Streetlights",
    "request_reason": "Streetlight Outage/Malfunction",
    "date_created": "2026-05-15T14:26:13.000",
    "date_modified": "2026-05-15T14:26:14.000",
    "request_status": "Pending",
    "responsible_agency": "Department of Public Works",
    "final_address": "5231 Constance St",
    "address_councildis": "B",
    "status": "Pending",
    "rowid": "1281748",
    "final_x": "3667777.47437",
    "final_y": "518274.85151",
    "longitude": "-90.11184711199942",
    "latitude": "29.91948529282233",
    "geocoded_column": {
      "latitude": "29.91948529282233",
      "longitude": "-90.11184711199942"
    }
  },
  {
    "service_request": "2026-1281747",
    "request_type": "Utility Poles",
    "request_reason": "Wires Sagging/Hanging Low",
    "date_created": "2026-05-15T14:25:41.000",
    "date_modified": "2026-05-15T14:25:43.000",
    "request_status": "Pending",
    "responsible_agency": "Utility Company Collective",
    "final_address": "5010 Royal St",
    "address_councildis": "E",
    "status": "Pending",
    "rowid": "1281747",
    "final_x": "3695648.42864",
    "final_y": "532728.88826",
    "longitude": "-90.02335126417783",
    "latitude": "29.958382536548033",
    "geocoded_column": {
      "latitude": "29.958382536548033",
      "longitude": "-90.02335126417783"
    }
  },
  {
    "service_request": "2026-1281746",
    "request_type": "Trash/Recycling",
    "request_reason": "Request a Large Item Pick Up",
    "date_created": "2026-05-15T14:22:41.000",
    "date_modified": "2026-05-15T14:22:52.000",
    "request_status": "Pending",
    "responsible_agency": "Department of Sanitation",
    "final_address": "304 Wallace Dr",
    "address_councildis": "D",
    "status": "Assigned to Contractor",
    "contractor": "IV Waste",
    "rowid": "1281746",
    "final_x": "3682280.15279",
    "final_y": "547742.07221",
    "longitude": "-90.06503990679634",
    "latitude": "30.000077016778828",
    "geocoded_column": {
      "latitude": "30.000077016778828",
      "longitude": "-90.06503990679634"
    }
  },
  {
    "service_request": "2026-1281745",
    "request_type": "Trash/Recycling",
    "request_reason": "Request a Large Item Pick Up",
    "date_created": "2026-05-15T14:21:15.000",
    "date_modified": "2026-05-15T14:21:16.000",
    "request_status": "Pending",
    "responsible_agency": "Department of Sanitation",
    "final_address": "5754 E Louis Prima Dr",
    "address_councildis": "E",
    "status": "Assigned to Contractor",
    "contractor": "Waste Pro",
    "rowid": "1281745",
    "final_x": "3715972.46687",
    "final_y": "562337.992799",
    "longitude": "-89.95805197516991",
    "latitude": "30.039141580712865",
    "geocoded_column": {
      "latitude": "30.039141580712865",
      "longitude": "-89.95805197516991"
    }
  },
  {
    "service_request": "2026-1281744",
    "request_type": "Trash/Recycling",
    "request_reason": "Request a Large Item Pick Up",
    "date_created": "2026-05-15T14:19:05.000",
    "date_modified": "2026-05-15T14:19:06.000",
    "request_status": "Pending",
    "responsible_agency": "Department of Sanitation",
    "final_address": "1807 N Dupre St",
    "address_councildis": "D",
    "status": "Assigned to Contractor",
    "contractor": "IV Waste",
    "rowid": "1281744",
    "final_x": "3679433.1748",
    "final_y": "541876.478604",
    "longitude": "-90.07423726741092",
    "latitude": "29.984035039116502",
    "geocoded_column": {
      "latitude": "29.984035039116502",
      "longitude": "-90.07423726741092"
    }
  },
  {
    "service_request": "2026-1281743",
    "request_type": "Trash/Recycling",
    "request_reason": "Request a Large Item Pick Up",
    "date_created": "2026-05-15T14:18:23.000",
    "date_modified": "2026-05-15T14:18:25.000",
    "request_status": "Pending",
    "responsible_agency": "Department of Sanitation",
    "final_address": "3306 Kabel Dr",
    "address_councildis": "C",
    "status": "Assigned to Contractor",
    "contractor": "Richards Disposal",
    "rowid": "1281743",
    "final_x": "3700803.48925",
    "final_y": "519066.164407",
    "longitude": "-90.00757225134565",
    "latitude": "29.920651764253922",
    "geocoded_column": {
      "latitude": "29.920651764253922",
      "longitude": "-90.00757225134565"
    }
  },
  {
    "service_request": "2026-1281742",
    "request_type": "Abandoned Vehicles",
    "request_reason": "Abandoned/Junk Vehicles",
    "date_created": "2026-05-15T14:18:03.000",
    "date_modified": "2026-05-15T14:18:05.000",
    "request_status": "Pending",
    "responsible_agency": "Department of Public Works",
    "final_address": "2938 Ursulines Ave",
    "address_councildis": "A",
    "status": "Pending",
    "rowid": "1281742",
    "final_x": "3676527.46056",
    "final_y": "538901.495882",
    "longitude": "-90.08351759158572",
    "latitude": "29.97594233594543",
    "geocoded_column": {
      "latitude": "29.97594233594543",
      "longitude": "-90.08351759158572"
    }
  },
  {
    "service_request": "2026-1281741",
    "request_type": "Trash/Recycling",
    "request_reason": "Repair Recycling Cart",
    "date_created": "2026-05-15T14:14:56.000",
    "date_modified": "2026-05-15T14:14:58.000",
    "request_status": "Pending",
    "responsible_agency": "Department of Sanitation",
    "final_address": "3651 Post Oak Ave",
    "address_councildis": "C",
    "status": "Pending",
    "rowid": "1281741",
    "final_x": "3703891.78814",
    "final_y": "514395.539891",
    "longitude": "-89.99799580533414",
    "latitude": "29.90771053669274",
    "geocoded_column": {
      "latitude": "29.90771053669274",
      "longitude": "-89.99799580533414"
    }
  },
  {
    "service_request": "2026-1281740",
    "request_type": "Trash/Recycling",
    "request_reason": "Replace Trash Cart",
    "date_created": "2026-05-15T14:14:09.000",
    "date_modified": "2026-05-15T14:14:11.000",
    "request_status": "Pending",
    "responsible_agency": "Department of Sanitation",
    "final_address": "921 St Ferdinand St",
    "address_councildis": "C",
    "status": "Assigned to Contractor",
    "contractor": "IV Waste",
    "rowid": "1281740",
    "final_x": "3687586.77321",
    "final_y": "535692.699719",
    "longitude": "-90.0487028150161",
    "latitude": "29.966782949173012",
    "geocoded_column": {
      "latitude": "29.966782949173012",
      "longitude": "-90.0487028150161"
    }
  },
  {
    "service_request": "2026-1281739",
    "request_type": "General Services",
    "request_reason": "General Service Request",
    "date_created": "2026-05-15T14:13:39.000",
    "date_modified": "2026-05-15T15:57:40.000",
    "case_close_date": "2026-05-15T10:57:38.000",
    "request_status": "Closed",
    "responsible_agency": "Orleans Parish Communication District",
    "final_address": "7218 Sycamore St",
    "address_councildis": "A",
    "status": "Question Answered.",
    "rowid": "1281739",
    "final_x": "3665975.97536",
    "final_y": "529507.883009",
    "longitude": "-90.11715723143665",
    "latitude": "29.95042523226228",
    "geocoded_column": {
      "latitude": "29.95042523226228",
      "longitude": "-90.11715723143665"
    }
  },
  {
    "service_request": "2026-1281738",
    "request_type": "Abandoned Vehicles",
    "request_reason": "Abandoned/Junk Vehicles",
    "date_created": "2026-05-15T14:13:31.000",
    "date_modified": "2026-05-15T14:13:33.000",
    "request_status": "Pending",
    "responsible_agency": "Department of Public Works",
    "final_address": "8213 Jeannette St",
    "address_councildis": "A",
    "status": "Pending",
    "rowid": "1281738",
    "final_x": "3662358.87085",
    "final_y": "529488.539585",
    "longitude": "-90.12857886385108",
    "latitude": "29.950477111891633",
    "geocoded_column": {
      "latitude": "29.950477111891633",
      "longitude": "-90.12857886385108"
    }
  },
  {
    "service_request": "2026-1281737",
    "request_type": "Trash/Recycling",
    "request_reason": "Order Recycling Cart",
    "date_created": "2026-05-15T14:12:41.000",
    "date_modified": "2026-05-15T14:12:42.000",
    "request_status": "Pending",
    "responsible_agency": "Department of Sanitation",
    "final_address": "921 St Ferdinand St",
    "address_councildis": "C",
    "status": "Pending",
    "rowid": "1281737",
    "final_x": "3687586.77321",
    "final_y": "535692.699719",
    "longitude": "-90.0487028150161",
    "latitude": "29.966782949173012",
    "geocoded_column": {
      "latitude": "29.966782949173012",
      "longitude": "-90.0487028150161"
    }
  },
  {
    "service_request": "2026-1281736",
    "request_type": "Trash/Recycling",
    "request_reason": "Order Recycling Cart",
    "date_created": "2026-05-15T14:10:31.000",
    "date_modified": "2026-05-15T14:10:34.000",
    "request_status": "Pending",
    "responsible_agency": "Department of Sanitation",
    "final_address": "919 St Ferdinand St",
    "address_councildis": "C",
    "status": "Pending",
    "rowid": "1281736",
    "final_x": "3687581.91209",
    "final_y": "535677.769159",
    "longitude": "-90.04871869499051",
    "latitude": "29.966742045190784",
    "geocoded_column": {
      "latitude": "29.966742045190784",
      "longitude": "-90.04871869499051"
    }
  },
  {
    "service_request": "2026-1281735",
    "request_type": "Trash/Recycling",
    "request_reason": "Request a Large Item Pick Up",
    "date_created": "2026-05-15T14:08:07.000",
    "date_modified": "2026-05-15T14:08:09.000",
    "request_status": "Pending",
    "responsible_agency": "Department of Sanitation",
    "final_address": "7560 Wave Dr",
    "address_councildis": "E",
    "status": "Assigned to Contractor",
    "contractor": "Waste Pro",
    "rowid": "1281735",
    "final_x": "3715112.84306",
    "final_y": "568448.203685",
    "longitude": "-89.96053725704094",
    "latitude": "30.05597051316982",
    "geocoded_column": {
      "latitude": "30.05597051316982",
      "longitude": "-89.96053725704094"
    }
  },
  {
    "service_request": "2026-1281734",
    "request_type": "Trash/Recycling",
    "request_reason": "Replace Recycling Cart",
    "date_created": "2026-05-15T14:03:39.000",
    "date_modified": "2026-05-15T14:03:41.000",
    "request_status": "Pending",
    "responsible_agency": "Department of Sanitation",
    "final_address": "393 Audubon St",
    "address_councildis": "A",
    "status": "Pending",
    "rowid": "1281734",
    "final_x": "3662095.32928",
    "final_y": "522786.262266",
    "longitude": "-90.12963330510411",
    "latitude": "29.932055596304874",
    "geocoded_column": {
      "latitude": "29.932055596304874",
      "longitude": "-90.12963330510411"
    }
  },
  {
    "service_request": "2026-1281733",
    "request_type": "Abandoned Vehicles",
    "request_reason": "Abandoned/Junk Vehicles",
    "date_created": "2026-05-15T14:02:52.000",
    "date_modified": "2026-05-15T14:02:53.000",
    "request_status": "Pending",
    "responsible_agency": "Department of Public Works",
    "final_address": "4209 St Charles Ave",
    "address_councildis": "B",
    "status": "Pending",
    "rowid": "1281733",
    "final_x": "3671473.47886",
    "final_y": "521072.224313",
    "longitude": "-90.10008560873199",
    "latitude": "29.927068321145015",
    "geocoded_column": {
      "latitude": "29.927068321145015",
      "longitude": "-90.10008560873199"
    }
  },
  {
    "service_request": "2026-1281732",
    "request_type": "Trash/Recycling",
    "request_reason": "Request a Large Item Pick Up",
    "date_created": "2026-05-15T14:02:27.000",
    "date_modified": "2026-05-15T14:02:29.000",
    "request_status": "Pending",
    "responsible_agency": "Department of Sanitation",
    "final_address": "1935 Milan St",
    "address_councildis": "B",
    "status": "Assigned to Contractor",
    "contractor": "IV Waste",
    "rowid": "1281732",
    "final_x": "3671503.29031",
    "final_y": "522337.173434",
    "longitude": "-90.09994851948746",
    "latitude": "29.93054564302793",
    "geocoded_column": {
      "latitude": "29.93054564302793",
      "longitude": "-90.09994851948746"
    }
  },
  {
    "service_request": "2026-1281731",
    "request_type": "Abandoned Vehicles",
    "request_reason": "Abandoned/Junk Vehicles",
    "date_created": "2026-05-15T14:01:26.000",
    "date_modified": "2026-05-15T14:15:38.000",
    "request_status": "Pending",
    "responsible_agency": "Department of Public Works",
    "final_address": "10200 Almonaster Ave",
    "address_councildis": "E",
    "status": "Inspected",
    "rowid": "1281731",
    "final_x": "3713684.56383",
    "final_y": "551626.395989",
    "longitude": "-89.96568637555853",
    "latitude": "30.00976423388402",
    "geocoded_column": {
      "latitude": "30.00976423388402",
      "longitude": "-89.96568637555853"
    }
  },
  {
    "service_request": "2026-1281730",
    "request_type": "Trash/Recycling",
    "request_reason": "Order Recycling Cart",
    "date_created": "2026-05-15T14:00:42.000",
    "date_modified": "2026-05-15T14:00:44.000",
    "request_status": "Pending",
    "responsible_agency": "Department of Sanitation",
    "final_address": "2017 St Claude Ave",
    "address_councildis": "C",
    "status": "Pending",
    "rowid": "1281730",
    "final_x": "3684394.01749",
    "final_y": "536317.260679",
    "longitude": "-90.0587635728698",
    "latitude": "29.968598312667275",
    "geocoded_column": {
      "latitude": "29.968598312667275",
      "longitude": "-90.0587635728698"
    }
  },
  {
    "service_request": "2026-1281729",
    "request_type": "Trash/Recycling",
    "request_reason": "Request a Large Item Pick Up",
    "date_created": "2026-05-15T13:59:22.000",
    "date_modified": "2026-05-15T13:59:25.000",
    "request_status": "Pending",
    "responsible_agency": "Department of Sanitation",
    "final_address": "7541 Pineridge St",
    "address_councildis": "E",
    "status": "Assigned to Contractor",
    "contractor": "Waste Pro",
    "rowid": "1281729",
    "final_x": "3719328.38207",
    "final_y": "571740.584744",
    "longitude": "-89.94708695820057",
    "latitude": "30.064883644627454",
    "geocoded_column": {
      "latitude": "30.064883644627454",
      "longitude": "-89.94708695820057"
    }
  },
  {
    "service_request": "2026-1281728",
    "request_type": "Streetlights",
    "request_reason": "Streetlight Outage/Malfunction",
    "date_created": "2026-05-15T13:54:09.000",
    "date_modified": "2026-05-15T13:54:11.000",
    "request_status": "Pending",
    "responsible_agency": "Department of Public Works",
    "final_address": "3619 Havana St",
    "address_councildis": "D",
    "status": "Pending",
    "rowid": "1281728",
    "final_x": "3680922.11503",
    "final_y": "545784.402256",
    "longitude": "-90.0693982329628",
    "latitude": "29.99473538203851",
    "geocoded_column": {
      "latitude": "29.99473538203851",
      "longitude": "-90.0693982329628"
    }
  },
  {
    "service_request": "2026-1281727",
    "request_type": "Trash/Recycling",
    "request_reason": "Repair Recycling Cart",
    "date_created": "2026-05-15T13:52:31.000",
    "date_modified": "2026-05-15T14:01:13.000",
    "request_status": "Pending",
    "responsible_agency": "Department of Sanitation",
    "final_address": "2019 St Claude Ave",
    "address_councildis": "C",
    "status": "Pending",
    "rowid": "1281727",
    "final_x": "3684416.92137",
    "final_y": "536327.133895",
    "longitude": "-90.05869089443202",
    "latitude": "29.96862476003874",
    "geocoded_column": {
      "latitude": "29.96862476003874",
      "longitude": "-90.05869089443202"
    }
  },
  {
    "service_request": "2026-1281726",
    "request_type": "Trash/Recycling",
    "request_reason": "Request a Large Item Pick Up",
    "date_created": "2026-05-15T13:48:08.000",
    "date_modified": "2026-05-15T13:48:13.000",
    "request_status": "Pending",
    "responsible_agency": "Department of Sanitation",
    "final_address": "239 Cherokee St",
    "address_councildis": "A",
    "status": "Assigned to Contractor",
    "contractor": "IV Waste",
    "rowid": "1281726",
    "final_x": "3661220.48288",
    "final_y": "524346.162556",
    "longitude": "-90.13234350628353",
    "latitude": "29.936370072517303",
    "geocoded_column": {
      "latitude": "29.936370072517303",
      "longitude": "-90.13234350628353"
    }
  },
  {
    "service_request": "2026-1281725",
    "request_type": "Abandoned Vehicles",
    "request_reason": "Abandoned/Junk Vehicles",
    "date_created": "2026-05-15T13:42:38.000",
    "date_modified": "2026-05-15T13:45:53.000",
    "request_status": "Pending",
    "responsible_agency": "Department of Public Works",
    "final_address": "1524 Third St",
    "address_councildis": "B",
    "status": "Pending",
    "rowid": "1281725",
    "final_x": "3676576.18945",
    "final_y": "522576.406458",
    "longitude": "-90.08392588695158",
    "latitude": "29.931052335841507",
    "geocoded_column": {
      "latitude": "29.931052335841507",
      "longitude": "-90.08392588695158"
    }
  },
  {
    "service_request": "2026-1281724",
    "request_type": "Trash/Recycling",
    "request_reason": "Request a Large Item Pick Up",
    "date_created": "2026-05-15T13:40:32.000",
    "date_modified": "2026-05-15T13:40:34.000",
    "request_status": "Pending",
    "responsible_agency": "Department of Sanitation",
    "final_address": "4674 Read Blvd",
    "address_councildis": "E",
    "status": "Assigned to Contractor",
    "contractor": "Waste Pro",
    "rowid": "1281724",
    "final_x": "3712701.81438",
    "final_y": "555827.541593",
    "longitude": "-89.96863311952998",
    "latitude": "30.021347958707267",
    "geocoded_column": {
      "latitude": "30.021347958707267",
      "longitude": "-89.96863311952998"
    }
  },
  {
    "service_request": "2026-1281723",
    "request_type": "Trash/Recycling",
    "request_reason": "Order Trash Cart",
    "date_created": "2026-05-15T13:35:30.000",
    "date_modified": "2026-05-15T15:10:54.000",
    "request_status": "Pending",
    "responsible_agency": "Department of Sanitation",
    "final_address": "1030 Orleans Ave",
    "address_councildis": "C",
    "status": "Assigned to Contractor",
    "contractor": "IV Waste",
    "rowid": "1281723",
    "final_x": "3681566.76348",
    "final_y": "533378.156484",
    "longitude": "-90.0677947035311",
    "latitude": "29.960602953867312",
    "geocoded_column": {
      "latitude": "29.960602953867312",
      "longitude": "-90.0677947035311"
    }
  },
  {
    "service_request": "2026-1281722",
    "request_type": "Trash/Recycling",
    "request_reason": "Request a Large Item Pick Up",
    "date_created": "2026-05-15T13:35:01.000",
    "date_modified": "2026-05-15T13:35:03.000",
    "request_status": "Pending",
    "responsible_agency": "Department of Sanitation",
    "final_address": "4722 Eastview Dr",
    "address_councildis": "E",
    "status": "Assigned to Contractor",
    "contractor": "Waste Pro",
    "rowid": "1281722",
    "final_x": "3705070.42679",
    "final_y": "555187.079833",
    "longitude": "-89.99276968604957",
    "latitude": "30.019834642268105",
    "geocoded_column": {
      "latitude": "30.019834642268105",
      "longitude": "-89.99276968604957"
    }
  },
  {
    "service_request": "2026-1281721",
    "request_type": "Abandoned Vehicles",
    "request_reason": "Abandoned/Junk Vehicles",
    "date_created": "2026-05-15T13:29:30.000",
    "date_modified": "2026-05-15T13:50:20.000",
    "request_status": "Pending",
    "responsible_agency": "Department of Public Works",
    "final_address": "10200 Almonaster Ave",
    "address_councildis": "E",
    "status": "Inspected",
    "rowid": "1281721",
    "final_x": "3713684.56383",
    "final_y": "551626.395989",
    "longitude": "-89.96568637555853",
    "latitude": "30.00976423388402",
    "geocoded_column": {
      "latitude": "30.00976423388402",
      "longitude": "-89.96568637555853"
    }
  },
  {
    "service_request": "2026-1281720",
    "request_type": "Safety & Permits",
    "request_reason": "Licenses & Permits",
    "date_created": "2026-05-15T13:21:25.000",
    "date_modified": "2026-05-15T15:52:10.000",
    "case_close_date": "2026-05-15T10:52:08.000",
    "request_status": "Closed",
    "responsible_agency": "Safety and Permits",
    "final_address": "916 Congress St",
    "address_councildis": "C",
    "status": "Resolved",
    "rowid": "1281720",
    "final_x": "3690529.7423",
    "final_y": "534930.108486",
    "longitude": "-90.03943615382974",
    "latitude": "29.964595039368824",
    "geocoded_column": {
      "latitude": "29.964595039368824",
      "longitude": "-90.03943615382974"
    }
  },
  {
    "service_request": "2026-1281719",
    "request_type": "Trash/Recycling",
    "request_reason": "Request a Large Item Pick Up",
    "date_created": "2026-05-15T13:18:45.000",
    "date_modified": "2026-05-15T13:18:48.000",
    "request_status": "Pending",
    "responsible_agency": "Department of Sanitation",
    "final_address": "444 Pacific Ave",
    "address_councildis": "C",
    "status": "Assigned to Contractor",
    "contractor": "Richards Disposal",
    "rowid": "1281719",
    "final_x": "3688559.93398",
    "final_y": "529958.180993",
    "longitude": "-90.04583306944372",
    "latitude": "29.950984973220756",
    "geocoded_column": {
      "latitude": "29.950984973220756",
      "longitude": "-90.04583306944372"
    }
  },
  {
    "service_request": "2026-1281718",
    "request_type": "Trash/Recycling",
    "request_reason": "Request a Large Item Pick Up",
    "date_created": "2026-05-15T13:15:57.000",
    "date_modified": "2026-05-15T13:15:59.000",
    "request_status": "Pending",
    "responsible_agency": "Department of Sanitation",
    "final_address": "7108 Olive St",
    "address_councildis": "B",
    "status": "Assigned to Contractor",
    "contractor": "IV Waste",
    "rowid": "1281718",
    "final_x": "3668641.23156",
    "final_y": "532815.244292",
    "longitude": "-90.1086300964886",
    "latitude": "29.959441336748082",
    "geocoded_column": {
      "latitude": "29.959441336748082",
      "longitude": "-90.1086300964886"
    }
  },
  {
    "service_request": "2026-1281717",
    "request_type": "Trash/Recycling",
    "request_reason": "Request a Large Item Pick Up",
    "date_created": "2026-05-15T13:14:19.000",
    "date_modified": "2026-05-15T13:14:22.000",
    "request_status": "Pending",
    "responsible_agency": "Department of Sanitation",
    "final_address": "2720 Coliseum St",
    "address_councildis": "B",
    "status": "Assigned to Contractor",
    "contractor": "IV Waste",
    "rowid": "1281717",
    "final_x": "3676607.86715",
    "final_y": "521718.902458",
    "longitude": "-90.08385540327743",
    "latitude": "29.928693529134957",
    "geocoded_column": {
      "latitude": "29.928693529134957",
      "longitude": "-90.08385540327743"
    }
  },
  {
    "service_request": "2026-1281716",
    "request_type": "Traffic Signals",
    "request_reason": "Traffic Signal Malfunctioning or Damaged",
    "date_created": "2026-05-15T13:09:14.000",
    "date_modified": "2026-05-15T13:09:19.000",
    "request_status": "Pending",
    "responsible_agency": "Department of Public Works",
    "final_address": "N BROAD ST & ESPLANADE AVE",
    "address_councildis": "D",
    "status": "Pending",
    "rowid": "1281716",
    "final_x": "3678224.84",
    "final_y": "538942.48",
    "longitude": "-90.07815536068416",
    "latitude": "29.976004011799112",
    "geocoded_column": {
      "latitude": "29.976004011799112",
      "longitude": "-90.07815536068416"
    }
  },
  {
    "service_request": "2026-1281715",
    "request_type": "Drainage",
    "request_reason": "Catch Basin Not Draining",
    "date_created": "2026-05-15T13:08:14.000",
    "date_modified": "2026-05-15T14:56:55.000",
    "request_status": "Pending",
    "responsible_agency": "Sewerage & Water Board",
    "final_address": "2400 BLK Saint Ann St",
    "address_councildis": "C",
    "status": "Pending",
    "rowid": "1281715",
    "final_x": "3677872.36928",
    "final_y": "536495.357571",
    "longitude": "-90.07935314677705",
    "latitude": "29.969285875708994",
    "geocoded_column": {
      "latitude": "29.969285875708994",
      "longitude": "-90.07935314677705"
    }
  },
  {
    "service_request": "2026-1281714",
    "request_type": "Utility Poles",
    "request_reason": "Wires Sagging/Hanging Low",
    "date_created": "2026-05-15T13:06:21.000",
    "date_modified": "2026-05-15T13:06:23.000",
    "request_status": "Pending",
    "responsible_agency": "Utility Company Collective",
    "final_address": "5819 Paris Ave",
    "address_councildis": "D",
    "status": "Pending",
    "rowid": "1281714",
    "final_x": "3679124.9668",
    "final_y": "553974.921048",
    "longitude": "-90.07479103539758",
    "latitude": "30.017310765807444",
    "geocoded_column": {
      "latitude": "30.017310765807444",
      "longitude": "-90.07479103539758"
    }
  },
  {
    "service_request": "2026-1281713",
    "request_type": "Trash/Recycling",
    "request_reason": "Order Recycling Cart",
    "date_created": "2026-05-15T12:57:25.000",
    "date_modified": "2026-05-15T12:57:27.000",
    "request_status": "Pending",
    "responsible_agency": "Department of Sanitation",
    "final_address": "7 Golf Villa Dr",
    "address_councildis": "C",
    "status": "Pending",
    "rowid": "1281713",
    "final_x": "3717729.33631",
    "final_y": "514582.742579",
    "longitude": "-89.95431614450801",
    "latitude": "29.907774615666494",
    "geocoded_column": {
      "latitude": "29.907774615666494",
      "longitude": "-89.95431614450801"
    }
  },
  {
    "service_request": "2026-1281712",
    "request_type": "Trash/Recycling",
    "request_reason": "Request a Large Item Pick Up",
    "date_created": "2026-05-15T12:57:24.000",
    "date_modified": "2026-05-15T12:57:26.000",
    "request_status": "Pending",
    "responsible_agency": "Department of Sanitation",
    "final_address": "3423 St Anthony Ave",
    "address_councildis": "D",
    "status": "Assigned to Contractor",
    "contractor": "IV Waste",
    "rowid": "1281712",
    "final_x": "3682885.25288",
    "final_y": "545230.958863",
    "longitude": "-90.06321629787222",
    "latitude": "29.993153920770954",
    "geocoded_column": {
      "latitude": "29.993153920770954",
      "longitude": "-90.06321629787222"
    }
  },
  {
    "service_request": "2026-1281711",
    "request_type": "Tree Service",
    "request_reason": "Street or Sidewalk Blocked",
    "date_created": "2026-05-15T12:56:54.000",
    "date_modified": "2026-05-15T12:56:59.000",
    "request_status": "Pending",
    "responsible_agency": "Department of Parks & Parkways",
    "final_address": "1895 Saltus St",
    "address_councildis": "A",
    "status": "Pending",
    "rowid": "1281711",
    "final_x": "3677998.0157",
    "final_y": "543092.503501",
    "longitude": "-90.07872822655578",
    "latitude": "29.987421968490832",
    "geocoded_column": {
      "latitude": "29.987421968490832",
      "longitude": "-90.07872822655578"
    }
  },
  {
    "service_request": "2026-1281710",
    "request_type": "Traffic Signals",
    "request_reason": "Traffic Signal Malfunctioning or Damaged",
    "date_created": "2026-05-15T12:54:45.000",
    "date_modified": "2026-05-15T12:54:47.000",
    "request_status": "Pending",
    "responsible_agency": "Department of Public Works",
    "final_address": "ALMONASTER AVE & LOUISA ST",
    "address_councildis": "D",
    "status": "Pending",
    "rowid": "1281710",
    "final_x": "3691621.39",
    "final_y": "548608.59",
    "longitude": "-90.03549956841819",
    "latitude": "30.002172016566497",
    "geocoded_column": {
      "latitude": "30.002172016566497",
      "longitude": "-90.03549956841819"
    }
  },
  {
    "service_request": "2026-1281709",
    "request_type": "Roads and Streets",
    "request_reason": "Sidewalk Damaged or Missing",
    "date_created": "2026-05-15T12:53:46.000",
    "date_modified": "2026-05-15T12:53:49.000",
    "request_status": "Pending",
    "responsible_agency": "Department of Public Works",
    "final_address": "1724 Hermosa St",
    "address_councildis": "C",
    "status": "Pending",
    "rowid": "1281709",
    "final_x": "3687682.04611",
    "final_y": "525064.926333",
    "longitude": "-90.04877819920661",
    "latitude": "29.937557280925805",
    "geocoded_column": {
      "latitude": "29.937557280925805",
      "longitude": "-90.04877819920661"
    }
  },
  {
    "service_request": "2026-1281708",
    "request_type": "Trash/Recycling",
    "request_reason": "Replace Trash Cart",
    "date_created": "2026-05-15T12:45:05.000",
    "date_modified": "2026-05-15T12:45:08.000",
    "request_status": "Pending",
    "responsible_agency": "Department of Sanitation",
    "final_address": "923 Hidalgo St",
    "address_councildis": "A",
    "status": "Assigned to Contractor",
    "contractor": "IV Waste",
    "rowid": "1281708",
    "final_x": "3669770.86804",
    "final_y": "544066.326158",
    "longitude": "-90.10468200065988",
    "latitude": "29.990344772623004",
    "geocoded_column": {
      "latitude": "29.990344772623004",
      "longitude": "-90.10468200065988"
    }
  },
  {
    "service_request": "2026-1281707",
    "request_type": "Roads and Streets",
    "request_reason": "Street Subsidence (Sinking)",
    "date_created": "2026-05-15T12:43:11.000",
    "date_modified": "2026-05-15T12:43:14.000",
    "request_status": "Pending",
    "responsible_agency": "Sewerage & Water Board",
    "final_address": "N MIRO ST & CLOUET ST",
    "address_councildis": "D",
    "status": "Pending",
    "rowid": "1281707",
    "final_x": "3690035.1",
    "final_y": "540135.78",
    "longitude": "-90.0408127582683",
    "latitude": "29.978924149323937",
    "geocoded_column": {
      "latitude": "29.978924149323937",
      "longitude": "-90.0408127582683"
    }
  },
  {
    "service_request": "2026-1281706",
    "request_type": "Trash/Recycling",
    "request_reason": "Repair Trash Cart",
    "date_created": "2026-05-15T12:39:59.000",
    "date_modified": "2026-05-15T13:54:07.000",
    "request_status": "Pending",
    "responsible_agency": "Department of Sanitation",
    "final_address": "2222 Clouet St",
    "address_councildis": "D",
    "status": "Assigned to Contractor",
    "contractor": "IV Waste",
    "rowid": "1281706",
    "final_x": "3690049.29328",
    "final_y": "540332.021387",
    "longitude": "-90.04076093888379",
    "latitude": "29.979463303116713",
    "geocoded_column": {
      "latitude": "29.979463303116713",
      "longitude": "-90.04076093888379"
    }
  },
  {
    "service_request": "2026-1281705",
    "request_type": "Trash/Recycling",
    "request_reason": "Repair Recycling Cart",
    "date_created": "2026-05-15T12:32:23.000",
    "date_modified": "2026-05-15T12:32:25.000",
    "request_status": "Pending",
    "responsible_agency": "Department of Sanitation",
    "final_address": "1417 Bordeaux St",
    "address_councildis": "B",
    "status": "Pending",
    "rowid": "1281705",
    "final_x": "3669457.94202",
    "final_y": "520310.321336",
    "longitude": "-90.10647390634267",
    "latitude": "29.92503282491091",
    "geocoded_column": {
      "latitude": "29.92503282491091",
      "longitude": "-90.10647390634267"
    }
  },
  {
    "service_request": "2026-1281704",
    "request_type": "Streetlights",
    "request_reason": "Streetlight Outage/Malfunction",
    "date_created": "2026-05-15T12:27:51.000",
    "date_modified": "2026-05-15T12:27:54.000",
    "request_status": "Pending",
    "responsible_agency": "Department of Public Works",
    "final_address": "1807 Upperline St",
    "address_councildis": "B",
    "status": "Pending",
    "rowid": "1281704",
    "final_x": "3669129.72666",
    "final_y": "521505.074169",
    "longitude": "-90.10746963068597",
    "latitude": "29.928327673928834",
    "geocoded_column": {
      "latitude": "29.928327673928834",
      "longitude": "-90.10746963068597"
    }
  },
  {
    "service_request": "2026-1281703",
    "request_type": "Trash/Recycling",
    "request_reason": "Repair Recycling Cart",
    "date_created": "2026-05-15T12:26:26.000",
    "date_modified": "2026-05-15T12:26:30.000",
    "request_status": "Pending",
    "responsible_agency": "Department of Sanitation",
    "final_address": "1641 Pace Blvd",
    "address_councildis": "C",
    "status": "Pending",
    "rowid": "1281703",
    "final_x": "3694277.49059",
    "final_y": "525046.373245",
    "longitude": "-90.02795666727418",
    "latitude": "29.937301311382637",
    "geocoded_column": {
      "latitude": "29.937301311382637",
      "longitude": "-90.02795666727418"
    }
  },
  {
    "service_request": "2026-1281702",
    "request_type": "Roads and Streets",
    "request_reason": "Sidewalk Damaged or Missing",
    "date_created": "2026-05-15T12:17:27.000",
    "date_modified": "2026-05-15T12:17:29.000",
    "request_status": "Pending",
    "responsible_agency": "Department of Public Works",
    "final_address": "2740 Castiglione St",
    "address_councildis": "D",
    "status": "Pending",
    "rowid": "1281702",
    "final_x": "3679641.03016",
    "final_y": "542015.387468",
    "longitude": "-90.07357592367684",
    "latitude": "29.984410708190396",
    "geocoded_column": {
      "latitude": "29.984410708190396",
      "longitude": "-90.07357592367684"
    }
  },
  {
    "service_request": "2026-1281701",
    "request_type": "Business Issues",
    "request_reason": "Illegal Business",
    "date_created": "2026-05-15T12:15:24.000",
    "date_modified": "2026-05-15T13:51:19.000",
    "case_close_date": "2026-05-15T08:51:17.000",
    "request_status": "Closed",
    "responsible_agency": "Safety and Permits",
    "final_address": "6071 Wildair Dr",
    "address_councildis": "D",
    "status": "Resolved",
    "rowid": "1281701",
    "final_x": "3681506.69711",
    "final_y": "555200.223641",
    "longitude": "-90.06722295450598",
    "latitude": "30.020607755279244",
    "geocoded_column": {
      "latitude": "30.020607755279244",
      "longitude": "-90.06722295450598"
    }
  },
  {
    "service_request": "2026-1281700",
    "request_type": "Abandoned Vehicles",
    "request_reason": "Abandoned/Junk Vehicles",
    "date_created": "2026-05-15T12:15:19.000",
    "date_modified": "2026-05-15T12:15:20.000",
    "request_status": "Pending",
    "responsible_agency": "Department of Public Works",
    "final_address": "1931 Montegut St",
    "address_councildis": "D",
    "status": "Pending",
    "rowid": "1281700",
    "final_x": "3689331.9526",
    "final_y": "539372.078666",
    "longitude": "-90.04306071998771",
    "latitude": "29.976846031723262",
    "geocoded_column": {
      "latitude": "29.976846031723262",
      "longitude": "-90.04306071998771"
    }
  },
  {
    "service_request": "2026-1281699",
    "request_type": "Tree Service",
    "request_reason": "Street or Sidewalk Blocked",
    "date_created": "2026-05-15T12:15:16.000",
    "date_modified": "2026-05-15T12:19:50.000",
    "case_close_date": "2026-05-15T07:19:49.000",
    "request_status": "Closed",
    "responsible_agency": "Department of Parks & Parkways",
    "final_address": "HARBOURVIEW DR & LAKEVIEW CT",
    "address_councildis": "E",
    "status": "Unfounded",
    "rowid": "1281699",
    "final_x": "3698819.2",
    "final_y": "555975.78",
    "longitude": "-90.012492696888",
    "latitude": "30.02220288158216",
    "geocoded_column": {
      "latitude": "30.02220288158216",
      "longitude": "-90.012492696888"
    }
  },
  {
    "service_request": "2026-1281697",
    "request_type": "Trash/Recycling",
    "request_reason": "Illegal Dumping",
    "date_created": "2026-05-15T12:13:40.000",
    "date_modified": "2026-05-15T12:13:42.000",
    "request_status": "Pending",
    "responsible_agency": "Department of Sanitation",
    "final_address": "1939 Fern St",
    "address_councildis": "A",
    "status": "Pending",
    "rowid": "1281697",
    "final_x": "3664428.62644",
    "final_y": "529872.842049",
    "longitude": "-90.12203079346006",
    "latitude": "29.95147381954102",
    "geocoded_column": {
      "latitude": "29.95147381954102",
      "longitude": "-90.12203079346006"
    }
  },
  {
    "service_request": "2026-1281698",
    "request_type": "Abandoned Vehicles",
    "request_reason": "Abandoned/Junk Vehicles",
    "date_created": "2026-05-15T12:13:40.000",
    "date_modified": "2026-05-15T12:13:42.000",
    "request_status": "Pending",
    "responsible_agency": "Department of Public Works",
    "final_address": "8627 Plum St",
    "address_councildis": "A",
    "status": "Pending",
    "rowid": "1281698",
    "final_x": "3660741.26624",
    "final_y": "530013.860865",
    "longitude": "-90.13366908163214",
    "latitude": "29.951968243573393",
    "geocoded_column": {
      "latitude": "29.951968243573393",
      "longitude": "-90.13366908163214"
    }
  },
  {
    "service_request": "2026-1281696",
    "request_type": "Trash/Recycling",
    "request_reason": "Order Recycling Cart",
    "date_created": "2026-05-15T12:12:54.000",
    "date_modified": "2026-05-15T12:12:59.000",
    "request_status": "Pending",
    "responsible_agency": "Department of Sanitation",
    "final_address": "3669 Gentilly Blvd",
    "address_councildis": "D",
    "status": "Pending",
    "rowid": "1281696",
    "final_x": "3686679.63017",
    "final_y": "548979.288787",
    "longitude": "-90.05109802788117",
    "latitude": "30.00334428313437",
    "geocoded_column": {
      "latitude": "30.00334428313437",
      "longitude": "-90.05109802788117"
    }
  },
  {
    "service_request": "2026-1281695",
    "request_type": "Safety & Permits",
    "request_reason": "Zoning Enforcement",
    "date_created": "2026-05-15T12:11:41.000",
    "date_modified": "2026-05-15T14:59:34.000",
    "case_close_date": "2026-05-15T09:59:33.000",
    "request_status": "Closed",
    "responsible_agency": "Safety and Permits",
    "final_address": "5748 W Louis Prima Dr",
    "address_councildis": "E",
    "status": "Resolved",
    "rowid": "1281695",
    "final_x": "3715737.43295",
    "final_y": "562031.215199",
    "longitude": "-89.9588063715821",
    "latitude": "30.038305820679227",
    "geocoded_column": {
      "latitude": "30.038305820679227",
      "longitude": "-89.9588063715821"
    }
  },
  {
    "service_request": "2026-1281694",
    "request_type": "Trash/Recycling",
    "request_reason": "Request a Large Item Pick Up",
    "date_created": "2026-05-15T12:08:46.000",
    "date_modified": "2026-05-15T14:46:27.000",
    "request_status": "Pending",
    "responsible_agency": "Department of Sanitation",
    "final_address": "529 S Solomon St",
    "address_councildis": "A",
    "status": "Assigned to Contractor",
    "contractor": "IV Waste",
    "rowid": "1281694",
    "final_x": "3669448.87924",
    "final_y": "537278.234888",
    "longitude": "-90.10592876498086",
    "latitude": "29.971689313734704",
    "geocoded_column": {
      "latitude": "29.971689313734704",
      "longitude": "-90.10592876498086"
    }
  },
  {
    "service_request": "2026-1281693",
    "request_type": "Trash/Recycling",
    "request_reason": "Replace Trash Cart",
    "date_created": "2026-05-15T11:56:55.000",
    "date_modified": "2026-05-15T11:56:56.000",
    "request_status": "Pending",
    "responsible_agency": "Department of Sanitation",
    "final_address": "710 Barracks St",
    "address_councildis": "C",
    "status": "Assigned to Contractor",
    "contractor": "IV Waste",
    "rowid": "1281693",
    "final_x": "3683772.93916",
    "final_y": "534232.183621",
    "longitude": "-90.060798097985",
    "latitude": "29.962884051510976",
    "geocoded_column": {
      "latitude": "29.962884051510976",
      "longitude": "-90.060798097985"
    }
  },
  {
    "service_request": "2026-1281692",
    "request_type": "Trash/Recycling",
    "request_reason": "Illegal Dumping",
    "date_created": "2026-05-15T11:56:25.000",
    "date_modified": "2026-05-15T11:56:27.000",
    "request_status": "Pending",
    "responsible_agency": "Department of Sanitation",
    "final_address": "9100 BLK Morrison Rd",
    "address_councildis": "E",
    "status": "Pending",
    "rowid": "1281692",
    "final_x": "3706260.96408",
    "final_y": "562227.928809",
    "longitude": "-89.98874695033696",
    "latitude": "30.039155870873063",
    "geocoded_column": {
      "latitude": "30.039155870873063",
      "longitude": "-89.98874695033696"
    }
  },
  {
    "service_request": "2026-1281691",
    "request_type": "Trash/Recycling",
    "request_reason": "Request a Large Item Pick Up",
    "date_created": "2026-05-15T11:56:23.000",
    "date_modified": "2026-05-15T11:56:25.000",
    "request_status": "Pending",
    "responsible_agency": "Department of Sanitation",
    "final_address": "11294 Waverly Dr",
    "address_councildis": "E",
    "status": "Assigned to Contractor",
    "contractor": "Waste Pro",
    "rowid": "1281691",
    "final_x": "3717864.78553",
    "final_y": "560389.857758",
    "longitude": "-89.95214598687181",
    "latitude": "30.033722411784836",
    "geocoded_column": {
      "latitude": "30.033722411784836",
      "longitude": "-89.95214598687181"
    }
  },
  {
    "service_request": "2026-1281690",
    "request_type": "Streetlights",
    "request_reason": "Streetlight Outage/Malfunction",
    "date_created": "2026-05-15T11:53:31.000",
    "date_modified": "2026-05-15T11:53:33.000",
    "request_status": "Pending",
    "responsible_agency": "Department of Public Works",
    "final_address": "2223 Laurel St",
    "address_councildis": "B",
    "status": "Pending",
    "rowid": "1281690",
    "final_x": "3679103.94568",
    "final_y": "521382.760185",
    "longitude": "-90.07598744601819",
    "latitude": "29.927694170070517",
    "geocoded_column": {
      "latitude": "29.927694170070517",
      "longitude": "-90.07598744601819"
    }
  },
  {
    "service_request": "2026-1281689",
    "request_type": "Roads and Streets",
    "request_reason": "Pothole",
    "date_created": "2026-05-15T11:52:18.000",
    "date_modified": "2026-05-15T11:52:20.000",
    "request_status": "Pending",
    "responsible_agency": "Department of Public Works",
    "final_address": "N CLAIBORNE AVE & FRANKLIN AVE",
    "address_councildis": "D",
    "status": "Pending",
    "rowid": "1281689",
    "final_x": "3687597.2",
    "final_y": "538335.68",
    "longitude": "-90.04857630321644",
    "latitude": "29.974049898372236",
    "geocoded_column": {
      "latitude": "29.974049898372236",
      "longitude": "-90.04857630321644"
    }
  },
  {
    "service_request": "2026-1281688",
    "request_type": "Trash/Recycling",
    "request_reason": "Replace Trash Cart",
    "date_created": "2026-05-15T11:47:46.000",
    "date_modified": "2026-05-15T11:47:54.000",
    "request_status": "Pending",
    "responsible_agency": "Department of Sanitation",
    "final_address": "816 Fourth St",
    "address_councildis": "B",
    "status": "Assigned to Contractor",
    "contractor": "IV Waste",
    "rowid": "1281688",
    "final_x": "3677802.95662",
    "final_y": "520177.88108",
    "longitude": "-90.08013595738797",
    "latitude": "29.924420334251316",
    "geocoded_column": {
      "latitude": "29.924420334251316",
      "longitude": "-90.08013595738797"
    }
  },
  {
    "service_request": "2026-1281687",
    "request_type": "Trash/Recycling",
    "request_reason": "Request a Large Item Pick Up",
    "date_created": "2026-05-15T11:44:45.000",
    "date_modified": "2026-05-15T11:44:47.000",
    "request_status": "Pending",
    "responsible_agency": "Department of Sanitation",
    "final_address": "1915 Ellen Park Pl",
    "address_councildis": "C",
    "status": "Assigned to Contractor",
    "contractor": "Richards Disposal",
    "rowid": "1281687",
    "final_x": "3702872.5091",
    "final_y": "523848.383099",
    "longitude": "-90.00086582197099",
    "latitude": "29.93373522020165",
    "geocoded_column": {
      "latitude": "29.93373522020165",
      "longitude": "-90.00086582197099"
    }
  },
  {
    "service_request": "2026-1281686",
    "request_type": "Trash/Recycling",
    "request_reason": "Request a Large Item Pick Up",
    "date_created": "2026-05-15T11:37:09.000",
    "date_modified": "2026-05-15T11:37:11.000",
    "request_status": "Pending",
    "responsible_agency": "Department of Sanitation",
    "final_address": "5741 Pembrook Dr",
    "address_councildis": "C",
    "status": "Assigned to Contractor",
    "contractor": "Richards Disposal",
    "rowid": "1281686",
    "final_x": "3704889.75447",
    "final_y": "520716.594361",
    "longitude": "-89.99461303851885",
    "latitude": "29.925059239915257",
    "geocoded_column": {
      "latitude": "29.925059239915257",
      "longitude": "-89.99461303851885"
    }
  },
  {
    "service_request": "2026-1281685",
    "request_type": "Trash/Recycling",
    "request_reason": "Request a Large Item Pick Up",
    "date_created": "2026-05-15T11:35:02.000",
    "date_modified": "2026-05-15T14:52:19.000",
    "request_status": "Pending",
    "responsible_agency": "Department of Sanitation",
    "final_address": "3516 Camphor St",
    "address_councildis": "A",
    "status": "Assigned to Contractor",
    "contractor": "IV Waste",
    "rowid": "1281685",
    "final_x": "3663741.27015",
    "final_y": "538059.100105",
    "longitude": "-90.12392831791504",
    "latitude": "29.974003311157514",
    "geocoded_column": {
      "latitude": "29.974003311157514",
      "longitude": "-90.12392831791504"
    }
  },
  {
    "service_request": "2026-1281684",
    "request_type": "Streetlights",
    "request_reason": "Streetlight Outage/Malfunction",
    "date_created": "2026-05-15T11:33:46.000",
    "date_modified": "2026-05-15T11:33:47.000",
    "request_status": "Pending",
    "responsible_agency": "Department of Public Works",
    "final_address": "828 Gallier St",
    "address_councildis": "C",
    "status": "Pending",
    "rowid": "1281684",
    "final_x": "3690209.55216",
    "final_y": "534735.999558",
    "longitude": "-90.04045420418849",
    "latitude": "29.964071245575305",
    "geocoded_column": {
      "latitude": "29.964071245575305",
      "longitude": "-90.04045420418849"
    }
  },
  {
    "service_request": "2026-1281683",
    "request_type": "Abandoned Vehicles",
    "request_reason": "Abandoned/Junk Vehicles",
    "date_created": "2026-05-15T11:32:33.000",
    "date_modified": "2026-05-15T11:32:36.000",
    "request_status": "Pending",
    "responsible_agency": "Department of Public Works",
    "final_address": "1740 Shirley Dr",
    "address_councildis": "C",
    "status": "Pending",
    "rowid": "1281683",
    "final_x": "3693061.86845",
    "final_y": "523660.007483",
    "longitude": "-90.03184416201805",
    "latitude": "29.933527302233898",
    "geocoded_column": {
      "latitude": "29.933527302233898",
      "longitude": "-90.03184416201805"
    }
  },
  {
    "service_request": "2026-1281682",
    "request_type": "Trash/Recycling",
    "request_reason": "Order Second Trash Cart",
    "date_created": "2026-05-15T11:28:29.000",
    "date_modified": "2026-05-15T11:28:32.000",
    "request_status": "Pending",
    "responsible_agency": "Department of Sanitation",
    "final_address": "2034 Chippewa St",
    "address_councildis": "B",
    "status": "Assigned to Contractor",
    "contractor": "IV Waste",
    "rowid": "1281682",
    "final_x": "3680266.50728",
    "final_y": "521252.376185",
    "longitude": "-90.07232204829299",
    "latitude": "29.92730052817962",
    "geocoded_column": {
      "latitude": "29.92730052817962",
      "longitude": "-90.07232204829299"
    }
  },
  {
    "service_request": "2026-1281681",
    "request_type": "Trash/Recycling",
    "request_reason": "Request a Large Item Pick Up",
    "date_created": "2026-05-15T11:25:25.000",
    "date_modified": "2026-05-15T11:25:36.000",
    "request_status": "Pending",
    "responsible_agency": "Department of Sanitation",
    "final_address": "8001 Sheephead St",
    "address_councildis": "E",
    "status": "Assigned to Contractor",
    "contractor": "Waste Pro",
    "rowid": "1281681",
    "final_x": "3699302.17956",
    "final_y": "561423.32067",
    "longitude": "-90.0107679347218",
    "latitude": "30.037166203437682",
    "geocoded_column": {
      "latitude": "30.037166203437682",
      "longitude": "-90.0107679347218"
    }
  },
  {
    "service_request": "2026-1281680",
    "request_type": "Trash/Recycling",
    "request_reason": "Replace Recycling Cart",
    "date_created": "2026-05-15T11:17:05.000",
    "date_modified": "2026-05-15T11:17:07.000",
    "request_status": "Pending",
    "responsible_agency": "Department of Sanitation",
    "final_address": "1315 Louisiana Ave",
    "address_councildis": "B",
    "status": "Pending",
    "rowid": "1281680",
    "final_x": "3674767.76833",
    "final_y": "520471.499256",
    "longitude": "-90.08970695888863",
    "latitude": "29.925318617923935",
    "geocoded_column": {
      "latitude": "29.925318617923935",
      "longitude": "-90.08970695888863"
    }
  },
  {
    "service_request": "2026-1281679",
    "request_type": "Roads and Streets",
    "request_reason": "Ditch and Culvert Maintenance",
    "date_created": "2026-05-15T11:15:21.000",
    "date_modified": "2026-05-15T11:15:24.000",
    "request_status": "Pending",
    "responsible_agency": "Department of Public Works",
    "final_address": "6600 Belgrade St",
    "address_councildis": "C",
    "status": "Pending",
    "rowid": "1281679",
    "final_x": "3708694.84491",
    "final_y": "520188.825528",
    "longitude": "-89.98262134611504",
    "latitude": "29.92348527325995",
    "geocoded_column": {
      "latitude": "29.92348527325995",
      "longitude": "-89.98262134611504"
    }
  },
  {
    "service_request": "2026-1281678",
    "request_type": "Roads and Streets",
    "request_reason": "Ditch and Culvert Maintenance",
    "date_created": "2026-05-15T11:15:20.000",
    "date_modified": "2026-05-15T11:15:23.000",
    "request_status": "Pending",
    "responsible_agency": "Department of Public Works",
    "final_address": "8007 Drum St",
    "address_councildis": "E",
    "status": "Pending",
    "rowid": "1281678",
    "final_x": "3699948.6497",
    "final_y": "561736.530335",
    "longitude": "-90.00871351357868",
    "latitude": "30.038006875234508",
    "geocoded_column": {
      "latitude": "30.038006875234508",
      "longitude": "-90.00871351357868"
    }
  },